#------------------------------------------------------------------------------
# Created by    : vladimir.rabinovich
# Created on    : 09/19/2023 17:20:39
#------------------------------------------------------------------------------
~Version Information Section
VERS.           2.0     :   CWLS log ASCII Standard - VERSION 2.0
WRAP.           NO      :   One line per depth step
~Well Information Section
#MNEM       .UNIT                                         VALUE :DESCRIPTION
#------------------------------------------------------------------------------
STRT        .FT                                             523 :START DEPTH
STOP        .FT                                           11863 :STOP DEPTH
STEP        .FT                                             0.5 :STEP      
NULL        .                                           -999.25 :NULL      
COMP        .                                      SHELL OIL CO :COMPANY   
WELL        .                                OCS 00727 ST00BP00 :WELL      
FLD         .                                           WILDCAT :FIELD     
LOC         .                                                   :LOCATION  
CNTY        .                             GALVESTON LARGE BLOCK :LOCATION  
STAT        .                                             TEXAS :STATE     
CTRY        .                                     UNITED STATES :COUNTRY   
SRVC        .                                                   :SERVICE COMPANY
DATE        .                             9/13/2023 11:19:42 AM :LOG DATE  
API         .                                    42706000240000 :API NUMBER
UWI         .                                    42706000240000 :UNIQUE WELL ID
XCOORD      .                                  977080.798970248 :SURFACE X 
YCOORD      .                                   10388448.113324 :SURFACE Y 
LAT         .                                         28.610486 :LATITUDE  
LON         .                                        -95.067834 :LONGITUDE 
ELEV        .FT                                              76 :ELEVATION VALUE
ELEV_TYPE   .                                                KB :ELEVATION REFERENCE TYPE
~Curve Information Section
#MNEM       .UNIT                                      API CODE :CURVE DESCRIPTION
#------------------------------------------------------------------------------
DEPT        .FT                                                 :DEPTH     
ASN         .OHMM                                               :          
ILD         .OHMM                                               :          
LN          .OHMM                                               :          
SP          .MV                                                 :          
SP_NORM     .MV                                                 :SP Normalized
VSH_SP      .V/V                                                :Volume of Shale from SP
~A        DEPTH            ASN            ILD             LN             SP        SP_NORM         VSH_SP
# ...
      1283.0000         1.2469        -999.25         1.0434       -67.5271      -20.21775     0.08486884
      1283.5000         1.2508        -999.25         1.0486       -67.5719      -20.26544     0.08259801
      1284.0000         1.2585        -999.25         1.0537       -67.6255      -20.32193     0.07990792
      1284.5000         1.2665        -999.25         1.0589       -67.6951      -20.39442     0.07645635
      1285.0000         1.2746        -999.25         1.0634       -67.7646      -20.46681     0.07300913
      1285.5000         1.2826        -999.25         1.0551       -67.8344      -20.53949     0.06954811
      1286.0000         1.2936        -999.25         1.0468       -67.9039      -20.61188      0.0661009
      1286.5000         1.3065        -999.25         1.0386       -67.8113      -20.52217      0.0703728
      1287.0000         1.3195        -999.25         1.0335       -67.6539      -20.36766     0.07773063
      1287.5000         1.3288        -999.25         1.0284       -67.4205      -20.13715     0.08870734
      1288.0000         1.3343        -999.25         1.0233       -66.9839      -19.70343      0.1093603
      1288.5000         1.3388        -999.25         1.0182       -66.5474      -19.26982      0.1300087
      1289.0000         1.2959        -999.25         1.0155       -66.1108      -18.83611      0.1506616
      1289.5000         1.2216        -999.25         1.0135        -63.159      -15.88719      0.2910861
      1290.0000         1.1785        -999.25         1.0341       -58.3045      -11.03558      0.5221152
      1290.5000         1.1571        -999.25          1.055        -55.411      -8.144966      0.6597635
      1291.0000         1.1426        -999.25         1.0759       -53.6771      -6.413956      0.7421926
      1291.5000         1.1641        -999.25         1.0969       -52.2284      -4.968143      0.8110408
      1292.0000         1.1948        -999.25         1.1184       -51.9019      -4.644531      0.8264509
      1292.5000         1.2231        -999.25         1.1455       -51.5754      -4.320919       0.841861
      1293.0000         1.2482        -999.25         1.1727       -52.0864      -4.834805      0.8173903
      1293.5000         1.2806        -999.25          1.192        -52.962      -5.713295      0.7755574
      1294.0000         1.3781        -999.25         1.1854       -53.8693      -6.623482      0.7322152
      1294.5000         1.3936        -999.25         1.1787       -54.8372      -7.594265      0.6859874
      1295.0000         1.4092        -999.25          1.172       -56.1276      -8.887554      0.6244022
      1295.5000         1.4247        -999.25         1.1653       -57.3843      -10.14714      0.5644219
      1296.0000         1.4426        -999.25         1.1583       -58.5364      -11.30213      0.5094225
      1296.5000         1.4614        -999.25         1.1507       -60.3887      -13.15731      0.4210803
      1297.0000         1.4803        -999.25          1.143       -61.9854       -14.7569      0.3449093
      1297.5000         1.4997        -999.25         1.1354       -63.4785      -16.25289      0.2736718
      1298.0000         1.5196        -999.25         1.1271       -64.2408      -17.01808      0.2372344
      1298.5000         1.5395        -999.25         1.1153       -64.8221      -17.60226       0.209416
      1299.0000         1.5647        -999.25         1.1034       -65.2373      -18.02035      0.1895071
      1299.5000         1.5912        -999.25         1.0916       -64.4183      -17.20424      0.2283696
      1300.0000         1.6315        -999.25         1.1037         -63.14      -15.92883      0.2891034
      1300.5000         1.6821        -999.25         1.1355       -61.8616      -14.65332      0.3498421
      1301.0000         1.7171        -999.25         1.1673        -61.171       -13.9656      0.3825904
      1301.5000         1.7471        -999.25         1.1991       -60.6984      -13.49589      0.4049577
      1302.0000         1.7066        -999.25         1.2308       -60.2258      -13.02618      0.4273249
      1302.5000         1.6604        -999.25         1.2626       -59.7495      -12.55276      0.4498684
      1303.0000         1.6142        -999.25         1.2944        -58.993      -11.79915      0.4857546
      1303.5000         1.5704        -999.25         1.3262       -58.2366      -11.04564      0.5216362
      1304.0000         1.5299        -999.25          1.358       -57.4802      -10.29213      0.5575176
      1304.5000         1.4895        -999.25         1.3803       -56.3227      -9.137516      0.6124992
      1305.0000         1.4618        -999.25         1.3944       -54.9648      -7.782505      0.6770236
      1305.5000         1.4341        -999.25         1.3976       -54.0021      -6.822693      0.7227289
      1306.0000         1.4276        -999.25         1.3753       -53.4097      -6.233177      0.7508011
      1306.5000         1.4236        -999.25         1.3531       -52.8248      -5.651165      0.7785159
      1307.0000         1.4195        -999.25         1.3436       -52.5475      -5.376751      0.7915833
      1307.5000         1.4213        -999.25         1.3354       -52.2701      -5.102238      0.8046554
      1308.0000         1.4237        -999.25         1.3272       -51.9928      -4.827827      0.8177225
      1308.5000         1.4262        -999.25          1.319       -51.7155      -4.553413      0.8307899
      1309.0000         1.4286        -999.25         1.3108       -51.1755        -4.0163      0.8563666
      1309.5000         1.4311        -999.25         1.3027       -50.5372       -3.38089      0.8866243
      1310.0000         1.4312        -999.25         1.2945       -49.5524      -2.398975      0.9333822
      1310.5000         1.4279        -999.25         1.2863       -48.3808      -1.230263      0.9890351
      1311.0000         1.4246        -999.25         1.2781       -47.2239    -0.07625198              1
      1311.5000         1.4177        -999.25         1.2699       -46.5714      0.5733604              1
      1312.0000         1.4107        -999.25         1.2617       -46.2685      0.8733711              1
      1312.5000         1.4037        -999.25         1.2536       -46.6536      0.4853859              1
      1313.0000         1.3967        -999.25         1.2469       -47.0388     0.09729767              1
      1313.5000         1.3897        -999.25         1.2457       -47.3324     -0.1991882              1
      1314.0000         1.3838        -999.25         1.2446       -47.5739      -0.443573              1
      1314.5000          1.378        -999.25         1.2434       -47.6249     -0.4974632              1
      1315.0000         1.3721        -999.25         1.2422       -47.4304      -0.305851              1
      1315.5000         1.3663        -999.25          1.241        -47.236     -0.1143379              1
      1316.0000         1.3604        -999.25         1.2399         -47.03     0.08877563              1
      1316.5000         1.3545        -999.25         1.2387       -46.8052       0.310688              1
      1317.0000         1.3525        -999.25         1.2375       -46.5804      0.5326004              1
      1317.5000         1.3512        -999.25         1.2363       -46.3556      0.7545128              1
      1318.0000         1.3499        -999.25         1.2352       -46.1309      0.9763222              1
      1318.5000         1.3486        -999.25          1.234       -45.9061       1.198235              1
      1319.0000         1.3457        -999.25         1.2328       -45.9056       1.195847              1
      1319.5000         1.3429        -999.25         1.2313       -46.1713      0.9272652              1
      1320.0000         1.3401        -999.25         1.2289       -46.4129      0.6827774              1
      1320.5000         1.3369        -999.25         1.2266       -46.6264      0.4663887              1
