#------------------------------------------------------------------------------
# Created by    : vladimir.rabinovich
# Created on    : 09/19/2023 17:20:39
#------------------------------------------------------------------------------
~Version Information Section
VERS.           2.0     :   CWLS log ASCII Standard - VERSION 2.0
WRAP.           NO      :   One line per depth step
~Well Information Section
#MNEM       .UNIT                                         VALUE :DESCRIPTION
#------------------------------------------------------------------------------
STRT        .FT                                             502 :START DEPTH
STOP        .FT                                           11475 :STOP DEPTH
STEP        .FT                                             0.5 :STEP      
NULL        .                                           -999.25 :NULL      
COMP        .                                      SHELL OIL CO :COMPANY   
WELL        .                                OCS 00730 ST00BP00 :WELL      
FLD         .                                           WILDCAT :FIELD     
LOC         .                                                   :LOCATION  
CNTY        .                             GALVESTON LARGE BLOCK :LOCATION  
STAT        .                                             TEXAS :STATE     
CTRY        .                                     UNITED STATES :COUNTRY   
SRVC        .                                                   :SERVICE COMPANY
DATE        .                             9/13/2023 11:19:42 AM :LOG DATE  
API         .                                    42706000250000 :API NUMBER
UWI         .                                    42706000250000 :UNIQUE WELL ID
XCOORD      .                                  958538.282477158 :SURFACE X 
YCOORD      .                                   10357465.718335 :SURFACE Y 
LAT         .                                         28.524406 :LATITUDE  
LON         .                                        -95.123893 :LONGITUDE 
ELEV        .FT                                              80 :ELEVATION VALUE
ELEV_TYPE   .                                                KB :ELEVATION REFERENCE TYPE
~Curve Information Section
#MNEM       .UNIT                                      API CODE :CURVE DESCRIPTION
#------------------------------------------------------------------------------
DEPT        .FT                                                 :DEPTH     
ASN         .OHMM                                               :          
CILD        .MMHO                                               :          
ILD         .OHMM                                               :          
LAT         .OHMM                                               :          
LN          .OHMM                                               :          
SP          .MV                                                 :          
SP_NORM     .MV                                                 :SP Normalized
VSH_SP      .V/V                                                :Volume of Shale from SP
~A        DEPTH            ASN           CILD            ILD            LAT             LN             SP        SP_NORM         VSH_SP
# ...
      4868.0000         0.5841        -999.25        -999.25         0.7827         0.3314       -44.8321      -1.548355      0.9828639
      4868.5000         0.5884        -999.25        -999.25         0.7774         0.3321       -44.8314      -1.546932      0.9829084
      4869.0000          0.599        -999.25        -999.25         0.7721         0.3329       -44.8156      -1.530411      0.9834247
      4869.5000         0.6096        -999.25        -999.25         0.7668         0.3337        -44.738      -1.452084      0.9858724
      4870.0000         0.6201        -999.25        -999.25         0.7569         0.3344       -44.5771      -1.290462       0.990923
      4870.5000         0.6307        -999.25        -999.25         0.7468         0.3352       -44.3967      -1.109341      0.9965831
      4871.0000         0.6413        -999.25        -999.25         0.7366         0.3359       -44.2164     -0.9283142              1
      4871.5000         0.6539        -999.25        -999.25         0.7264         0.3357       -44.0363     -0.7474937              1
      4872.0000         0.6635        -999.25        -999.25         0.7162          0.335       -43.8559     -0.5663681              1
      4872.5000         0.6511        -999.25        -999.25          0.706         0.3343       -43.6756     -0.3853455              1
      4873.0000         0.6387        -999.25        -999.25         0.6958         0.3337       -43.4872     -0.1962242              1
      4873.5000         0.6281        -999.25        -999.25         0.6856          0.333       -43.2164     0.07530212              1
      4874.0000         0.6202        -999.25        -999.25         0.6755         0.3331       -42.9456      0.3468246              1
      4874.5000         0.6189        -999.25        -999.25         0.6653         0.3376       -42.6749       0.618248              1
      4875.0000         0.6222        -999.25        -999.25         0.6556         0.3386       -42.9687      0.3251686              1
      4875.5000         0.6256        -999.25        -999.25         0.6461         0.3367       -43.3033   -0.008705139              1
      4876.0000         0.6289        -999.25        -999.25         0.6366         0.3349       -43.6381     -0.3427811              1
      4876.5000         0.6323        -999.25        -999.25         0.6299          0.333       -43.9537     -0.6576614              1
      4877.0000         0.6356        -999.25        -999.25         0.6287         0.3312       -44.1309      -0.834137              1
      4877.5000         0.6367        -999.25        -999.25         0.6275         0.3293        -44.308      -1.010513      0.9996715
      4878.0000         0.6347        -999.25        -999.25         0.6263         0.3275       -44.4851       -1.18689      0.9941597
      4878.5000         0.6327        -999.25        -999.25         0.6251         0.3256       -44.6622      -1.363266      0.9886479
      4879.0000         0.6307        -999.25        -999.25          0.624         0.3244       -44.8392      -1.539543      0.9831393
      4879.5000         0.6287        -999.25        -999.25         0.6228         0.3233       -44.7562      -1.455818      0.9857557
      4880.0000          0.627        -999.25        -999.25         0.6216         0.3222        -44.653      -1.351898      0.9890032
      4880.5000         0.6253        -999.25        -999.25         0.6204         0.3212       -44.5098      -1.207973      0.9935008
      4881.0000         0.6237        -999.25        -999.25         0.6193         0.3201        -44.148     -0.8454475              1
      4881.5000         0.6221        -999.25        -999.25          0.622          0.319       -43.7863     -0.4830284              1
      4882.0000         0.6205        -999.25        -999.25         0.6251         0.3179       -43.4245     -0.1205025              1
      4882.5000         0.6188        -999.25        -999.25         0.6281         0.3169       -43.0627      0.2420235              1
      4883.0000         0.6172        -999.25        -999.25         0.6312         0.3158       -42.7009      0.6045418              1
      4883.5000         0.6156        -999.25        -999.25         0.6343         0.3147       -42.5603      0.7458687              1
      4884.0000          0.614        -999.25        -999.25         0.6373         0.3137       -42.6896      0.6172867              1
      4884.5000         0.6123        -999.25        -999.25         0.6404         0.3126       -42.8188      0.4888115              1
      4885.0000         0.6107        -999.25        -999.25         0.6434         0.3115        -42.948      0.3603363              1
      4885.5000         0.6091        -999.25        -999.25         0.6465         0.3106       -43.0773      0.2317581              1
      4886.0000         0.6075        -999.25        -999.25         0.6495         0.3101       -43.2064      0.1033821              1
      4886.5000         0.6058        -999.25        -999.25         0.6526         0.3097       -43.3357    -0.02519608              1
      4887.0000         0.6042        -999.25        -999.25         0.6557         0.3093       -43.4758     -0.1645699              1
      4887.5000         0.6018        -999.25        -999.25         0.6587         0.3088       -43.7566     -0.4446449              1
      4888.0000         0.5983        -999.25        -999.25         0.6618         0.3084       -44.0374     -0.7247238              1
      4888.5000         0.5949        -999.25        -999.25         0.6648         0.3079       -44.3184      -1.005001      0.9998437
      4889.0000         0.5914        -999.25        -999.25         0.6679         0.3075       -44.1675     -0.8533783              1
      4889.5000          0.588        -999.25        -999.25         0.6709          0.307       -43.7999      -0.485054              1
      4890.0000         0.5845        -999.25        -999.25          0.674         0.3066       -43.4323     -0.1167297              1
      4890.5000         0.5811        -999.25        -999.25         0.6771         0.3062       -43.0646      0.2516899              1
      4891.0000         0.5804        -999.25        -999.25         0.6801         0.3057       -42.6971       0.619915              1
      4891.5000         0.5802        -999.25        -999.25          0.683         0.3053       -42.3292      0.9885368              1
      4892.0000         0.5801        -999.25        -999.25         0.6852         0.3048        -42.019       1.299461              1
      4892.5000           0.58        -999.25        -999.25         0.6873         0.3044        -41.753       1.566189              1
      4893.0000         0.5799        -999.25        -999.25         0.6895         0.3039       -41.4869       1.833008              1
      4893.5000         0.5798        -999.25        -999.25         0.6916         0.3035       -41.2208       2.099834              1
      4894.0000         0.5842        -999.25        -999.25         0.6938         0.3063        -41.637       1.684353              1
      4894.5000         0.5912        -999.25        -999.25         0.6959         0.3135       -42.2007        1.12138              1
      4895.0000         0.5982        -999.25        -999.25          0.698         0.3207       -42.7645      0.5583038              1
      4895.5000         0.6052        -999.25        -999.25         0.7002         0.3279       -43.3282   -0.004676819              1
      4896.0000         0.6122        -999.25        -999.25         0.7023         0.3351       -43.8914     -0.5671501              1
      4896.5000         0.6192        -999.25        -999.25         0.7045         0.3424       -44.3006     -0.9756279              1
      4897.0000         0.6262        -999.25        -999.25         0.7066         0.3496       -44.7062      -1.380505      0.9881092
