#------------------------------------------------------------------------------
# Created by    : vladimir.rabinovich
# Created on    : 09/19/2023 17:20:38
#------------------------------------------------------------------------------
~Version Information Section
VERS.           2.0     :   CWLS log ASCII Standard - VERSION 2.0
WRAP.           NO      :   One line per depth step
~Well Information Section
#MNEM       .UNIT                                         VALUE :DESCRIPTION
#------------------------------------------------------------------------------
STRT        .FT                                             510 :START DEPTH
STOP        .FT                                            8711 :STOP DEPTH
STEP        .FT                                             0.5 :STEP      
NULL        .                                           -999.25 :NULL      
COMP        .                                      SHELL OIL CO :COMPANY   
WELL        .                                OCS 00708 ST00BP00 :WELL      
FLD         .                                           WILDCAT :FIELD     
LOC         .                                                   :LOCATION  
CNTY        .                             GALVESTON LARGE BLOCK :LOCATION  
STAT        .                                             TEXAS :STATE     
CTRY        .                                     UNITED STATES :COUNTRY   
SRVC        .                                                   :SERVICE COMPANY
DATE        .                             9/13/2023 11:19:25 AM :LOG DATE  
API         .                                    42706000300000 :API NUMBER
UWI         .                                    42706000300000 :UNIQUE WELL ID
XCOORD      .                                  1082576.09526943 :SURFACE X 
YCOORD      .                                  10493698.2734572 :SURFACE Y 
LAT         .                                         28.904546 :LATITUDE  
LON         .                                        -94.743912 :LONGITUDE 
ELEV        .FT                                              92 :ELEVATION VALUE
ELEV_TYPE   .                                                KB :ELEVATION REFERENCE TYPE
~Curve Information Section
#MNEM       .UNIT                                      API CODE :CURVE DESCRIPTION
#------------------------------------------------------------------------------
DEPT        .FT                                                 :DEPTH     
ASN         .OHMM                                               :          
CILD        .MMHO                                               :          
DT          .US/F                                               :          
ILD         .OHMM                                               :          
SP          .MV                                                 :          
SP_NORM     .MV                                                 :SP Normalized
VSH_SP      .V/V                                                :Volume of Shale from SP
~A        DEPTH            ASN           CILD             DT            ILD             SP        SP_NORM         VSH_SP
# ...
      1615.5000          1.053       886.4219        -999.25         1.2548       -90.0913      -3.695412      0.8940368
      1616.0000         1.0324       914.0059        -999.25         1.2314       -90.5067      -4.116776      0.8677015
      1616.5000         1.0118       945.3994        -999.25         1.2079       -90.9219      -4.537941      0.8413787
      1617.0000         0.9912       967.9053        -999.25         1.1845       -91.3373      -4.959312       0.815043
      1617.5000         0.9742       989.6836        -999.25          1.161       -91.7114      -5.339378      0.7912889
      1618.0000         0.9579       1013.501        -999.25         1.1427       -92.0798      -5.713745      0.7678909
      1618.5000         0.9416       1044.457        -999.25         1.1258       -92.4126      -6.052505      0.7467184
      1619.0000         0.9265       1077.465        -999.25          1.109       -92.5856      -6.231476      0.7355328
      1619.5000         0.9134       1096.979        -999.25         1.0921       -92.7585      -6.410339      0.7243538
      1620.0000         0.9002       1111.291        -999.25         1.0752       -92.9315       -6.58931      0.7131681
      1620.5000         0.8905       1116.598        -999.25         1.0583       -93.0901      -6.753876      0.7028828
      1621.0000         0.8829       1121.852        -999.25          1.042       -93.1379       -6.80764      0.6995225
      1621.5000         0.8773       1127.104        -999.25         1.0258       -93.1859      -6.861603      0.6961498
      1622.0000         0.8753       1131.908        -999.25         1.0109       -93.1189      -6.800568      0.6999645
      1622.5000         0.8734       1134.719        -999.25         1.0096       -92.7892      -6.476837      0.7201977
      1623.0000         0.8714       1133.373        -999.25         1.0084       -92.4596      -6.153206      0.7404246
      1623.5000         0.8698       1131.898        -999.25         1.0161       -92.1307      -5.830269      0.7606082
      1624.0000         0.8682       1130.557        -999.25         1.0277       -91.9785      -5.684036      0.7697477
      1624.5000         0.8636        1129.76        -999.25         1.0393       -92.2316        -5.9431      0.7535563
      1625.0000         0.8563       1120.414        -999.25         1.0509       -92.4845      -6.201965      0.7373772
      1625.5000         0.8489       1097.953        -999.25         1.0624       -92.5321      -6.255531      0.7340293
      1626.0000         0.8493       1074.996        -999.25          1.074       -91.5244      -5.253799      0.7966375
      1626.5000         0.8605       1066.797        -999.25         1.0856       -90.6066      -4.341965      0.8536272
      1627.0000         0.8717       1058.596        -999.25          1.097       -90.1344      -3.875732      0.8827667
      1627.5000         0.8829       1050.396        -999.25         1.1082       -90.3176      -4.064896       0.870944
      1628.0000          0.894        1042.77        -999.25         1.1194       -90.8674      -4.620667      0.8362083
      1628.5000         0.9069       1036.021        -999.25         1.1306        -91.417      -5.176231      0.8014855
      1629.0000         0.9205       1027.426        -999.25          1.142       -91.6029      -5.368095       0.789494
      1629.5000          0.934       1017.547        -999.25         1.1536       -91.3752       -5.14637      0.8033519
      1630.0000         0.9475       998.6045        -999.25         1.1653       -91.1476      -4.924736       0.817204
      1630.5000         0.9611       976.5469        -999.25         1.1836       -90.9199      -4.703003      0.8310623
      1631.0000         0.9746        954.293        -999.25         1.2141       -90.6923      -4.481369      0.8449144
      1631.5000         0.9864       933.7656        -999.25         1.2622       -90.4646      -4.259636      0.8587728
      1632.0000         0.9977       902.7861        -999.25         1.3143       -90.2733      -4.074303      0.8703561
      1632.5000         1.0089       871.7168        -999.25         1.3665        -90.134      -3.940971      0.8786893
      1633.0000         1.0277        835.627        -999.25         1.4109       -89.9948      -3.807732      0.8870168
      1633.5000          1.063       744.3252        -999.25         1.4551       -90.0336      -3.852501      0.8842187
      1634.0000         1.1065       711.7227        -999.25         1.4969       -90.5807      -4.405571      0.8496518
      1634.5000         1.1728       698.8818        -999.25         1.5222       -90.7118      -4.542633      0.8410854
      1635.0000          1.199       687.7549        -999.25         1.5476       -90.5264      -4.363197      0.8523002
      1635.5000         1.2196       677.0957        -999.25         1.5741        -90.243      -4.085762      0.8696399
      1636.0000         1.2359       666.4365        -999.25         1.6021       -89.9597      -3.808434      0.8869729
      1636.5000         1.2242       664.0635        -999.25         1.5626       -89.6763      -3.530998      0.9043126
      1637.0000          1.211       695.0205        -999.25         1.5127       -89.3928      -3.253464      0.9216585
      1637.5000         1.2004       719.2187        -999.25         1.4627       -89.4614      -3.328033      0.9169979
      1638.0000         1.1899       737.3535        -999.25         1.4314       -89.8427      -3.715294      0.8927941
      1638.5000         1.1793       751.3662        -999.25         1.4013       -90.2239      -4.102463      0.8685961
      1639.0000         1.1687       761.2998        -999.25         1.3712       -90.4896       -4.37413      0.8516169
      1639.5000         1.1582       771.2334        -999.25         1.3702       -90.7312      -4.621696       0.836144
      1640.0000         1.1476       775.4834        -999.25         1.3741       -90.7114      -4.607864      0.8370085
      1640.5000          1.137       777.4102        -999.25          1.378       -90.6179      -4.520325      0.8424797
      1641.0000         1.1265       778.9629        -999.25         1.3818       -90.5444      -4.452797      0.8467002
      1641.5000         1.1136       780.5166        -999.25         1.3857       -90.4757       -4.39006      0.8506212
      1642.0000         1.0918       787.3311        -999.25         1.3649       -90.7626       -4.68293      0.8323169
      1642.5000         1.0622       795.5459        -999.25         1.3417       -91.2971      -5.223389      0.7985382
      1643.0000         1.0315       809.0244        -999.25         1.3108       -91.8396      -5.771858      0.7642589
      1643.5000         1.0089       829.4395        -999.25         1.2711       -92.5433      -6.481522      0.7199049
      1644.0000         0.9865       863.9834        -999.25         1.2313         -92.35      -6.294189      0.7316132
      1644.5000         0.9775       936.1865        -999.25         1.2051        -91.918      -5.868156      0.7582402
      1645.0000         0.9733        958.418        -999.25         1.1829       -91.4861      -5.442223      0.7848611
      1645.5000         0.9692        964.124        -999.25         1.1711       -91.1194       -5.08149      0.8074069
      1646.0000          0.965       966.6982        -999.25         1.1683       -90.8083      -4.776352       0.826478
      1646.5000         0.9649       968.8135        -999.25         1.1645       -90.6553      -4.629326      0.8356671
      1647.0000         0.9696       972.2588        -999.25         1.1548       -91.0807      -5.060699      0.8087063
      1647.5000          0.969       978.5479        -999.25          1.145       -91.5105       -5.49646      0.7814713
      1648.0000         0.9511       985.6846        -999.25         1.1352       -91.9688      -5.960732      0.7524543
      1648.5000         0.9333       997.6104        -999.25         1.1255       -92.4194      -6.417297      0.7239189
