#------------------------------------------------------------------------------
# Created by    : vladimir.rabinovich
# Created on    : 09/19/2023 17:20:45
#------------------------------------------------------------------------------
~Version Information Section
VERS.           2.0     :   CWLS log ASCII Standard - VERSION 2.0
WRAP.           NO      :   One line per depth step
~Well Information Section
#MNEM       .UNIT                                         VALUE :DESCRIPTION
#------------------------------------------------------------------------------
STRT        .FT                                            2010 :START DEPTH
STOP        .FT                                            7000 :STOP DEPTH
STEP        .FT                                             0.5 :STEP      
NULL        .                                           -999.25 :NULL      
COMP        .                                    TEXAS GULF INC :COMPANY   
WELL        .                                ST OF TEX TR 693-L :WELL      
FLD         .                                           WILDCAT :FIELD     
LOC         .                                                   :LOCATION  
CNTY        .                      MATAGORDA ISLAND LARGE BLOCK :LOCATION  
STAT        .                                             TEXAS :STATE     
CTRY        .                                     UNITED STATES :COUNTRY   
SRVC        .                                                   :SERVICE COMPANY
DATE        .                             9/13/2023 11:12:01 AM :LOG DATE  
API         .                                    42703300330000 :API NUMBER
UWI         .                                    42703300330000 :UNIQUE WELL ID
XCOORD      .                                  377893.250269135 :SURFACE X 
YCOORD      .                                  10151490.3803449 :SURFACE Y 
LAT         .                                        27.9187241 :LATITUDE  
LON         .                                       -96.9091122 :LONGITUDE 
ELEV        .FT                                              70 :ELEVATION VALUE
ELEV_TYPE   .                                                KB :ELEVATION REFERENCE TYPE
~Curve Information Section
#MNEM       .UNIT                                      API CODE :CURVE DESCRIPTION
#------------------------------------------------------------------------------
DEPT        .FT                                                 :DEPTH     
ASN         .OHMM                                               :          
CILD        .MMHO                                               :          
ILD         .OHMM                                               :          
SP          .MV                                                 :          
SP_NORM     .MV                                                 :SP Normalized
VSH_SP      .V/V                                                :Volume of Shale from SP
~A        DEPTH            ASN           CILD            ILD             SP        SP_NORM         VSH_SP
# ...
      4328.0000         0.9313        1840.26         0.6375       -52.1262        -3.0696      0.9842706
      4328.5000         0.9543       1722.227         0.6847       -51.6226         -2.566      0.9916764
      4329.0000         0.9884       1604.092         0.7306        -51.119        -2.0624      0.9990823
      4329.5000         1.0283       1517.438         0.7765       -50.6154        -1.5588              1
      4330.0000         1.0682       1442.307         0.8225       -50.8943        -1.8377              1
      4330.5000         1.1081       1367.176         0.8684       -51.5312        -2.4746      0.9930206
      4331.0000          1.148       1292.045         0.9144       -52.1675        -3.1109      0.9836633
      4331.5000         1.1828       1216.514         0.9442       -52.8044        -3.7478       0.974297
      4332.0000         1.2108       1129.908         0.9715       -53.4407        -4.3841      0.9649397
      4332.5000         1.2389       1043.305         0.9989       -53.9717        -4.9151      0.9571309
      4333.0000         1.2669       1001.037         0.9862       -53.4492        -4.3926      0.9648147
      4333.5000         1.2908       979.9473         0.9469       -52.9263        -3.8697      0.9725044
      4334.0000         1.2565       953.6064         0.9076       -52.4037        -3.3471      0.9801897
      4334.5000         1.1811       982.7412         0.8684       -51.8811        -2.8245       0.987875
      4335.0000         1.1089        1054.33         0.8291       -51.3585        -2.3019      0.9955603
      4335.5000         1.0569       1151.711         0.7792       -50.8359        -1.7793              1
      4336.0000         1.0247       1252.383          0.722       -50.3134        -1.2568              1
      4336.5000         0.9925       1353.057         0.6647       -50.0206         -0.964              1
      4337.0000         0.9603        1453.73         0.6074       -49.7307        -0.6741              1
      4337.5000         0.9281       1539.039         0.5501        -49.441        -0.3844              1
      4338.0000         0.9061       1621.502         0.4929       -49.5581        -0.5015              1
      4338.5000         0.8854       1703.967         0.4649       -50.6794        -1.6228              1
      4339.0000         0.8712       1786.432         0.4448       -51.8475        -2.7909      0.9883691
      4339.5000         0.8859       1855.826         0.4247       -53.0151        -3.9585      0.9711986
      4340.0000         0.8973       1920.828         0.4284       -54.1833        -5.1267      0.9540191
      4340.5000          0.902       1985.783         0.4518       -53.3531        -4.2965      0.9662279
      4341.0000         0.8939       1945.225         0.4752       -52.2682        -3.2116      0.9821823
      4341.5000         0.8858       1828.887         0.4986         -51.32        -2.2634      0.9961265
      4342.0000         0.8868        1706.66          0.522       -50.3743        -1.3177              1
      4342.5000          0.903       1584.436         0.5454       -49.4279        -0.3713              1
      4343.0000         0.9193       1540.211         0.5688       -48.5338         0.5228              1
      4343.5000         0.9355       1503.244         0.5922       -48.6224         0.4342              1
      4344.0000         0.9518       1466.252         0.6156        -48.711         0.3456              1
      4344.5000         0.9681       1429.285         0.6478       -48.7996          0.257              1
      4345.0000         0.9843       1392.318         0.6854       -48.8882         0.1684              1
      4345.5000         1.0006       1355.326         0.7231       -48.7827         0.2739              1
      4346.0000         1.0168       1318.359         0.7607       -48.3322         0.7244              1
      4346.5000         1.0338       1283.514         0.7984        -47.882         1.1746              1
      4347.0000          1.051       1250.613          0.836       -47.4315         1.6251              1
      4347.5000         1.0682       1217.688         0.8737       -46.9813         2.0753              1
      4348.0000         1.0854        1184.76         0.9081       -47.3411         1.7155              1
      4348.5000         1.0301       1171.342         0.9097       -47.7987         1.2579              1
      4349.0000         0.9729       1237.268         0.8882       -48.2563         0.8003              1
      4349.5000         0.9557       1322.975         0.8547        -48.714         0.3426              1
      4350.0000         0.9385       1408.682         0.8212       -49.1716         -0.115              1
      4350.5000         0.9213       1493.541         0.7877       -48.1858         0.8708              1
      4351.0000         0.9076       1575.805         0.7542       -47.0319         2.0247              1
      4351.5000         0.9013        1658.07         0.7207       -46.2012         2.8554              1
      4352.0000         0.8949       1731.406         0.6872       -45.7407         3.3159              1
      4352.5000         0.8883       1769.295         0.6582       -46.4988         2.5578              1
      4353.0000         0.8799        1807.16         0.6406        -47.291         1.7656              1
      4353.5000         0.8715       1845.025          0.623       -48.0826          0.974              1
      4354.0000         0.8684       1828.861         0.6054       -48.8749         0.1817              1
      4354.5000         0.8918       1791.943         0.5879       -49.4196         -0.363              1
      4355.0000         0.9152       1755.027         0.5703       -49.0974        -0.0408              1
      4355.5000         0.9386       1718.135         0.5695       -48.7755         0.2811              1
      4356.0000          0.962       1681.219         0.5701       -48.4536          0.603              1
      4356.5000         0.9854       1633.875         0.5706       -49.0526          0.004              1
      4357.0000         1.0104       1580.943         0.5754       -50.0835        -1.0269              1
      4357.5000         1.0395       1641.508         0.5868       -56.1462        -7.0896       0.925153
      4358.0000         1.0686       1754.553         0.5982       -59.0567       -10.0001      0.8823515
      4358.5000         1.0975       1864.006         0.5921       -61.7336        -12.677      0.8429853
      4359.0000         1.0984       1973.561         0.5599       -64.4104       -15.3538      0.8036206
      4359.5000          1.035       2089.699         0.5276       -67.0873       -18.0307      0.7642544
      4360.0000         0.9633        2213.52         0.4953       -69.7642       -20.7076      0.7248883
      4360.5000         0.9049       2337.641         0.4631       -74.8619       -25.8053      0.6499221
      4361.0000         0.8811       2470.242         0.4308       -80.5288       -31.4722      0.5665853
      4361.5000         0.8573        2547.84         0.3985       -68.0219       -18.9653      0.7505103
      4362.0000         0.8336        2582.59         0.3804        -61.311       -12.2544         0.8492
      4362.5000         0.8611       2472.734         0.3995       -57.7767        -8.7201       0.901175
      4363.0000         0.9071       2327.563         0.4283       -55.3583        -6.3017      0.9367397
      4363.5000         0.9531       2159.539         0.4849       -53.1039        -4.0473      0.9698926
      4364.0000         0.9991       1892.742         0.5415       -51.4399        -2.3833      0.9943632
      4364.5000          1.064        1720.93         0.5981       -50.7937        -1.7371              1
      4365.0000         1.1338       1628.686         0.6547       -52.0228        -2.9662      0.9857911
      4365.5000         1.1721       1536.395         0.7113       -53.2518        -4.1952      0.9677176
