#------------------------------------------------------------------------------
# Created by    : vladimir.rabinovich
# Created on    : 09/19/2023 17:22:44
#------------------------------------------------------------------------------
~Version Information Section
VERS.           2.0     :   CWLS log ASCII Standard - VERSION 2.0
WRAP.           NO      :   One line per depth step
~Well Information Section
#MNEM       .UNIT                                         VALUE :DESCRIPTION
#------------------------------------------------------------------------------
STRT        .FT                                            3420 :START DEPTH
STOP        .FT                                           11707 :STOP DEPTH
STEP        .FT                                             0.5 :STEP      
NULL        .                                           -999.25 :NULL      
COMP        .                        TRI-UNION DEVELOPMENT CORP :COMPANY   
WELL        .                               OCS G08154 ST00BP00 :WELL      
FLD         .                                           WILDCAT :FIELD     
LOC         .                                                   :LOCATION  
CNTY        .                           HIGH ISLAND LARGE BLOCK :LOCATION  
STAT        .                                             TEXAS :STATE     
CTRY        .                                     UNITED STATES :COUNTRY   
SRVC        .                                                   :SERVICE COMPANY
DATE        .                             9/13/2023 11:19:57 AM :LOG DATE  
API         .                                    42708403520000 :API NUMBER
UWI         .                                    42708403520000 :UNIQUE WELL ID
XCOORD      .                                  1180527.91159004 :SURFACE X 
YCOORD      .                                  10524923.1623167 :SURFACE Y 
LAT         .                                        28.9940426 :LATITUDE  
LON         .                                       -94.4389714 :LONGITUDE 
ELEV        .FT                                             100 :ELEVATION VALUE
ELEV_TYPE   .                                                KB :ELEVATION REFERENCE TYPE
~Curve Information Section
#MNEM       .UNIT                                      API CODE :CURVE DESCRIPTION
#------------------------------------------------------------------------------
DEPT        .FT                                                 :DEPTH     
DCAL        .IN                                                 :          
DPHI        .%                                                  :          
DRHO        .G/C3                                               :          
GR          .GAPI                                               :          
GR_NORM     .GAPI                                               :GammaRay Normalized
ILD         .OHMM                                               :          
ILM         .OHMM                                               :          
NPHI        .%                                                  :          
SFL         .OHMM                                               :          
SP          .MV                                                 :          
SP_NORM     .MV                                                 :SP Normalized
VSH_GR      .V/V                                                :Volume of Shale from GR
VSH_SP      .V/V                                                :Volume of Shale from SP
~A        DEPTH           DCAL           DPHI           DRHO             GR        GR_NORM            ILD            ILM           NPHI            SFL             SP        SP_NORM         VSH_GR         VSH_SP
# ...
      8949.0000         5.8803        21.9121        -0.0062        81.7677       84.49617         0.9107         0.8331        43.9606          0.778       -35.4298        -1.4675              1              1
      8949.5000         5.9372        22.0176         -0.007        79.8077       82.27222         0.9122         0.8282        43.7318         0.7788       -35.4703         -1.508              1              1
      8950.0000          5.963        21.9929        -0.0077        79.3053       81.70227         0.9138         0.8235        41.4476         0.7761       -35.4694        -1.5071              1              1
      8950.5000         5.9711        21.9942        -0.0084        81.1467       83.79197         0.9104         0.8189        38.3506         0.7793       -35.4686        -1.5063              1              1
      8951.0000         5.9489        22.0449        -0.0093        84.1351       87.18321         0.9063         0.8225        37.1296         0.7842       -35.4292        -1.4669              1              1
      8951.5000         5.9267        22.0536        -0.0103        83.2159       86.14031         0.9069          0.826        36.6811         0.7863       -35.3818        -1.4195              1              1
      8952.0000         5.9158        21.9829        -0.0112        78.3669       80.63805         0.9086         0.8186        36.7112         0.7863       -35.1334        -1.1711              1              1
      8952.5000         5.9206         22.053        -0.0122        75.8351       77.76526         0.8948         0.8129        37.7431         0.7792       -34.9485        -0.9862      0.9524523              1
      8953.0000         5.9254        22.7234        -0.0134         78.347        80.6158         0.8859         0.8096        38.9194         0.7716       -34.8076        -0.8453              1              1
      8953.5000         5.9419        23.0414        -0.0159        82.0435       84.81056         0.8885         0.8092        39.3198         0.7635       -35.2719        -1.3096              1              1
      8954.0000         5.9716        23.5955        -0.0183        83.2209       86.14678         0.8912         0.8108        39.3624         0.7391       -35.3949        -1.4326              1              1
      8954.5000         6.0013        23.1381        -0.0187        83.8525       86.86365         0.8898         0.8104        40.4962         0.7131       -34.6621        -0.6998              1              1
      8955.0000         5.9917        22.7092        -0.0158        84.2729       87.34086         0.8866         0.8097        42.8428         0.7086        -34.378        -0.4157              1              1
      8955.5000         5.9753        22.0859        -0.0141        83.9612       86.98731          0.884         0.8196        41.9598         0.7148       -34.6981        -0.7358              1              1
      8956.0000         5.9589        20.9438        -0.0129        83.4979       86.46175         0.8893           0.84        38.7258         0.7257       -34.9061        -0.9438              1              1
      8956.5000         5.9763        20.7889        -0.0119        78.8837       81.22594         0.8945         0.8712        36.1439         0.7381       -35.1204        -1.1581              1              1
      8957.0000         6.0008        20.3416         -0.011        75.8037       77.73106         0.9219         0.8867        35.2289           0.76       -35.6893         -1.727      0.9517246              1
      8957.5000         6.0254         20.338        -0.0096        75.8295       77.76049         0.9691         0.8997        35.8669          0.797       -35.2881        -1.3258      0.9523509              1
      8958.0000         6.0162        20.5015        -0.0082        75.8026       77.73013         1.0491         0.9183        36.5817          0.855        -34.793        -0.8307      0.9517048              1
      8958.5000         5.9906        20.2519        -0.0089        75.6046       77.50561         1.0782         0.9335        34.9028         0.8817       -34.6724        -0.7101      0.9469278              1
      8959.0000         5.9649        19.9018        -0.0095        73.1603       74.73209         1.0784         0.9472         34.489         0.8913        -34.949        -0.9867      0.8879167              1
      8959.5000         5.9392        19.3611        -0.0091        71.1034       72.39818         1.0735         0.9583         34.075         0.8928       -35.3204        -1.3581      0.8382591              1
      8960.0000         5.9228        19.3401         -0.008         69.439       70.50966         1.0817         0.9642        33.0915           0.89       -35.5309        -1.5686      0.7980778              1
      8960.5000         5.9077         19.858        -0.0101        71.3667       72.69728         1.0955         0.9799        32.2018          0.893       -35.4406        -1.4783       0.844623              1
      8961.0000         5.8927        19.8943        -0.0116        74.2867        76.0109         1.1095         0.9885        33.2925          0.897       -34.9397        -0.9774      0.9151256              1
      8961.5000         5.9032         19.866        -0.0124        74.7029       76.48336         1.1101         0.9971        34.3929         0.8993       -34.8151        -0.8528      0.9251779              1
      8962.0000         5.9344        19.7969        -0.0132        73.4906       75.10786         1.1082         0.9956        35.3488         0.9013       -34.8607        -0.8984       0.895912              1
      8962.5000         5.9656        19.9149        -0.0131        71.5829       72.94324         1.0994          0.993        35.2185         0.9007       -35.1502        -1.1879      0.8498563              1
      8963.0000         5.9885        20.4613        -0.0128        70.0675       71.22379         1.0874         0.9806        33.9998         0.8972       -35.4163         -1.454      0.8132722              1
      8963.5000         6.0047        20.5933        -0.0125        69.0602       70.08092         1.0681         0.9647        32.8458         0.8827       -35.3598        -1.3975      0.7889559              1
      8964.0000         6.0209        21.1689        -0.0123        68.5945       69.55263         1.0505         0.9458        32.2205         0.8612       -35.0496        -1.0873      0.7777155              1
      8964.5000         6.0327        20.6316         -0.012        68.8453       69.83739         1.0411         0.9377        32.5123         0.8415       -35.2893         -1.327      0.7837742              1
      8965.0000         6.0429        20.7773        -0.0116        70.9791       72.25888         1.0333          0.932        33.5978         0.8255        -35.343        -1.3807      0.8352953              1
      8965.5000          6.053         21.133        -0.0112        74.7103       76.49302         1.0382          0.929        34.1487         0.8151       -35.3612        -1.3989      0.9253834              1
      8966.0000         6.0789        20.6143        -0.0107        77.8987       80.11122         1.0449         0.9261        32.1848          0.811       -35.3616        -1.3993              1              1
      8966.5000          6.109         20.475        -0.0102        77.9409       80.15927          1.053         0.9241        31.6517         0.8089       -35.3666        -1.4043              1              1
      8967.0000         6.1314        20.2657        -0.0106        76.4927       78.51608         1.0682         0.9375        31.8416         0.8281       -35.4042        -1.4419      0.9684271              1
      8967.5000         6.1242        20.1099        -0.0109        75.8046       77.73543         1.0922         0.9576         32.283         0.8646       -35.4419        -1.4796      0.9518176              1
