#------------------------------------------------------------------------------
# Created by    : vladimir.rabinovich
# Created on    : 09/19/2023 17:19:50
#------------------------------------------------------------------------------
~Version Information Section
VERS.           2.0     :   CWLS log ASCII Standard - VERSION 2.0
WRAP.           NO      :   One line per depth step
~Well Information Section
#MNEM       .UNIT                                         VALUE :DESCRIPTION
#------------------------------------------------------------------------------
STRT        .FT                                             880 :START DEPTH
STOP        .FT                                            8374 :STOP DEPTH
STEP        .FT                                             0.5 :STEP      
NULL        .                                           -999.25 :NULL      
COMP        .                                        EXXON CORP :COMPANY   
WELL        .                               OCS G04552 ST00BP00 :WELL      
FLD         .                                 BRAZOS BLOCK 0451 :FIELD     
LOC         .                                                   :LOCATION  
CNTY        .                                BRAZOS LARGE BLOCK :LOCATION  
STAT        .                                             TEXAS :STATE     
CTRY        .                                     UNITED STATES :COUNTRY   
SRVC        .                                                   :SERVICE COMPANY
DATE        .                             9/13/2023 11:19:08 AM :LOG DATE  
API         .                                    42704401130000 :API NUMBER
UWI         .                                    42704401130000 :UNIQUE WELL ID
XCOORD      .                                  760277.642000753 :SURFACE X 
YCOORD      .                                  10343629.6463693 :SURFACE Y 
LAT         .                                         28.475327 :LATITUDE  
LON         .                                        -95.739931 :LONGITUDE 
ELEV        .FT                                              95 :ELEVATION VALUE
ELEV_TYPE   .                                                KB :ELEVATION REFERENCE TYPE
~Curve Information Section
#MNEM       .UNIT                                      API CODE :CURVE DESCRIPTION
#------------------------------------------------------------------------------
DEPT        .FT                                                 :DEPTH     
ASFL        .OHMM                                               :          
CALI        .IN                                                 :          
CILD        .MMHO                                               :          
DT          .US/F                                               :          
GR          .GAPI                                               :          
GR_NORM     .GAPI                                               :GammaRay Normalized
ILD         .OHMM                                               :          
ILM         .OHMM                                               :          
RHOB        .G/C3                                               :          
SP          .MV                                                 :          
SP_NORM     .MV                                                 :SP Normalized
VSH_GR      .V/V                                                :Volume of Shale from GR
VSH_SP      .V/V                                                :Volume of Shale from SP
~A        DEPTH           ASFL           CALI           CILD             DT             GR        GR_NORM            ILD            ILM           RHOB             SP        SP_NORM         VSH_GR         VSH_SP
# ...
      7359.0000         1.0125        11.3831        1296.35       106.9165        52.1686       79.23353         0.7502          0.729         2.3211       -38.6393         0.5764      0.9836921              1
      7359.5000         1.0058        11.3866       1323.471       107.8984        52.1216       79.14287         0.7431         0.7282         2.3493       -38.3975         0.8182      0.9817631              1
      7360.0000         0.9991        11.3899       1350.617       108.4476        52.1658       79.22812          0.736         0.7295         2.3435       -38.2645         0.9512       0.983577              1
      7360.5000         0.9924        11.3931       1363.059       108.7467        52.2941       79.47633         0.7288          0.738         2.3354       -38.1968         1.0189      0.9888582              1
      7361.0000         0.9925        11.3954       1369.801       108.0085        52.4223       79.72401         0.7217         0.7427         2.3348       -38.2643         0.9514      0.9941278              1
      7361.5000         1.0139        11.3963       1374.074       107.1241         52.681       80.22433          0.715         0.7458          2.343       -38.3317          0.884              1              1
      7362.0000         1.0285        11.3972       1373.383       106.3241        52.7821       80.41962         0.7161         0.7491         2.3429       -38.3837          0.832              1              1
      7362.5000         1.0315        11.3981       1372.689       106.2273        52.3769       79.63622         0.7171         0.7546         2.3091       -38.4344         0.7813        0.99226              1
      7363.0000         1.0345         11.399       1371.996       106.0848        51.3861       77.72071         0.7182         0.7627         2.2724       -38.4851         0.7306      0.9515045              1
      7363.5000         1.0375        11.3999       1371.303       105.7559        50.1535       75.33771         0.7193          0.764         2.2537       -38.4276         0.7881      0.9008023              1
      7364.0000         1.0409        11.4008        1379.24       105.6813        49.1143       73.32861         0.7204         0.7564         2.2409       -38.3281         0.8876      0.8580554              1
      7364.5000         1.0451        11.4021       1387.734       105.9225        48.3849       71.91844         0.7215         0.7453          2.242       -38.2285         0.9872      0.8280519              1
      7365.0000         1.0493        11.4044       1396.229       106.4611        48.7826       72.68731         0.7219          0.733         2.2624       -38.1289         1.0868      0.8444108              1
      7365.5000         1.0513        11.4067       1404.723       107.3693        49.1803        73.4564         0.7102         0.7195         2.2746       -38.0773         1.1384      0.8607744              1
      7366.0000          1.038         11.411       1422.523       108.5391        49.9939       75.02914         0.6985         0.7059          2.284       -38.0461         1.1696      0.8942369              1
      7366.5000         1.0247        11.4189       1440.639       109.1295        50.8044       76.59628         0.6868         0.6946          2.281        -38.015         1.2007      0.9275805              1
      7367.0000         1.0149        11.4269       1458.777       109.4857        51.4572       77.85836         0.6751         0.6835         2.2535       -37.9838         1.2319      0.9544332              1
      7367.5000         1.0075        11.4349           1486       109.6974        52.0948       79.09087         0.6634         0.6729         2.2275       -38.0259         1.1898      0.9806567              1
      7368.0000         1.0001        11.4432       1519.227       110.8184         52.571       80.01168          0.654         0.6631         2.2456       -38.0767          1.139              1              1
      7368.5000         0.9927        11.4514       1552.453       112.0293        53.0623       80.96153         0.6449         0.6589         2.2989       -38.1273         1.0884              1              1
      7369.0000         0.9788        11.4459       1574.996       112.6912        53.7874       82.36338         0.6357         0.6614         2.3258        -38.178         1.0377              1              1
      7369.5000         0.9572         11.436       1595.662       112.9707        54.6494       84.02991         0.6266         0.6727         2.3463       -38.2287          0.987              1              1
      7370.0000         0.9367          11.42        1586.48       112.3521        56.1547       86.93994         0.6328         0.6899         2.3473       -38.3406         0.8751              1              1
      7370.5000         0.9237        11.3985       1563.186       110.7533        57.5934       89.72158         0.6408         0.7092         2.3462       -38.6032         0.6125              1              1
      7371.0000         0.9326        11.3785       1539.918       108.9894        56.6774       87.95064          0.661         0.7336         2.3276        -38.983         0.2327              1              1
      7371.5000         0.9415        11.3611       1515.023          106.6        55.3731       85.42886         0.6827         0.7577         2.2978       -39.6446        -0.4289              1       0.991422
      7372.0000         0.9811         11.355        1485.25       104.3406        53.6843       82.16387         0.6918         0.7796         2.2364       -40.3055        -1.0898              1       0.978204
      7372.5000         1.0337        11.3496       1455.475        101.691        51.2341       77.42702         0.6949         0.7908         2.2516       -41.5602        -2.3445      0.9452557        0.95311
      7373.0000         1.0659        11.3454       1435.146        98.2682        48.4169        71.9805          0.698         0.7901         2.3016        -42.975        -3.7593      0.8293723       0.924814
      7373.5000          1.091        11.3609        1420.76        96.3629         44.861       65.10563         0.7012         0.7819         2.3857       -44.9402        -5.7245      0.6830985        0.88551
      7374.0000         1.1187        11.3816        1406.35        97.0597        42.9235       61.35983         0.7043         0.7686         2.4065       -47.1542        -7.9385      0.6034005        0.84123
      7374.5000         1.1465        11.4036        1395.84        97.8467        42.4692       60.48151         0.7077         0.7617         2.3855       -51.1298       -11.9141      0.5847129       0.761718
      7375.0000         1.1657         11.416       1391.242        99.0476        42.9561       61.42305         0.7113         0.7641         2.3453       -51.0657         -11.85      0.6047457          0.763
      7375.5000         1.1448        11.4223       1386.646       100.0385        44.7806        64.9502         0.7148         0.7704          2.306       -49.6647        -10.449      0.6797914        0.79102
      7376.0000         1.1239         11.426       1382.049       100.4631        46.4694       68.21517         0.7183         0.7813         2.2778       -48.2587         -9.043       0.749259        0.81914
      7376.5000         1.1102        11.4255        1372.91       100.3646         47.506       70.21925         0.7218         0.7962         2.2607       -46.8539        -7.6382      0.7918988       0.847236
      7377.0000         1.1006        11.4249       1360.676        100.515        48.5414       72.22101         0.7258         0.8079         2.3245       -45.5496        -6.3339      0.8344895       0.873322
      7377.5000         1.0911        11.4244       1348.453       101.2344        49.4109       73.90202         0.7346          0.815         2.3511       -44.3923        -5.1766      0.8702556       0.896468
