#------------------------------------------------------------------------------
# Created by    : vladimir.rabinovich
# Created on    : 09/19/2023 17:22:10
#------------------------------------------------------------------------------
~Version Information Section
VERS.           2.0     :   CWLS log ASCII Standard - VERSION 2.0
WRAP.           NO      :   One line per depth step
~Well Information Section
#MNEM       .UNIT                                         VALUE :DESCRIPTION
#------------------------------------------------------------------------------
STRT        .FT                                            1000 :START DEPTH
STOP        .FT                                            7796 :STOP DEPTH
STEP        .FT                                             0.5 :STEP      
NULL        .                                           -999.25 :NULL      
COMP        .                                SHELL OFFSHORE INC :COMPANY   
WELL        .                               OCS G06060 ST00BP00 :WELL      
FLD         .                                           WILDCAT :FIELD     
LOC         .                                                   :LOCATION  
CNTY        .                                BRAZOS LARGE BLOCK :LOCATION  
STAT        .                                             TEXAS :STATE     
CTRY        .                                     UNITED STATES :COUNTRY   
SRVC        .                                                   :SERVICE COMPANY
DATE        .                             9/13/2023 11:19:08 AM :LOG DATE  
API         .                                    42704401260000 :API NUMBER
UWI         .                                    42704401260000 :UNIQUE WELL ID
XCOORD      .                                   881020.58603234 :SURFACE X 
YCOORD      .                                   10392321.681828 :SURFACE Y 
LAT         .                                         28.616238 :LATITUDE  
LON         .                                        -95.367327 :LONGITUDE 
ELEV        .FT                                              90 :ELEVATION VALUE
ELEV_TYPE   .                                                KB :ELEVATION REFERENCE TYPE
~Curve Information Section
#MNEM       .UNIT                                      API CODE :CURVE DESCRIPTION
#------------------------------------------------------------------------------
DEPT        .FT                                                 :DEPTH     
CALI        .IN                                                 :          
CILD        .MMHO                                               :          
DPHI        .%                                                  :          
DT          .US/F                                               :          
GR          .GAPI                                               :          
GR_NORM     .GAPI                                               :GammaRay Normalized
ILD         .OHMM                                               :          
ILM         .OHMM                                               :          
SFL         .OHMM                                               :          
SP          .MV                                                 :          
SP_NORM     .MV                                                 :SP Normalized
VSH_GR      .V/V                                                :Volume of Shale from GR
VSH_SP      .V/V                                                :Volume of Shale from SP
~A        DEPTH           CALI           CILD           DPHI             DT             GR        GR_NORM            ILD            ILM            SFL             SP        SP_NORM         VSH_GR         VSH_SP
# ...
      7327.0000        21.9128       1302.656        57.4792       108.0935        42.7127       80.57733         0.7574         0.7713         0.8341       -40.9588       1.815765              1              1
      7327.5000        23.1182       1305.135        59.7958       108.0623        43.2983       81.81057          0.758         0.7796         0.8754       -40.8873       1.887268              1              1
      7328.0000        24.6134       1313.352        59.9038       107.9805        43.4869       82.50285         0.7581         0.7904           0.88       -40.8527       1.921867              1              1
      7328.5000        25.2406       1319.482        59.5975       107.8921        43.3285       82.72232         0.7584         0.7868         0.8531       -40.7281       2.046467              1              1
      7329.0000         24.398       1330.572        57.2787       107.7972        43.1025       82.84969         0.7559         0.7775         0.8274       -40.5705      0.5032852              1              1
      7329.5000        23.2808       1352.307        47.7409       107.7628        43.1691       85.89175          0.742         0.7637         0.8133       -40.4129      -1.005577              1      0.9999055
      7330.0000        22.3909       1374.363        42.6492       107.7577        26.7499       66.61484         0.7247         0.7503         0.8028       -40.3358       1.646908      0.7152093              1
      7330.5000        22.5965        -999.25        35.5172        -999.25        29.7231       73.76153        -999.25        -999.25        -999.25        -999.25     -0.2872531      0.8672665              1
      7331.0000        22.4073        -999.25        30.1159        -999.25        31.6815       77.31277        -999.25        -999.25        -999.25        -999.25      -1.203072       0.942825      0.9965581
      7331.5000         21.245        -999.25        28.7361        -999.25        33.1288       79.05267        -999.25        -999.25        -999.25        -999.25       1.926971       0.979844              1
      7332.0000        20.7562        -999.25        28.8983        -999.25        34.1748       80.24576        -999.25        -999.25        -999.25        -999.25     -0.8787495              1              1
      7332.5000        20.8421        -999.25        30.9341        -999.25        33.9634       79.72555        -999.25        -999.25        -999.25        -999.25       1.011114      0.9941606              1
      7333.0000        20.9838        -999.25        31.9881        -999.25        33.7545       79.20876        -999.25        -999.25        -999.25        -999.25      -0.298652       0.983165              1
      7333.5000        20.4739        -999.25        30.9385        -999.25        33.5883       78.75012        -999.25        -999.25        -999.25        -999.25       3.524502      0.9734069              1
      7334.0000        20.0255        -999.25        29.2137        -999.25          33.64        78.5884        -999.25        -999.25        -999.25        -999.25       2.621423       0.969966              1
      7334.5000        19.6054        -999.25        26.2271        -999.25        33.8826        78.6868        -999.25        -999.25        -999.25        -999.25       2.350673      0.9720595              1
      7335.0000        19.3241        -999.25        25.4296        -999.25          33.87       78.43747        -999.25        -999.25        -999.25        -999.25        2.65157      0.9667547              1
      7335.5000        19.1483        -999.25        25.4457        -999.25        33.3352       77.47659        -999.25        -999.25        -999.25        -999.25     -0.3285254      0.9463105              1
      7336.0000        19.1451        -999.25        26.0576        -999.25        31.5857       74.86061        -999.25        -999.25        -999.25        -999.25       3.216617      0.8906513              1
      7336.5000        19.2913        -999.25        26.9966        -999.25        31.2276        74.1405        -999.25        -999.25        -999.25        -999.25      0.2060741      0.8753299              1
      7337.0000        19.0526        -999.25        27.6379        -999.25        32.2664       75.32378        -999.25        -999.25        -999.25        -999.25       2.689294       0.900506              1
      7337.5000         18.654        -999.25        27.8289        -999.25        34.5565       78.21206        -999.25        -999.25        -999.25        -999.25        1.60275      0.9619587              1
      7338.0000        18.8783        -999.25        27.9592        -999.25        36.2346       80.26643        -999.25        -999.25        -999.25        -999.25     -0.7476287              1              1
      7338.5000        19.5236        -999.25        30.1395        -999.25         35.613       79.18729        -999.25        -999.25        -999.25        -999.25      0.8628683      0.9827084              1
      7339.0000        20.2325        -999.25         32.151        -999.25        34.2075       77.12219        -999.25        -999.25        -999.25        -999.25       2.605796      0.9387701              1
      7339.5000         20.439        -999.25        32.6883        -999.25        33.3193       75.99487        -999.25        -999.25        -999.25        -999.25       1.706922      0.9147846              1
      7340.0000        19.8174        -999.25        29.0811        -999.25        32.7234       75.26582        -999.25        -999.25        -999.25        -999.25       3.014918      0.8992729              1
      7340.5000        18.8269        -999.25        26.9612        -999.25         31.942       74.28402        -999.25        -999.25        -999.25        -999.25     -0.7602673      0.8783834              1
      7341.0000        19.1407        -999.25        26.0296        -999.25        29.3767       70.87152        -999.25        -999.25        -999.25        -999.25      0.9338235       0.805777              1
      7341.5000        20.3089        -999.25        27.0291        -999.25        26.7008       67.30832        -999.25        -999.25        -999.25        -999.25       2.760365      0.7299643              1
      7342.0000        21.6739        -999.25        30.5995        -999.25         24.767       64.75629        -999.25        -999.25        -999.25        -999.25      0.6610247      0.6756657              1
      7342.5000        22.0644        -999.25        37.9894        -999.25        24.1548       64.00503        -999.25        -999.25        -999.25        -999.25       2.067978      0.6596814              1
      7343.0000        22.0675        -999.25        44.5154        -999.25        25.0287       65.27869        -999.25        -999.25        -999.25        -999.25      0.3703715      0.6867808              1
      7343.5000        21.2783        -999.25        46.1606        -999.25        26.3519       67.16458        -999.25        -999.25        -999.25        -999.25       3.464833       0.726906              1
      7344.0000        19.9045        -999.25        47.3782        -999.25        27.5154       68.83284        -999.25        -999.25        -999.25        -999.25       1.123685      0.7624009              1
      7344.5000        18.0962        -999.25        46.9625        -999.25        28.3152       70.00558        -999.25        -999.25        -999.25        -999.25      0.5617812      0.7873527              1
      7345.0000        17.6939        -999.25        47.5946        -999.25         28.708       70.62369        -999.25        -999.25        -999.25        -999.25       3.479286       0.800504              1
      7345.5000        16.6266        -999.25        47.7715        -999.25        28.8613        70.9155        -999.25        -999.25        -999.25        -999.25       1.378439      0.8067127              1
