#------------------------------------------------------------------------------
# Created by    : vladimir.rabinovich
# Created on    : 09/19/2023 17:19:40
#------------------------------------------------------------------------------
~Version Information Section
VERS.           2.0     :   CWLS log ASCII Standard - VERSION 2.0
WRAP.           NO      :   One line per depth step
~Well Information Section
#MNEM       .UNIT                                         VALUE :DESCRIPTION
#------------------------------------------------------------------------------
STRT        .FT                                             305 :START DEPTH
STOP        .FT                                          9892.5 :STOP DEPTH
STEP        .FT                                             0.5 :STEP      
NULL        .                                           -999.25 :NULL      
COMP        .                         ATLANTIC RICHFIELD CO THE :COMPANY   
WELL        .                               OCS G07247 ST00BP00 :WELL      
FLD         .                                           WILDCAT :FIELD     
LOC         .                                                   :LOCATION  
CNTY        .                             GALVESTON LARGE BLOCK :LOCATION  
STAT        .                                             TEXAS :STATE     
CTRY        .                                     UNITED STATES :COUNTRY   
SRVC        .                                                   :SERVICE COMPANY
DATE        .                             9/13/2023 11:19:27 AM :LOG DATE  
API         .                                    42706401220000 :API NUMBER
UWI         .                                    42706401220000 :UNIQUE WELL ID
XCOORD      .                                  995038.545578968 :SURFACE X 
YCOORD      .                                  10445559.0196594 :SURFACE Y 
LAT         .                                         28.768363 :LATITUDE  
LON         .                                        -95.014888 :LONGITUDE 
ELEV        .FT                                              98 :ELEVATION VALUE
ELEV_TYPE   .                                                KB :ELEVATION REFERENCE TYPE
~Curve Information Section
#MNEM       .UNIT                                      API CODE :CURVE DESCRIPTION
#------------------------------------------------------------------------------
DEPT        .FT                                                 :DEPTH     
ALL         .OHMM                                               :          
CILD        .MMHO                                               :          
GR          .GAPI                                               :          
GR_NORM     .GAPI                                               :GammaRay Normalized
ILD         .OHMM                                               :          
SP          .MV                                                 :          
VSH_GR      .V/V                                                :Volume of Shale from GR
~A        DEPTH            ALL           CILD             GR        GR_NORM            ILD             SP         VSH_GR
# ...
      2884.5000         0.9913       1333.178        58.2739       72.52405         0.6198        27.3053      0.8409372
      2885.0000         0.9997       1318.105        59.9167        74.4212         0.6395        27.2307      0.8813022
      2885.5000         1.0071       1303.033        61.7726         76.565         0.6611        27.1561      0.9269149
      2886.0000         1.0105       1287.961        63.1099       78.10858         0.6827        27.0816       0.959757
      2886.5000         1.0133       1276.836        64.2783       79.45665         0.7042         27.007      0.9884394
      2887.0000         1.0159       1268.895        64.9534       80.23379         0.7235        26.9042              1
      2887.5000         1.0175       1261.844        65.6285       81.01093         0.7405        26.7964              1
      2888.0000         1.0191       1273.789        66.3036       81.78804         0.7575        26.6887              1
      2888.5000         1.0207       1287.561        66.9786       82.56507         0.7649        26.5809              1
      2889.0000          1.021       1304.973        67.6537        83.3422         0.7662        26.4939              1
      2889.5000         1.0212       1322.383        68.1266       83.88531         0.7666        26.4176              1
      2890.0000         1.0214       1339.795        68.5869       84.41383          0.759        26.3413              1
      2890.5000         1.0198       1358.311        69.0469         84.942         0.7513         26.265              1
      2891.0000         1.0176       1377.217        69.4884       85.44877         0.7437        26.1887              1
      2891.5000         1.0154       1395.807        69.8141        85.8215         0.7361        26.1174              1
      2892.0000         1.0133       1410.953        70.1399       86.19436         0.7284        26.0565              1
      2892.5000         1.0115       1426.104         70.549       86.66362          0.721        25.9957              1
      2893.0000         1.0097       1442.379        71.1644       87.37165         0.7138        25.9348              1
      2893.5000         1.0079       1458.908        71.7803       88.08027         0.7067        25.8858              1
      2894.0000         1.0061       1471.338        73.1066        89.6111         0.6995        25.9122              1
      2894.5000         1.0046       1480.209        75.1992       92.02887         0.6923        25.9386              1
      2895.0000         1.0031       1489.078        75.0269        91.8252         0.6852         25.965              1
      2895.5000         1.0017       1492.244        73.8313       90.43718          0.678        26.0039              1
      2896.0000         1.0002       1494.535        72.5763       88.98039         0.6735        26.0544              1
      2896.5000         0.9988       1496.826        71.2469       87.43751         0.6706        26.2606              1
      2897.0000         0.9989       1493.736        69.9177       85.89485         0.6678        26.5054              1
      2897.5000         0.9995       1490.625        68.5884       84.35207         0.6649        26.8302              1
      2898.0000         1.0002        1486.07        66.2588       81.65154         0.6633        27.2316              1
      2898.5000          1.003       1470.264        64.5278       79.64384          0.667        27.6328       0.992422
      2899.0000         1.0084       1454.668        65.3843       80.63092         0.6708        27.9818              1
      2899.5000         1.0139       1439.074        66.2404       81.61755         0.6779        28.3139              1
      2900.0000         1.0217       1423.479        67.0968       82.60452         0.6931        28.6307              1
      2900.5000         1.0297       1389.537        67.9532       83.59149         0.7083        28.9056              1
      2901.0000         1.0362       1354.752        68.8097       84.57858         0.7234        29.1648              1
      2901.5000         1.0416       1323.623        69.1758       84.99806          0.732        29.3887              1
      2902.0000         1.0471       1295.508        69.3406       85.18458         0.7405        29.5918              1
      2902.5000         1.0496       1279.205        69.5055        85.3712         0.7491        29.7138              1
      2903.0000         1.0518       1271.947        69.6703       85.55771         0.7576        29.8037              1
      2903.5000         1.0506       1267.313        69.8352       85.74433         0.7658        29.8936              1
      2904.0000         1.0487       1265.791             70       85.93085         0.7697        29.9835              1
      2904.5000         1.0469        1264.27        70.1649       86.11746         0.7735        29.9452              1
      2905.0000          1.045       1264.852        70.3297       86.30397         0.7774        29.8913              1
      2905.5000         1.0435       1266.797        70.2438       86.20032         0.7812        29.8374              1
      2906.0000         1.0422       1268.742        69.8879       85.78416         0.7844        29.7835              1
      2906.5000         1.0408       1272.105         69.532       85.36801         0.7823        29.7554              1
      2907.0000         1.0395       1281.006        69.1761       84.95186         0.7803        29.7871              1
      2907.5000         1.0382         1289.9        68.8202        84.5357         0.7783        29.8188              1
      2908.0000         1.0371       1298.793        68.4645       84.11978         0.7762        29.8505              1
      2908.5000         1.0364       1312.523        68.1085        83.7035         0.7742        29.8821              1
      2909.0000         1.0356       1327.189        67.2788       82.73898         0.7709        29.9138              1
      2909.5000         1.0349       1342.225        66.3275       81.63369         0.7638        29.9899              1
      2910.0000         1.0342       1363.232        65.3768       80.52911         0.7566        30.1001              1
      2910.5000         1.0342       1384.252        62.4907       77.18449         0.7495        30.2102      0.9400956
      2911.0000         1.0342       1403.164        63.7463       78.63351         0.7424        30.3203      0.9709257
      2911.5000         1.0342       1417.252        65.0314       80.11665          0.736        30.4305              1
      2912.0000         1.0349        1431.34        66.3158       81.59899         0.7312        30.5406              1
      2912.5000         1.0356       1437.912         67.601       83.08225         0.7265        30.6557              1
      2913.0000         1.0364       1437.598        68.3733       83.97189         0.7217        30.7735              1
      2913.5000         1.0394       1437.283        68.9907       84.68224         0.7169        30.8914              1
      2914.0000         1.0427       1436.967         69.608       85.39248         0.7163        31.0093              1
      2914.5000         1.0459        1424.42        70.2252       86.10259         0.7218        31.1273              1
      2915.0000         1.0491        1410.77        70.7993       86.76284         0.7273        31.2401              1
      2915.5000         1.0522       1395.406        70.8545       86.82248         0.7328         31.306              1
      2916.0000         1.0547       1373.451        70.1571       86.01107         0.7383        31.3719              1
      2916.5000          1.056       1351.508         69.473       85.21506         0.7443        31.4379              1
      2917.0000         1.0573       1327.268        68.8029       84.43526         0.7503        31.5038              1
      2917.5000         1.0586       1300.318        68.1327       83.65532         0.7563        31.5627              1
