#------------------------------------------------------------------------------
# Created by    : vladimir.rabinovich
# Created on    : 09/19/2023 17:20:35
#------------------------------------------------------------------------------
~Version Information Section
VERS.           2.0     :   CWLS log ASCII Standard - VERSION 2.0
WRAP.           NO      :   One line per depth step
~Well Information Section
#MNEM       .UNIT                                         VALUE :DESCRIPTION
#------------------------------------------------------------------------------
STRT        .FT                                             501 :START DEPTH
STOP        .FT                                            8659 :STOP DEPTH
STEP        .FT                                             0.5 :STEP      
NULL        .                                           -999.25 :NULL      
COMP        .                                      SHELL OIL CO :COMPANY   
WELL        .                                OCS 00705 ST00BP00 :WELL      
FLD         .                                           WILDCAT :FIELD     
LOC         .                                                   :LOCATION  
CNTY        .                             GALVESTON LARGE BLOCK :LOCATION  
STAT        .                                             TEXAS :STATE     
CTRY        .                                     UNITED STATES :COUNTRY   
SRVC        .                                                   :SERVICE COMPANY
DATE        .                             9/13/2023 11:19:25 AM :LOG DATE  
API         .                                    42706000440000 :API NUMBER
UWI         .                                    42706000440000 :UNIQUE WELL ID
XCOORD      .                                  1104214.94625617 :SURFACE X 
YCOORD      .                                  10500066.5450575 :SURFACE Y 
LAT         .                                         28.922918 :LATITUDE  
LON         .                                        -94.676571 :LONGITUDE 
ELEV        .FT                                              41 :ELEVATION VALUE
ELEV_TYPE   .                                                KB :ELEVATION REFERENCE TYPE
~Curve Information Section
#MNEM       .UNIT                                      API CODE :CURVE DESCRIPTION
#------------------------------------------------------------------------------
DEPT        .FT                                                 :DEPTH     
ASN         .OHMM                                               :          
CILD        .MMHO                                               :          
DT          .US/F                                               :          
ILD         .OHMM                                               :          
LAT         .OHMM                                               :          
SP          .MV                                                 :          
SP_NORM     .MV                                                 :SP Normalized
VSH_SP      .V/V                                                :Volume of Shale from SP
~A        DEPTH            ASN           CILD             DT            ILD            LAT             SP        SP_NORM         VSH_SP
# ...
      1592.5000         0.7228        -999.25        -999.25         0.9401         0.8773       -58.9647      -7.841309      0.6105794
      1593.0000         0.7227        -999.25        -999.25         0.9418         0.8634        -59.166      -8.041325       0.597245
      1593.5000         0.7226        -999.25        -999.25         0.9434         0.8494       -59.3672      -8.241234      0.5839177
      1594.0000         0.7225        -999.25        -999.25         0.9451         0.8355       -59.3495      -8.222244      0.5851837
      1594.5000         0.7261        -999.25        -999.25         0.9468         0.8216       -59.0876      -7.959061      0.6027293
      1595.0000         0.7314        -999.25        -999.25         0.9485         0.8076       -58.8257      -7.695869      0.6202754
      1595.5000         0.7368        -999.25        -999.25         0.9501         0.8049       -58.5637      -7.432587      0.6378276
      1596.0000         0.7421        -999.25        -999.25         0.9518         0.8151       -58.3018      -7.169395      0.6553736
      1596.5000         0.7475        -999.25        -999.25         0.9649         0.8253       -58.0399      -6.906212      0.6729192
      1597.0000         0.7528        -999.25        -999.25          0.978         0.8607       -57.7779      -6.642921      0.6904719
      1597.5000         0.7582        -999.25        -999.25         0.9911         0.9089        -57.516      -6.379734      0.7080177
      1598.0000         0.7912        -999.25        -999.25         1.0043         0.9571       -57.2647      -6.127148      0.7248568
      1598.5000         0.8242        -999.25        -999.25         1.0174         1.0053       -57.0783      -5.939461      0.7373693
      1599.0000         0.8572        -999.25        -999.25         1.0305         1.0534       -56.8918      -5.751671      0.7498886
      1599.5000         0.9139        -999.25        -999.25         1.0436         1.1016       -56.7054      -5.563984       0.762401
      1600.0000         0.9742        -999.25        -999.25         1.0567         1.1445        -56.519      -5.376297      0.7749135
      1600.5000         1.0176        -999.25        -999.25         1.0698         1.1683       -56.3326       -5.18861       0.787426
      1601.0000         1.0611        -999.25        -999.25          1.083         1.1921       -56.1462      -5.000919      0.7999387
      1601.5000          1.078        -999.25        -999.25         1.0961         1.2159       -55.9597      -4.813137      0.8124575
      1602.0000         1.0942        -999.25        -999.25         1.1092         1.2352       -55.7733      -4.625446      0.8249702
      1602.5000         1.1105        -999.25        -999.25          1.124         1.2305       -55.5868       -4.43766      0.8374893
      1603.0000         1.1218        -999.25        -999.25         1.1466         1.2258       -55.5303      -4.379871      0.8413419
      1603.5000         1.1178        -999.25        -999.25         1.1691         1.2146       -55.5801      -4.428383      0.8381078
      1604.0000         1.1139        -999.25        -999.25         1.1917         1.1692         -55.63      -4.476997      0.8348668
      1604.5000         1.1099        -999.25        -999.25         1.2142         1.1239       -55.6799      -4.525608      0.8316261
      1605.0000         1.1051        -999.25        -999.25         1.2367         1.0786       -55.7297       -4.57412       0.828392
      1605.5000         1.0992        -999.25        -999.25         1.2593         1.0312       -55.8111      -4.654232      0.8230512
      1606.0000         1.0933        -999.25        -999.25         1.2818         0.9717       -55.9232      -4.765045      0.8156636
      1606.5000         1.0874        -999.25        -999.25         1.3043         0.9122       -56.0354      -4.875957      0.8082695
      1607.0000         1.0815        -999.25        -999.25         1.3269         0.8527       -56.1475      -4.986771       0.800882
      1607.5000         1.0795        -999.25        -999.25         1.3208         0.8158       -55.6268      -4.464783      0.8356811
      1608.0000         1.0885        -999.25        -999.25         1.3095         0.7874       -54.7933      -3.629997      0.8913335
      1608.5000         1.0976        -999.25        -999.25         1.2983         0.7589       -53.9598      -2.795208      0.9469861
      1609.0000         1.1067        -999.25        -999.25          1.287         0.7641       -53.2659      -2.100021      0.9933319
      1609.5000         1.1168        -999.25        -999.25         1.2757         0.7821       -52.5917      -1.424534              1
      1610.0000         1.1323        -999.25        -999.25         1.2645         0.8001       -51.9174     -0.7489471              1
      1610.5000         1.1478        -999.25        -999.25         1.2514         0.8181       -51.4916     -0.3218575              1
      1611.0000         1.1634        -999.25        -999.25         1.2379         0.8368       -51.3336      -0.162571              1
      1611.5000         1.1775        -999.25        -999.25         1.2245         0.8597       -51.1756    -0.00328064              1
      1612.0000         1.1493        -999.25        -999.25          1.211         0.8825       -51.0176       0.156002              1
      1612.5000         1.1212        -999.25        -999.25         1.1975         0.9054       -51.3178     -0.1429062              1
      1613.0000          1.093        -999.25        -999.25         1.1841         0.9283       -51.6926     -0.5164223              1
      1613.5000         1.0725        -999.25        -999.25         1.1706         0.9511       -52.0673     -0.8898315              1
      1614.0000         1.0544        -999.25        -999.25         1.1686          0.974        -52.442      -1.263245              1
      1614.5000         1.0363        -999.25        -999.25         1.1828         0.9969       -52.8167      -1.636658              1
      1615.0000         1.0182        -999.25        -999.25         1.1971         1.0197       -53.0146      -1.833267              1
      1615.5000         1.0035        -999.25        -999.25         1.2114         1.0426       -53.1666      -1.983982              1
      1616.0000          0.998        -999.25        -999.25         1.2257         1.0534       -53.3187      -2.134792      0.9910138
      1616.5000          0.994        -999.25        -999.25           1.24         1.0559       -53.1926      -2.007408      0.9995061
      1617.0000         1.0074        -999.25        -999.25         1.2543         1.0583       -53.0568      -1.870319              1
      1617.5000         1.0209        -999.25        -999.25         1.2686         1.0608        -52.921      -1.733234              1
      1618.0000         1.0343        -999.25        -999.25          1.268         1.0632       -52.7851      -1.596043              1
      1618.5000         1.0478        -999.25        -999.25         1.2661         1.0657       -52.6492      -1.458858              1
      1619.0000         1.0612        -999.25        -999.25         1.2643         1.0759       -52.5134       -1.32177              1
      1619.5000         1.0716        -999.25        -999.25         1.2624         1.0912       -52.4023      -1.209385              1
      1620.0000         1.0792        -999.25        -999.25         1.2606         1.1065        -52.467      -1.272793              1
      1620.5000         1.0867        -999.25        -999.25         1.2588         1.1218       -52.5317      -1.336208              1
      1621.0000         1.0942        -999.25        -999.25         1.2569         1.1371       -52.5964       -1.39962              1
      1621.5000         1.1017        -999.25        -999.25         1.2551         1.1525       -52.6611      -1.463032              1
