#------------------------------------------------------------------------------
# Created by    : vladimir.rabinovich
# Created on    : 09/19/2023 17:20:48
#------------------------------------------------------------------------------
~Version Information Section
VERS.           2.0     :   CWLS log ASCII Standard - VERSION 2.0
WRAP.           NO      :   One line per depth step
~Well Information Section
#MNEM       .UNIT                                         VALUE :DESCRIPTION
#------------------------------------------------------------------------------
STRT        .FT                                             495 :START DEPTH
STOP        .FT                                            6623 :STOP DEPTH
STEP        .FT                                             0.5 :STEP      
NULL        .                                           -999.25 :NULL      
COMP        .                                      SHELL OIL CO :COMPANY   
WELL        .                                     ST TR 00691-L :WELL      
FLD         .                                           WILDCAT :FIELD     
LOC         .                                                   :LOCATION  
CNTY        .                      MATAGORDA ISLAND LARGE BLOCK :LOCATION  
STAT        .                                             TEXAS :STATE     
CTRY        .                                     UNITED STATES :COUNTRY   
SRVC        .                                                   :SERVICE COMPANY
DATE        .                             9/13/2023 11:12:05 AM :LOG DATE  
API         .                                    42703000200000 :API NUMBER
UWI         .                                    42703000200000 :UNIQUE WELL ID
XCOORD      .                                  411465.852171861 :SURFACE X 
YCOORD      .                                  10158718.0598508 :SURFACE Y 
LAT         .                                        27.9414781 :LATITUDE  
LON         .                                       -96.8060481 :LONGITUDE 
ELEV        .FT                                              11 :ELEVATION VALUE
ELEV_TYPE   .                                                KB :ELEVATION REFERENCE TYPE
~Curve Information Section
#MNEM       .UNIT                                      API CODE :CURVE DESCRIPTION
#------------------------------------------------------------------------------
DEPT        .FT                                                 :DEPTH     
ASN         .OHMM                                               :          
CILD        .OHMM                                               :          
ILD         .OHMM                                               :          
SP          .MV                                                 :          
SP_NORM     .MV                                                 :SP Normalized
VSH_SP      .V/V                                                :Volume of Shale from SP
~A        DEPTH            ASN           CILD            ILD             SP        SP_NORM         VSH_SP
# ...
      4143.0000         0.7502       2055.191         0.5458       -68.5895       -25.0233      0.4645744
      4143.5000         0.7595       1994.455         0.5774       -62.5984       -19.0332      0.6038791
      4144.0000         0.7744       1994.354         0.6062       -59.3303        -15.766      0.6798605
      4144.5000         0.7901       1885.721         0.6349       -57.8306       -14.2673       0.714714
      4145.0000         0.8074       1763.777         0.6636       -56.0841       -12.5217      0.7553093
      4145.5000         0.8209       1641.834         0.6923       -54.5405       -10.9791      0.7911837
      4146.0000         0.8339       1519.889         0.7163       -52.8478        -9.2873      0.8305279
      4146.5000         0.8456       1397.945         0.7385       -51.7533        -8.1938      0.8559582
      4147.0000         0.8565       1250.504         0.7607       -51.0389        -7.4804      0.8725488
      4147.5000         0.8669       1191.375         0.7829       -50.4391        -6.8815      0.8864768
      4148.0000         0.8772       1162.607         0.7982       -49.8913        -6.3347       0.899193
      4148.5000         0.8872       1146.014         0.8129        -49.584        -6.0283      0.9063186
      4149.0000         0.8965        1132.27         0.8275       -49.4016        -5.8469      0.9105372
      4149.5000         0.9044       1122.131         0.8365       -49.4552        -5.9015      0.9092674
      4150.0000         0.9123       1112.328         0.8401       -49.5088         -5.956          0.908
      4150.5000         0.9195       1102.035         0.8436       -49.6053        -6.0535      0.9057326
      4151.0000         0.9264       1091.158         0.8497       -49.7026        -6.1517      0.9034488
      4151.5000         0.9326       1081.598         0.8579       -49.7691        -6.2192      0.9018791
      4152.0000         0.9377       1072.938         0.8661       -49.2197        -5.6708      0.9146326
      4152.5000         0.9424       1065.297         0.8743       -48.6064        -5.0584      0.9288744
      4153.0000         0.9441       1060.371         0.8824       -48.1234        -4.5764      0.9400837
      4153.5000         0.9439       1057.828         0.8741       -47.7149        -4.1688      0.9495628
      4154.0000         0.9397        1055.91         0.8616       -47.4026        -3.8575      0.9568023
      4154.5000         0.9352        1057.99          0.829         -47.09        -3.5459      0.9640489
      4155.0000         0.9298       1062.332         0.7409       -46.8968        -3.3536      0.9685209
      4155.5000          0.922       1077.549         0.6886       -46.7076        -3.1654      0.9728976
      4156.0000         0.9103       1101.488         0.6362       -46.6882        -3.1469      0.9733279
      4156.5000         0.8895       1165.949         0.5836       -46.8176        -3.2773      0.9702954
      4157.0000         0.8717       1282.291         0.5282       -47.6302        -4.0909      0.9513744
      4157.5000         0.8573       2109.434         0.4733       -49.3474         -5.809      0.9114186
      4158.0000         0.8454       2221.352         0.4334       -53.3122        -9.7748      0.8191907
      4158.5000         0.8353       2376.805         0.3934       -58.0421       -14.5056      0.7091721
      4159.0000         0.8251       2532.156         0.3577       -63.4099       -19.8744      0.5843163
      4159.5000         0.8172       2643.047         0.3255       -68.7777       -25.2432      0.4594605
      4160.0000         0.8137       2716.398         0.3055       -74.1505       -30.6169      0.3344907
      4160.5000         0.8222        2781.84         0.3126        -75.861       -32.3284      0.2946884
      4161.0000         0.8299       2741.504         0.3332        -77.085       -33.5533      0.2662024
      4161.5000          0.838       2592.391         0.3538        -78.078       -34.5473      0.2430861
      4162.0000          0.847       2310.059         0.3744       -79.0245       -35.4947      0.2210535
      4162.5000          1.014       2265.324          0.395       -79.6534       -36.1246      0.2064047
      4163.0000         1.0384       2224.965          0.416       -80.1545       -36.6267      0.1947279
      4163.5000         1.0687       2160.625         0.4385       -80.6018       -37.0749      0.1843046
      4164.0000         1.1003       2061.922          0.461       -80.6666       -37.1407      0.1827744
      4164.5000         1.1243       2018.957         0.4835       -80.4307       -36.9058      0.1882372
      4165.0000         1.1774       1779.891         0.5061       -80.2834       -36.7594      0.1916419
      4165.5000         1.2539       1707.619          0.525       -80.1449       -36.6219      0.1948396
      4166.0000         1.3031       1660.588         0.5414       -80.0063       -36.4842      0.1980419
      4166.5000         1.3457       1645.652         0.5578       -80.2606       -36.7395      0.1921047
      4167.0000         1.3778       1631.504         0.5599       -80.5647       -37.0445      0.1850117
      4167.5000         1.4119       1620.172         0.5581       -81.0474       -37.5282      0.1737628
      4168.0000         1.4674       1668.168         0.5557       -81.7831       -38.2649      0.1566302
      4168.5000         1.4731       1708.086         0.5316       -82.5212       -39.0039      0.1394442
      4169.0000         1.4131       1747.734         0.5075       -83.2992       -39.7829      0.1213279
      4169.5000          1.289       2034.557         0.4834       -84.7334        -41.218     0.08795352
      4170.0000         1.0618        2152.57         0.4593       -85.4927       -41.9783     0.07027213
      4170.5000         1.1021       2270.582          0.438       -85.8087       -42.2953     0.06290001
      4171.0000         1.1229        2319.27         0.4212       -85.9127       -42.4002     0.06046047
      4171.5000         1.1438        2349.16         0.4044       -84.9277       -41.4162     0.08334421
      4172.0000         1.1649       2342.438         0.3932        -84.038       -40.5274      0.1040139
      4172.5000         1.1865       2316.371         0.3973       -83.2429       -39.7333      0.1224814
      4173.0000         1.2081       2292.078         0.4015       -82.4387       -38.9301      0.1411605
      4173.5000         0.9705       2275.746         0.3968       -81.5845       -38.0768      0.1610046
      4174.0000         0.9298       2461.801          0.388       -80.3495       -36.8428      0.1897023
      4174.5000         0.9107       2771.867         0.3753       -80.4823       -36.9765       0.186593
      4175.0000          0.896       2884.969         0.3546       -80.8829       -37.3781      0.1772535
      4175.5000         0.9171       2914.961          0.334       -81.2838         -37.78       0.167907
      4176.0000         0.9406       2928.281          0.376       -81.6843       -38.1814      0.1585721
      4176.5000         0.9198       2759.141         0.4324       -82.3098       -38.8079      0.1440023
      4177.0000          0.897       2527.441         0.5194       -83.0144       -39.5134      0.1275953
      4177.5000         0.8802       2295.934         0.6698       -83.4917       -39.9917      0.1164721
      4178.0000         0.9491       2271.809         0.8862       -83.7924       -40.2933      0.1094581
      4178.5000         1.0382       2353.762         0.9833        -83.111       -39.6129      0.1252814
      4179.0000         1.7905       2124.441         1.0796       -82.2524       -38.7553      0.1452256
      4179.5000         2.0996       2085.258         1.1642       -79.3546       -35.8584      0.2125954
      4180.0000         2.1488       927.3926         1.2488       -76.8857       -33.3905      0.2699884
      4180.5000         2.1962       837.0654         1.3053       -71.2612       -27.7669      0.4007698
