#------------------------------------------------------------------------------
# Created by    : vladimir.rabinovich
# Created on    : 09/19/2023 17:21:35
#------------------------------------------------------------------------------
~Version Information Section
VERS.           2.0     :   CWLS log ASCII Standard - VERSION 2.0
WRAP.           NO      :   One line per depth step
~Well Information Section
#MNEM       .UNIT                                         VALUE :DESCRIPTION
#------------------------------------------------------------------------------
STRT        .FT                                            4200 :START DEPTH
STOP        .FT                                            8641 :STOP DEPTH
STEP        .FT                                             0.5 :STEP      
NULL        .                                           -999.25 :NULL      
COMP        .                                       HUNT OIL CO :COMPANY   
WELL        .                               OCS G25526 ST00BP00 :WELL      
FLD         .                                           WILDCAT :FIELD     
LOC         .                                                   :LOCATION  
CNTY        .                             GALVESTON LARGE BLOCK :LOCATION  
STAT        .                                             TEXAS :STATE     
CTRY        .                                     UNITED STATES :COUNTRY   
SRVC        .                                                   :SERVICE COMPANY
DATE        .                             9/13/2023 11:19:33 AM :LOG DATE  
API         .                                    42706404520000 :API NUMBER
UWI         .                                    42706404520000 :UNIQUE WELL ID
XCOORD      .                                  1090250.84236946 :SURFACE X 
YCOORD      .                                  10532258.5226608 :SURFACE Y 
LAT         .                                         29.010895 :LATITUDE  
LON         .                                        -94.721682 :LONGITUDE 
ELEV        .FT                                             108 :ELEVATION VALUE
ELEV_TYPE   .                                                KB :ELEVATION REFERENCE TYPE
~Curve Information Section
#MNEM       .UNIT                                      API CODE :CURVE DESCRIPTION
#------------------------------------------------------------------------------
DEPT        .FT                                                 :DEPTH     
CALI        .IN                                                 :          
DCAL        .IN                                                 :          
DFL         .OHMM                                               :          
DLOD        .LB                                                 :          
DPHI        .DEC                                                :          
DRHO        .G/C3                                               :          
GR          .GAPI                                               :          
GR_NORM     .GAPI                                               :GammaRay Normalized
HDCN        .MMHO                                               :          
HO24        .OHMM                                               :          
HO30        .OHMM                                               :          
HO40        .OHMM                                               :          
HO60        .OHMM                                               :          
HO90        .OHMM                                               :          
HT24        .OHMM                                               :          
HT30        .OHMM                                               :          
HT40        .OHMM                                               :          
HT60        .OHMM                                               :          
HT90        .OHMM                                               :          
NPHI        .DEC                                                :          
RHOB        .G/C3                                               :          
RWA         .OHMM                                               :          
SP_NORM     .MV                                                 :SP Normalized
SPA         .MV                                                 :          
TENS        .LBS                                                :          
VSH_GR      .V/V                                                :Volume of Shale from GR
VSH_SP      .V/V                                                :Volume of Shale from SP
~A        DEPTH           CALI           DCAL            DFL           DLOD           DPHI           DRHO             GR        GR_NORM           HDCN           HO24           HO30           HO40           HO60           HO90           HT24           HT30           HT40           HT60           HT90           NPHI           RHOB            RWA        SP_NORM            SPA           TENS         VSH_GR         VSH_SP
# ...
      4500.0000        15.3495         3.0995          0.378       1438.829         0.2955         -0.026        51.7389       48.72051       3515.297         0.3416         0.3206          0.306          0.289         0.2707         0.3614         0.3385         0.3226         0.3043         0.2845         0.3352         2.1625         0.0389      -35.77893       133.0724       2808.098       0.334479      0.3696359
      4500.5000         15.725          3.475         0.3308       1457.173         0.3193        -0.0489        50.2056        46.9352       3571.205         0.3243         0.3103         0.3003         0.2883         0.2748         0.3373         0.3209         0.3092         0.2953           0.28         0.3999         2.1231         0.0494      -34.82611       133.7055       2813.387      0.2964937      0.3879593
      4501.0000        15.0379         2.7879         0.3329       1446.982         0.3216        -0.0526          48.25       44.65829        3460.04         0.3361         0.3239          0.315         0.3043         0.2921         0.3395         0.3253          0.315         0.3028          0.289         0.4305         2.1194          0.054      -32.59782       135.1846       2816.799      0.2480487      0.4308111
      4501.5000        15.0994         2.8494         0.3772       1438.829         0.3163        -0.0512        48.6046       45.07076       3299.835         0.3542         0.3418         0.3328         0.3218         0.3094         0.3577         0.3423         0.3312         0.3179          0.303         0.4311         2.1281         0.0529      -31.38644       135.9892       2817.311      0.2568246       0.454107
      4502.0000        15.1068         2.8568         0.4267       1453.097         0.3067        -0.0489        51.1078        47.9845       3165.929         0.3874         0.3707         0.3587         0.3443         0.3283          0.382          0.363         0.3495         0.3335         0.3159          0.421         2.1439         0.0502      -31.84303       135.6875       2814.922      0.3188191      0.4453264
      4502.5000        15.2231         2.9731         0.4501       1451.058         0.3033        -0.0442        53.1469       50.35795       3125.024         0.4134         0.3908         0.3749         0.3562         0.3358         0.3999         0.3764           0.36         0.3408           0.32         0.4261         2.1496         0.0505      -33.33448       134.6994       2810.828      0.3693181      0.4166446
      4503.0000        15.3242         3.0742         0.4377       1451.058         0.3125        -0.0427        51.4572       48.39058       3205.564         0.4111         0.3853         0.3674         0.3467         0.3243         0.3997         0.3735         0.3553         0.3344          0.312         0.4356         2.1344         0.0565      -35.67327       133.1493       2809.804      0.3274592      0.3716679
      4503.5000        15.3607         3.1107         0.4001       1451.058         0.3348        -0.0563        48.4534        44.8934        3369.43         0.3877         0.3612         0.3431         0.3222         0.2999          0.384         0.3577         0.3396         0.3189         0.2968         0.4223         2.0975         0.0592       -38.3421       131.3803       2810.316       0.253051      0.3203443
      4504.0000        15.4042         3.1542         0.3701       1451.058         0.3466        -0.0697        50.0492        46.7508       3514.768         0.3628         0.3368         0.3191         0.2988         0.2773         0.3674         0.3425         0.3253         0.3056         0.2845         0.4056         2.0782         0.0544      -38.73627         131.12       2809.804      0.2925703       0.312764
      4504.5000        15.4266         3.1766         0.3384       1438.829         0.3374        -0.0606        57.3868       55.29245        3507.95          0.354         0.3318         0.3163         0.2984         0.2791         0.3571         0.3359         0.3211         0.3038         0.2851         0.4181         2.0933         0.0482      -34.77741       133.7469        2808.61      0.4743075      0.3888959
      4505.0000        15.3019         3.0519         0.3319       1444.944         0.3124        -0.0372         64.083       63.08743       3350.029         0.3539         0.3391         0.3285         0.3157         0.3014         0.3566         0.3401         0.3282         0.3141         0.2985         0.4446         2.1345         0.0543      -27.75013        138.409       2807.074      0.6401581      0.5240359
      4505.5000        14.8446         2.5946         0.3221       1428.638         0.2853        -0.0277        64.9278       64.07056       3133.979          0.359         0.3494         0.3423         0.3336         0.3235         0.3685         0.3548         0.3448         0.3327         0.3191         0.4562         2.1793         0.0586      -22.19448        142.095       2807.757      0.6610758      0.6308755
      4506.0000        14.5267         2.2767          0.339       1438.829         0.2734        -0.0341        60.0934       58.44231       2940.336          0.388         0.3796         0.3732         0.3654         0.3562         0.3886         0.3752         0.3654         0.3536         0.3401         0.4381         2.1989         0.0574      -21.48261       142.5683        2811.51      0.5413258      0.6445652
      4506.5000        14.3042         2.0542         0.4228       1440.867         0.2887        -0.0381        51.8953       48.89825       2893.577         0.4274         0.4154         0.4066         0.3958         0.3834         0.4005         0.3852         0.3741         0.3607         0.3456         0.3967         2.1737         0.0579      -25.74821       139.7402       2812.534      0.3382607      0.5625344
      4507.0000        14.2357         1.9857         0.4332       1438.829         0.3239        -0.0408        42.7741       38.27958       3108.197         0.4085         0.3906         0.3777         0.3624         0.3452         0.3864         0.3679         0.3547         0.3391         0.3217         0.3669         2.1155         0.0555      -32.24372       135.4331       2813.046      0.1123316      0.4376208
      4507.5000        14.3777         2.1277         0.3849       1430.675         0.3506        -0.0536        37.6268       32.28708       3518.414         0.3552         0.3348         0.3205         0.3038         0.2856         0.3509         0.3314         0.3178         0.3017         0.2842         0.3568         2.0716           0.05      -37.90078       131.6821        2814.24              0      0.3288311
      4508.0000        14.4184         2.1684         0.3334       1438.829         0.3528        -0.0696        38.1744       32.92422        3939.03          0.319         0.2982         0.2838         0.2672         0.2494         0.3153         0.2973         0.2847         0.2699         0.2539         0.3545         2.0679         0.0441      -41.49745       129.2977       2815.776              0      0.2596644
      4508.5000        14.4449         2.1949         0.3086       1438.829         0.3524        -0.0758        41.6477        36.9673       4236.892         0.2917         0.2743         0.2622         0.2481         0.2328         0.2889         0.2736         0.2627           0.25          0.236         0.3584         2.0685         0.0413      -43.94328       127.6766       2819.188     0.08441065      0.2126293
      4509.0000        14.6319         2.3819         0.2994       1444.944         0.3533        -0.0637        41.6633       36.98513       4374.688          0.275         0.2613         0.2516           0.24         0.2273         0.2722         0.2598         0.2509         0.2404         0.2286         0.3597         2.0671           0.04      -45.73795       126.4874       2817.994     0.08479001      0.1781163
      4509.5000        15.1071         2.8571         0.3058       1451.058         0.3498        -0.0388        41.6477       36.96662       4389.784         0.2674         0.2564         0.2485         0.2389         0.2282         0.2631         0.2533         0.2461         0.2375         0.2278         0.3626         2.0728         0.0368      -46.93494       125.6946       2814.752      0.0843962      0.1550973
