#------------------------------------------------------------------------------
# Created by    : vladimir.rabinovich
# Created on    : 09/19/2023 17:20:23
#------------------------------------------------------------------------------
~Version Information Section
VERS.           2.0     :   CWLS log ASCII Standard - VERSION 2.0
WRAP.           NO      :   One line per depth step
~Well Information Section
#MNEM       .UNIT                                         VALUE :DESCRIPTION
#------------------------------------------------------------------------------
STRT        .FT                                            3532 :START DEPTH
STOP        .FT                                           13690 :STOP DEPTH
STEP        .FT                                             0.5 :STEP      
NULL        .                                           -999.25 :NULL      
COMP        .                              VASTAR RESOURCES INC :COMPANY   
WELL        .                                     ST TR 00023-L :WELL      
FLD         .                          HIGH ISLAND BLOCK 0024-L :FIELD     
LOC         .                                                   :LOCATION  
CNTY        .                           HIGH ISLAND LARGE BLOCK :LOCATION  
STAT        .                                             TEXAS :STATE     
CTRY        .                                     UNITED STATES :COUNTRY   
SRVC        .                                                   :SERVICE COMPANY
DATE        .                             9/13/2023 11:19:15 AM :LOG DATE  
API         .                                    42708300330000 :API NUMBER
UWI         .                                    42708300330000 :UNIQUE WELL ID
XCOORD      .                                  1290562.53578251 :SURFACE X 
YCOORD      .                                  10712997.1214806 :SURFACE Y 
LAT         .                                        29.5146054 :LATITUDE  
LON         .                                       -94.1002609 :LONGITUDE 
ELEV        .FT                                              79 :ELEVATION VALUE
ELEV_TYPE   .                                                KB :ELEVATION REFERENCE TYPE
~Curve Information Section
#MNEM       .UNIT                                      API CODE :CURVE DESCRIPTION
#------------------------------------------------------------------------------
DEPT        .FT                                                 :DEPTH     
ASN         .OHMM                                               :          
CILD        .MMHO                                               :          
ILD         .OHMM                                               :          
SP          .MV                                                 :          
SP_NORM     .MV                                                 :SP Normalized
VSH_SP      .V/V                                                :Volume of Shale from SP
~A        DEPTH            ASN           CILD            ILD             SP        SP_NORM         VSH_SP
# ...
      4216.0000          1.058       3903.711         0.2825      -152.8662      -84.84766     0.05789142
      4216.5000         1.0392       4006.563         0.2711      -153.6807      -85.66383     0.04872106
      4217.0000         1.0205       4129.023         0.2614      -154.1423       -86.1271     0.04351575
      4217.5000         1.0017        4271.18         0.2516      -154.0154      -86.00185     0.04492299
      4218.0000         0.9829       4309.914         0.2418      -153.3789      -85.36703     0.05205579
      4218.5000         0.9833       4142.523          0.232      -152.7419      -84.73169      0.0591945
      4219.0000          1.009       4031.598         0.2222      -152.1055      -84.09695     0.06632636
      4219.5000         1.0348       3993.125         0.2212      -151.4685      -83.46162      0.0734649
      4220.0000         1.0605       3837.203         0.2288      -150.8315      -82.82629     0.08060353
      4220.5000         1.0862       3637.777         0.2363      -150.2695      -82.26595     0.08689941
      4221.0000          1.112        3572.16         0.2438      -149.7302      -81.72831     0.09294034
      4221.5000         1.1377       3521.063         0.2514      -149.8696      -81.86938     0.09135523
      4222.0000         1.1303       3518.742         0.2512      -150.1035      -82.10495     0.08870843
      4222.5000         1.1051       3540.285         0.2511      -150.3376      -82.34071      0.0860594
      4223.0000         1.0646       3561.824          0.251      -150.5715      -82.57628      0.0834126
      4223.5000         1.0241       3583.367         0.2508      -150.8057      -82.81214     0.08076245
      4224.0000         0.9836       3604.918         0.2507      -150.3157      -82.32381     0.08624928
      4224.5000         0.9498       3626.461         0.2506      -149.5691      -81.57888     0.09461932
      4225.0000         0.9319       3649.168         0.2543      -148.8223      -80.83373      0.1029918
      4225.5000         0.9139        3676.59         0.2599      -148.0757      -80.08881      0.1113617
      4226.0000         0.8959       3577.918         0.2654      -147.2161      -79.23087      0.1210015
      4226.5000          0.889       3448.277         0.2709      -146.0481      -78.06453      0.1341064
      4227.0000         0.8994       3322.605         0.2765      -144.8811      -76.89921      0.1471999
      4227.5000         0.9308       3241.355         0.3013      -143.7131      -75.73287      0.1603048
      4228.0000         0.9711       3158.965         0.3267      -142.5461      -74.56753      0.1733986
      4228.5000         1.0114       3075.234         0.3521      -141.4353       -73.4584      0.1858607
      4229.0000         1.0517       2783.191         0.3789      -140.5776      -72.60237       0.195479
      4229.5000         1.0834        2399.43         0.4087      -140.9617      -72.98813      0.1911446
      4230.0000         1.1092       2262.355         0.4385        -142.49       -74.5181       0.173954
      4230.5000          1.135       2241.586         0.4548      -144.0183      -76.04805      0.1567635
      4231.0000         1.1609       2224.496         0.4234      -145.5457      -77.57713      0.1395829
      4231.5000         1.1867       2236.461         0.3919      -147.0417      -79.07479      0.1227552
      4232.0000         1.1931       3010.711         0.3604      -148.4189      -80.45365      0.1072623
      4232.5000         1.1574       3232.371          0.329      -149.7971      -81.83353     0.09175812
      4233.0000         1.0938       3393.281         0.2975       -151.178      -83.21608     0.07622382
      4233.5000         1.0303        3834.82         0.2718      -152.6401      -84.67986     0.05977691
      4234.0000         0.9667        3973.75         0.2509      -154.0698      -86.11121     0.04369431
      4234.5000         0.9031       4027.965         0.2314      -154.8577      -86.90078      0.0348227
      4235.0000         0.8663       4122.672         0.2219      -154.6755      -86.72025     0.03685109
      4235.5000         0.8386       4585.922         0.2125      -154.4934       -86.5398     0.03887862
      4236.0000         0.8278       4614.813         0.2031      -154.2534      -86.30148     0.04155646
      4236.5000          0.817       4643.063         0.1944       -153.968      -86.01775     0.04474443
      4237.0000         0.8061       4666.078         0.1911      -153.6826      -85.73401     0.04793249
      4237.5000          0.789       4689.109         0.1879       -153.397      -85.45007     0.05112277
      4238.0000         0.7685       4705.891         0.1846      -153.1116      -85.16634     0.05431075
      4238.5000         0.7479       4719.094         0.2004      -152.8259       -84.8823     0.05750223
      4239.0000         0.7274       4609.477         0.2172      -151.8638      -83.92187     0.06829362
      4239.5000         0.7069       4489.859          0.234      -150.4949      -82.55463      0.0836558
      4240.0000         0.6864       4390.594         0.2507      -147.9932       -80.0546      0.1117461
      4240.5000          0.666       4074.977         0.2675      -129.9036      -61.96666      0.3149813
      4241.0000         0.6456        4011.25         0.2843      -122.9716      -55.03633      0.3928502
      4241.5000         0.6253       3679.965          0.301      -110.9493      -43.01569      0.5279136
      4242.0000         0.6092       2890.996         0.3178      -108.5397      -40.60777       0.554969
      4242.5000         0.5932       2749.047         0.3345      -106.1301      -38.19982      0.5820245
      4243.0000         0.5771       2620.395         0.3513      -103.7186      -35.78999      0.6091013
      4243.5000         0.5609       2534.086         0.3681       -101.309      -33.38206      0.6361567
      4244.0000         0.5444       2475.566          0.394       -97.6255      -29.70023      0.6775256
      4244.5000         0.5762       2379.578         0.4291      -109.2625      -41.33888      0.5467541
      4245.0000          0.614        2352.18         0.4521      -115.2025      -47.28055      0.4799938
      4245.5000         0.6517       2595.184         0.4286      -117.4536      -49.53332      0.4546818
      4246.0000         0.6895        2771.48          0.405      -118.8114      -50.89278      0.4394069
      4246.5000         0.6996       2876.305         0.3814      -119.9692      -52.05225      0.4263793
      4247.0000         0.6946       2988.773         0.3579      -121.1271      -53.21181      0.4133505
      4247.5000         0.6699       3228.305         0.3332      -123.2002      -55.28658      0.3900384
      4248.0000         0.6451        3319.48         0.3082      -125.4015      -57.48954      0.3652861
      4248.5000         0.6204       3374.621         0.2831      -133.2441       -65.3338      0.2771483
      4249.0000         0.5956       3420.406         0.2581      -129.9551      -62.04647      0.3140846
      4249.5000         0.5708       3408.371         0.2382      -123.5394      -55.63244      0.3861524
      4250.0000         0.5483       3265.527         0.2671      -115.9658       -48.0605      0.4712303
      4250.5000         0.5574       3122.781         0.2952      -103.7758      -35.87217      0.6081779
      4251.0000         0.6023       2882.262         0.3226       -91.4161      -23.51414      0.7470322
      4251.5000         0.6759       2578.703           0.35        -123.58       -55.6797      0.3856213
      4252.0000         0.7496       2466.809         0.3775      -129.5273      -61.62866      0.3187791
      4252.5000         0.8337       2433.652         0.4005      -133.9485      -66.05153      0.2690839
      4253.0000         0.9227       2474.871         0.3965      -138.0339       -70.1386      0.2231618
      4253.5000          1.053       2541.379         0.3926      -143.2993      -75.40566      0.1639813
