#------------------------------------------------------------------------------
# Created by    : vladimir.rabinovich
# Created on    : 09/19/2023 17:22:41
#------------------------------------------------------------------------------
~Version Information Section
VERS.           2.0     :   CWLS log ASCII Standard - VERSION 2.0
WRAP.           NO      :   One line per depth step
~Well Information Section
#MNEM       .UNIT                                         VALUE :DESCRIPTION
#------------------------------------------------------------------------------
STRT        .FT                                            2948 :START DEPTH
STOP        .FT                                            8770 :STOP DEPTH
STEP        .FT                                             0.5 :STEP      
NULL        .                                           -999.25 :NULL      
COMP        .                 BROOKLYN UNION EXPLORATION CO INC :COMPANY   
WELL        .                               OCS G07238 ST00BP00 :WELL      
FLD         .                                           WILDCAT :FIELD     
LOC         .                                                   :LOCATION  
CNTY        .                             GALVESTON LARGE BLOCK :LOCATION  
STAT        .                                             TEXAS :STATE     
CTRY        .                                     UNITED STATES :COUNTRY   
SRVC        .                                                   :SERVICE COMPANY
DATE        .                             9/13/2023 11:19:34 AM :LOG DATE  
API         .                                    42706402470000 :API NUMBER
UWI         .                                    42706402470000 :UNIQUE WELL ID
XCOORD      .                                  1057740.92261072 :SURFACE X 
YCOORD      .                                   10547901.298013 :SURFACE Y 
LAT         .                                         29.052568 :LATITUDE  
LON         .                                        -94.824133 :LONGITUDE 
ELEV        .FT                                              85 :ELEVATION VALUE
ELEV_TYPE   .                                                KB :ELEVATION REFERENCE TYPE
~Curve Information Section
#MNEM       .UNIT                                      API CODE :CURVE DESCRIPTION
#------------------------------------------------------------------------------
DEPT        .FT                                                 :DEPTH     
DCAL        .IN                                                 :          
DT          .US/F                                               :          
GR          .GAPI                                               :          
GR_NORM     .GAPI                                               :GammaRay Normalized
ILD         .OHMM                                               :          
ILM         .OHMM                                               :          
SFL         .OHMM                                               :          
SP          .MV                                                 :          
SP_NORM     .MV                                                 :SP Normalized
VSH_GR      .V/V                                                :Volume of Shale from GR
VSH_SP      .V/V                                                :Volume of Shale from SP
~A        DEPTH           DCAL             DT             GR        GR_NORM            ILD            ILM            SFL             SP        SP_NORM         VSH_GR         VSH_SP
# ...
      3015.5000        12.7395       173.4963        37.8647       61.74319         0.4823         0.4957         0.5482       -48.9434       1.904057      0.6115573              1
      3016.0000        12.9332       175.6108        37.8931       61.57303         0.4643         0.4681         0.5101       -48.5201       2.327358      0.6079369              1
      3016.5000        13.0368       176.0383        38.5464       62.20647         0.4529         0.4532         0.4932       -48.1362       2.711258      0.6214144              1
      3017.0000         12.973       171.6348        39.1204       62.73796         0.4601         0.4528         0.4909       -47.7109       3.136559      0.6327227              1
      3017.5000        12.7781       165.1694         40.499       64.30418         0.4773         0.4745          0.494       -47.4403       3.407158      0.6660463              1
      3018.0000        12.0304       159.4187        45.1996       70.14249         0.4975         0.4975         0.5048       -47.4335        3.41396      0.7902657              1
      3018.5000          9.471       152.9766        48.8351       74.61109         0.5168         0.5189         0.5199        -47.395       3.452457      0.8853424              1
      3019.0000         8.7794       146.3215         50.891        77.0483         0.5328          0.544         0.5469       -47.9542       2.893257      0.9371979              1
      3019.5000           7.98       144.1953         51.594       77.74568         0.5492         0.5858         0.6043       -48.7151       2.132359      0.9520358              1
      3020.0000         8.3619       144.0671        49.3745       74.68468         0.5582         0.6211         0.6962       -49.7891       1.058357      0.8869082              1
      3020.5000         8.8929       144.4187        45.7404       69.80451         0.5666         0.6417         0.8198       -51.4371     -0.5896416      0.7830747      0.9892793
      3021.0000         9.6455       143.7393        43.3813       66.56402         0.5847         0.6482         0.8381       -52.7697      -1.922241      0.7141281      0.9650502
      3021.5000         9.6421       142.0422        45.5724       69.17509         0.5981         0.6494         0.7407        -54.072      -3.224541      0.7696827       0.941372
      3022.0000         8.6718       141.0461        50.1596       74.86758         0.6069         0.6449         0.6729       -55.0728      -4.225342      0.8907995      0.9231756
      3022.5000         7.7907       141.8567        52.6754       77.89624         0.6083         0.6393         0.6353       -54.4997      -3.652241      0.9552392      0.9335956
      3023.0000         6.9671       143.7119        54.1493       79.58499         0.6089         0.6311         0.6356       -53.4113      -2.563843        0.99117      0.9533847
      3023.5000         5.9646       145.0916         54.366       79.65698          0.611         0.6233         0.6535       -52.8632      -2.015743      0.9927018      0.9633501
      3024.0000         5.1495       145.6108         54.325       79.39758         0.6145         0.6171         0.6778       -52.6524      -1.804943      0.9871824      0.9671829
      3024.5000         4.8156       145.8567        54.7863       79.78412         0.6165         0.6147         0.6966       -52.6649      -1.817444      0.9954068      0.9669555
      3025.0000         5.0098       146.3923         55.605       80.63028         0.6141         0.6231         0.7182       -52.8231      -1.975643              1      0.9640792
      3025.5000         5.0594       147.1816        56.2225        81.2177         0.6117         0.6307         0.7335       -52.9207      -2.073242              1      0.9623047
      3026.0000         4.9041       148.0649        56.8922       81.87225         0.6092         0.6279         0.7398       -52.9857      -2.138241              1      0.9611229
      3026.5000          4.752       148.7903        57.7762        82.8024         0.6066         0.6242         0.7063       -53.0367      -2.189243              1      0.9601956
      3027.0000         4.6586       149.2578        57.3446       82.04067         0.6039         0.6172         0.6649       -52.8641      -2.016644              1      0.9633337
      3027.5000         4.5041       148.6235        56.5194       80.77277         0.6002         0.6102         0.6368       -52.5944      -1.746941              1      0.9682375
      3028.0000          4.195        145.427        55.5529       79.32314         0.5964         0.6031         0.6299       -52.5242      -1.676743      0.9855988      0.9695138
      3028.5000         3.7922       143.3843        54.7582       78.09447         0.5898         0.5957         0.6564       -52.6206      -1.773144      0.9594569       0.967761
      3029.0000         3.5542       143.3508        56.6465       80.31615         0.5766         0.5884         0.6657       -52.7258      -1.878342              1      0.9658483
      3029.5000         4.5421       145.0994        59.1339       83.30827         0.5637         0.5827         0.6507       -52.6901      -1.842644              1      0.9664974
      3030.0000         5.2353       146.8496        58.4636       82.23957         0.5555         0.5789          0.624       -51.8809      -1.033443              1      0.9812101
      3030.5000         4.6537       148.3071        56.2047       79.12792         0.5484         0.5776         0.5953       -50.9461    -0.09864044      0.9814451      0.9982066
      3031.0000         4.2267       147.9155        54.6066       76.86606         0.5485         0.5781         0.5778       -50.3662      0.4812584      0.9333204              1
      3031.5000         4.9021       149.5146        56.5611       79.17287         0.5519         0.5783         0.5683       -50.1776       0.669857      0.9824014              1
      3032.0000         5.8352       151.2859         55.959       78.19189         0.5534         0.5775         0.5752       -50.3911       0.456356      0.9615295              1
      3032.5000         6.3319        151.959        52.5174       73.55927         0.5534         0.5767         0.6059       -50.7578     0.08965683      0.8629631              1
      3033.0000           6.75       150.2207        50.3176       70.52362         0.5533         0.5772         0.6417       -51.0563     -0.2088432      0.7983749      0.9962028
      3033.5000         6.8322       147.5591        49.2968       69.00417          0.557         0.5796         0.6789       -51.2771     -0.4296417      0.7660461      0.9921883
      3034.0000         6.4473       144.7859        48.2471       67.44756         0.5613          0.582         0.7171       -51.3557     -0.5082436      0.7329269      0.9907592
      3034.5000         5.9981       142.5554        49.5436       68.90818         0.5673         0.5879         0.7451       -51.8401     -0.9926414      0.7640038       0.981952
      3035.0000         5.5127       140.7644          51.12       70.72876          0.579         0.5949         0.7032       -52.6573      -1.809841      0.8027396      0.9670938
      3035.5000         4.9997       141.7476        52.6106       72.43898         0.5898         0.5982         0.6521       -53.2056      -2.358143      0.8391272      0.9571247
      3036.0000         4.5766       143.1821        54.4431       74.58892         0.5868         0.5987         0.6044       -53.5116      -2.664143      0.8848706       0.951561
      3036.5000         4.9864       143.9583        56.6422       77.21029         0.5839         0.5986         0.5858       -52.7048      -1.857342      0.9406444      0.9662302
      3037.0000         5.3717        144.272        55.2084       75.15973         0.5724          0.597         0.5951       -51.4272     -0.5797424      0.8970155      0.9894592
      3037.5000         5.6752       144.7114        52.5878       71.58292         0.5605         0.5947          0.625       -50.4332       0.414257      0.8209133              1
