#------------------------------------------------------------------------------
# Created by    : vladimir.rabinovich
# Created on    : 09/19/2023 17:22:34
#------------------------------------------------------------------------------
~Version Information Section
VERS.           2.0     :   CWLS log ASCII Standard - VERSION 2.0
WRAP.           NO      :   One line per depth step
~Well Information Section
#MNEM       .UNIT                                         VALUE :DESCRIPTION
#------------------------------------------------------------------------------
STRT        .FT                                            2432 :START DEPTH
STOP        .FT                                            8088 :STOP DEPTH
STEP        .FT                                             0.5 :STEP      
NULL        .                                           -999.25 :NULL      
COMP        .                                  XTO OFFSHORE INC :COMPANY   
WELL        .                               OCS G23162 ST00BP00 :WELL      
FLD         .                                 BRAZOS BLOCK 0398 :FIELD     
LOC         .                                                   :LOCATION  
CNTY        .                                BRAZOS LARGE BLOCK :LOCATION  
STAT        .                                             TEXAS :STATE     
CTRY        .                                     UNITED STATES :COUNTRY   
SRVC        .                                                   :SERVICE COMPANY
DATE        .                             9/13/2023 11:09:58 AM :LOG DATE  
API         .                                    42704403400000 :API NUMBER
UWI         .                                    42704403400000 :UNIQUE WELL ID
XCOORD      .                                  869002.191083907 :SURFACE X 
YCOORD      .                                  10369331.9113669 :SURFACE Y 
LAT         .                                        28.5523806 :LATITUDE  
LON         .                                       -95.4033279 :LONGITUDE 
ELEV        .FT                                             100 :ELEVATION VALUE
ELEV_TYPE   .                                                KB :ELEVATION REFERENCE TYPE
~Curve Information Section
#MNEM       .UNIT                                      API CODE :CURVE DESCRIPTION
#------------------------------------------------------------------------------
DEPT        .FT                                                 :DEPTH     
CO12        .MMHO                                               :          
DCAL        .IN                                                 :          
DPHI        .FRAC                                               :          
DRHO        .G/CC                                               :          
GR          .GAPI                                               :          
GR_NORM     .GAPI                                               :GammaRay Normalized
HO01        .OHMM                                               :          
HO02        .OHMM                                               :          
HO03        .OHMM                                               :          
HO06        .OHMM                                               :          
HO09        .OHMM                                               :          
HO12        .OHMM                                               :          
NPHI        .FRAC                                               :          
RWA         .OHMM                                               :          
SP          .MV                                                 :          
SP_NORM     .MV                                                 :SP Normalized
TENS        .LB/F                                               :          
VSH_GR      .V/V                                                :Volume of Shale from GR
VSH_SP      .V/V                                                :Volume of Shale from SP
~A        DEPTH           CO12           DCAL           DPHI           DRHO             GR        GR_NORM           HO01           HO02           HO03           HO06           HO09           HO12           NPHI            RWA             SP        SP_NORM           TENS         VSH_GR         VSH_SP
# ...
      4349.0000       2813.175         0.8442         0.3547        -0.0054        65.6657        45.3576         0.4944         0.4048         0.3681         0.3358          0.376         0.3595         0.3639          0.062        43.6284      -23.41433       3930.532      0.2629277     0.02662121
      4349.5000       2938.058         0.9211         0.3559        -0.0024        65.8763       45.66645         0.4481         0.3972         0.3626         0.3229         0.3593         0.3407         0.3716         0.0581        43.6815      -23.36296       4021.854      0.2694989     0.02895615
      4350.0000       3122.817         1.0133         0.3524         0.0039        67.3452       47.79928         0.4427         0.3799         0.3458         0.3134         0.3439         0.3229         0.3667         0.0572        43.7512        -23.295        3979.81      0.3148783     0.03204536
      4350.5000        3315.55         1.0287         0.3509         0.0038        67.6401       48.23034         0.4284         0.3696         0.3354         0.3033         0.3217         0.2998          0.367         0.0527        43.8575      -23.19044       3879.898      0.3240498     0.03679796
      4351.0000       3490.966         1.1286          0.351        -0.0023        66.9391        47.2178         0.4666         0.3396         0.3087         0.2943         0.3072         0.2846         0.3617         0.0515        43.8575      -23.19218       3792.871      0.3025064     0.03671924
      4351.5000       3613.069         1.1517         0.3534        -0.0121        65.8622       45.66035          0.481         0.3262         0.2962         0.2866         0.2991          0.276         0.3673         0.0515        43.7446      -23.30682         3728.9      0.2693691     0.03150836
      4352.0000       3692.662         1.1055         0.3554        -0.0182        64.2524       43.33046         0.4903         0.3195         0.2886         0.2773         0.2932         0.2701         0.3818         0.0509        43.5388      -23.51435       3674.423       0.219797     0.02207479
      4352.5000        3734.56         1.1286         0.3546        -0.0167        61.6393       39.54622         0.4911         0.3156         0.2836         0.2716         0.2893         0.2665         0.3753         0.0495        43.2799      -23.77499       3627.631      0.1392813      0.0102279
      4353.0000       3772.975         0.9441         0.3498        -0.0084        59.2159       36.03696         0.5015         0.3082         0.2753         0.2677         0.2896         0.2667         0.3721         0.0476        43.0276      -24.02903        3608.87      0.0646161              0
      4353.5000       3795.993         0.9288          0.343         0.0027        58.6338       35.19675         0.5079         0.3012         0.2684         0.2643         0.2838          0.262         0.3657         0.0439        42.8915      -24.16687       3619.267     0.04673938              0
      4354.0000       3836.065         0.9365         0.3361         0.0116        60.4639       37.85316         0.3959         0.3317         0.2969         0.2617         0.2832         0.2617         0.3811         0.0419        42.9413       -24.1188       3636.899      0.1032588              0
      4354.5000       3841.849         0.9749         0.3327         0.0153        61.8699        39.8948         0.3845         0.3289         0.2959         0.2608         0.2792         0.2584         0.3711         0.0414        43.2035      -23.85834       3642.098      0.1466979    0.006439209
      4355.0000       3854.597         1.0594         0.3319         0.0146         62.239       40.43342         0.3807         0.3261         0.2949         0.2613         0.2819         0.2608         0.3748         0.0415        43.5952      -23.46838       3631.022      0.1581579     0.02416472
      4355.5000       3809.168         1.1132         0.3334         0.0107        61.4823       39.34012         0.3905         0.3254         0.2939         0.2622         0.2801         0.2591         0.3629         0.0418        43.8176      -23.24771       3612.034      0.1348962     0.03419512
      4356.0000       3780.613         1.1978         0.3361         0.0061        62.6329       41.01156         0.4085         0.3308          0.296         0.2643         0.2906         0.2679         0.3755         0.0434        43.8508      -23.21625       3592.142      0.1704587     0.03562511
      4356.5000        3690.02         1.3899           0.34        -0.0012        64.2495       43.35848          0.416         0.3367            0.3         0.2719         0.2892         0.2667         0.3707         0.0451        43.8641      -23.20469       3574.058      0.2203932     0.03615067
      4357.0000       3627.637         1.4207         0.3449        -0.0088        66.6987        46.9123         0.4164         0.3472         0.3098         0.2855         0.3026         0.2787         0.3574         0.0475        43.9073      -23.16322       3566.147      0.2960065     0.03803548
      4357.5000       3571.274         1.2285         0.3501        -0.0144        68.5835         49.648         0.4393         0.3573         0.3194         0.2864         0.3052          0.282         0.3623         0.0498        43.9139      -23.15836        3569.99      0.3542127     0.03825638
      4358.0000       3593.474         1.0594         0.3532        -0.0124         70.475        52.3934         0.4571         0.3519         0.3121         0.2801         0.3002         0.2793         0.3694         0.0508        43.9869       -23.0871       3578.805      0.4126256     0.04149558
      4358.5000       3605.476         1.0441         0.3525        -0.0036        71.0854       53.28179         0.4017         0.3321         0.3039         0.2742         0.2915         0.2736         0.3637         0.0496        44.3886      -22.68713       3585.587      0.4315274     0.05967591
      4359.0000        3594.29         1.1824          0.349         0.0061          71.14       53.36451         0.3553         0.3258          0.303         0.2732          0.295         0.2792         0.3561          0.048         45.338      -21.73947       3586.717      0.4332875      0.1027515
      4359.5000       3503.782         1.2823         0.3432         0.0098        72.3885       55.17786         0.3643         0.3194         0.2969         0.2712         0.2949          0.282         0.3528         0.0472        47.0609      -20.01831       3586.717      0.4718693      0.1809861
      4360.0000        3372.94         1.3131         0.3343         0.0075        75.8065       60.13602         0.3931         0.3191          0.297         0.2713         0.3063         0.2956         0.3653         0.0466        49.7399      -17.34104       3594.629      0.5773621      0.3026799
      4360.5000       3126.233         1.4745         0.3215         0.0035        80.8235       67.41198         0.3795         0.3502         0.3346         0.2861         0.3221         0.3135         0.3684         0.0456        52.8272      -14.25548       3610.904      0.7321698      0.4429328
      4361.0000       2814.798         1.7051         0.3088        -0.0012        84.7689        73.1346         0.3899         0.4007         0.3932          0.341         0.3644         0.3564         0.3808         0.0442        55.7252      -11.35922       3623.788      0.8539276       0.574581
      4361.5000       2483.386         1.4514         0.2996         -0.005        86.3997       75.50212         0.5114         0.4321         0.4202         0.4225         0.4167         0.4084         0.3932         0.0475        57.2522       -9.83395       3617.233      0.9043005      0.6439114
      4362.0000       2215.151         1.3899         0.2987        -0.0085        84.5062       72.76098         0.6777         0.4683         0.4368         0.4659         0.4644         0.4555         0.3861         0.0525        57.2423      -9.845592       3592.594      0.8459783      0.6433821
