#------------------------------------------------------------------------------
# Created by    : vladimir.rabinovich
# Created on    : 09/19/2023 17:22:54
#------------------------------------------------------------------------------
~Version Information Section
VERS.           2.0     :   CWLS log ASCII Standard - VERSION 2.0
WRAP.           NO      :   One line per depth step
~Well Information Section
#MNEM       .UNIT                                         VALUE :DESCRIPTION
#------------------------------------------------------------------------------
STRT        .FT                                             494 :START DEPTH
STOP        .FT                                            6854 :STOP DEPTH
STEP        .FT                                             0.5 :STEP      
NULL        .                                           -999.25 :NULL      
COMP        .                          HUMBLE OIL & REFINING CO :COMPANY   
WELL        .                                     ST TR 00247-L :WELL      
FLD         .                                           WILDCAT :FIELD     
LOC         .                                                   :LOCATION  
CNTY        .                             GALVESTON LARGE BLOCK :LOCATION  
STAT        .                                             TEXAS :STATE     
CTRY        .                                     UNITED STATES :COUNTRY   
SRVC        .                                                   :SERVICE COMPANY
DATE        .                             9/13/2023 11:19:42 AM :LOG DATE  
API         .                                    42706000180000 :API NUMBER
UWI         .                                    42706000180000 :UNIQUE WELL ID
XCOORD      .                                  979775.061814126 :SURFACE X 
YCOORD      .                                  10543201.0009156 :SURFACE Y 
LAT         .                                        29.0361078 :LATITUDE  
LON         .                                       -95.0678326 :LONGITUDE 
ELEV        .FT                                              11 :ELEVATION VALUE
ELEV_TYPE   .                                                KB :ELEVATION REFERENCE TYPE
~Curve Information Section
#MNEM       .UNIT                                      API CODE :CURVE DESCRIPTION
#------------------------------------------------------------------------------
DEPT        .FT                                                 :DEPTH     
LAT         .OHMM                                               :          
LN          .OHMM                                               :          
SN          .OHMM                                               :          
SP          .MV                                                 :          
SP_NORM     .MV                                                 :SP Normalized
VSH_SP      .V/V                                                :Volume of Shale from SP
~A        DEPTH            LAT             LN             SN             SP        SP_NORM         VSH_SP
# ...
      6384.0000         0.5914         0.6777         0.6114       -52.3583       -10.7695      0.8473516
      6384.5000         0.5944         0.6737         0.6104       -52.5475      -10.92598      0.8449066
      6385.0000         0.5973         0.6699         0.6093       -52.7262      -11.07196      0.8426257
      6385.5000         0.6003         0.6665         0.6063       -52.9047      -11.21774      0.8403479
      6386.0000         0.6033         0.6631          0.603       -53.0834      -11.36372      0.8380669
      6386.5000         0.6062         0.6596         0.5998        -53.262      -11.50959      0.8357876
      6387.0000         0.6086         0.6562         0.5965       -53.4407      -11.65557      0.8335066
      6387.5000         0.6109         0.6528         0.5932       -53.5404      -11.72255      0.8324601
      6388.0000         0.6132         0.6494           0.59       -53.0325      -11.18193      0.8409073
      6388.5000         0.6155          0.647         0.5867       -52.5253      -10.64201      0.8493436
      6389.0000         0.6179         0.6502         0.5835       -52.0179      -10.10189       0.857783
      6389.5000         0.6202         0.6535         0.5802       -51.5107       -9.56197      0.8662192
      6390.0000         0.6246         0.6567         0.5808       -51.0715      -9.090046       0.873593
      6390.5000         0.6305         0.6599         0.5847        -50.741       -8.72683      0.8792683
      6391.0000         0.6364         0.6631         0.5886       -50.4105      -8.363605      0.8849437
      6391.5000         0.6423         0.6655         0.5925         -50.08      -8.000389      0.8906189
      6392.0000         0.6474         0.6642         0.5964       -50.1775      -8.065166      0.8896068
      6392.5000         0.6497          0.663         0.6003       -50.5232      -8.378147      0.8847165
      6393.0000          0.652         0.6617         0.6042       -50.8692      -8.691425      0.8798215
      6393.5000         0.6543         0.6605         0.6081        -51.215      -9.004505      0.8749296
      6394.0000         0.6567         0.6602          0.612       -51.5607      -9.317482      0.8700393
      6394.5000         0.6563         0.6637         0.6098       -51.8474      -9.571461      0.8660709
      6395.0000         0.6479         0.6672         0.6061       -51.9483      -9.639641      0.8650056
      6395.5000         0.6395         0.6707         0.6024       -52.0493       -9.70792      0.8639387
      6396.0000          0.631         0.6742         0.5987       -52.1503      -9.776199      0.8628719
      6396.5000         0.6226         0.6777          0.595       -52.2145      -9.807678        0.86238
      6397.0000         0.6142         0.6812         0.5913       -51.7361      -9.296558      0.8703663
      6397.5000         0.6058         0.6894         0.5876       -51.2576      -8.785336      0.8783541
      6398.0000         0.5974         0.7001         0.5895       -50.7791      -8.274117      0.8863419
      6398.5000          0.589         0.7107          0.599       -50.3006      -7.762894      0.8943298
      6399.0000         0.5852         0.7214         0.6085       -49.8221      -7.251678      0.9023175
      6399.5000         0.5822         0.7321         0.6181       -49.7067      -7.103554       0.904632
      6400.0000         0.5791         0.7399         0.6276       -49.7175      -7.081635      0.9049745
      6400.5000         0.5761         0.7448         0.6371       -49.7283      -7.059711       0.905317
      6401.0000          0.573         0.7497         0.6466        -49.739      -7.037689      0.9056611
      6401.5000           0.57         0.7507         0.6558       -49.7498      -7.015774      0.9060035
      6402.0000         0.5669         0.7483         0.6649       -49.6804      -6.913651      0.9075992
      6402.5000         0.5639         0.7459          0.674       -49.3699      -6.570431       0.912962
      6403.0000         0.5609         0.7434         0.6831       -49.0595       -6.22731      0.9183233
      6403.5000         0.5578          0.741         0.6922       -48.7491       -5.88419      0.9236845
      6404.0000         0.5622         0.7386         0.7014        -48.439      -5.541367      0.9290411
      6404.5000         0.5703         0.7361         0.7016       -48.1624      -5.232048      0.9338742
      6405.0000         0.5785         0.7359          0.701       -48.2365      -5.273426      0.9332277
      6405.5000         0.5867         0.7399         0.7005       -48.3106      -5.314808      0.9325811
      6406.0000         0.5949         0.7439            0.7       -48.3846      -5.356087      0.9319361
      6406.5000         0.6031         0.7479         0.6995       -48.4229      -5.361668      0.9318489
      6407.0000         0.6182         0.7519         0.6989       -48.3753      -5.281345       0.933104
      6407.5000         0.6341         0.7559         0.6979       -48.3278      -5.201122      0.9343575
      6408.0000         0.6501         0.7599         0.6968       -48.3359      -5.176502      0.9347422
      6408.5000          0.666         0.7639         0.6958       -48.8019      -5.609779      0.9279722
      6409.0000         0.6819         0.7679         0.6947       -49.3521      -6.127262      0.9198865
      6409.5000         0.6968          0.771         0.6937       -50.6752      -7.417641      0.8997244
      6410.0000         0.7119           0.77         0.6926       -51.9982       -8.70792      0.8795637
      6410.5000         0.7268          0.769         0.6916       -53.3201      -9.997097      0.8594204
      6411.0000         0.7265         0.7679         0.6905       -53.9576      -10.60188      0.8499706
      6411.5000         0.7213         0.7669         0.6895       -53.7316      -10.34316      0.8540131
      6412.0000         0.7161         0.7659         0.6898       -53.5054      -10.08424      0.8580588
      6412.5000         0.7109         0.7649         0.6929       -53.1588      -9.704914      0.8639857
      6413.0000         0.7057         0.7648         0.6959       -52.7922      -9.305595      0.8702251
      6413.5000         0.7005         0.7653         0.6989       -52.4255      -8.906174       0.876466
      6414.0000         0.6953         0.7658         0.7019       -52.0589      -8.506851      0.8827055
      6414.5000         0.6901         0.7664          0.705       -51.9824      -8.397633       0.884412
      6415.0000          0.685         0.7669          0.708       -51.9413      -8.323811      0.8855655
      6415.5000         0.6984         0.7674          0.711       -51.9003      -8.250092      0.8867173
      6416.0000         0.7126          0.768          0.714       -51.8592       -8.17627      0.8878708
      6416.5000         0.7269         0.7685         0.7171       -51.8182      -8.102551      0.8890226
      6417.0000         0.7411         0.7712         0.7201       -51.5847       -7.83633      0.8931823
      6417.5000         0.7553         0.7745         0.7226       -50.9271      -7.146011      0.9039686
      6418.0000         0.7696         0.7778         0.7241        -50.269      -6.455189      0.9147627
      6418.5000         0.7876         0.7811         0.7257       -49.6115      -5.764969      0.9255474
      6419.0000         0.8082         0.7844         0.7273       -48.9539      -5.074646      0.9363337
      6419.5000         0.8287         0.7877         0.7289       -48.5079      -4.595928      0.9438136
      6420.0000         0.8367         0.7909         0.7304       -48.2226      -4.277905      0.9487827
      6420.5000         0.8294         0.7942          0.732       -48.2424      -4.264984      0.9489846
      6421.0000         0.8215         0.7975         0.7336       -48.3476      -4.337463      0.9478521
      6421.5000          0.803         0.7962         0.7352       -48.4526       -4.40974      0.9467228
