#------------------------------------------------------------------------------
# Created by    : vladimir.rabinovich
# Created on    : 09/19/2023 17:19:50
#------------------------------------------------------------------------------
~Version Information Section
VERS.           2.0     :   CWLS log ASCII Standard - VERSION 2.0
WRAP.           NO      :   One line per depth step
~Well Information Section
#MNEM       .UNIT                                         VALUE :DESCRIPTION
#------------------------------------------------------------------------------
STRT        .FT                                             816 :START DEPTH
STOP        .FT                                            7470 :STOP DEPTH
STEP        .FT                                             0.5 :STEP      
NULL        .                                           -999.25 :NULL      
COMP        .                                   KERR-MCGEE CORP :COMPANY   
WELL        .                               OCS G05003 ST00BP00 :WELL      
FLD         .                                 BRAZOS BLOCK 0412 :FIELD     
LOC         .                                                   :LOCATION  
CNTY        .                                BRAZOS LARGE BLOCK :LOCATION  
STAT        .                                             TEXAS :STATE     
CTRY        .                                     UNITED STATES :COUNTRY   
SRVC        .                                                   :SERVICE COMPANY
DATE        .                             9/13/2023 11:19:08 AM :LOG DATE  
API         .                                    42704401140000 :API NUMBER
UWI         .                                    42704401140000 :UNIQUE WELL ID
XCOORD      .                                  819493.037302503 :SURFACE X 
YCOORD      .                                  10380289.6446028 :SURFACE Y 
LAT         .                                         28.579682 :LATITUDE  
LON         .                                        -95.558179 :LONGITUDE 
ELEV        .FT                                              90 :ELEVATION VALUE
ELEV_TYPE   .                                                KB :ELEVATION REFERENCE TYPE
~Curve Information Section
#MNEM       .UNIT                                      API CODE :CURVE DESCRIPTION
#------------------------------------------------------------------------------
DEPT        .FT                                                 :DEPTH     
ASFL        .OHMM                                               :          
CALI        .IN                                                 :          
CILD        .MMHO                                               :          
GR          .GAPI                                               :          
GR_NORM     .GAPI                                               :GammaRay Normalized
ILD         .OHMM                                               :          
ILM         .OHMM                                               :          
RHOB        .G/C3                                               :          
SP          .MV                                                 :          
SP_NORM     .MV                                                 :SP Normalized
VSH_GR      .V/V                                                :Volume of Shale from GR
VSH_SP      .V/V                                                :Volume of Shale from SP
~A        DEPTH           ASFL           CALI           CILD             GR        GR_NORM            ILD            ILM           RHOB             SP        SP_NORM         VSH_GR         VSH_SP
# ...
      4362.5000         0.8084        11.0477       2627.941        -999.25        -999.25         0.3405         0.5051         2.0082       -89.5537      -44.31561        -999.25      0.2780733
      4363.0000         0.7913        11.0115       1995.096        -999.25        -999.25         0.3596         0.5473         2.0481       -88.4092       -43.1711        -999.25      0.2971483
      4363.5000         0.7784        11.0148       1816.434        -999.25        -999.25         0.3846         0.6078         2.0729       -87.2653       -42.0272        -999.25      0.3162133
      4364.0000         0.9325         11.023       1726.854        -999.25        -999.25         0.4325         0.6711         2.1217       -85.8092       -40.5711        -999.25      0.3404817
      4364.5000         1.0594         11.034       1642.771        -999.25        -999.25         0.4944         0.7305         2.1786        -84.333       -39.0949        -999.25       0.365085
      4365.0000         1.1397        11.0471       1482.084        -999.25        -999.25         0.5786         0.8025         2.1967       -82.2876       -37.0495        -999.25       0.399175
      4365.5000         1.2789        11.0651       1338.777        -999.25        -999.25         0.6687         0.8777         2.1901       -79.6166       -34.3785        -999.25      0.4436916
      4366.0000         1.3157        11.0858       1205.572        -999.25        -999.25         0.7727         0.9186         2.1493       -74.9235       -29.6854        -999.25        0.52191
      4366.5000         1.3485        11.0989       1157.861        -999.25        -999.25         0.8722         0.9052         2.0577       -71.7114       -26.4733        -999.25      0.5754449
      4367.0000          1.378        11.1042       1118.098        -999.25        -999.25           1.05         0.8334         1.9568       -69.2706       -24.0325        -999.25       0.616125
      4367.5000         1.4214         11.111       1076.479        -999.25        -999.25         1.1766         0.7481         1.9262       -65.7428       -20.5047        -999.25      0.6749217
      4368.0000          1.375        11.1318       1031.813        -999.25        -999.25         1.1414          0.687         1.9312       -59.5735       -14.3354        -999.25      0.7777433
      4368.5000         1.2263        11.1526       1020.771        -999.25        -999.25          1.094          0.649         1.9412       -53.4212      -8.183102        -999.25      0.8802816
      4369.0000          1.032        11.1774       1147.934        -999.25        -999.25         1.0155         0.6233         1.9533       -50.7993      -5.561203        -999.25      0.9239799
      4369.5000         0.9318        11.2164       1274.998        -999.25        -999.25          0.952         0.6094         1.9733       -49.6302      -4.392101        -999.25       0.943465
      4370.0000         0.8596        11.2641       1373.539        -999.25        -999.25         0.8978         0.6121         2.0007       -48.3817        -3.1436        -999.25      0.9642733
      4370.5000         0.7922        11.3092       1455.146        -999.25        -999.25         0.8274         0.6203         2.0212       -46.6386      -1.400501        -999.25       0.993325
      4371.0000         0.7649         11.349       1539.723        -999.25        -999.25         0.7577         0.6348         2.0312       -45.6492     -0.4111023        -999.25              1
      4371.5000         0.8223        11.3782       1529.646        -999.25        -999.25         0.7134         0.6521         2.0332       -46.1848      -0.946701        -999.25              1
      4372.0000          0.874        11.4005        1501.52        -999.25        -999.25         0.6706         0.6736         2.0344       -46.6306      -1.392502        -999.25      0.9934583
      4372.5000         0.9122        11.4161       1473.369        -999.25        -999.25         0.6403         0.6961          2.033       -47.0453      -1.807201        -999.25      0.9865466
      4373.0000         0.9389        11.4272       1445.242        -999.25        -999.25         0.6099         0.7202           2.02       -47.4359      -2.197803        -999.25      0.9800366
      4373.5000         0.9565        11.4478       1417.115        -999.25        -999.25         0.6194         0.7448         2.0092       -47.6909      -2.452801        -999.25      0.9757866
      4374.0000         0.9658        11.4728       1388.965        -999.25        -999.25         0.6333         0.7644         2.0127       -47.9291      -2.691002        -999.25      0.9718167
      4374.5000         0.9594        11.5099       1360.838        -999.25        -999.25         0.6473         0.7833         2.0432       -48.1892      -2.951103        -999.25      0.9674816
      4375.0000          0.953        11.5487       1332.711        -999.25        -999.25         0.6612         0.7981         2.0718       -48.4841      -3.246002        -999.25      0.9625666
      4375.5000         0.9467        11.5928       1306.307        -999.25        -999.25         0.6768         0.8086         2.0795       -48.5512      -3.313103        -999.25      0.9614483
      4376.0000         0.9403        11.6376       1282.438        -999.25        -999.25         0.6977         0.8149         2.0804       -48.1638      -2.925701        -999.25       0.967905
      4376.5000         0.9317        11.7046       1258.596        -999.25        -999.25         0.7186         0.8144          2.082       -47.7192      -2.481102        -999.25      0.9740158
      4377.0000         0.9491        11.7665       1234.727        -999.25        -999.25         0.7394         0.8139          2.092       -47.2044      -1.966301        -999.25      0.9830474
      4377.5000         0.9767        11.8204       1212.902        -999.25        -999.25         0.7537         0.8134         2.1061       -46.5933      -1.355202        -999.25      0.9937684
      4378.0000         0.9808        11.8355       1194.109        -999.25        -999.25          0.766          0.817         2.1181       -46.1982     -0.9601021        -999.25              1
      4378.5000         0.9787        11.7781       1175.305        -999.25        -999.25         0.7783         0.8224         2.1128        -45.962     -0.7239037        -999.25              1
      4379.0000         0.9767        11.7014       1156.512        -999.25        -999.25         0.7889         0.8338         2.0963       -45.7534     -0.5153008        -999.25              1
      4379.5000         0.9747        11.6227       1137.721        -999.25        -999.25         0.7975         0.8496         2.0849       -45.9118     -0.6737022        -999.25              1
      4380.0000          0.973         11.573       1126.219        -999.25        -999.25         0.8062          0.869         2.1013       -46.0701     -0.8320007        -999.25              1
      4380.5000         0.9738        11.5324       1114.756        -999.25        -999.25         0.8148         0.8864         2.1305       -46.2285     -0.9918709        -999.25              1
      4381.0000         0.9853        11.5402       1107.469        -999.25        -999.25         0.8223         0.9013         2.1465       -46.3869      -1.163475        -999.25       0.997132
      4381.5000         1.0151        11.5509       1104.656        -999.25        -999.25         0.8246         0.9056         2.1553       -47.1699      -1.959679        -999.25      0.9831635
      4382.0000         1.0301        11.5619       1101.844        -999.25        -999.25         0.8269         0.9045         2.1645       -48.2189      -3.021881        -999.25      0.9645284
      4382.5000         1.0451        11.5733       1099.031        -999.25        -999.25         0.8293          0.898         2.1725       -49.6511      -4.467285        -999.25      0.9391704
