#------------------------------------------------------------------------------
# Created by    : vladimir.rabinovich
# Created on    : 09/19/2023 17:20:06
#------------------------------------------------------------------------------
~Version Information Section
VERS.           2.0     :   CWLS log ASCII Standard - VERSION 2.0
WRAP.           NO      :   One line per depth step
~Well Information Section
#MNEM       .UNIT                                         VALUE :DESCRIPTION
#------------------------------------------------------------------------------
STRT        .FT                                             325 :START DEPTH
STOP        .FT                                           10896 :STOP DEPTH
STEP        .FT                                             0.5 :STEP      
NULL        .                                           -999.25 :NULL      
COMP        .                                      GETTY OIL CO :COMPANY   
WELL        .                               OCS G03737 ST00BP00 :WELL      
FLD         .                                           WILDCAT :FIELD     
LOC         .                                                   :LOCATION  
CNTY        .                             GALVESTON LARGE BLOCK :LOCATION  
STAT        .                                             TEXAS :STATE     
CTRY        .                                     UNITED STATES :COUNTRY   
SRVC        .                                                   :SERVICE COMPANY
DATE        .                             9/13/2023 11:10:15 AM :LOG DATE  
API         .                                    42706400540000 :API NUMBER
UWI         .                                    42706400540000 :UNIQUE WELL ID
XCOORD      .                                  1098214.74516992 :SURFACE X 
YCOORD      .                                   10573216.961531 :SURFACE Y 
LAT         .                                         29.123847 :LATITUDE  
LON         .                                        -94.698615 :LONGITUDE 
ELEV        .FT                                              99 :ELEVATION VALUE
ELEV_TYPE   .                                                KB :ELEVATION REFERENCE TYPE
~Curve Information Section
#MNEM       .UNIT                                      API CODE :CURVE DESCRIPTION
#------------------------------------------------------------------------------
DEPT        .FT                                                 :DEPTH     
ASFL        .OHMM                                               :          
DT          .US/F                                               :          
DTL         .US/F                                               :          
GR          .GAPI                                               :          
GR_1        .GAPI                                               :          
GR_NORM     .GAPI                                               :GammaRay Normalized
ILD         .OHMM                                               :          
RHOB        .G/CC                                               :          
SP          .MV                                                 :          
SP_NORM     .MV                                                 :SP Normalized
VSH_GR      .V/V                                                :Volume of Shale from GR
VSH_SP      .V/V                                                :Volume of Shale from SP
~A        DEPTH           ASFL             DT            DTL             GR           GR_1        GR_NORM            ILD           RHOB             SP        SP_NORM         VSH_GR         VSH_SP
# ...
      5245.0000         0.6076       116.9904       115.6245        57.3092        67.8832        84.9908          0.251         2.1823        -50.187        -2.7885              1         0.9762
      5245.5000         0.6049       116.3904       116.2454        55.4785        66.8076        81.5868         0.2432         2.1925       -51.9526        -4.5584              1         0.9526
      5246.0000         0.6021        116.889       115.7793        52.8094        65.7308        76.6262         0.2396         2.2052       -54.1582        -6.7683         0.9282         0.9231
      5246.5000         0.5976        119.317        112.779        47.4835        63.8273        66.7329          0.236         2.2087        -56.248        -8.8623         0.7177         0.8952
      5247.0000         0.5879        119.959       108.7091        43.7138        61.1572        59.7289         0.2324         2.2066       -58.2343       -10.8529         0.5687         0.8686
      5247.5000         0.5773       119.1132       104.3765        40.6138        58.8057        53.9683         0.2277            2.2       -60.2784       -12.9012         0.4461         0.8413
      5248.0000         0.5653       118.1576         98.943        37.1494        56.6063        47.5312         0.2204         2.1662       -62.3827       -15.0098         0.3092         0.8132
      5248.5000         0.5512       114.5679        95.3071        32.5129           50.1        38.9178         0.2131         2.1271       -68.2859       -20.9173         0.1259         0.7344
      5249.0000         0.5269       108.5426        91.7681        29.7318        46.3531        33.7493         0.2011         2.1257        -73.531       -26.1666         0.0159         0.6644
      5249.5000         0.5139        99.7935        87.3955        29.7737        42.7149         33.822         0.1838         2.1454        -76.614       -29.2539         0.0175         0.6233
      5250.0000          0.496        93.3531         86.351        32.6558        39.1588        39.1678          0.186          2.192       -79.0197       -31.6638         0.1312         0.5911
      5250.5000         0.4965        90.5504        86.0472        38.0826        34.5216        49.2381         0.2198         2.2466       -81.6248       -34.2732         0.3455         0.5564
      5251.0000          0.506        90.6243        87.0335        39.6782        34.0359        52.1954         0.2536         2.2954       -82.3401       -34.9928         0.4084         0.5468
      5251.5000         0.5263        90.7892        90.6652        40.2728        34.2192        53.2943         0.2864         2.2919       -81.7784       -34.4353         0.4318         0.5542
      5252.0000         0.6262        91.2776        94.4848        41.1143        34.4025        54.8515         0.3191         2.2703       -81.1747       -33.8359         0.4649         0.5622
      5252.5000         1.1641        97.5079        96.0349        42.1872        34.6465        56.8383         0.3496         2.2698       -80.5702       -33.2356         0.5072         0.5702
      5253.0000         1.2594        98.7059        97.2493        43.4355        34.9115        59.1508          0.375         2.2733       -79.9664       -32.6361         0.5564         0.5782
      5253.5000          1.163        99.5079        97.7145        44.5356        35.1768        61.1882         0.3671         2.2572       -79.3619       -32.0359         0.5997         0.5862
      5254.0000          1.129       100.0471        97.5052         45.105        35.4417        62.2402         0.3591         2.2281       -78.7485       -31.4267         0.6221         0.5943
      5254.5000         1.0974       100.3713        96.3663        44.7363        35.7305        61.5506         0.3514         2.2306       -78.0652       -30.7477         0.6075         0.6034
      5255.0000         1.0493        100.567        94.5243        43.1143        36.2146         58.534         0.3437         2.2391       -77.3817       -30.0684         0.5433         0.6124
      5255.5000         1.0086       100.3898        92.2576        40.8846        36.6986        54.3892         0.3361         2.2393       -76.6984       -29.3894         0.4551         0.6215
      5256.0000         0.9718        99.2076         90.006        38.8816         37.176        50.6653         0.3284         2.2319       -76.1437       -28.8389         0.3759         0.6288
      5256.5000         0.9213        96.6617         88.345        37.9946        36.4246        49.0133         0.3207         2.2061       -75.8295        -28.529         0.3407         0.6329
      5257.0000         0.8261        92.3191         88.158        37.8077        35.6738        48.6612          0.313         2.1625        -76.605       -29.3088         0.3332         0.6225
      5257.5000         0.8375        90.0372        91.9176        38.7031        34.9224        50.3185         0.3053         2.1147         -77.38        -30.088         0.3685         0.6122
      5258.0000         0.8701        90.5825        97.6098        41.4977        34.2168        55.5019         0.2947         2.1272       -78.1844       -30.8967         0.4788         0.6014
      5258.5000         0.8846        98.3246       103.8411          44.45        33.5807         60.978          0.284          2.167       -79.0317       -31.7482         0.5953           0.59
      5259.0000          0.899       103.4042       109.0181        45.8276        32.9445        63.5306         0.2732         2.2087       -79.8796       -32.6004         0.6496         0.5787
      5259.5000         0.9136       108.5574       111.3577        46.2255        32.8383        64.2642         0.2625          2.258       -80.6395       -33.3646         0.6652         0.5685
      5260.0000         0.9355       112.1484       112.3473        46.1845        35.8054         64.183         0.2505         2.2576       -79.1667        -31.896         0.6635         0.5881
      5260.5000         0.9116       114.3885       112.3204        45.8852        39.4315        63.6222         0.2366           2.23       -75.4498       -28.1834         0.6515         0.6376
      5261.0000         0.8457       115.5294       111.3687        45.2669         43.246        62.4691         0.2227         2.2283       -72.0366       -24.7744          0.627          0.683
      5261.5000         0.6331        115.866       109.1777        44.7569        46.0836        61.5171         0.2088         2.2514       -69.4008       -22.1429         0.6067         0.7181
      5262.0000         0.5059       115.7045       106.7357        44.4894        46.5306        61.0154         0.1952         2.2701       -68.0267       -20.7731         0.5961         0.7364
      5262.5000          0.506       114.8577        101.908        44.3035        46.9772        60.6651         0.1936         2.2759       -66.6528       -19.4034         0.5886         0.7546
      5263.0000         0.5085       112.7306        97.9744        43.8446         47.432         59.808          0.192         2.2592       -65.6392       -18.3941         0.5704         0.7681
      5263.5000         0.5118       106.4253         95.043        43.3931        47.8885        58.9646         0.1904         2.2433       -67.3965       -20.1556         0.5524         0.7446
      5264.0000         0.5209       102.5665        95.1683        43.0718        46.6175         58.363         0.1906          2.277        -73.642       -26.4054         0.5396         0.6613
      5264.5000         0.5474       100.4677        97.6456        43.0804        44.9142        58.3738         0.1938         2.3224       -76.3345       -29.1021         0.5399         0.6253
      5265.0000         0.5752       100.4038       101.1034        42.7504        41.7806         57.756         0.1969         2.3407       -80.3213       -33.0932         0.5267         0.5721
