#------------------------------------------------------------------------------
# Created by    : vladimir.rabinovich
# Created on    : 09/19/2023 17:20:18
#------------------------------------------------------------------------------
~Version Information Section
VERS.           2.0     :   CWLS log ASCII Standard - VERSION 2.0
WRAP.           NO      :   One line per depth step
~Well Information Section
#MNEM       .UNIT                                         VALUE :DESCRIPTION
#------------------------------------------------------------------------------
STRT        .FT                                             780 :START DEPTH
STOP        .FT                                            9803 :STOP DEPTH
STEP        .FT                                             0.5 :STEP      
NULL        .                                           -999.25 :NULL      
COMP        .                                  SAMEDAN OIL CORP :COMPANY   
WELL        .                               OCS G04076 ST00BP00 :WELL      
FLD         .                            HIGH ISLAND BLOCK 0105 :FIELD     
LOC         .                                                   :LOCATION  
CNTY        .                           HIGH ISLAND LARGE BLOCK :LOCATION  
STAT        .                                             TEXAS :STATE     
CTRY        .                                     UNITED STATES :COUNTRY   
SRVC        .                                                   :SERVICE COMPANY
DATE        .                             9/13/2023 11:19:59 AM :LOG DATE  
API         .                                    42708401630000 :API NUMBER
UWI         .                                    42708401630000 :UNIQUE WELL ID
XCOORD      .                                  1167393.84075462 :SURFACE X 
YCOORD      .                                  10652000.2522841 :SURFACE Y 
LAT         .                                        29.3430877 :LATITUDE  
LON         .                                       -94.4850788 :LONGITUDE 
ELEV        .FT                                              87 :ELEVATION VALUE
ELEV_TYPE   .                                                KB :ELEVATION REFERENCE TYPE
~Curve Information Section
#MNEM       .UNIT                                      API CODE :CURVE DESCRIPTION
#------------------------------------------------------------------------------
DEPT        .FT                                                 :DEPTH     
ASFL        .OHMM                                               :          
CILD        .MMHO                                               :          
DT          .US/F                                               :          
GR          .GAPI                                               :          
GR_1        .GAPI                                               :          
GR_NORM     .GAPI                                               :GammaRay Normalized
ILD         .OHMM                                               :          
SP          .MV                                                 :          
SP_NORM     .MV                                                 :SP Normalized
VSH_GR      .V/V                                                :Volume of Shale from GR
VSH_SP      .V/V                                                :Volume of Shale from SP
~A        DEPTH           ASFL           CILD             DT             GR           GR_1        GR_NORM            ILD             SP        SP_NORM         VSH_GR         VSH_SP
# ...
      4987.5000         0.4601       6225.422        -999.25        -999.25        27.8355       28.12004         0.1682      -162.5803      -56.71702              0    0.005145125
      4988.0000         0.4648       6345.703        -999.25        -999.25        28.4482       29.08538         0.1603      -163.0244      -57.16209              0              0
      4988.5000         0.4694       6437.977        -999.25        -999.25        29.5298       30.78948         0.1523      -163.4685      -57.60719              0              0
      4989.0000         0.4754       6527.891        -999.25        -999.25        30.7453       32.70455         0.1551      -163.9126      -58.05228              0              0
      4989.5000          0.482       6134.227        -999.25        -999.25         31.962       34.62151         0.1632      -163.6553      -57.79597      0.0345002              0
      4990.0000         0.4886       5527.328        -999.25        -999.25        33.0706       36.36816         0.1735        -163.01      -57.15165      0.0716629              0
      4990.5000         0.4764       5431.773        -999.25        -999.25        34.1474       38.06469         0.2165      -162.3643      -56.50695      0.1077594    0.008964539
      4991.0000         0.4646       5306.547        -999.25        -999.25        36.2505       41.37821         0.2594      -158.9854      -53.12904      0.1782598     0.07038116
      4991.5000         0.4532       4890.742        -999.25        -999.25        45.3015       55.63842         0.3064      -152.8762      -47.02083      0.4816685      0.1814395
      4992.0000         0.4547       4550.172        -999.25        -999.25        50.9836        64.5908         0.3597      -142.3372      -36.48282      0.6721447      0.3730397
      4992.5000         0.4727       4203.813        -999.25        -999.25        62.8633       83.30774         0.4129      -129.2444      -23.39101              1      0.6110726
      4993.0000         0.5171       3857.465        -999.25        -999.25          72.29       98.15987         0.4702      -122.9927      -17.14029              1       0.724722
      4993.5000         0.5554         3511.5        -999.25        -999.25        74.6768       101.9204         0.5304      -117.2075      -11.35608              1      0.8298895
      4994.0000         0.5894       3188.656        -999.25        -999.25         77.061       105.6768         0.5906      -112.5886      -6.738174              1      0.9138514
      4994.5000         0.6148       2744.254        -999.25        -999.25        73.6602       100.3187         0.6396      -108.7802      -2.930756              1      0.9830772
      4995.0000         0.6399       2258.516        -999.25        -999.25         71.077       96.24876         0.6736      -104.0459       1.802551              1              1
      4995.5000         0.6569       1885.715        -999.25        -999.25        69.3766       93.56972         0.7076       -101.281        4.56646              1              1
      4996.0000          0.674       1775.715        -999.25        -999.25         67.778       91.05106         0.7416       -100.219       5.627472              1              1
      4996.5000         0.6923       1579.912        -999.25        -999.25        65.3188       87.17648         0.7744      -101.1926       4.652885              1              1
      4997.0000         0.7121       1304.816        -999.25        -999.25        59.7571       78.41379         0.7964      -102.7739       3.070587      0.9662508              1
      4997.5000         0.7342       1268.648        -999.25        -999.25         59.015        77.2446         0.8183      -104.0901       1.753395      0.9413744              1
      4998.0000         0.7696       1250.883        -999.25        -999.25         59.592       78.15366         0.8403      -105.3744      0.4681168      0.9607161              1
      4998.5000         0.8079       1230.889        -999.25        -999.25        56.5355       73.33802         0.8622      -106.6586     -0.8170776      0.8582557              1
      4999.0000         0.8629       1209.389        -999.25        -999.25        53.2426       68.14993         0.8846      -107.9429      -2.102371      0.7478709      0.9981387
      4999.5000         0.9082       1103.773        -999.25        -999.25        48.9357       61.36426         0.9089      -109.2258      -3.386253      0.6034948      0.9747954
      5000.0000         0.9552       981.7266        -999.25        -999.25        43.0032       52.01736         0.9331       -108.149      -2.310448      0.4046246      0.9943555
      5000.5000         0.9816       974.3838        -999.25        -999.25        45.1051       55.32898         0.9574      -106.9889      -1.151337      0.4750847              1
      5001.0000         0.9416       1072.232        -999.25        -999.25        48.1082       60.06049         0.9784      -105.8102     0.02637482      0.5757552              1
      5001.5000         0.8879       1174.494        -999.25        -999.25        50.3918        63.6584          0.998      -104.6328       1.202789      0.6523063              1
      5002.0000         0.8261       1239.631        -999.25        -999.25        52.3734       66.78049         0.9762      -103.4554       2.379196      0.7187338              1
      5002.5000         0.7749       1292.672        -999.25        -999.25         54.463       70.07273         0.9281      -102.5303       3.303307      0.7887815              1
      5003.0000         0.7434       1342.234        -999.25        -999.25        56.5477       73.35725         0.8747      -101.7709       4.061722       0.858665              1
      5003.5000         0.7181       1395.863        -999.25        -999.25        58.2433       76.02874          0.808      -102.9863       2.845329      0.9155051              1
      5004.0000         0.6938       1459.824        -999.25        -999.25        59.2814        77.6643         0.7414      -104.3651       1.465538      0.9503042              1
      5004.5000         0.6745       1731.736        -999.25        -999.25        59.6227       78.20205         0.6866      -106.1332     -0.3035507      0.9617457              1
      5005.0000         0.6557       1845.064        -999.25        -999.25        58.1561       75.89137         0.6462      -108.2228      -2.394142      0.9125822      0.9925634
      5005.5000         0.6394       1898.986        -999.25        -999.25         56.285       72.94337         0.6059      -110.3124      -4.484734      0.8498589      0.9531182
      5006.0000         0.6247       1953.691        -999.25        -999.25         54.161       69.59692         0.5678      -114.9189      -9.092216      0.7786578      0.8661846
      5006.5000         0.6131        2033.67        -999.25        -999.25         51.153        64.8577         0.5459      -123.8324      -18.00671      0.6778233      0.6979867
      5007.0000         0.6141       2057.766        -999.25        -999.25        47.9559       59.82052          0.524      -126.1885       -20.3638      0.5706494      0.6535132
      5007.5000         0.6289       2082.816        -999.25        -999.25        47.4765       59.06524         0.5122      -127.0492      -21.22549      0.5545795       0.637255
      5008.0000         0.6459       2107.988        -999.25        -999.25        47.7868       59.55411         0.5046      -127.9282      -22.10548       0.564981      0.6206514
      5008.5000          0.668       2136.539        -999.25        -999.25        48.0974       60.04348         0.4971      -128.9072      -23.08546      0.5753933       0.602161
      5009.0000         0.6876       2173.836        -999.25        -999.25        48.3149       60.38615         0.4895      -129.8865      -24.06577       0.582684      0.5836648
      5009.5000         0.6896       2217.914        -999.25        -999.25        48.3016        60.3652         0.4819      -131.0098      -25.19004      0.5822383      0.5624521
