#------------------------------------------------------------------------------
# Created by    : vladimir.rabinovich
# Created on    : 09/19/2023 17:22:47
#------------------------------------------------------------------------------
~Version Information Section
VERS.           2.0     :   CWLS log ASCII Standard - VERSION 2.0
WRAP.           NO      :   One line per depth step
~Well Information Section
#MNEM       .UNIT                                         VALUE :DESCRIPTION
#------------------------------------------------------------------------------
STRT        .FT                                            4658 :START DEPTH
STOP        .FT                                           10852 :STOP DEPTH
STEP        .FT                                             0.5 :STEP      
NULL        .                                           -999.25 :NULL      
COMP        .                             WALTER OIL & GAS CORP :COMPANY   
WELL        .                               OCS G04721 ST00BP00 :WELL      
FLD         .                              GALVESTON BLOCK 0350 :FIELD     
LOC         .                                                   :LOCATION  
CNTY        .                             GALVESTON LARGE BLOCK :LOCATION  
STAT        .                                             TEXAS :STATE     
CTRY        .                                     UNITED STATES :COUNTRY   
SRVC        .                                                   :SERVICE COMPANY
DATE        .                             9/13/2023 11:19:36 AM :LOG DATE  
API         .                                    42706401870000 :API NUMBER
UWI         .                                    42706401870000 :UNIQUE WELL ID
XCOORD      .                                  1032064.33467067 :SURFACE X 
YCOORD      .                                   10428906.138822 :SURFACE Y 
LAT         .                                        28.7242451 :LATITUDE  
LON         .                                       -94.8985179 :LONGITUDE 
ELEV        .FT                                              92 :ELEVATION VALUE
ELEV_TYPE   .                                                KB :ELEVATION REFERENCE TYPE
~Curve Information Section
#MNEM       .UNIT                                      API CODE :CURVE DESCRIPTION
#------------------------------------------------------------------------------
DEPT        .FT                                                 :DEPTH     
DT          .US/F                                               :          
GR          .GAPI                                               :          
GR_1        .GAPI                                               :          
GR_NORM     .GAPI                                               :GammaRay Normalized
ILD         .OHMM                                               :          
ILM         .OHMM                                               :          
NPHI        .%                                                  :          
RFOC        .OHMM                                               :          
RHOB        .G/C3                                               :          
SP          .MV                                                 :          
SP_NORM     .MV                                                 :SP Normalized
VSH_GR      .V/V                                                :Volume of Shale from GR
VSH_SP      .V/V                                                :Volume of Shale from SP
~A        DEPTH             DT             GR           GR_1        GR_NORM            ILD            ILM           NPHI           RFOC           RHOB             SP        SP_NORM         VSH_GR         VSH_SP
# ...
      9617.0000        -999.25        73.4249        -999.25       82.61037         0.6801         0.6966         33.695         0.7241         2.3861       -55.0295      -10.11964              1      0.8443131
      9617.5000        -999.25        75.1003        -999.25       84.86256         0.6845         0.7016        33.7747         0.7243         2.3844       -54.9438      -10.01723              1      0.8458887
      9618.0000        -999.25        76.9198        -999.25        87.3075         0.6886         0.7121        33.8737         0.7239         2.3815       -54.8595      -9.916449              1      0.8474392
      9618.5000        -999.25        78.7937        -999.25       89.82524         0.6925         0.7138        33.9705         0.7239         2.3794        -54.778      -9.818934              1      0.8489395
      9619.0000        -999.25        78.9712        -999.25       90.07362         0.6945         0.7147        34.0799          0.724         2.3782       -54.7506      -9.784532              1      0.8494688
      9619.5000        -999.25        78.3978        -999.25       89.31747         0.6953          0.717        34.3523         0.7239         2.3792       -54.7458      -9.776504              1      0.8495923
      9620.0000        -999.25        77.5105        -999.25        88.1414         0.6951         0.7188        34.5745         0.7228         2.3815       -54.8294      -9.871606              1      0.8481292
      9620.5000        -999.25         75.922        -999.25       86.02732         0.6941         0.7204        34.4699         0.7224         2.3843       -54.9827      -10.04802              1      0.8454151
      9621.0000        -999.25        72.8193        -999.25       81.88762         0.6933         0.7213        34.1003         0.7233         2.3876       -55.3574      -10.48274              1      0.8387271
      9621.5000        -999.25        70.5706        -999.25       78.89035         0.6928         0.7222        33.9254         0.7226         2.3897       -55.8533      -11.05886      0.9763904      0.8298637
      9622.0000        -999.25        69.9448        -999.25       78.06413         0.6915         0.7225        33.9216         0.7233         2.3912       -56.4843      -11.79259      0.9588112      0.8185755
      9622.5000        -999.25        69.9247        -999.25       78.04815           0.69         0.7227        33.8966         0.7248         2.3924        -57.147      -12.56331      0.9584712      0.8067183
      9623.0000        -999.25        70.0616        -999.25       78.24221         0.6889         0.7205        33.8214         0.7266          2.394       -57.7427      -13.25586      0.9626002      0.7960637
      9623.5000        -999.25        70.2137        -999.25       78.45661         0.6864          0.717        33.7051          0.724          2.398       -58.2286      -13.82032       0.967162      0.7873797
      9624.0000        -999.25        70.1587        -999.25       78.39396          0.684         0.7112        33.5665         0.7205         2.4001       -58.5737       -14.2205      0.9658289      0.7812231
      9624.5000        -999.25        69.1061        -999.25       76.99677         0.6818         0.7051        33.4055         0.7166         2.3971       -58.8535       -14.5445      0.9361016      0.7762384
      9625.0000        -999.25        67.7036        -999.25        75.1315         0.6798         0.6985        33.2369          0.713         2.3961       -59.0806      -14.80702      0.8964149      0.7721997
      9625.5000        -999.25        66.7356        -999.25        73.8475         0.6773         0.6926        33.1758         0.7118         2.3982       -59.2574      -15.01086      0.8690957      0.7690638
      9626.0000        -999.25        66.1931        -999.25       73.13268         0.6743          0.692        33.1814          0.711         2.4034       -59.4346      -15.21516      0.8538868      0.7659206
      9626.5000        -999.25         66.171        -999.25       73.11404          0.671         0.6906        33.2177         0.7083         2.4057       -59.6801      -15.49914      0.8534901      0.7615517
      9627.0000        -999.25        65.9817        -999.25       72.87172         0.6659         0.6884        33.2393         0.7058         2.3997        -59.999      -15.86876      0.8483344      0.7558652
      9627.5000        -999.25        65.7301        -999.25       72.54607         0.6588         0.6861        33.2764         0.7053         2.3857       -60.3235      -16.24491      0.8414058      0.7500783
      9628.0000        -999.25        65.8942        -999.25       72.77653         0.6472         0.6837        33.5201         0.7031         2.3664       -60.6177      -16.58571      0.8463091      0.7448352
      9628.5000        -999.25        66.4403        -999.25       73.51799         0.6368         0.6806        33.8878         0.6991         2.3592       -60.9143      -16.92932      0.8620849       0.739549
      9629.0000        -999.25        66.6906        -999.25       73.86375          0.629         0.6784        34.3404         0.6935         2.3629       -61.1923      -17.25121      0.8694416      0.7345967
      9629.5000        -999.25        66.6128        -999.25       73.77059         0.6227         0.6765        35.0155         0.6884         2.3708       -61.4365      -17.53369      0.8674594       0.730251
      9630.0000        -999.25        66.3472        -999.25       73.42622         0.6163         0.6698        35.2671          0.684         2.3772          -61.6        -17.722      0.8601324      0.7273539
      9630.5000        -999.25        66.3918        -999.25        73.4968         0.6091         0.6641        34.3322         0.6805          2.375        -61.623       -17.7464      0.8616341      0.7269784
      9631.0000        -999.25        66.5229        -999.25       73.68311         0.6044         0.6599        32.9359           0.68         2.3709       -61.5722       -17.6847       0.865598      0.7279276
      9631.5000        -999.25        66.5277        -999.25       73.70045         0.6045         0.6601        32.1182         0.6797         2.3678        -61.451      -17.54087      0.8659671      0.7301404
      9632.0000        -999.25        66.8337        -999.25       74.12074          0.604         0.6603        31.8817         0.6799         2.3705       -61.3263      -17.39296      0.8749093       0.732416
      9632.5000        -999.25        67.9147        -999.25       75.57776         0.6035         0.6613         31.995         0.6858         2.3769       -61.2643      -17.31819      0.9059098      0.7335663
      9633.0000        -999.25        68.3518        -999.25        76.1734         0.6024         0.6618        32.1524          0.688         2.3808       -61.1923      -17.23176       0.918583       0.734896
      9633.5000        -999.25         68.334        -999.25       76.16052          0.603          0.662        32.4047         0.6838         2.3808       -61.0429      -17.05503       0.918309       0.737615
      9634.0000        -999.25         68.668        -999.25       76.61824         0.6066         0.6649        32.6909         0.6803         2.3791       -60.8497       -16.8272      0.9280477        0.74112
      9634.5000        -999.25        69.7253        -999.25       78.04357         0.6112         0.6682        32.9299         0.6808         2.3827       -60.6378      -16.57755      0.9583738      0.7449608
      9635.0000        -999.25        69.9189        -999.25        78.3135         0.6169         0.6721        33.0491         0.6862          2.388        -60.443      -16.34785       0.964117      0.7484946
      9635.5000        -999.25        69.4138        -999.25       77.64871         0.6232         0.6757        33.0269         0.6926         2.3931       -60.3141      -16.19503      0.9499726      0.7508456
