#------------------------------------------------------------------------------
# Created by    : vladimir.rabinovich
# Created on    : 09/19/2023 17:19:40
#------------------------------------------------------------------------------
~Version Information Section
VERS.           2.0     :   CWLS log ASCII Standard - VERSION 2.0
WRAP.           NO      :   One line per depth step
~Well Information Section
#MNEM       .UNIT                                         VALUE :DESCRIPTION
#------------------------------------------------------------------------------
STRT        .FT                                             305 :START DEPTH
STOP        .FT                                          9892.5 :STOP DEPTH
STEP        .FT                                             0.5 :STEP      
NULL        .                                           -999.25 :NULL      
COMP        .                         ATLANTIC RICHFIELD CO THE :COMPANY   
WELL        .                               OCS G07247 ST00BP00 :WELL      
FLD         .                                           WILDCAT :FIELD     
LOC         .                                                   :LOCATION  
CNTY        .                             GALVESTON LARGE BLOCK :LOCATION  
STAT        .                                             TEXAS :STATE     
CTRY        .                                     UNITED STATES :COUNTRY   
SRVC        .                                                   :SERVICE COMPANY
DATE        .                             9/13/2023 11:19:27 AM :LOG DATE  
API         .                                    42706401220000 :API NUMBER
UWI         .                                    42706401220000 :UNIQUE WELL ID
XCOORD      .                                  995038.545578968 :SURFACE X 
YCOORD      .                                  10445559.0196594 :SURFACE Y 
LAT         .                                         28.768363 :LATITUDE  
LON         .                                        -95.014888 :LONGITUDE 
ELEV        .FT                                              98 :ELEVATION VALUE
ELEV_TYPE   .                                                KB :ELEVATION REFERENCE TYPE
~Curve Information Section
#MNEM       .UNIT                                      API CODE :CURVE DESCRIPTION
#------------------------------------------------------------------------------
DEPT        .FT                                                 :DEPTH     
ALL         .OHMM                                               :          
CILD        .MMHO                                               :          
GR          .GAPI                                               :          
GR_NORM     .GAPI                                               :GammaRay Normalized
ILD         .OHMM                                               :          
SP          .MV                                                 :          
VSH_GR      .V/V                                                :Volume of Shale from GR
~A        DEPTH            ALL           CILD             GR        GR_NORM            ILD             SP         VSH_GR
# ...
      4157.5000         0.9489       1562.666        41.3091       66.39496         0.6502        31.7443      0.7105311
      4158.0000         0.9504       1523.834        39.5871       62.07294           0.66        31.6524      0.6185731
      4158.5000         0.9507        1575.01        37.9608       57.98966         0.5941        31.6226      0.5316949
      4159.0000         0.9417       1653.453        36.5001        54.3196         0.5282        31.5927      0.4536084
      4159.5000         0.9257       1754.543        34.9744       50.48738         0.4622        31.7468      0.3720719
      4160.0000         0.8989       2018.445        33.1051       45.79783         0.4202        31.9858      0.2722943
      4160.5000         0.8782        2319.77        31.4917       41.74678         0.3843        32.2249      0.1861018
      4161.0000          0.868       2621.094          30.39       38.97243         0.3483        32.4639       0.127073
      4161.5000         0.8603        2771.27        29.2878       36.19683         0.3387         32.673     0.06801768
      4162.0000          0.853       2888.789        28.8656       35.11781         0.3294        32.8785     0.04505969
      4162.5000         0.8483       3006.207        28.4572       34.07323         0.3201        33.0839     0.02283478
      4163.0000         0.8452       3121.293        28.5287         34.226          0.318        33.2895     0.02608514
      4163.5000         0.8422       3163.066        28.6227       34.43492         0.3201        33.4949     0.03053024
      4164.0000         0.8391       3189.629        28.7166       34.64359         0.3222        33.7016      0.0349699
      4164.5000         0.8364       3209.992        28.8288       34.89793         0.3243        33.9096     0.04038141
      4165.0000         0.8347       3223.598        28.9511       35.17744         0.3264        34.1176     0.04632844
      4165.5000          0.833       3230.555        29.0733       35.45671         0.3279        34.3256     0.05227044
      4166.0000         0.8313       3204.109        29.1956       35.73623         0.3284         34.485     0.05821772
      4166.5000         0.8296       3165.449        29.3179       36.01575         0.3288        34.6009       0.064165
      4167.0000         0.8295       3126.082        29.4403       36.29552         0.3293        34.7168     0.07011755
      4167.5000         0.8301       3104.418        29.5626       36.57504         0.3298        34.8327     0.07606458
      4168.0000         0.8307       3085.852        29.6848       36.85432         0.3302        34.8522      0.0820069
      4168.5000         0.8313       3069.918        29.8051       37.12885         0.3307        34.8427     0.08784785
      4169.0000         0.8356       3059.402        29.9242       37.40039         0.3312        34.8331     0.09362525
      4169.5000           0.84       3048.891        30.0434       37.67219         0.3318        34.8099     0.09940834
      4170.0000         0.8443       3059.938        30.1626       37.94397         0.3324        34.5034      0.1051909
      4170.5000         0.8487       3079.305        30.2818       38.21576          0.333        34.1989      0.1109735
      4171.0000          0.857       3108.535         30.401       38.48753         0.3336        33.9073       0.116756
      4171.5000         0.8656       3137.793        30.5202       38.75934         0.3341        33.6158      0.1225392
      4172.0000         0.8743       3167.297        30.7026       39.18882         0.3342        33.3693       0.131677
      4172.5000         0.8825       3203.988        30.9501        39.7807         0.3341         33.179      0.1442703
      4173.0000         0.8865       3277.156        31.1975       40.37236          0.334        32.9888      0.1568587
      4173.5000         0.8895       3330.082         31.445       40.96425         0.3339        32.8155      0.1694521
      4174.0000         0.8867        3366.73        31.6976       41.56886         0.3348        32.7326      0.1823162
      4174.5000         0.8835        3359.34         32.025       42.36012         0.3388        32.6497      0.1991515
      4175.0000         0.8801       3250.477        32.3524       43.15139         0.3429        32.7169      0.2159871
      4175.5000         0.8767        3163.48        32.6801       43.94336         0.3469        32.8173      0.2328375
      4176.0000         0.8732       3097.141        33.0176       44.75982         0.3509        32.9214      0.2502088
      4176.5000         0.8704       3025.355        33.3874       45.65688         0.3538        33.0917      0.2692952
      4177.0000         0.8697       2866.434        33.7568       46.55289         0.3558        33.2621      0.2883593
      4177.5000         0.8691        2744.93        34.1223        47.4392         0.3578        33.4326       0.307217
      4178.0000         0.8685       2614.875        33.7034       46.36841         0.3599        33.6031      0.2844342
      4178.5000         0.8657       2486.664         32.797       44.08135         0.3619        33.7736      0.2357734
      4179.0000         0.8563       2406.426          31.89       41.79274         0.3633        33.9193      0.1870797
      4179.5000         0.8462       2363.219        31.3192       40.34298         0.3528        34.0393      0.1562336
      4180.0000          0.836        2397.82         30.916       39.31137         0.3423        34.1594      0.1342844
      4180.5000         0.8273       2541.098        30.5128       38.27979         0.3317        34.2795      0.1123359
      4181.0000         0.8205        2715.77        30.1099       37.24893         0.3212        34.3995      0.0904028
      4181.5000         0.8138       2904.633        29.7067       36.21732         0.3107        34.4548     0.06845353
      4182.0000         0.8165       3093.496        29.3038       35.18648          0.301        34.4558      0.0465208
      4182.5000         0.8191       3282.359        29.1953       34.89015         0.2982        34.3289       0.040216
      4183.0000         0.8214       3471.223        29.0866       34.59332         0.2954        34.1105      0.0339004
      4183.5000         0.8235       3551.945         28.978       34.29674         0.2926        33.8883     0.02759016
      4184.0000         0.8256       3605.215        28.8694       34.00018         0.2898        33.6166     0.02128041
      4184.5000         0.8277       3657.629        28.8251       33.86404          0.287         33.345     0.01838376
      4185.0000         0.8298       3703.363        28.9666       34.19146          0.286        33.0734     0.02535012
      4185.5000         0.8314       3748.125         29.108       34.51864         0.2877        32.8066     0.03231146
      4186.0000         0.8326       3785.281        29.2495       34.84607         0.2894        32.5432     0.03927799
      4186.5000         0.8337       3819.906        29.3909       35.17324         0.2911        32.2798     0.04623908
      4187.0000         0.8349       3848.996        29.5344       35.50566         0.2928        32.1318     0.05331194
      4187.5000         0.8361       3866.785        29.7782       36.08833         0.2945        32.1972     0.06570905
      4188.0000         0.8373       3793.445         30.022       36.67098         0.2962        32.2627     0.07810593
      4188.5000         0.8383       3678.648        30.2658       37.25365         0.2985        32.3282     0.09050321
      4189.0000         0.8383       3573.039        30.5582       37.95759         0.3009        32.3936      0.1054807
      4189.5000         0.8382       3497.855        31.0915       39.26255         0.3032        32.4591      0.1332458
      4190.0000         0.8382       3445.316        31.6245       40.56676         0.3056        32.5245       0.160995
      4190.5000         0.8382       3390.301        32.1612       41.88022          0.308        32.4944      0.1889408
