#------------------------------------------------------------------------------
# Created by    : vladimir.rabinovich
# Created on    : 09/19/2023 17:19:40
#------------------------------------------------------------------------------
~Version Information Section
VERS.           2.0     :   CWLS log ASCII Standard - VERSION 2.0
WRAP.           NO      :   One line per depth step
~Well Information Section
#MNEM       .UNIT                                         VALUE :DESCRIPTION
#------------------------------------------------------------------------------
STRT        .FT                                            4790 :START DEPTH
STOP        .FT                                           12963 :STOP DEPTH
STEP        .FT                                             0.5 :STEP      
NULL        .                                           -999.25 :NULL      
COMP        .                         ATLANTIC RICHFIELD CO THE :COMPANY   
WELL        .                               OCS G06150 ST00BP00 :WELL      
FLD         .                                           WILDCAT :FIELD     
LOC         .                                                   :LOCATION  
CNTY        .                           HIGH ISLAND LARGE BLOCK :LOCATION  
STAT        .                                             TEXAS :STATE     
CTRY        .                                     UNITED STATES :COUNTRY   
SRVC        .                                                   :SERVICE COMPANY
DATE        .                             9/13/2023 11:19:59 AM :LOG DATE  
API         .                                    42708402440000 :API NUMBER
UWI         .                                    42708402440000 :UNIQUE WELL ID
XCOORD      .                                  1291497.32246636 :SURFACE X 
YCOORD      .                                   10652058.279547 :SURFACE Y 
LAT         .                                         29.347015 :LATITUDE  
LON         .                                        -94.095521 :LONGITUDE 
ELEV        .FT                                             105 :ELEVATION VALUE
ELEV_TYPE   .                                                KB :ELEVATION REFERENCE TYPE
~Curve Information Section
#MNEM       .UNIT                                      API CODE :CURVE DESCRIPTION
#------------------------------------------------------------------------------
DEPT        .FT                                                 :DEPTH     
ALL         .OHMM                                               :          
CILD        .MMHO                                               :          
GR          .GAPI                                               :          
GR_NORM     .GAPI                                               :GammaRay Normalized
ILD         .OHMM                                               :          
SP          .MV                                                 :          
SP_NORM     .MV                                                 :SP Normalized
VSH_GR      .V/V                                                :Volume of Shale from GR
VSH_SP      .V/V                                                :Volume of Shale from SP
~A        DEPTH            ALL           CILD             GR        GR_NORM            ILD             SP        SP_NORM         VSH_GR         VSH_SP
# ...
     10779.0000         0.5237       1792.396        55.7424       69.32086         0.5257       -33.8615      -1.928728      0.8254741      0.9703273
     10779.5000         0.5218       1799.152        55.9083       69.52824         0.5267       -33.7482      -1.815428      0.8301872      0.9720703
     10780.0000         0.5204       1805.922        55.4197       68.91748         0.5276       -33.6268      -1.694029      0.8163064       0.973938
     10780.5000          0.524       1812.691        54.5041       67.77298         0.5286       -33.5055      -1.572729       0.790295      0.9758042
     10781.0000         0.5276       1819.449        53.5886       66.62861         0.5296       -33.3839      -1.451128      0.7642866       0.977675
     10781.5000         0.5368       1825.965        52.6742        65.4856         0.5306       -33.4077      -1.474928      0.7383091      0.9773088
     10782.0000         0.5483       1827.459        52.8961       65.76299         0.5316       -33.4993      -1.566526      0.7446133      0.9758996
     10782.5000         0.5436       1828.953        53.3416       66.31985         0.5293       -33.5908       -1.65803      0.7572694      0.9744918
     10783.0000         0.5377       1830.445        53.7841       66.87298         0.5268       -33.6985       -1.76573      0.7698404      0.9728349
     10783.5000         0.5318       1831.939        54.2071       67.40173         0.5244        -33.848      -1.915228      0.7818576       0.970535
     10784.0000         0.5251       1833.406          54.63       67.93036         0.5219       -33.9977      -2.064928      0.7938718      0.9682319
     10784.5000         0.5192       1834.123         55.053       68.45911         0.5194       -34.1471      -2.214327      0.8058888      0.9659334
     10785.0000         0.5288       1834.838        55.4759       68.98773         0.5169       -34.2966      -2.363829       0.817903      0.9636334
     10785.5000         0.5382       1835.555        55.8989       69.51649         0.5145       -34.4481      -2.515329      0.8299202      0.9613026
     10786.0000         0.5451       1836.451        56.2319       69.93272          0.512       -34.6293      -2.696527      0.8393801       0.958515
     10786.5000         0.5336       1846.039        56.4596       70.21736         0.5095       -34.8105      -2.877729      0.8458491      0.9557272
     10787.0000         0.5222       1855.625        56.6873       70.50198         0.5064       -34.9762      -3.043428      0.8523178       0.953178
     10787.5000         0.5108       1865.213        56.6479       70.45273         0.5032       -34.8831      -2.950327      0.8511984      0.9546103
     10788.0000         0.5015       1884.826        56.4951       70.26173            0.5       -34.7899       -2.85713      0.8468574      0.9560441
     10788.5000         0.4922       1907.219        56.3426       70.07111         0.4968       -34.6967      -2.763929      0.8425251       0.957478
     10789.0000         0.4829       1929.613        56.2753       69.98698         0.4937       -34.6035      -2.670729      0.8406133      0.9589119
     10789.5000         0.4842       1952.057         57.197       71.13911         0.4905       -34.5105       -2.57773      0.8667979      0.9603426
     10790.0000          0.489       1967.875        58.1187       72.29123         0.4873       -34.4172      -2.484426      0.8929825       0.961778
     10790.5000          0.493       1976.402        59.0403       73.44323         0.4841       -34.3789      -2.446127      0.9191643      0.9623673
     10791.0000          0.497       1984.914         59.962       74.59535         0.4809       -34.3619      -2.429129      0.9453489      0.9626288
     10791.5000         0.4927       1993.441        60.8959       75.76273         0.4777        -34.345       -2.41223      0.9718801      0.9628888
     10792.0000         0.4858       2001.955        61.9081       77.02798         0.4744       -34.3279      -2.395128              1      0.9631519
     10792.5000          0.479       2010.365        62.3726        77.6086         0.4709        -34.311      -2.378229              1      0.9634119
     10793.0000         0.4737       2012.986        61.1942        76.1356         0.4673        -34.294      -2.361227      0.9803547      0.9636734
     10793.5000         0.4808       2015.615        60.0036       74.64736         0.4638        -34.277      -2.344229      0.9465309       0.963935
     10794.0000         0.4878       2018.244        58.8008       73.14386         0.4602       -34.2867       -2.35393      0.9123604      0.9637857
     10794.5000         0.4934       2020.873        57.6004       71.64336         0.4566       -34.3173      -2.384527      0.8782581       0.963315
     10795.0000         0.4954         2023.5           56.4       70.14286         0.4531        -34.348      -2.415228      0.8441559      0.9628426
     10795.5000         0.4931       2039.143        56.6225       70.42099         0.4495       -34.3786      -2.445829       0.850477      0.9623718
     10796.0000         0.4907       2058.172        57.3193       71.29198         0.4504       -34.4092      -2.476427      0.8702722      0.9619011
     10796.5000         0.4883       2077.246        58.0111       72.15674         0.4525       -34.4399      -2.507128      0.8899259      0.9614288
     10797.0000          0.486       2097.836        58.5771       72.86423         0.4546       -34.4705      -2.537729      0.9060051       0.960958
     10797.5000         0.4836       2119.789        59.0287       73.42873         0.4567       -34.5012       -2.56843      0.9188349      0.9604857
     10798.0000         0.4813       2141.793        58.6462       72.95061         0.4588       -34.5318      -2.599028      0.9079683      0.9600149
     10798.5000         0.4803       2163.797        58.2629       72.47148         0.4609       -34.5997      -2.666929      0.8970791      0.9589703
     10799.0000         0.4794       2185.727        57.8803       71.99324          0.463       -34.6775       -2.74473        0.88621      0.9577734
     10799.5000         0.4786       2172.504        57.4977       71.51498         0.4651       -34.7552      -2.822428      0.8753405       0.956578
     10800.0000         0.4787       2159.309        57.1145       71.03598         0.4672        -34.833      -2.900229      0.8644541      0.9553811
     10800.5000         0.4816       2146.086        56.7319       70.55772         0.4693       -34.9108      -2.978029      0.8535846      0.9541842
     10801.0000          0.482       2132.863        56.4667       70.22623         0.4681       -34.9887      -3.055929      0.8460506      0.9529857
     10801.5000         0.4774       2121.777        56.3245       70.04848         0.4664       -35.0665       -3.13373       0.842011      0.9517888
     10802.0000         0.4728       2116.461        56.3536       70.08485         0.4647       -35.1443      -3.211527      0.8428376      0.9505919
     10802.5000         0.4682       2125.207        56.7906        70.6311          0.463       -35.2144       -3.28163      0.8552523      0.9495134
     10803.0000         0.4636       2148.086         57.227       71.17661         0.4614        -35.267      -3.334227      0.8676501      0.9487042
     10803.5000          0.459       2170.969         57.664       71.72286         0.4597       -35.3196      -3.386827       0.880065       0.947895
     10804.0000         0.4609        2191.34        58.1003       72.26823          0.458       -35.3723      -3.439528      0.8924599      0.9470842
     10804.5000         0.4649       2203.266        58.0172       72.16437         0.4563       -35.4249      -3.492128      0.8900993      0.9462749
     10805.0000         0.4688       2215.219        57.6304       71.68086         0.4546       -35.4775      -3.544729      0.8791105      0.9454657
