#------------------------------------------------------------------------------
# Created by    : vladimir.rabinovich
# Created on    : 09/19/2023 17:20:25
#------------------------------------------------------------------------------
~Version Information Section
VERS.           2.0     :   CWLS log ASCII Standard - VERSION 2.0
WRAP.           NO      :   One line per depth step
~Well Information Section
#MNEM       .UNIT                                         VALUE :DESCRIPTION
#------------------------------------------------------------------------------
STRT        .FT                                             293 :START DEPTH
STOP        .FT                                            8505 :STOP DEPTH
STEP        .FT                                             0.5 :STEP      
NULL        .                                           -999.25 :NULL      
COMP        .                                        TEXACO USA :COMPANY   
WELL        .                                     ST TR 00058-L :WELL      
FLD         .                                           WILDCAT :FIELD     
LOC         .                                                   :LOCATION  
CNTY        .                           HIGH ISLAND LARGE BLOCK :LOCATION  
STAT        .                                             TEXAS :STATE     
CTRY        .                                     UNITED STATES :COUNTRY   
SRVC        .                                                   :SERVICE COMPANY
DATE        .                             9/13/2023 11:19:15 AM :LOG DATE  
API         .                                    42708000230000 :API NUMBER
UWI         .                                    42708000230000 :UNIQUE WELL ID
XCOORD      .                                  1179226.38702832 :SURFACE X 
YCOORD      .                                  10699123.4735792 :SURFACE Y 
LAT         .                                        29.4730929 :LATITUDE  
LON         .                                        -94.449778 :LONGITUDE 
ELEV        .FT                                              80 :ELEVATION VALUE
ELEV_TYPE   .                                                KB :ELEVATION REFERENCE TYPE
~Curve Information Section
#MNEM       .UNIT                                      API CODE :CURVE DESCRIPTION
#------------------------------------------------------------------------------
DEPT        .FT                                                 :DEPTH     
ASN         .OHMM                                               :          
CILD        .MMHO                                               :          
ILD         .OHMM                                               :          
LAT         .OHMM                                               :          
LN          .OHMM                                               :          
SP          .MV                                                 :          
SP_NORM     .MV                                                 :SP Normalized
VSH_SP      .V/V                                                :Volume of Shale from SP
~A        DEPTH            ASN           CILD            ILD            LAT             LN             SP        SP_NORM         VSH_SP
# ...
      5750.5000         1.2526        -999.25        -999.25         0.1894         0.5224      -104.7817      -63.81784     0.04895624
      5751.0000         1.3025        -999.25        -999.25         0.1935         0.5454       -106.382      -65.41815     0.02433613
      5751.5000          1.351        -999.25        -999.25         0.2028         0.5684      -107.5997      -66.63585    0.005602323
      5752.0000         1.3901        -999.25        -999.25         0.2121         0.5914      -107.5029      -66.53905    0.007091581
      5752.5000         1.4239        -999.25        -999.25         0.2215         0.6084      -107.4062      -66.44234     0.00857943
      5753.0000          1.219        -999.25        -999.25         0.2308         0.6157      -107.4642      -66.50035    0.007686908
      5753.5000         1.0583        -999.25        -999.25         0.2269         0.6187       -107.618      -66.65414    0.005320857
      5754.0000         0.9569        -999.25        -999.25          0.207         0.6182      -107.7716      -66.80774    0.002957858
      5754.5000         0.8883        -999.25        -999.25         0.1872         0.6178      -107.9254      -66.96155   0.0005915715
      5755.0000         0.8358        -999.25        -999.25         0.1673         0.6174      -108.0792      -67.11534              0
      5755.5000         0.7907        -999.25        -999.25         0.1507         0.6194      -108.2328      -67.26895              0
      5756.0000         0.6967        -999.25        -999.25          0.138         0.6264      -107.4901      -66.52625    0.007288537
      5756.5000         0.6729        -999.25        -999.25         0.1253         0.6333      -106.1759      -65.21205      0.0275069
      5757.0000          0.688        -999.25        -999.25         0.1125         0.6163      -104.8616      -63.89775     0.04772697
      5757.5000         0.7623        -999.25        -999.25         0.0998         0.5746      -103.5472      -62.58335     0.06794851
      5758.0000         1.0085        -999.25        -999.25         0.1629         0.5328      -102.5177      -61.55384     0.08378701
      5758.5000         1.2672        -999.25        -999.25         0.2381         0.4934      -101.4949      -60.53105     0.09952234
      5759.0000         1.3698        -999.25        -999.25         0.3134         0.4597      -100.4731      -59.50924      0.1152424
      5759.5000         1.4889        -999.25        -999.25         0.4255         0.4259      -100.1127      -59.14885       0.120787
      5760.0000         1.5633        -999.25        -999.25         0.5875         0.3922      -100.3019      -59.33805      0.1178762
      5760.5000         1.9763        -999.25        -999.25         0.7492         0.3585       -100.491      -59.52714      0.1149671
      5761.0000         2.1045        -999.25        -999.25         0.9091         0.3479      -100.6802      -59.71634      0.1120563
      5761.5000          2.084        -999.25        -999.25         1.0672         0.3647      -101.0128      -60.04895      0.1069393
      5762.0000         1.7843        -999.25        -999.25         1.2252         0.3816      -101.4656      -60.50174     0.09997318
      5762.5000         1.6737        -999.25        -999.25         1.3456         0.3984      -101.9188      -60.95494     0.09300085
      5763.0000          1.768        -999.25        -999.25         1.4033         0.4483      -102.3721      -61.40825       0.086027
      5763.5000         1.7932        -999.25        -999.25         1.1978         0.5057      -102.8253      -61.86145     0.07905467
      5764.0000         1.8166        -999.25        -999.25         0.9925          0.563      -103.2786      -62.31475     0.07208082
      5764.5000         1.8407        -999.25        -999.25         0.8269         0.6204      -103.7318      -62.76794      0.0651086
      5765.0000         1.7229        -999.25        -999.25         0.6936         0.6686      -104.1512      -63.18734     0.05865625
      5765.5000         1.6087        -999.25        -999.25         0.5604         0.6992      -104.3756      -63.41175     0.05520389
      5766.0000         1.3632        -999.25        -999.25         0.4271         0.7265      -104.6003      -63.63645     0.05174696
      5766.5000         1.2819        -999.25        -999.25          0.294         0.7468       -104.825      -63.86114     0.04829013
      5767.0000         1.1968        -999.25        -999.25         0.2136         0.7671      -105.0497      -64.08585     0.04483314
      5767.5000         1.1004        -999.25        -999.25         0.1653         0.7874      -105.2744      -64.31055      0.0413762
      5768.0000          1.042        -999.25        -999.25          0.117         0.8114      -105.4109      -64.44704     0.03927636
      5768.5000         0.9766        -999.25        -999.25         0.0786         0.8455      -105.0131      -64.04924     0.04539631
      5769.0000         0.9511        -999.25        -999.25         0.0713         0.8795      -104.6152      -63.65134     0.05151784
      5769.5000         0.9916        -999.25        -999.25          0.064         0.8902      -104.2174      -63.25354     0.05763779
      5770.0000         1.0403        -999.25        -999.25         0.0566         0.8705      -103.8196      -62.85575     0.06375773
      5770.5000         1.1866        -999.25        -999.25         0.0493         0.8427      -103.4218      -62.45794      0.0698778
      5771.0000         1.8104        -999.25        -999.25          0.042         0.8098      -103.0239      -62.06005     0.07599927
      5771.5000         1.9802        -999.25        -999.25         0.0347          0.777      -102.8969      -61.93304     0.07795322
      5772.0000         1.9962        -999.25        -999.25         0.0276         0.7596      -102.7958      -61.83194     0.07950856
      5772.5000         1.8054        -999.25        -999.25         0.0287         0.7523      -102.6948      -61.73095     0.08106238
      5773.0000         1.7079        -999.25        -999.25         0.0297         0.7449      -102.5936      -61.62974     0.08261936
      5773.5000          1.636        -999.25        -999.25         0.0307         0.7376      -102.4926      -61.52874     0.08417317
      5774.0000         1.5686        -999.25        -999.25         0.0318         0.7302      -101.9498      -60.98594     0.09252395
      5774.5000            1.5        -999.25        -999.25         0.0328         0.7229      -100.6781      -59.71424      0.1120885
      5775.0000         1.4401        -999.25        -999.25         0.0338         0.7155       -98.7034      -57.73954      0.1424686
      5775.5000         1.3871        -999.25        -999.25         0.0349         0.7207       -96.7286      -55.76474      0.1728501
      5776.0000         1.3564        -999.25        -999.25         0.0359         0.7361       -94.7516      -53.78775      0.2032654
      5776.5000         1.3405        -999.25        -999.25         0.0369         0.7515       -85.8329      -44.86905      0.3404762
      5777.0000         1.3246        -999.25        -999.25         0.0486         0.7669       -74.7067      -33.74285      0.5116485
      5777.5000         1.2973        -999.25        -999.25         0.0625         0.7823       -64.0061      -23.04225      0.6762731
      5778.0000         1.2625        -999.25        -999.25         0.0764         0.8089       -54.4402      -13.47635      0.8234408
      5778.5000         1.1962        -999.25        -999.25         0.0903         0.8404       -49.7016      -8.737743      0.8963424
      5779.0000          1.107        -999.25        -999.25         0.1042         0.8719        -46.694      -5.730145      0.9426132
      5779.5000         1.0639        -999.25        -999.25         0.1181         0.9034       -45.0883      -4.124443      0.9673163
