#------------------------------------------------------------------------------
# Created by    : vladimir.rabinovich
# Created on    : 09/19/2023 17:20:40
#------------------------------------------------------------------------------
~Version Information Section
VERS.           2.0     :   CWLS log ASCII Standard - VERSION 2.0
WRAP.           NO      :   One line per depth step
~Well Information Section
#MNEM       .UNIT                                         VALUE :DESCRIPTION
#------------------------------------------------------------------------------
STRT        .FT                                             400 :START DEPTH
STOP        .FT                                           11002 :STOP DEPTH
STEP        .FT                                             0.5 :STEP      
NULL        .                                           -999.25 :NULL      
COMP        .                            STANOLIND OIL & GAS CO :COMPANY   
WELL        .                                     ST TR 00245-L :WELL      
FLD         .                              GALVESTON BLOCK 0245 :FIELD     
LOC         .                                                   :LOCATION  
CNTY        .                             GALVESTON LARGE BLOCK :LOCATION  
STAT        .                                             TEXAS :STATE     
CTRY        .                                     UNITED STATES :COUNTRY   
SRVC        .                                                   :SERVICE COMPANY
DATE        .                             9/13/2023 11:19:42 AM :LOG DATE  
API         .                                    42706000160000 :API NUMBER
UWI         .                                    42706000160000 :UNIQUE WELL ID
XCOORD      .                                  1024804.26554262 :SURFACE X 
YCOORD      .                                  10549089.4715911 :SURFACE Y 
LAT         .                                        29.0543948 :LATITUDE  
LON         .                                       -94.9272588 :LONGITUDE 
ELEV        .FT                                              11 :ELEVATION VALUE
ELEV_TYPE   .                                                KB :ELEVATION REFERENCE TYPE
~Curve Information Section
#MNEM       .UNIT                                      API CODE :CURVE DESCRIPTION
#------------------------------------------------------------------------------
DEPT        .FT                                                 :DEPTH     
ASN         .OHMM                                               :          
LAT         .OHMM                                               :          
LN          .OHMM                                               :          
SP          .MV                                                 :          
SP_NORM     .MV                                                 :SP Normalized
VSH_SP      .V/V                                                :Volume of Shale from SP
~A        DEPTH            ASN            LAT             LN             SP        SP_NORM         VSH_SP
# ...
      1806.0000         0.7462         0.5769         0.4639       -82.8241      -22.18596      0.4004388
      1806.5000         0.7225         0.5799         0.4631       -83.6929      -23.05033       0.373427
      1807.0000         0.6987         0.5829         0.4622       -84.5618      -23.91481      0.3464123
      1807.5000         0.6932         0.5859         0.4582       -85.4305      -24.77908      0.3194039
      1808.0000         0.6963         0.5888          0.451       -86.2991      -25.64326      0.2923982
      1808.5000         0.7057         0.6023         0.4439       -86.4661      -25.80583      0.2873178
      1809.0000         0.7152         0.6188         0.4367       -86.5011       -25.8364      0.2863625
      1809.5000         0.7246         0.6354         0.4296       -86.5361      -25.86698      0.2854069
      1810.0000         0.7341         0.6519         0.4225       -86.3185      -25.64494      0.2923455
      1810.5000         0.7435         0.6684         0.4153       -78.7822      -18.10423       0.527993
      1811.0000         0.7102         0.6849         0.4082        -71.246      -10.56359      0.7636377
      1811.5000         0.6387         0.7015         0.4121       -67.3474      -6.660564      0.8856074
      1812.0000         0.5639          0.718         0.4179       -63.8854      -3.194138      0.9939332
      1812.5000         0.5317         0.7345         0.4238       -61.3411     -0.6454124              1
      1813.0000         0.5197         0.7414         0.4296       -63.4114      -2.711285              1
      1813.5000         0.5127         0.7406         0.4354       -67.4977      -6.793163      0.8814636
      1814.0000         0.5303         0.7397         0.4413        -71.583      -10.87403      0.7539365
      1814.5000         0.5606         0.7388         0.4471       -75.6693       -14.9559      0.6263781
      1815.0000         0.5909          0.738          0.453       -79.6243      -18.90648      0.5029227
      1815.5000          0.623         0.7371         0.4588       -83.4177      -22.69545      0.3845171
      1816.0000         0.6574         0.7292         0.4576       -87.2124      -26.48573      0.2660711
      1816.5000         0.6918          0.707         0.4546       -89.9219       -29.1908      0.1815376
      1817.0000         0.7256         0.6849         0.4515       -92.3657      -31.63017      0.1053071
      1817.5000         0.7422         0.6627         0.4484       -92.2778      -31.53785      0.1081923
      1818.0000         0.7167         0.6406         0.4454       -87.9672      -27.22282      0.2430369
      1818.5000         0.6823         0.6184         0.4423       -83.6576      -22.90879      0.3778503
      1819.0000         0.6479         0.5963         0.4393        -79.348      -18.59476      0.5126636
      1819.5000         0.5894         0.5741         0.4362       -79.2745      -18.51683      0.5150989
      1820.0000          0.629         0.5725         0.4351       -81.5531      -20.79101      0.4440309
      1820.5000          0.662         0.5795         0.4381       -83.4072      -22.64069      0.3862286
      1821.0000         0.6949         0.5865          0.441        -85.261      -24.49006      0.3284357
      1821.5000         0.7104         0.5935          0.444       -87.1152      -26.33982      0.2706305
      1822.0000         0.6963         0.6005         0.4469       -87.9285       -27.1487      0.2453531
      1822.5000         0.6821         0.6074         0.4499       -83.9095      -23.12527      0.3710852
      1823.0000         0.6403         0.6144         0.4528       -80.1392      -19.35055      0.4890454
      1823.5000         0.5914         0.6214         0.4558       -77.3269      -16.53382      0.5770682
      1824.0000          0.557         0.6284         0.4587       -74.5146       -13.7171      0.6650907
      1824.5000         0.5316         0.6354         0.4617       -71.7837      -10.98177      0.7505697
      1825.0000         0.5259         0.6423         0.4646       -71.3574      -10.55104        0.76403
      1825.5000         0.5313         0.6478         0.4676       -70.9233      -10.11252      0.7777338
      1826.0000         0.5363         0.6534         0.4705       -70.2576      -9.442387      0.7986754
      1826.5000         0.5373         0.6589         0.4735       -69.5918       -8.77216        0.81962
      1827.0000         0.5384         0.6644         0.4764        -68.926      -8.101936      0.8405645
      1827.5000         0.5394           0.67         0.4794       -67.5828      -6.754311      0.8826778
      1828.0000         0.5404         0.6755         0.4823       -66.1066      -5.273678      0.9289476
      1828.5000         0.5415          0.681         0.4838       -64.7993      -3.961956      0.9699389
      1829.0000         0.5425         0.6866         0.4853       -64.0103      -3.168526      0.9947336
      1829.5000         0.5436         0.6921         0.4869       -63.1459      -2.299702              1
      1830.0000         0.5446         0.6976         0.4884        -62.189      -1.338371              1
      1830.5000         0.5457         0.7032         0.4899        -61.232     -0.3769455              1
      1831.0000         0.5467         0.7087         0.4914       -60.2748      0.5846825              1
      1831.5000         0.5477         0.7104          0.493       -59.3179       1.546005              1
      1832.0000         0.5487         0.7114         0.4945       -58.9454       1.922935              1
      1832.5000         0.5496         0.7123          0.496       -58.6716        2.20116              1
      1833.0000         0.5505         0.7133         0.4975       -58.3544       2.522785              1
      1833.5000         0.5514         0.7143         0.4991       -57.9103       2.971313              1
      1834.0000         0.5485         0.7152         0.5001       -58.8062       2.079842              1
      1834.5000         0.5455         0.7162          0.498       -60.4129      0.4775696              1
      1835.0000         0.5426         0.7172         0.4958       -62.0196      -1.124706              1
      1835.5000         0.5396         0.7182         0.4937       -63.5954      -2.696079              1
      1836.0000         0.5336         0.7191         0.4915       -65.0634      -4.159653      0.9637609
      1836.5000         0.5283         0.7193         0.4894       -66.5314      -5.623226      0.9180242
      1837.0000         0.5341         0.7184         0.4872       -67.9994      -7.086796      0.8722876
      1837.5000         0.5398         0.7174         0.4851       -69.4674      -8.550369       0.826551
      1838.0000         0.5456         0.7165          0.483       -67.9193      -6.997841      0.8750675
      1838.5000         0.5513         0.7155         0.4808       -66.3441      -5.418217      0.9244307
      1839.0000         0.5552         0.7146         0.4787       -64.7694      -3.839092      0.9737784
      1839.5000         0.5434         0.7156         0.4765       -63.1948      -2.260063              1
      1840.0000         0.5351          0.718         0.4744       -61.6202     -0.6810379              1
      1840.5000         0.5318         0.7204         0.4723       -61.3295     -0.3859062              1
      1841.0000         0.5399         0.7228         0.4701       -62.7876      -1.839584              1
      1841.5000          0.548         0.7251         0.4689         -63.05      -2.097557              1
      1842.0000         0.5562         0.7275         0.4682        -61.866     -0.9091301              1
      1842.5000         0.5643         0.7299         0.4675       -60.6817      0.2795944              1
      1843.0000         0.5612         0.7363         0.4669       -59.4977       1.468025              1
      1843.5000         0.5572         0.7439         0.4662       -58.3137       2.656448              1
