#------------------------------------------------------------------------------
# Created by    : vladimir.rabinovich
# Created on    : 09/19/2023 17:20:38
#------------------------------------------------------------------------------
~Version Information Section
VERS.           2.0     :   CWLS log ASCII Standard - VERSION 2.0
WRAP.           NO      :   One line per depth step
~Well Information Section
#MNEM       .UNIT                                         VALUE :DESCRIPTION
#------------------------------------------------------------------------------
STRT        .FT                                             510 :START DEPTH
STOP        .FT                                            8711 :STOP DEPTH
STEP        .FT                                             0.5 :STEP      
NULL        .                                           -999.25 :NULL      
COMP        .                                      SHELL OIL CO :COMPANY   
WELL        .                                OCS 00708 ST00BP00 :WELL      
FLD         .                                           WILDCAT :FIELD     
LOC         .                                                   :LOCATION  
CNTY        .                             GALVESTON LARGE BLOCK :LOCATION  
STAT        .                                             TEXAS :STATE     
CTRY        .                                     UNITED STATES :COUNTRY   
SRVC        .                                                   :SERVICE COMPANY
DATE        .                             9/13/2023 11:19:25 AM :LOG DATE  
API         .                                    42706000300000 :API NUMBER
UWI         .                                    42706000300000 :UNIQUE WELL ID
XCOORD      .                                  1082576.09526943 :SURFACE X 
YCOORD      .                                  10493698.2734572 :SURFACE Y 
LAT         .                                         28.904546 :LATITUDE  
LON         .                                        -94.743912 :LONGITUDE 
ELEV        .FT                                              92 :ELEVATION VALUE
ELEV_TYPE   .                                                KB :ELEVATION REFERENCE TYPE
~Curve Information Section
#MNEM       .UNIT                                      API CODE :CURVE DESCRIPTION
#------------------------------------------------------------------------------
DEPT        .FT                                                 :DEPTH     
ASN         .OHMM                                               :          
CILD        .MMHO                                               :          
DT          .US/F                                               :          
ILD         .OHMM                                               :          
SP          .MV                                                 :          
SP_NORM     .MV                                                 :SP Normalized
VSH_SP      .V/V                                                :Volume of Shale from SP
~A        DEPTH            ASN           CILD             DT            ILD             SP        SP_NORM         VSH_SP
# ...
      2151.5000          0.518        2682.27        -999.25         0.5133       -95.6268      -17.03254     0.06046629
      2152.0000         0.5179       2675.332        -999.25         0.5122       -95.8989      -17.31217     0.04298925
      2152.5000         0.5177       2670.434        -999.25         0.5111       -96.1852        -17.606     0.02462482
      2153.0000         0.5176        2667.09        -999.25           0.51       -96.4713      -17.89963     0.00627327
      2153.5000          0.518       2669.707        -999.25          0.509       -96.7576      -18.19345              0
      2154.0000         0.5187        2672.32        -999.25         0.5079       -97.0437      -18.48708              0
      2154.5000         0.5194       2674.938        -999.25         0.5068         -97.33      -18.78091              0
      2155.0000         0.5201       2677.055        -999.25         0.5057       -97.6161      -19.07454              0
      2155.5000         0.5214       2678.867        -999.25         0.5046       -97.5925      -19.05847              0
      2156.0000         0.5238        2680.68        -999.25         0.5025       -97.4525        -18.926              0
      2156.5000         0.5261       2679.523        -999.25         0.5005       -97.3124      -18.79343              0
      2157.0000         0.5285       2674.438        -999.25         0.4985       -97.1724      -18.66096              0
      2157.5000         0.5308       2669.355        -999.25         0.4964       -97.0986       -18.5947              0
      2158.0000         0.5331       2664.844        -999.25         0.4944       -97.0439      -18.54752              0
      2158.5000         0.5346       2662.719        -999.25         0.4924       -96.9893      -18.50045              0
      2159.0000         0.5361       2663.563        -999.25         0.4903       -96.9346      -18.45328              0
      2159.5000         0.5361       2677.578        -999.25         0.4883       -96.8799      -18.40611              0
      2160.0000         0.5232       2700.949        -999.25         0.4863       -96.8252      -18.35894              0
      2160.5000         0.5134       2759.566        -999.25         0.4842       -96.7994      -18.34067              0
      2161.0000         0.5056       2821.863        -999.25         0.4822       -96.8157      -18.36449              0
      2161.5000          0.498         2854.5        -999.25         0.4802        -96.832      -18.38833              0
      2162.0000         0.4911       2877.738        -999.25         0.4784       -96.8483      -18.41215              0
      2162.5000         0.4867       2895.246        -999.25         0.4773       -96.8646      -18.43598              0
      2163.0000         0.4891       2901.523        -999.25         0.4762       -96.8809      -18.45981              0
      2163.5000         0.4916       2889.559        -999.25         0.4751       -96.8972      -18.48364              0
      2164.0000          0.494       2868.906        -999.25         0.4741       -96.9054      -18.49937              0
      2164.5000         0.4964       2847.664        -999.25          0.473       -96.9014       -18.5029              0
      2165.0000         0.4989       2826.406        -999.25         0.4719       -96.8972      -18.50623              0
      2165.5000         0.5013       2804.719        -999.25         0.4708       -96.8931      -18.50966              0
      2166.0000         0.4979        2786.59        -999.25         0.4698       -96.8412      -18.46529              0
      2166.5000         0.4944       2773.102        -999.25         0.4687        -96.593      -18.22462              0
      2167.0000         0.4909       2790.254        -999.25         0.4676       -96.3447      -17.98385    0.001009464
      2167.5000         0.4853       2832.699        -999.25         0.4666       -96.0966      -17.74328     0.01604509
      2168.0000         0.4796       2860.027        -999.25         0.4658        -95.806      -17.46021     0.03373718
      2168.5000         0.4738       2886.477        -999.25          0.465       -95.4951      -17.15684     0.05269766
      2169.0000         0.4681       2911.582        -999.25         0.4642       -95.1841      -16.85336     0.07166481
      2169.5000         0.4634       2950.531        -999.25         0.4634       -94.9707       -16.6475     0.08453131
      2170.0000         0.4589       2973.625        -999.25         0.4626       -95.2135      -16.89783      0.0688858
      2170.5000         0.4544       2989.922        -999.25         0.4618       -95.4563      -17.14816      0.0532403
      2171.0000           0.45       3000.813        -999.25         0.4609       -95.6991      -17.39848     0.03759527
      2171.5000         0.4464       3010.418        -999.25         0.4601       -95.5944      -17.30131     0.04366827
      2172.0000         0.4435       3014.754        -999.25         0.4593        -95.325      -17.03944     0.06003523
      2172.5000         0.4406       3011.211        -999.25         0.4585       -94.9686      -16.69057     0.08183956
      2173.0000         0.4377       3006.582        -999.25          0.458       -94.6125        -16.342      0.1036248
      2173.5000         0.4348       2998.789        -999.25         0.4577       -94.2563      -15.99333      0.1254168
      2174.0000         0.4329       2990.992        -999.25         0.4574       -93.9053      -15.64986       0.146884
      2174.5000         0.4311       2983.973        -999.25         0.4571       -93.6259      -15.37799      0.1638756
      2175.0000         0.4293        2978.09        -999.25         0.4569       -93.8827      -15.64232      0.1473551
      2175.5000         0.4275       2972.203        -999.25         0.4566        -94.201      -15.96814      0.1269913
      2176.0000         0.4257       2974.277        -999.25         0.4563       -94.5193      -16.29398      0.1066265
      2176.5000         0.4231       2982.367        -999.25         0.4559       -94.8376       -16.6198     0.08626223
      2177.0000         0.4205       2999.965        -999.25         0.4553       -95.1285      -16.91824     0.06761026
      2177.5000         0.4179       3020.785        -999.25         0.4546       -95.3491      -17.14636     0.05335236
      2178.0000          0.413       3039.762        -999.25          0.454       -95.2434      -17.04819     0.05948782
      2178.5000         0.4072       3056.457        -999.25         0.4534       -95.1377      -16.95003     0.06562328
      2179.0000         0.4015       3064.359        -999.25         0.4528       -95.0319      -16.85175     0.07176542
      2179.5000         0.3978       3072.262        -999.25         0.4521       -94.9261      -16.75348     0.07790756
      2180.0000         0.3989       3077.164        -999.25         0.4515       -94.8204       -16.6553      0.0840435
      2180.5000         0.4049       3081.191        -999.25         0.4509       -94.7146      -16.55704     0.09018517
      2181.0000          0.411       3085.219        -999.25          0.451       -94.6475      -16.49747     0.09390831
      2181.5000          0.417       3089.289        -999.25         0.4512       -94.5905        -16.448     0.09700012
      2182.0000         0.4154        3093.52        -999.25         0.4514       -94.5334      -16.39843      0.1000981
      2182.5000         0.4133        3097.75        -999.25         0.4516       -94.5507      -16.42326      0.0985465
      2183.0000         0.4112        3101.98        -999.25         0.4518       -94.6752      -16.55529     0.09029436
      2183.5000         0.4101       3099.145        -999.25          0.452       -94.7997      -16.68732     0.08204269
      2184.0000          0.409       3081.098        -999.25         0.4522       -94.9242      -16.81934     0.07379103
      2184.5000         0.4114        3040.02        -999.25         0.4525       -95.0487      -16.95137     0.06553936
