#------------------------------------------------------------------------------
# Created by    : vladimir.rabinovich
# Created on    : 09/19/2023 17:19:56
#------------------------------------------------------------------------------
~Version Information Section
VERS.           2.0     :   CWLS log ASCII Standard - VERSION 2.0
WRAP.           NO      :   One line per depth step
~Well Information Section
#MNEM       .UNIT                                         VALUE :DESCRIPTION
#------------------------------------------------------------------------------
STRT        .FT                                            3966 :START DEPTH
STOP        .FT                                           12200 :STOP DEPTH
STEP        .FT                                             0.5 :STEP      
NULL        .                                           -999.25 :NULL      
COMP        .                       HOUSTON OIL & MINERALS CORP :COMPANY   
WELL        .                                ST TR 00526-L SW/4 :WELL      
FLD         .                                           CAVALLO :FIELD     
LOC         .                                                   :LOCATION  
CNTY        .                      MATAGORDA ISLAND LARGE BLOCK :LOCATION  
STAT        .                                             TEXAS :STATE     
CTRY        .                                     UNITED STATES :COUNTRY   
SRVC        .                                                   :SERVICE COMPANY
DATE        .                             9/13/2023 11:19:05 AM :LOG DATE  
API         .                                    42703302090000 :API NUMBER
UWI         .                                    42703302090000 :UNIQUE WELL ID
XCOORD      .                                  601997.830501628 :SURFACE X 
YCOORD      .                                  10286578.1750905 :SURFACE Y 
LAT         .                                        28.3077871 :LATITUDE  
LON         .                                       -96.2273179 :LONGITUDE 
ELEV        .FT                                             113 :ELEVATION VALUE
ELEV_TYPE   .                                                KB :ELEVATION REFERENCE TYPE
~Curve Information Section
#MNEM       .UNIT                                      API CODE :CURVE DESCRIPTION
#------------------------------------------------------------------------------
DEPT        .FT                                                 :DEPTH     
ASFL        .OHMM                                               :          
CILD        .MMHO                                               :          
ILD         .OHMM                                               :          
SP          .MV                                                 :          
SP_NORM     .MV                                                 :SP Normalized
VSH_SP      .V/V                                                :Volume of Shale from SP
~A        DEPTH           ASFL           CILD            ILD             SP        SP_NORM         VSH_SP
# ...
     11642.0000         2.0358       596.9272         1.6973       -26.8136      -6.524435      0.9136807
     11642.5000         2.2903       597.1164         1.6966       -28.2092      -7.909298      0.8920422
     11643.0000         2.5447        597.306         1.6959       -29.8012      -9.490562       0.867335
     11643.5000         2.8231       597.4959         1.6952       -27.8156      -7.494225      0.8985277
     11644.0000         2.8231       605.5914         1.6945        -25.636      -5.303888      0.9327517
     11644.5000          2.505         605.79         1.6938       -24.6497      -4.306854      0.9483304
     11645.0000         2.3459       613.9095         1.6536       -23.4674      -3.113817      0.9669716
     11645.5000         2.1869       629.9733         1.6332       -24.8577      -4.498419      0.9453372
     11646.0000         2.0278       630.1967         1.6721       -26.4432      -6.083918      0.9205638
     11646.5000         1.9873       622.4765         1.7306       -28.0258      -7.666519      0.8958356
     11647.0000         2.0239       622.6928         1.7891       -29.6055      -9.246218      0.8711529
     11647.5000         2.1431       614.9495         1.7883       -31.1939      -10.83462      0.8463341
     11648.0000         2.2624       615.1588         1.8072       -31.1951      -10.83582      0.8463153
     11648.5000         2.0239       599.4164         1.8064       -29.6067      -9.247419      0.8711341
     11649.0000          1.992       575.6583         1.8056       -27.8389      -7.479618       0.898756
     11649.5000         1.9881        575.829         1.8049       -26.2709      -5.911619       0.923256
     11650.0000         1.9602            576         1.8041       -24.5098      -4.150518      0.9507731
     11650.5000         1.9356       592.2029         1.8038        -22.944      -2.584719      0.9752388
     11651.0000         1.7996       608.3735         1.8036       -21.1788      -0.819519              1
     11651.5000         1.7996       624.5121         1.7837       -21.1799     -0.8206177              1
     11652.0000         1.7996       616.7138         1.7835       -21.1811     -0.8218193              1
     11652.5000         2.0596        608.931         1.7833       -21.3793      -1.020018      0.9996872
     11653.0000         2.1193       593.2115         1.8028        -21.775      -1.415718      0.9935044
     11653.5000         2.1789       585.4677         1.8026       -21.7768      -1.417519      0.9934763
     11654.0000         2.2386       577.7394         1.8024       -21.7785      -1.419218      0.9934497
     11654.5000         2.2982       577.9549          1.822       -21.7803      -1.421019      0.9934216
     11655.0000         2.0994       586.0905         1.8218        -21.584      -1.224718      0.9964888
     11655.5000              2       586.2972         1.8216       -21.3874      -1.028118      0.9995607
     11656.0000              2       586.5036         1.8215       -21.1904     -0.8311176              1
     11656.5000         1.9412       594.6067         1.8213       -21.1916     -0.8323193              1
     11657.0000         1.9571        602.694         1.8211       -21.1928      -0.833519              1
     11657.5000          1.973       610.7656          1.801       -21.1939     -0.8346176              1
     11658.0000         1.9889       618.8217          1.761       -21.1951     -0.8358192              1
     11658.5000          2.004       626.8622          1.701       -21.1963      -0.837019              1
     11659.0000          2.004       650.7496         1.6408        -21.397      -1.037718      0.9994106
     11659.5000         1.9881       643.0465         1.7204       -21.5982      -1.238918      0.9962669
     11660.0000         1.9682       603.9216           1.82       -21.9996      -1.640318       0.989995
     11660.5000         1.9483       580.3922           1.92            -22      -1.640718      0.9899888
     11661.0000         1.9276       580.3922         2.0196            -22      -1.640718      0.9899888
     11661.5000         2.0795       580.3922          2.098            -22      -1.640718      0.9899888
     11662.0000         2.1948       556.8627         2.1961            -22      -1.640718      0.9899888
     11662.5000         2.3141       533.3333         2.2941            -22      -1.640718      0.9899888
     11663.0000         2.4294       509.8039         2.3922            -22      -1.640718      0.9899888
     11663.5000         2.5487       486.2745         2.4706            -22      -1.640718      0.9899888
     11664.0000          2.668       462.7451         2.5686          -21.8      -1.440718      0.9931138
     11664.5000         2.7833       439.2157         2.6667          -21.8      -1.440718      0.9931138
     11665.0000         3.0219       415.6863         2.7647          -21.6      -1.240719      0.9962388
     11665.5000         3.2604            392         2.8627          -21.6      -1.240719      0.9962388
     11666.0000         4.0795            368         2.9804          -21.4      -1.040718      0.9993638
     11666.5000         4.0795            368            3.1          -21.4      -1.040718      0.9993638
     11667.0000         4.9185            368            3.1          -21.2     -0.8407192              1
     11667.5000         4.6004            368            3.1          -21.2     -0.8407192              1
     11668.0000         4.2783            368            3.1            -21     -0.6407185              1
     11668.5000         3.9602            400            3.1          -20.8     -0.4407177              1
     11669.0000         3.6382       439.2157           3.08          -20.6     -0.2407188              1
     11669.5000          3.002       478.4314         2.8431          -20.4    -0.04071808              1
     11670.0000         2.4493       509.8039         2.6078          -20.2      0.1592808              1
     11670.5000         2.3539       549.0196         2.3719            -20      0.3592815              1
     11671.0000         2.2147       588.2353         2.1356       -19.8039      0.5553818              1
     11671.5000         2.0755        627.451         1.8974       -19.8039      0.5553818              1
     11672.0000         2.0358       635.2941         1.6377       -19.8039      0.5553818              1
     11672.5000          1.996       635.2941          1.637       -19.8039      0.5553818              1
     11673.0000          1.996       643.1373         1.6364       -19.8039      0.5553818              1
     11673.5000          1.996       643.1373         1.6358          -21.4      -1.040718      0.9993638
     11674.0000          1.996       603.9216         1.6352          -21.4      -1.040718      0.9993638
     11674.5000         1.9563       556.8627         1.6543          -21.2     -0.8407192              1
     11675.0000         2.0477       556.8627         1.7922          -21.2     -0.8407192              1
     11675.5000         2.1869       556.8627         1.9298            -21     -0.6407185              1
     11676.0000          2.326       509.8039         2.0675            -21     -0.6407185              1
     11676.5000         2.4851       454.9019         2.2056            -21     -0.6407185              1
     11677.0000         2.6243       454.9019         2.3439          -21.6      -1.240719      0.9962388
     11677.5000         2.7594       454.9019         2.5224          -22.2      -1.840719      0.9868637
     11678.0000         2.9185       454.9019         2.5219          -22.8      -2.440718      0.9774888
     11678.5000         3.0775       454.9019         2.5214          -23.6      -3.240719      0.9649888
     11679.0000         3.2565       454.9019          2.521          -22.8      -2.440718      0.9774888
     11679.5000         3.0577       454.9019         2.5205            -22      -1.640718      0.9899888
