#------------------------------------------------------------------------------
# Created by    : vladimir.rabinovich
# Created on    : 09/19/2023 17:20:33
#------------------------------------------------------------------------------
~Version Information Section
VERS.           2.0     :   CWLS log ASCII Standard - VERSION 2.0
WRAP.           NO      :   One line per depth step
~Well Information Section
#MNEM       .UNIT                                         VALUE :DESCRIPTION
#------------------------------------------------------------------------------
STRT        .FT                                             242 :START DEPTH
STOP        .FT                                            8116 :STOP DEPTH
STEP        .FT                                             0.5 :STEP      
NULL        .                                           -999.25 :NULL      
COMP        .                                       HUNT OIL CO :COMPANY   
WELL        .                                     ST TR 00005-L :WELL      
FLD         .                                           WILDCAT :FIELD     
LOC         .                                                   :LOCATION  
CNTY        .                           HIGH ISLAND LARGE BLOCK :LOCATION  
STAT        .                                             TEXAS :STATE     
CTRY        .                                     UNITED STATES :COUNTRY   
SRVC        .                                                   :SERVICE COMPANY
DATE        .                             9/13/2023 11:19:33 AM :LOG DATE  
API         .                                    42708000010000 :API NUMBER
UWI         .                                    42708000010000 :UNIQUE WELL ID
XCOORD      .                                  1328371.56215902 :SURFACE X 
YCOORD      .                                  10754892.1390607 :SURFACE Y 
LAT         .                                        29.6307718 :LATITUDE  
LON         .                                       -93.9824852 :LONGITUDE 
ELEV        .FT                                              11 :ELEVATION VALUE
ELEV_TYPE   .                                                KB :ELEVATION REFERENCE TYPE
~Curve Information Section
#MNEM       .UNIT                                      API CODE :CURVE DESCRIPTION
#------------------------------------------------------------------------------
DEPT        .FT                                                 :DEPTH     
ASN         .OHMM                                               :          
LAT         .OHMM                                               :          
LN          .OHMM                                               :          
SN          .OHMM                                               :          
SP          .MV                                                 :          
SP_NORM     .MV                                                 :SP Normalized
VSH_SP      .V/V                                                :Volume of Shale from SP
~A        DEPTH            ASN            LAT             LN             SN             SP        SP_NORM         VSH_SP
# ...
       778.0000         1.6298         1.7098          1.789         1.5889       -58.9878      -1.451756              1
       778.5000         1.6352         1.7259         1.7905         1.5988       -58.7187      -1.186741              1
       779.0000          1.634         1.7419         1.7915         1.6088       -58.4496       -0.92173              1
       779.5000          1.629          1.758         1.7793         1.6187       -58.1806     -0.6568146              1
       780.0000         1.6239          1.774         1.7671         1.6254       -58.1532     -0.6334991              1
       780.5000         1.6189         1.7901         1.7549         1.6275       -58.1495     -0.6338921              1
       781.0000         1.6136         1.7999         1.7427         1.6295       -58.1746     -0.6630745              1
       781.5000         1.6053         1.8045         1.7308         1.6316        -58.268     -0.7605629              1
       782.0000          1.597         1.8091          1.719         1.6337       -58.3614     -0.8580513              1
       782.5000         1.6116         1.8137         1.7073         1.6358       -58.4548     -0.9555359              1
       783.0000         1.6273         1.8184         1.6955         1.6379       -58.5482       -1.05302              1
       783.5000         1.6384          1.823         1.6837         1.6368       -58.6415      -1.150406              1
       784.0000         1.6495         1.8276          1.672         1.6309       -58.7349      -1.247898              1
       784.5000         1.6606         1.8259         1.6602         1.6249       -58.8283      -1.345383              1
       785.0000         1.6718         1.8209         1.6484          1.619       -58.8317      -1.352867              1
       785.5000         1.6698         1.8158          1.643          1.613       -58.7697      -1.294956              1
       786.0000         1.6256         1.8108         1.6376         1.6071       -58.7078      -1.237144              1
       786.5000          1.599         1.8057         1.6323         1.6011       -58.6458       -1.17923              1
       787.0000         1.5759         1.8007         1.6269         1.5952       -58.5839      -1.121418              1
       787.5000         1.5512         1.7956         1.6216         1.5862       -58.5219      -1.063503              1
       788.0000         1.5206         1.8043         1.6163         1.5758         -58.46      -1.005688              1
       788.5000         1.4938         1.8192         1.6214         1.5654        -58.398     -0.9477768              1
       789.0000         1.4712         1.8341         1.6277          1.555       -58.3361     -0.8899651              1
       789.5000         1.4703          1.849          1.634         1.5447       -58.2231     -0.7810478              1
       790.0000         1.4843         1.8639         1.6402         1.5343       -58.1098     -0.6718369              1
       790.5000         1.4982         1.8782         1.6587         1.5239       -57.9965     -0.5626221              1
       791.0000         1.5122          1.891         1.6885         1.5135       -57.8831     -0.4533081              1
       791.5000         1.5176         1.9038         1.7167         1.5032       -57.7697      -0.343998              1
       792.0000         1.5196         1.9166         1.7382         1.5016       -57.6564     -0.2347832              1
       792.5000         1.5216         1.9294         1.7597         1.5082        -57.543     -0.1254692              1
       793.0000         1.5247         1.9422         1.7811         1.5149       -57.4297    -0.01625824              1
       793.5000         1.5299         1.9549         1.8026         1.5216       -57.5315     -0.1221466              1
       794.0000         1.5351         1.9149         1.8241         1.5282       -57.6714     -0.2661285              1
       794.5000         1.5402         1.7663         1.8387         1.5349       -57.8112     -0.4100189              1
       795.0000         1.5454         1.6363         1.8505         1.5416       -57.9511     -0.5540047              1
       795.5000         1.5531         1.5508         1.8624         1.5482        -58.091     -0.6979904              1
       796.0000         1.5621         1.4653          1.863         1.5549       -58.2118     -0.8228798              1
       796.5000         1.5711         1.3715         1.8542          1.561        -58.208     -0.8231659              1
       797.0000           1.58         1.2706         1.8455         1.5635       -58.2043     -0.8235512              1
       797.5000         1.5863         1.1936         1.8359         1.5661       -58.2005     -0.8238411              1
       798.0000         1.5922         1.1462         1.8186         1.5686       -58.1968     -0.8242264              1
       798.5000         1.5981         1.0989         1.8012         1.5712       -58.0672     -0.6987114              1
       799.0000         1.5932         1.0617         1.7839         1.5737       -57.9255        -0.5611              1
       799.5000         1.5844         1.0639         1.7665         1.5763       -57.7839     -0.4235878              1
       800.0000         1.5752          1.072         1.7492         1.5789       -57.6422     -0.2859726              1
       800.5000         1.5661         1.1079         1.7319         1.5814       -57.5005     -0.1483612              1
       801.0000         1.5569         1.1438          1.715          1.584       -57.3589    -0.01084518              1
       801.5000         1.5545         1.1797         1.6982         1.5865         -57.28     0.06396866              1
       802.0000         1.5543         1.2017         1.6814         1.5841       -57.2045      0.1353836              1
       802.5000         1.5542           1.22         1.6646         1.5813       -57.3589    -0.02310562              1
       803.0000          1.555         1.2384         1.6482         1.5784       -57.5132     -0.1814919              1
       803.5000         1.5565         1.2567         1.6478         1.5756       -57.6676     -0.3399773              1
       804.0000         1.5579          1.275         1.6474         1.5727        -57.822     -0.4984665              1
       804.5000         1.5594         1.2933          1.647         1.5698       -57.9763     -0.6568527              1
       805.0000         1.5611         1.3116         1.6466          1.567       -58.1307     -0.8153381              1
       805.5000         1.5649         1.3299         1.6462         1.5641        -58.285     -0.9737282              1
       806.0000         1.5686         1.3477          1.651         1.5612       -58.3856      -1.078415              1
       806.5000         1.5685         1.3617         1.6675         1.5635       -58.4861      -1.182999              1
       807.0000         1.5672         1.3757          1.684         1.5692       -58.5867      -1.287689              1
       807.5000         1.5407         1.3898         1.7005         1.5748       -58.6871      -1.392174              1
       808.0000         1.5172         1.4038          1.717         1.5805       -58.7877      -1.496861              1
       808.5000         1.4961         1.4179         1.7335         1.5862       -58.8882      -1.601448              1
       809.0000         1.5145         1.4319           1.75         1.5918       -58.7514      -1.468735              1
       809.5000         1.5862          1.446         1.7639         1.5975       -58.5637      -1.285122              1
       810.0000         1.6165           1.46         1.7776         1.6032        -58.376      -1.101509              1
       810.5000         1.6305         1.4677         1.7913         1.6088       -58.1882     -0.9177971              1
       811.0000         1.6444         1.4716          1.805         1.6147       -58.0005     -0.7341805              1
