#------------------------------------------------------------------------------
# Created by    : vladimir.rabinovich
# Created on    : 09/19/2023 17:22:34
#------------------------------------------------------------------------------
~Version Information Section
VERS.           2.0     :   CWLS log ASCII Standard - VERSION 2.0
WRAP.           NO      :   One line per depth step
~Well Information Section
#MNEM       .UNIT                                         VALUE :DESCRIPTION
#------------------------------------------------------------------------------
STRT        .FT                                            2432 :START DEPTH
STOP        .FT                                            8088 :STOP DEPTH
STEP        .FT                                             0.5 :STEP      
NULL        .                                           -999.25 :NULL      
COMP        .                                  XTO OFFSHORE INC :COMPANY   
WELL        .                               OCS G23162 ST00BP00 :WELL      
FLD         .                                 BRAZOS BLOCK 0398 :FIELD     
LOC         .                                                   :LOCATION  
CNTY        .                                BRAZOS LARGE BLOCK :LOCATION  
STAT        .                                             TEXAS :STATE     
CTRY        .                                     UNITED STATES :COUNTRY   
SRVC        .                                                   :SERVICE COMPANY
DATE        .                             9/13/2023 11:09:58 AM :LOG DATE  
API         .                                    42704403400000 :API NUMBER
UWI         .                                    42704403400000 :UNIQUE WELL ID
XCOORD      .                                  869002.191083907 :SURFACE X 
YCOORD      .                                  10369331.9113669 :SURFACE Y 
LAT         .                                        28.5523806 :LATITUDE  
LON         .                                       -95.4033279 :LONGITUDE 
ELEV        .FT                                             100 :ELEVATION VALUE
ELEV_TYPE   .                                                KB :ELEVATION REFERENCE TYPE
~Curve Information Section
#MNEM       .UNIT                                      API CODE :CURVE DESCRIPTION
#------------------------------------------------------------------------------
DEPT        .FT                                                 :DEPTH     
CO12        .MMHO                                               :          
DCAL        .IN                                                 :          
DPHI        .FRAC                                               :          
DRHO        .G/CC                                               :          
GR          .GAPI                                               :          
GR_NORM     .GAPI                                               :GammaRay Normalized
HO01        .OHMM                                               :          
HO02        .OHMM                                               :          
HO03        .OHMM                                               :          
HO06        .OHMM                                               :          
HO09        .OHMM                                               :          
HO12        .OHMM                                               :          
NPHI        .FRAC                                               :          
RWA         .OHMM                                               :          
SP          .MV                                                 :          
SP_NORM     .MV                                                 :SP Normalized
TENS        .LB/F                                               :          
VSH_GR      .V/V                                                :Volume of Shale from GR
VSH_SP      .V/V                                                :Volume of Shale from SP
~A        DEPTH           CO12           DCAL           DPHI           DRHO             GR        GR_NORM           HO01           HO02           HO03           HO06           HO09           HO12           NPHI            RWA             SP        SP_NORM           TENS         VSH_GR         VSH_SP
# ...
      3242.0000       1660.869         1.3054          0.285        -0.0058        45.1696       39.37545         1.4365         0.8028         0.6464         0.5813         0.6612         0.6456         0.3324          0.061        49.7797      -17.65051       2974.587       0.135648      0.1305275
      3242.5000       1885.474          1.021         0.3034        -0.0038        45.0356       39.23456         1.0716         0.6414          0.545         0.5116         0.5519         0.5407         0.3512         0.0616        48.6112      -18.81692       2972.778      0.1326503     0.06572681
      3243.0000       2287.255          1.021         0.3241        -0.0012        42.2743       36.29868         0.7397          0.492         0.4403         0.4151         0.4515         0.4429         0.3643         0.0671        47.9938      -19.43222       2970.744     0.07018459     0.03154352
      3243.5000           2618         0.8903         0.3396         0.0004        40.0936       33.98044         0.6264         0.4315         0.3791         0.3568         0.3706         0.3631         0.3728         0.0679        47.7913      -19.63263       2968.031     0.02086039     0.02040969
      3244.0000       2752.937         0.7597         0.3446        -0.0004        39.4691       33.31774         0.5123         0.4137         0.3732         0.3436         0.3613         0.3519         0.3561         0.0645        47.3829      -20.03893       2965.545    0.006760455              0
      3244.5000       2680.401         0.7059         0.3406        -0.0038        41.3436       35.31355         0.5838         0.4174         0.3885         0.3636         0.3885         0.3755         0.3325         0.0593        46.8286      -20.59114       2966.675     0.04922453              0
      3245.0000       2657.365         0.7289         0.3371        -0.0084        43.1114       37.19585         0.6134         0.4549         0.4167         0.3928         0.4095         0.3942         0.3267         0.0571        46.5265      -20.89114       2971.648     0.08927333              0
      3245.5000        2703.47         0.7904         0.3335        -0.0094        45.1516       39.36794         0.4746          0.422         0.3982         0.3583         0.3725         0.3607         0.3284         0.0588        46.7522      -20.66335       2972.778       0.135488              0
      3246.0000       2733.724         0.7981          0.321        -0.0054        47.0285        41.3663         0.4369         0.3854         0.3631         0.3362         0.3662          0.357         0.3288         0.0569        47.4493      -19.96415       2969.613      0.1780064    0.001991484
      3246.5000       2523.113         0.8212          0.293        -0.0018        49.2004       43.67849         0.4924         0.3827         0.3619         0.3674         0.3878         0.3806         0.3251         0.0483        48.6411      -18.77026       2970.744      0.2272019      0.0683189
      3247.0000       2113.078         0.8212         0.2552        -0.0018        49.9575       44.48558         0.6684          0.444         0.4394         0.4626         0.4732         0.4671         0.3067         0.0376        49.9922      -17.41706       2986.793       0.244374      0.1434964
      3247.5000       1663.789         0.8058         0.2241         -0.001        51.7106       46.35225          1.134         0.7204         0.6967         0.6529         0.6404         0.6365         0.2852         0.0325        51.0345      -16.37267       3014.597      0.2840903      0.2015182
      3248.0000       1395.948         1.1824         0.2117         0.0063        53.7816       48.55709         1.5863         1.1274         0.9234         0.7842          0.779         0.7815         0.2822         0.0362        51.6221      -15.78297       3036.071      0.3310019      0.2342792
      3248.5000       1373.491         1.7512         0.2204          0.021         55.288        50.1613         1.2978         0.9179         0.7927         0.6939         0.7411         0.7478         0.2948         0.0426        51.7981      -15.60489       3032.002      0.3651341       0.244173
      3249.0000       1461.325          2.074         0.2408          0.037        53.6212       48.38978         1.0454         0.7941         0.7167         0.6292         0.6594          0.665         0.3227         0.0523        51.6221      -15.77879       3006.007      0.3274421      0.2345119
      3249.5000       1554.117         1.8357         0.2702         0.0516        52.0689       46.74005         0.9386         0.7723         0.7011          0.598         0.6458         0.6481         0.3461          0.062        51.3134       -16.0854       2983.628      0.2923415       0.217478
      3250.0000       1632.233         2.0663         0.3062         0.0628        51.4444       46.07735         0.9341         0.7766         0.6921         0.5784         0.6222          0.619         0.3844         0.0783        51.0213       -16.3754       2987.019      0.2782416      0.2013668
      3250.5000       1760.726         2.2431         0.3463         0.0722        50.0501       44.59571         0.8743         0.7191         0.6349         0.5386         0.5837         0.5754         0.4145         0.0998        50.7822      -16.61241       3016.857      0.2467172      0.1881996
      3251.0000       1919.238         2.2892         0.3791         0.0737        47.9524       42.36578         0.8205         0.6456         0.5671         0.5002         0.5298         0.5185         0.4372         0.1123        50.5499      -16.84261       3046.921      0.1992719      0.1754106
      3251.5000        2098.42         2.4506         0.3921         0.0668        47.2645       41.63564         0.8401         0.6027         0.5182         0.4639         0.4914         0.4782         0.4529         0.1119        50.2577      -17.13272       3047.599      0.1837369      0.1592935
      3252.0000       2243.426          2.466          0.386         0.0523        50.4246        44.9991         0.7297         0.5504         0.4824         0.4298         0.4536         0.4394          0.444         0.0975        49.8527      -17.53562        3025.22      0.2552999      0.1369099
      3252.5000       2357.215         2.1662         0.3678         0.0364        52.9713       47.71001         0.6728         0.5325         0.4709         0.4119         0.4393         0.4231         0.4429          0.081        49.3116      -18.07463       3010.302       0.312979       0.106965
      3253.0000       2432.116         1.9279         0.3513         0.0223        52.9338       47.67179         0.6752         0.5341          0.467          0.406         0.4296         0.4111         0.4059         0.0684         48.744      -18.64013       3027.707      0.3121657     0.07554817
      3253.5000       2492.904         1.7665         0.3416         0.0152         50.504       45.08855         0.6873         0.5321         0.4629         0.4007         0.4202            0.4          0.387         0.0644        48.2859      -19.09614       3070.204      0.2572032     0.05021434
      3254.0000       2577.986          1.828          0.339         0.0142        48.5627         43.025          0.734         0.5151         0.4407         0.3926         0.4143         0.3928         0.3827          0.061        48.0137      -19.36625       3106.145      0.2132979      0.0352086
      3254.5000       2734.324         1.9049         0.3385         0.0208        47.7486        42.1606         0.7598         0.4604          0.386          0.372         0.3921         0.3721         0.3947         0.0589        48.0103      -19.36755       3112.926      0.1949064     0.03513591
      3255.0000       2956.473         1.9126         0.3412         0.0254        47.8188       42.23694         0.6131         0.3939         0.3415         0.3265         0.3528         0.3368         0.3991         0.0542        48.4087      -18.96706       3097.781      0.1965306     0.05738576
