#------------------------------------------------------------------------------
# Created by    : vladimir.rabinovich
# Created on    : 09/19/2023 17:20:31
#------------------------------------------------------------------------------
~Version Information Section
VERS.           2.0     :   CWLS log ASCII Standard - VERSION 2.0
WRAP.           NO      :   One line per depth step
~Well Information Section
#MNEM       .UNIT                                         VALUE :DESCRIPTION
#------------------------------------------------------------------------------
STRT        .FT                                            2310 :START DEPTH
STOP        .FT                                           12118 :STOP DEPTH
STEP        .FT                                             0.5 :STEP      
NULL        .                                           -999.25 :NULL      
COMP        .                                   FOREST OIL CORP :COMPANY   
WELL        .                               OCS G01793 ST00BP00 :WELL      
FLD         .                                           WILDCAT :FIELD     
LOC         .                                                   :LOCATION  
CNTY        .                             GALVESTON LARGE BLOCK :LOCATION  
STAT        .                                             TEXAS :STATE     
CTRY        .                                     UNITED STATES :COUNTRY   
SRVC        .                                                   :SERVICE COMPANY
DATE        .                             9/13/2023 11:19:24 AM :LOG DATE  
API         .                                    42706001380000 :API NUMBER
UWI         .                                    42706001380000 :UNIQUE WELL ID
XCOORD      .                                  1024149.02927821 :SURFACE X 
YCOORD      .                                  10425384.3690734 :SURFACE Y 
LAT         .                                         28.714212 :LATITUDE  
LON         .                                        -94.923031 :LONGITUDE 
ELEV        .FT                                              60 :ELEVATION VALUE
ELEV_TYPE   .                                                KB :ELEVATION REFERENCE TYPE
~Curve Information Section
#MNEM       .UNIT                                      API CODE :CURVE DESCRIPTION
#------------------------------------------------------------------------------
DEPT        .FT                                                 :DEPTH     
ASN         .OHMM                                               :          
CALI        .IN                                                 :          
CILD        .MMHO                                               :          
DT          .US/F                                               :          
ILD         .OHMM                                               :          
RHOB        .G/C3                                               :          
SP          .MV                                                 :          
SP_NORM     .MV                                                 :SP Normalized
VSH_SP      .V/V                                                :Volume of Shale from SP
~A        DEPTH            ASN           CALI           CILD             DT            ILD           RHOB             SP        SP_NORM         VSH_SP
# ...
     11426.0000         0.6763         9.0398       1846.297       110.6688         0.6002         2.3944       -41.8303      -3.652324      0.9438104
     11426.5000         0.6808         8.9992       1850.688       110.5531         0.6007         2.3872       -42.1712      -4.122033      0.9365841
     11427.0000         0.6775         8.9585       1855.369       110.4532         0.6012           2.38       -42.4364      -4.485758      0.9309883
     11427.5000         0.6697         8.9627       1860.688       110.5863         0.6017         2.3784       -42.2806      -4.260081      0.9344603
     11428.0000         0.6619         8.9796       1866.006       110.7543         0.6022         2.3825       -42.1249      -4.034544      0.9379301
     11428.5000          0.654         8.9727       1873.742       110.9222         0.6027         2.3866       -41.9229      -3.744193      0.9423971
     11429.0000         0.6446         8.9509       1880.205       111.0902         0.6032         2.3906        -41.662      -3.371372      0.9481328
     11429.5000         0.6387         8.9292       1875.436        111.192         0.6033         2.3932       -41.4012      -2.998696      0.9538662
     11430.0000          0.642         8.9097       1870.664       111.1426         0.6034         2.3934       -41.1403      -2.625881      0.9596018
     11430.5000         0.6453         8.8991       1865.906       111.0933         0.6034           2.39       -40.8788      -2.252228      0.9653503
     11431.0000         0.6483         8.8886       1861.137       111.0438         0.6035         2.3867         -40.78       -2.10635      0.9675946
     11431.5000         0.6488         8.9315       1856.367       110.9944         0.6036         2.3834       -40.7629      -2.074857      0.9680791
     11432.0000         0.6493         8.9745       1851.596       111.0186         0.6037         2.3801       -40.7458      -2.043358      0.9685637
     11432.5000         0.6499         9.0206       1846.838       111.0846         0.6038          2.377       -40.7288      -2.012009       0.969046
     11433.0000         0.6504          9.093       1841.793       111.1506         0.6038         2.3782       -40.7117       -1.98051      0.9695306
     11433.5000         0.6509         9.0789       1835.891       111.2632         0.6039         2.3811       -40.7281      -1.995912      0.9692937
     11434.0000         0.6514         9.0399       1830.074       111.4368          0.604         2.3839       -40.7598      -2.032735      0.9687272
     11434.5000         0.6519         8.9995       1825.439       111.6104         0.6041         2.3873       -40.7914      -2.069425      0.9681627
     11435.0000         0.6521          8.959       1820.807       111.7836         0.6042         2.3908        -40.823       -2.10611      0.9675983
     11435.5000         0.6506          8.945       1817.832       111.9572         0.6042         2.3942       -40.8547      -2.142928      0.9670319
     11436.0000         0.6491         8.9336       1818.271       112.0958         0.6043         2.3977       -40.8863      -2.179612      0.9664675
     11436.5000         0.6476         8.9223       1822.189       111.9288         0.6044         2.4009       -40.9179      -2.216302       0.965903
     11437.0000         0.6461          8.911       1829.078       111.7618         0.6045         2.4029        -40.956      -2.262086      0.9651987
     11437.5000         0.6446         8.8997       1835.953       111.5947         0.6042          2.404        -41.008      -2.327327       0.964195
     11438.0000         0.6431         8.8918       1842.828       111.4019         0.6029         2.4065       -41.0599      -2.392429      0.9631934
     11438.5000         0.6407         8.9125       1846.104       111.1906         0.6015         2.4091       -41.1119       -2.45768      0.9621896
     11439.0000         0.6382         8.9332       1829.912       110.9819         0.6001         2.4091       -41.1131        -2.4518        0.96228
     11439.5000         0.6357         8.9539        1817.83       111.0345         0.5988         2.3979       -41.0719      -2.386565      0.9632836
     11440.0000         0.6332         8.9746       1805.773        111.087         0.5974         2.3839       -41.0307       -2.32133      0.9642872
     11440.5000         0.6316         8.8786       1793.691       111.1396         0.5961         2.3768       -40.8382      -2.044276      0.9685496
     11441.0000         0.6379         8.7368       1785.883       111.1921         0.5947         2.3819       -40.5261       -1.59978       0.975388
     11441.5000         0.6442         8.5522       1780.166       111.2446         0.5933          2.388       -40.1726      -1.097323      0.9831181
     11442.0000         0.6505         8.4412       1774.461       111.2627          0.592         2.3952       -39.7485     -0.4960274      0.9923688
     11442.5000         0.6568         8.6268       1768.744        111.278         0.5906         2.4023       -39.2806      0.1665833              1
     11443.0000          0.663         8.8298       1763.027       111.2932         0.5893         2.4077       -38.7814       0.873024              1
     11443.5000         0.6677         8.9851       1751.943        111.194         0.5879           2.41       -38.4449       1.351678              1
     11444.0000         0.6698         9.0774       1749.078       111.0007         0.5865         2.4123       -38.1077       1.831316              1
     11444.5000         0.6718         9.1418       1759.342       110.8075         0.5851         2.4146       -37.9175       2.105148              1
     11445.0000         0.6697         9.2063       1772.369       110.5865         0.5837          2.417       -38.2897       1.591625              1
     11445.5000         0.6675         9.2651       1785.396        110.326         0.5822         2.4193       -39.1329      0.4187012              1
     11446.0000         0.6653          9.321       1798.426       110.0648         0.5807         2.4216       -39.9687     -0.7438622       0.988556
     11446.5000         0.6632         9.3484       1809.242       109.8043         0.5792         2.4232       -40.4366       -1.39137      0.9785943
     11447.0000          0.661         9.3213       1807.215        109.545         0.5778         2.4245       -40.7845      -1.870873      0.9712173
     11447.5000         0.6582         9.2866       1804.615       109.3989         0.5763         2.4249       -40.7206      -1.773856      0.9727099
     11448.0000         0.6552         9.2519       1801.576       109.2531         0.5748         2.4229       -40.6568      -1.676978      0.9742003
     11448.5000         0.6522         9.2341       1800.355       109.1069         0.5734         2.4209       -40.6068      -1.599428      0.9753934
     11449.0000         0.6491         9.2567       1808.863       109.1552         0.5719         2.4189       -40.8738      -1.965668      0.9697589
     11449.5000         0.6494         9.2788       1821.068       109.2942         0.5705          2.417       -41.1923      -2.404012      0.9630152
     11450.0000         0.6501         9.2984       1833.275       109.4332         0.5694          2.415        -41.064      -2.216836      0.9658948
     11450.5000         0.6513         9.3179        1845.48       109.5725         0.5684         2.4114       -40.6261      -1.596223      0.9754427
     11451.0000         0.6529         9.3375       1857.711       109.7114         0.5674         2.4076       -40.1913     -0.9799477      0.9849239
     11451.5000         0.6545         9.3237       1866.629       109.8922         0.5664         2.4039       -39.7821     -0.3995125      0.9938536
     11452.0000         0.6562         9.2892       1872.459       110.0791         0.5654         2.4066       -39.6897     -0.2625961      0.9959601
