#------------------------------------------------------------------------------
# Created by    : vladimir.rabinovich
# Created on    : 09/19/2023 17:20:32
#------------------------------------------------------------------------------
~Version Information Section
VERS.           2.0     :   CWLS log ASCII Standard - VERSION 2.0
WRAP.           NO      :   One line per depth step
~Well Information Section
#MNEM       .UNIT                                         VALUE :DESCRIPTION
#------------------------------------------------------------------------------
STRT        .FT                                             530 :START DEPTH
STOP        .FT                                           15895 :STOP DEPTH
STEP        .FT                                             0.5 :STEP      
NULL        .                                           -999.25 :NULL      
COMP        .                                      SHELL OIL CO :COMPANY   
WELL        .                                OCS 00708 ST00BP00 :WELL      
FLD         .                                FEDERAL BLOCK 0288 :FIELD     
LOC         .                                                   :LOCATION  
CNTY        .                             GALVESTON LARGE BLOCK :LOCATION  
STAT        .                                             TEXAS :STATE     
CTRY        .                                     UNITED STATES :COUNTRY   
SRVC        .                                                   :SERVICE COMPANY
DATE        .                             9/13/2023 11:19:24 AM :LOG DATE  
API         .                                    42706000930000 :API NUMBER
UWI         .                                    42706000930000 :UNIQUE WELL ID
XCOORD      .                                  1077631.85251343 :SURFACE X 
YCOORD      .                                  10490946.9562601 :SURFACE Y 
LAT         .                                         28.896779 :LATITUDE  
LON         .                                        -94.759235 :LONGITUDE 
ELEV        .FT                                              76 :ELEVATION VALUE
ELEV_TYPE   .                                                KB :ELEVATION REFERENCE TYPE
~Curve Information Section
#MNEM       .UNIT                                      API CODE :CURVE DESCRIPTION
#------------------------------------------------------------------------------
DEPT        .FT                                                 :DEPTH     
ASN         .OHMM                                               :          
CILD        .MMHO                                               :          
SP          .MV                                                 :          
SP_NORM     .MV                                                 :SP Normalized
VSH_SP      .V/V                                                :Volume of Shale from SP
~A        DEPTH            ASN           CILD             SP        SP_NORM         VSH_SP
# ...
     14830.0000          0.696       1902.156       -42.7273      -2.727299      0.9557103
     14830.5000          0.698         1872.5       -42.7125      -2.712502      0.9560897
     14831.0000         0.7001       1841.313       -42.6978        -2.6978      0.9564667
     14831.5000         0.7017           1817        -42.683      -2.682999      0.9568462
     14832.0000         0.7028       1794.125       -42.6683      -2.668301      0.9572231
     14832.5000         0.7039       1771.313       -42.6536      -2.653599      0.9576001
     14833.0000          0.705         1748.5       -42.6388      -2.638802      0.9579794
     14833.5000         0.7049       1728.875       -42.6125      -2.612499      0.9586539
     14834.0000         0.7049       1722.375       -42.5806      -2.580601      0.9594718
     14834.5000         0.7034       1740.438       -42.5485        -2.5485      0.9602948
     14835.0000         0.7004         1758.5       -42.5165      -2.516499      0.9611154
     14835.5000         0.6947       1786.875       -42.4846        -2.4846      0.9619333
     14836.0000          0.689       1816.313       -42.4532      -2.453201      0.9627385
     14836.5000         0.6833        1829.25       -42.4564      -2.456402      0.9626564
     14837.0000         0.6788       1841.188       -42.4595      -2.459499      0.9625769
     14837.5000          0.677       1853.031       -42.4627        -2.4627      0.9624949
     14838.0000         0.6787       1864.563       -42.4659        -2.4659      0.9624128
     14838.5000         0.6804       1876.063       -42.4691      -2.469101      0.9623308
     14839.0000         0.6821       1884.203       -42.4771        -2.4771      0.9621257
     14839.5000          0.683       1889.742       -42.4885      -2.488499      0.9618334
     14840.0000         0.6782       1891.734       -42.4999      -2.499901       0.961541
     14840.5000         0.6734       1888.898       -42.5113      -2.511299      0.9612488
     14841.0000         0.6694       1886.055       -42.5227      -2.522701      0.9609564
     14841.5000         0.6653       1882.258       -42.5415        -2.5415      0.9604744
     14842.0000         0.6616       1877.438       -42.5626      -2.562599      0.9599333
     14842.5000         0.6582       1871.563       -42.5838      -2.583801      0.9593897
     14843.0000         0.6561       1864.313       -42.6049        -2.6049      0.9588487
     14843.5000         0.6621       1856.781       -42.6183      -2.618301      0.9585051
     14844.0000         0.6682         1838.5       -42.6157        -2.6157      0.9585718
     14844.5000         0.7026        1799.75        -42.613      -2.612999      0.9586411
     14845.0000          0.756        1756.25       -42.6104      -2.610401      0.9587077
     14845.5000            0.8       1712.875       -42.6078        -2.6078      0.9587744
     14846.0000         0.8152         1595.5       -42.6052      -2.605202       0.958841
     14846.5000         0.8274           1512       -42.6025      -2.602501      0.9589102
     14847.0000         0.8323       1433.375       -42.6148      -2.614799      0.9585949
     14847.5000         0.8288       1399.719       -42.6433      -2.643299      0.9578641
     14848.0000         0.8242       1388.438       -42.6719      -2.671902      0.9571307
     14848.5000         0.8197           1416       -42.7004      -2.700401         0.9564
     14849.0000         0.8149       1443.563       -42.7289      -2.728901      0.9556692
     14849.5000         0.8085        1491.75       -42.7575        -2.7575      0.9549359
     14850.0000         0.8022       1533.563       -42.7861      -2.786098      0.9542026
     14850.5000         0.7924       1567.375       -42.8146      -2.814602      0.9534717
     14851.0000         0.7759        1621.75       -42.8223        -2.8223      0.9532744
     14851.5000         0.7642       1656.813       -42.8182      -2.818199      0.9533795
     14852.0000         0.7539       1681.813        -42.814      -2.813999      0.9534872
     14852.5000         0.7466       1700.844       -42.8099      -2.809898      0.9535924
     14853.0000         0.7396       1698.719       -42.8058      -2.805801      0.9536974
     14853.5000         0.7425       1692.234       -42.7953        -2.7953      0.9539667
     14854.0000         0.7454       1685.469        -42.759      -2.758999      0.9548975
     14854.5000         0.7497       1678.688       -42.7229        -2.7229      0.9558231
     14855.0000         0.7487       1669.344       -42.6866        -2.6866      0.9567538
     14855.5000         0.7425       1659.438       -42.6505      -2.650501      0.9576795
     14856.0000         0.7358       1656.922       -42.6143        -2.6143      0.9586077
     14856.5000         0.7304       1663.219       -42.5807        -2.5807      0.9594693
     14857.0000         0.7348       1674.813       -42.5631      -2.563099      0.9599205
     14857.5000         0.7388       1686.438       -42.5455      -2.545502      0.9603717
     14858.0000          0.742       1695.672        -42.528         -2.528      0.9608205
     14858.5000         0.7394       1704.234       -42.5104      -2.510399      0.9612718
     14859.0000         0.7369       1692.906       -42.4929      -2.492901      0.9617205
     14859.5000          0.741        1681.25       -42.4753        -2.4753      0.9621718
     14860.0000          0.746       1664.938       -42.4577      -2.457699      0.9626231
     14860.5000         0.7511       1644.063       -42.4645        -2.4645      0.9624487
     14861.0000         0.7561       1623.906       -42.4982      -2.498199      0.9615846
     14861.5000         0.7612       1606.594       -42.5318      -2.531799      0.9607231
     14862.0000         0.7662       1589.281       -42.5654      -2.565399      0.9598616
     14862.5000         0.7702       1575.594       -42.5991      -2.599098      0.9589975
     14863.0000         0.7719       1563.531       -42.6321      -2.632099      0.9581513
     14863.5000         0.7717       1576.375       -42.6636      -2.663601      0.9573436
     14864.0000         0.7694       1593.313        -42.695         -2.695      0.9565385
     14864.5000          0.767       1607.313       -42.6743      -2.674301      0.9570692
     14865.0000         0.7647       1621.313       -42.5869      -2.586899      0.9593103
     14865.5000         0.7626       1630.031       -42.4995        -2.4995      0.9615512
     14866.0000         0.7608       1638.156       -42.4644      -2.464401      0.9624513
     14866.5000         0.7617       1644.586       -42.4418      -2.441799      0.9630308
     14867.0000         0.7632       1647.125       -42.4193        -2.4193      0.9636077
     14867.5000         0.7653       1643.156       -42.3968      -2.396801      0.9641846
     14868.0000         0.7674       1636.313       -42.3711      -2.371101      0.9648436
     14868.5000         0.7624       1627.375       -42.3296      -2.329601      0.9659076
     14869.0000         0.7572       1611.625        -42.288      -2.287998      0.9669744
     14869.5000         0.7518       1595.875       -42.2465      -2.246498      0.9680385
     14870.0000         0.7665       1580.875        -42.205      -2.205002      0.9691025
     14870.5000         0.7828       1566.469       -42.1575      -2.157501      0.9703205
     14871.0000         0.7932       1552.844       -42.1077        -2.1077      0.9715974
     14871.5000         0.8009       1541.719       -42.0579      -2.057899      0.9728743
     14872.0000         0.8076       1530.594       -42.0082      -2.008202      0.9741487
     14872.5000         0.8143       1519.469       -41.9584      -1.958401      0.9754256
     14873.0000         0.8172       1508.344       -41.9263        -1.9263      0.9762487
     14873.5000         0.8193       1497.219       -41.9149      -1.914902       0.976541
