#------------------------------------------------------------------------------
# Created by    : vladimir.rabinovich
# Created on    : 09/19/2023 17:20:37
#------------------------------------------------------------------------------
~Version Information Section
VERS.           2.0     :   CWLS log ASCII Standard - VERSION 2.0
WRAP.           NO      :   One line per depth step
~Well Information Section
#MNEM       .UNIT                                         VALUE :DESCRIPTION
#------------------------------------------------------------------------------
STRT        .FT                                             495 :START DEPTH
STOP        .FT                                            7007 :STOP DEPTH
STEP        .FT                                             0.5 :STEP      
NULL        .                                           -999.25 :NULL      
COMP        .                                      SHELL OIL CO :COMPANY   
WELL        .                                OCS 00718 ST00BP00 :WELL      
FLD         .                                           WILDCAT :FIELD     
LOC         .                                                   :LOCATION  
CNTY        .                             GALVESTON LARGE BLOCK :LOCATION  
STAT        .                                             TEXAS :STATE     
CTRY        .                                     UNITED STATES :COUNTRY   
SRVC        .                                                   :SERVICE COMPANY
DATE        .                             9/13/2023 11:19:25 AM :LOG DATE  
API         .                                    42706000330000 :API NUMBER
UWI         .                                    42706000330000 :UNIQUE WELL ID
XCOORD      .                                  1012682.17104467 :SURFACE X 
YCOORD      .                                  10442833.5651685 :SURFACE Y 
LAT         .                                         28.761679 :LATITUDE  
LON         .                                        -94.959691 :LONGITUDE 
ELEV        .FT                                              75 :ELEVATION VALUE
ELEV_TYPE   .                                                KB :ELEVATION REFERENCE TYPE
~Curve Information Section
#MNEM       .UNIT                                      API CODE :CURVE DESCRIPTION
#------------------------------------------------------------------------------
DEPT        .FT                                                 :DEPTH     
ASN         .OHMM                                               :          
CILD        .MMHO                                               :          
DT          .US/F                                               :          
ILD         .OHMM                                               :          
LAT         .OHMM                                               :          
LN          .OHMM                                               :          
SP          .MV                                                 :          
SP_NORM     .MV                                                 :SP Normalized
VSH_SP      .V/V                                                :Volume of Shale from SP
~A        DEPTH            ASN           CILD             DT            ILD            LAT             LN             SP        SP_NORM         VSH_SP
# ...
      2217.5000         0.7992        -999.25        -999.25        -999.25         0.8968           0.77       -75.9569      -22.55016      0.5489969
      2218.0000         0.7838        -999.25        -999.25        -999.25         0.9083         0.7753       -77.2828      -24.70501      0.5058999
      2218.5000         0.7714        -999.25        -999.25        -999.25         0.8813         0.7779       -78.5037      -26.68937      0.4662125
      2219.0000         0.7639        -999.25        -999.25        -999.25         0.8504         0.7735       -79.6453      -28.54499      0.4291002
      2219.5000         0.7567        -999.25        -999.25        -999.25          0.819         0.7604       -80.5865      -30.07522      0.3984956
      2220.0000         0.7472        -999.25        -999.25        -999.25         0.7942         0.7428       -81.2555      -31.16348      0.3767304
      2220.5000         0.7377        -999.25        -999.25        -999.25         0.7738         0.7267       -80.5815      -30.07115       0.398577
      2221.0000         0.7365        -999.25        -999.25        -999.25         0.7578         0.7175       -79.7312      -28.69258      0.4261483
      2221.5000         0.7347        -999.25        -999.25        -999.25         0.7526         0.7118       -78.9113      -27.36337      0.4527327
      2222.0000          0.732        -999.25        -999.25        -999.25          0.768          0.703       -77.8457      -25.63522      0.4872956
      2222.5000         0.7276        -999.25        -999.25        -999.25         0.8038          0.686       -76.0688      -22.75216      0.5449569
      2223.0000         0.7201        -999.25        -999.25        -999.25         0.8522         0.6639        -73.771      -19.02332      0.6195335
      2223.5000         0.7073        -999.25        -999.25        -999.25         0.9041         0.6425       -71.4968      -15.33281      0.6933439
      2224.0000         0.6744        -999.25        -999.25        -999.25         0.9599         0.6204       -69.5961      -12.24872      0.7550256
      2224.5000         0.6446        -999.25        -999.25        -999.25         1.0029         0.6001       -69.1907      -11.59251      0.7681498
      2225.0000         0.6275        -999.25        -999.25        -999.25          1.024         0.5945       -70.0294      -12.95632      0.7408735
      2225.5000         0.6304        -999.25        -999.25        -999.25         1.0143         0.6011       -71.9969      -16.15292      0.6769416
      2226.0000         0.6405        -999.25        -999.25        -999.25         0.9797         0.6065       -75.7216      -22.20263      0.5559473
      2226.5000         0.6557        -999.25        -999.25        -999.25         0.9272         0.6162       -80.9656      -30.71918      0.3856165
      2227.0000         0.6683        -999.25        -999.25        -999.25         0.8703          0.633       -84.0352      -35.70522      0.2858956
      2227.5000         0.6625        -999.25        -999.25        -999.25         0.8063         0.6511       -86.0706      -39.01207      0.2197587
      2228.0000         0.6453        -999.25        -999.25        -999.25         0.7271         0.6561       -87.3191      -41.04124      0.1791751
      2228.5000         0.6363        -999.25        -999.25        -999.25         0.6586         0.6544       -87.8448      -41.89684      0.1620631
      2229.0000         0.6344        -999.25        -999.25        -999.25         0.6284         0.6436       -87.5262      -41.38157      0.1723686
      2229.5000          0.635        -999.25        -999.25        -999.25         0.6258         0.6328       -87.3916      -41.16506      0.1766988
      2230.0000         0.6301        -999.25        -999.25        -999.25         0.6365         0.6268       -87.2167      -40.88311      0.1823379
      2230.5000          0.628        -999.25        -999.25        -999.25         0.6445         0.6208       -86.7129      -40.06713      0.1986575
      2231.0000         0.6295        -999.25        -999.25        -999.25          0.651         0.6163       -85.9305      -38.79879      0.2240241
      2231.5000         0.6315        -999.25        -999.25        -999.25         0.6485         0.6129       -84.5836      -36.61392      0.2677216
      2232.0000         0.6351        -999.25        -999.25        -999.25         0.6594         0.6104       -82.6567       -33.4873       0.330254
      2232.5000         0.6401        -999.25        -999.25        -999.25          0.697         0.6087       -81.0924      -30.94942      0.3810115
      2233.0000         0.6512        -999.25        -999.25        -999.25         0.7399         0.6071       -80.3284      -29.71097      0.4057806
      2233.5000         0.6551        -999.25        -999.25        -999.25         0.7636         0.6056       -79.7896      -28.83816      0.4232368
      2234.0000         0.6574        -999.25        -999.25        -999.25         0.7694         0.6051       -79.2167      -27.90999      0.4418001
      2234.5000         0.6607        -999.25        -999.25        -999.25         0.7626          0.609       -78.5262      -26.79089      0.4641823
      2235.0000         0.6671        -999.25        -999.25        -999.25         0.7548         0.6149       -77.7762      -25.57516      0.4884967
      2235.5000          0.676        -999.25        -999.25        -999.25         0.7462         0.6259       -76.9613      -24.25408      0.5149185
      2236.0000         0.6852        -999.25        -999.25        -999.25         0.7435         0.6351       -76.2074      -23.03201      0.5393597
      2236.5000         0.7044        -999.25        -999.25        -999.25         0.7463         0.6464       -75.1215       -21.2709      0.5745819
      2237.0000         0.7146        -999.25        -999.25        -999.25         0.7491         0.6574       -73.5646      -18.74504      0.6250991
      2237.5000         0.7263        -999.25        -999.25        -999.25         0.7606         0.6696       -72.2518      -16.61552      0.6676895
      2238.0000         0.7427        -999.25        -999.25        -999.25         0.7738         0.6807       -70.7052      -14.10639      0.7178722
      2238.5000         0.7514        -999.25        -999.25        -999.25         0.7843         0.6881       -69.6279      -12.35924      0.7528152
      2239.0000         0.7558        -999.25        -999.25        -999.25         0.7932         0.6947       -68.5815      -10.66226      0.7867547
      2239.5000         0.7623        -999.25        -999.25        -999.25            0.8         0.7013       -67.5222      -8.944349       0.821113
      2240.0000         0.7662        -999.25        -999.25        -999.25          0.807         0.7115       -66.6635      -7.552124      0.8489575
      2240.5000         0.7671        -999.25        -999.25        -999.25          0.814         0.7226       -66.0361      -6.535473      0.8692905
      2241.0000         0.7727        -999.25        -999.25        -999.25         0.8176         0.7343       -65.2124      -5.200089      0.8959982
      2241.5000         0.7921        -999.25        -999.25        -999.25         0.8121         0.7465       -64.0676      -3.343335      0.9331333
      2242.0000         0.8024        -999.25        -999.25        -999.25         0.8056         0.7582       -62.9739      -1.569566      0.9686087
      2242.5000         0.8074        -999.25        -999.25        -999.25         0.8082         0.7696       -62.9941      -1.604393      0.9679121
      2243.0000         0.8133        -999.25        -999.25        -999.25         0.8234         0.7807       -63.8309      -2.965111      0.9406978
      2243.5000         0.8194        -999.25        -999.25        -999.25         0.8384         0.7904       -64.7708      -4.493221      0.9101356
