#------------------------------------------------------------------------------
# Created by    : vladimir.rabinovich
# Created on    : 09/19/2023 17:19:20
#------------------------------------------------------------------------------
~Version Information Section
VERS.           2.0     :   CWLS log ASCII Standard - VERSION 2.0
WRAP.           NO      :   One line per depth step
~Well Information Section
#MNEM       .UNIT                                         VALUE :DESCRIPTION
#------------------------------------------------------------------------------
STRT        .FT                                            4783 :START DEPTH
STOP        .FT                                            9473 :STOP DEPTH
STEP        .FT                                             0.5 :STEP      
NULL        .                                           -999.25 :NULL      
COMP        .                                   FOREST OIL CORP :COMPANY   
WELL        .                               OCS G20658 ST00BP00 :WELL      
FLD         .                            HIGH ISLAND BLOCK 0052 :FIELD     
LOC         .                                                   :LOCATION  
CNTY        .                           HIGH ISLAND LARGE BLOCK :LOCATION  
STAT        .                                             TEXAS :STATE     
CTRY        .                                     UNITED STATES :COUNTRY   
SRVC        .                                                   :SERVICE COMPANY
DATE        .                             9/13/2023 11:19:51 AM :LOG DATE  
API         .                                    42708405710000 :API NUMBER
UWI         .                                    42708405710000 :UNIQUE WELL ID
XCOORD      .                                  1254974.65209524 :SURFACE X 
YCOORD      .                                  10682885.5467737 :SURFACE Y 
LAT         .                                         29.430813 :LATITUDE  
LON         .                                        -94.211177 :LONGITUDE 
ELEV        .FT                                             108 :ELEVATION VALUE
ELEV_TYPE   .                                                KB :ELEVATION REFERENCE TYPE
~Curve Information Section
#MNEM       .UNIT                                      API CODE :CURVE DESCRIPTION
#------------------------------------------------------------------------------
DEPT        .FT                                                 :DEPTH     
A28H_COND   .MMHO                                               :          
A28H_UNC    .OHMM                                               :          
AHT10       .OHMM                                               :          
AHT20       .OHMM                                               :          
AHT30       .OHMM                                               :          
AHT60       .OHMM                                               :          
AHT90       .OHMM                                               :          
DCAL        .IN                                                 :          
DPHZ        .V/V                                                :          
DRHO        .G/CC                                               :          
DTCO        .US/F                                               :          
DTSM        .US/F                                               :          
GR          .GAPI                                               :          
GR_ARC_FIL  .GAPI                                               :          
GR_NORM     .GAPI                                               :GammaRay Normalized
GR1         .GAPI                                               :          
GRM1        .GAPI                                               :          
NPOR        .V/V                                                :          
P28H_UNC    .OHMM                                               :          
ROP5        .F/HR                                               :          
ROP5_RM     .F/HR                                               :          
SP          .MV                                                 :          
TENS        .LB                                                 :          
VSH_GR      .V/V                                                :Volume of Shale from GR
~A        DEPTH      A28H_COND       A28H_UNC          AHT10          AHT20          AHT30          AHT60          AHT90           DCAL           DPHZ           DRHO           DTCO           DTSM             GR     GR_ARC_FIL        GR_NORM            GR1           GRM1           NPOR       P28H_UNC           ROP5        ROP5_RM             SP           TENS         VSH_GR
# ...
      9084.0000        -999.25        -999.25         0.5103         0.5058         0.5041         0.5039         0.5022         2.1308         0.2274          0.034       132.2772       354.8515        65.6167        -999.25          80.01        75.5446         83.008         0.4494        -999.25         23.922        -999.25         0.1418           3008              1
      9084.5000        -999.25        -999.25         0.5065         0.5029          0.499         0.4961         0.4952         2.1463         0.2136          0.051       131.6832       353.4653        67.6099        -999.25        76.1675        77.9208         79.934         0.4494        -999.25         23.602        -999.25         0.0484           3008      0.9184573
      9085.0000        -999.25        -999.25         0.5129         0.5092         0.5057          0.504         0.5026         2.1656         0.2022          0.052       131.2871       352.4752        67.0865        -999.25        76.1675        78.4158         79.934         0.4464        -999.25          22.85        -999.25        -0.0032           3026      0.9184573
      9085.5000        -999.25        -999.25         0.5211          0.516         0.5129         0.5121         0.5081         2.0305         0.1962          0.037       131.2871       352.0792        63.0813        -999.25       77.44875        75.4455         80.959         0.4344        -999.25          22.53        -999.25         0.2784           3026       0.945718
      9086.0000        -999.25        -999.25         0.5239         0.5176         0.5168         0.5139         0.5079         1.9688         0.1968           0.02       131.0891       352.2772        60.4667        -999.25          80.01        72.3762         83.008         0.4296        -999.25         22.975        -999.25         0.6017           3044              1
      9086.5000        -999.25        -999.25         0.5316         0.5229         0.5205         0.5169          0.509         1.8993         0.2058          0.009       130.8911       353.0693        60.1135        -999.25       78.72875           69.3         81.983         0.4242        -999.25         23.454        -999.25         1.0292           3062      0.9729522
      9087.0000        -999.25        -999.25         0.5376         0.5327         0.5301         0.5265         0.5175         1.9109          0.222          0.007       130.8911       354.4554        62.6385        -999.25          80.01           66.9         83.008         0.4164        -999.25         24.521        -999.25          1.165           3098              1
      9087.5000        -999.25        -999.25         0.5378         0.5368         0.5349         0.5304         0.5209         1.9418         0.2316           0.01       130.8911       356.6337        65.2318        -999.25       82.57249           67.5         85.058          0.417        -999.25         25.008        -999.25          1.405           3134              1
      9088.0000        -999.25        -999.25         0.5358         0.5313         0.5312         0.5274         0.5176         1.9611          0.234          0.016       131.4851       358.6139        65.6665        -999.25       85.13375         70.297         87.107         0.4254        -999.25         25.344        -999.25           1.52           3152              1
      9088.5000        -999.25        -999.25         0.5257         0.5181         0.5189         0.5147         0.5055         1.9842         0.2322          0.023       131.8812            361        64.9253        -999.25       82.57249         70.099         85.058         0.4176        -999.25         24.643        -999.25         1.7808           3152              1
      9089.0000        -999.25        -999.25         0.5156         0.5073         0.5076         0.5047          0.496         1.9726         0.2322          0.031       132.2772          363.4        65.6147        -999.25       87.69624           69.4         89.157         0.4022        -999.25         25.903        -999.25         1.8542           3152              1
      9089.5000        -999.25        -999.25         0.5058         0.4985         0.4984          0.495         0.4884         1.9572          0.231           0.04       132.6733            365        67.7913        -999.25       81.29124         70.495         84.033         0.3974        -999.25         25.831        -999.25         1.6775           3134              1
      9090.0000        -999.25        -999.25         0.4972         0.4917          0.492         0.4888         0.4835         1.9572          0.225          0.045       132.8713          366.6        70.8182        -999.25          80.01        72.2772         83.008         0.4182        -999.25         26.376        -999.25         1.5217           3116              1
      9090.5000        -999.25        -999.25         0.4926         0.4884         0.4886         0.4848         0.4813         1.9726         0.2202          0.047       133.0659          368.4        71.0872        -999.25       78.72875        73.1666         81.983         0.4368        -999.25         25.293        -999.25         1.4492        3084.05      0.9729522
      9091.0000        -999.25        -999.25         0.4915         0.4873         0.4871         0.4836         0.4808         1.9804         0.2214          0.047       133.2607          370.2        70.9513        -999.25       81.29124        72.4696         84.033         0.4446        -999.25         25.247        -999.25         1.6475        3088.55              1
      9091.5000        -999.25        -999.25         0.4916         0.4879         0.4874         0.4828         0.4807         1.9534         0.2262          0.047       133.2574          371.4        69.7187        -999.25       74.88625        69.3875         78.909         0.4356        -999.25         24.487        -999.25         1.5958        3093.05      0.8911967
      9092.0000        -999.25        -999.25         0.4897         0.4858         0.4847         0.4814         0.4785         1.9148         0.2358          0.046       133.2541          372.2        71.4837        -999.25          80.01        67.4825         83.008         0.4284        -999.25         24.829        -999.25         1.3566        3115.55              1
      9092.5000        -999.25        -999.25         0.4835         0.4801         0.4791         0.4762         0.4737         1.8723         0.2388          0.049       133.2508          372.8        75.0725        -999.25       82.57249        68.2775         85.058         0.4236        -999.25         23.819        -999.25         0.9924           3134              1
      9093.0000        -999.25        -999.25         0.4778         0.4741         0.4737         0.4715         0.4687         1.8569         0.2322          0.052       133.2474          372.8        77.7756        -999.25       85.13375        67.2725         87.107         0.4117        -999.25         24.226        -999.25         0.7532           3152              1
      9093.5000        -999.25        -999.25         0.4794          0.475         0.4742         0.4725         0.4693         1.8376          0.228          0.056       133.2441          372.8        77.3095        -999.25       87.69624        63.6675         89.157          0.423        -999.25         23.694        -999.25         0.2849           3170              1
      9094.0000        -999.25        -999.25         0.4798         0.4773         0.4772         0.4761         0.4727         1.8684         0.2316          0.048       133.2408          372.8         72.369        -999.25       86.41501        62.4625         88.132         0.4308        -999.25         24.738        -999.25        -0.3084           3188              1
      9094.5000        -999.25        -999.25         0.4788         0.4779         0.4778         0.4777         0.4745           1.88         0.2394          0.033       133.4363            373        67.9741        -999.25       81.29124        65.0575         84.033         0.4194        -999.25         25.116        -999.25        -0.8601           3188              1
