#------------------------------------------------------------------------------
# Created by    : vladimir.rabinovich
# Created on    : 09/19/2023 17:20:04
#------------------------------------------------------------------------------
~Version Information Section
VERS.           2.0     :   CWLS log ASCII Standard - VERSION 2.0
WRAP.           NO      :   One line per depth step
~Well Information Section
#MNEM       .UNIT                                         VALUE :DESCRIPTION
#------------------------------------------------------------------------------
STRT        .FT                                             723 :START DEPTH
STOP        .FT                                            8219 :STOP DEPTH
STEP        .FT                                             0.5 :STEP      
NULL        .                                           -999.25 :NULL      
COMP        .                                    MOBIL OIL CORP :COMPANY   
WELL        .                               OCS G02338 ST00BP00 :WELL      
FLD         .                                           WILDCAT :FIELD     
LOC         .                                                   :LOCATION  
CNTY        .                             GALVESTON LARGE BLOCK :LOCATION  
STAT        .                                             TEXAS :STATE     
CTRY        .                                     UNITED STATES :COUNTRY   
SRVC        .                                                   :SERVICE COMPANY
DATE        .                             9/13/2023 11:18:53 AM :LOG DATE  
API         .                                    42706400200000 :API NUMBER
UWI         .                                    42706400200000 :UNIQUE WELL ID
XCOORD      .                                  941616.333010477 :SURFACE X 
YCOORD      .                                  10405518.1254327 :SURFACE Y 
LAT         .                                         28.655687 :LATITUDE  
LON         .                                        -95.179294 :LONGITUDE 
ELEV        .FT                                              84 :ELEVATION VALUE
ELEV_TYPE   .                                                KB :ELEVATION REFERENCE TYPE
~Curve Information Section
#MNEM       .UNIT                                      API CODE :CURVE DESCRIPTION
#------------------------------------------------------------------------------
DEPT        .FT                                                 :DEPTH     
ASFL        .OHMM                                               :          
CALI        .IN                                                 :          
CILD        .MMHO                                               :          
DPHI        .%                                                  :          
DT          .US/F                                               :          
GR          .GAPI                                               :          
GR_1        .GAPI                                               :          
GR_NORM     .GAPI                                               :GammaRay Normalized
ILD         .OHMM                                               :          
NPHI        .DEC                                                :          
SP          .MV                                                 :          
SP_NORM     .MV                                                 :SP Normalized
VSH_GR      .V/V                                                :Volume of Shale from GR
VSH_SP      .V/V                                                :Volume of Shale from SP
~A        DEPTH           ASFL           CALI           CILD           DPHI             DT             GR           GR_1        GR_NORM            ILD           NPHI             SP        SP_NORM         VSH_GR         VSH_SP
# ...
      3729.0000         1.3785        15.2316       1105.996         38.101       143.7605        -999.25        32.3027       34.37214          0.472          0.381         9.6735      -50.70386     0.02919445      0.1983248
      3729.5000         1.3598        15.2361       1100.213        38.9823       152.5378        -999.25         31.547       33.64859         0.4715         0.3898         10.101      -50.27636     0.01379987        0.20522
      3730.0000         1.3411        15.2439       1094.285        38.8465       152.6189        -999.25        30.8638       32.99447         0.4711         0.3885        10.5286      -49.84876              0      0.2121167
      3730.5000         1.3224        15.2516       1088.357        40.3319       150.0342        -999.25        30.4766       32.62374         0.4709         0.4033        10.7965      -49.58086              0      0.2164377
      3731.0000         1.3136        15.2399        1082.43        41.8391       131.0347        -999.25        30.3283       32.48175         0.4721         0.4184        11.0612      -49.31616              0      0.2207071
      3731.5000         1.3263        15.2207        1067.16        39.6611       122.9729        -999.25        30.3257       32.47926         0.4734         0.3966        11.3257      -49.05166              0      0.2249732
      3732.0000         1.3391        15.2011       1050.549         33.913       124.7256        -999.25        30.4061       32.55624         0.4746         0.3391        11.5237      -48.85366              0      0.2281668
      3732.5000         1.3518        15.1806       1033.928        33.9401       127.9364        -999.25        30.4989        32.6451         0.4758         0.3394        11.6913      -48.68606              0        0.23087
      3733.0000         1.3645        15.1667        1016.91        33.1611       128.6177        -999.25        30.5192       32.66453         0.4809         0.3316        11.3328      -49.04456              0      0.2250877
      3733.5000         1.3932        15.1452       987.4443        32.0786       129.1248        -999.25        30.4373       32.58612         0.4865         0.3208        10.5388      -49.83856              0      0.2122813
      3734.0000         1.4298        15.0893       948.0986         32.921        126.291        -999.25        30.3639       32.51584          0.492         0.3292         9.6781      -50.69926              0       0.198399
      3734.5000         1.4928        14.9576       895.4893        34.0803        99.8282        -999.25        30.3078       32.46213         0.4978         0.3408         8.6005      -51.77686              0      0.1810183
      3735.0000         1.5901        14.8179       872.3457        33.3652        95.7487        -999.25        30.2542       32.41081         0.5135         0.3337         6.7382      -53.63916              0      0.1509813
      3735.5000          1.661        14.6864       875.5566         28.258        93.4941        -999.25        30.2509       32.40765         0.5292         0.2826         4.8759      -55.50146              0      0.1209442
      3736.0000         1.7446        14.6339       919.6201        22.1737       105.3086        -999.25        30.2787       32.43427         0.5449         0.2217         3.3405      -57.03686              0     0.09617966
      3736.5000         1.8229        14.6424       967.3389        21.5344       117.5475        -999.25        30.2985       32.45322         0.5606         0.2153         1.9871      -58.39026              0      0.0743506
      3737.0000         1.8686        14.6509       1053.094        25.3224       120.1292        -999.25         30.305       32.45945         0.5763         0.2532         0.6331      -59.74426              0     0.05251189
      3737.5000         1.9072         14.676       1132.082        31.8509       121.8824        -999.25        30.3073       32.46165         0.5758         0.3185         0.1685      -60.20886              0     0.04501835
      3738.0000         1.9692        14.7049       1177.973        32.7915       123.0553        -999.25        30.3221       32.47582         0.5552         0.3279        -0.1216      -60.49896              0     0.04033932
      3738.5000         1.9937        14.7338       1225.494        33.2175       124.1002        -999.25        30.2825        32.4379         0.5347         0.3322        -0.4119      -60.78926              0     0.03565708
      3739.0000         2.0124        14.7627       1286.994        33.6346       124.6575        -999.25        30.2464       32.40334         0.5142         0.3363        -0.6106      -60.98796              0     0.03245224
      3739.5000          1.914        14.7831       1348.545        33.7928         124.58        -999.25        30.2483       32.40516         0.4937         0.3379         -0.802      -61.17936              0     0.02936517
      3740.0000         1.8537        14.8032       1464.656        33.9313       124.2169        -999.25         30.217       32.37519         0.4732         0.3393        -0.9937      -61.37106              0     0.02627317
      3740.5000         1.8061        14.8234       1510.078        34.1093       123.6907        -999.25        30.0335        32.1995         0.4526         0.3411        -0.7566      -61.13396              0     0.03009741
      3741.0000         1.7799        14.8315       1553.523        34.0456       122.8973        -999.25        29.9301        32.1005         0.4321         0.3405        -0.5103      -60.88766              0     0.03406999
      3741.5000         1.7538        14.8373        1591.51        33.8401        122.104        -999.25        29.9229       32.09361         0.4116         0.3384        -0.2642      -60.64156              0     0.03803936
      3742.0000         1.7383        14.8653       1611.195        33.6845       121.5571        -999.25        30.0128       32.17968         0.3948         0.3368        -0.1687      -60.54606              0     0.03957964
      3742.5000          1.727        14.8977        1551.77        33.5615       121.3262        -999.25         30.109       32.27179         0.3839         0.3356        -0.1199      -60.49726              0     0.04036676
      3743.0000         1.7211        14.9426       1495.998        33.5863       121.5941        -999.25        30.1924       32.35164         0.3731         0.3359         -0.071      -60.44836              0     0.04115548
      3743.5000         1.7176        14.9893       1475.684        33.6577       121.8618        -999.25        30.2559       32.41243         0.3622         0.3366        -0.2976      -60.67496              0     0.03750063
      3744.0000          1.714         15.013        1460.16        33.8984       122.0345        -999.25        30.2961       32.45093         0.3514          0.339        -0.6912      -61.06856              0     0.03115223
      3744.5000         1.7002        15.0077       1436.943        34.6821       122.1976        -999.25        30.3125       32.46663         0.3405         0.3468        -1.0845      -61.46186              0      0.0248087
      3745.0000          1.683        15.0058       1407.305        35.4761       122.3937        -999.25         30.362       32.51402         0.3307         0.3548        -0.8567      -61.23406              0     0.02848287
      3745.5000         1.6658        15.0083       1404.414        35.7218       122.9935        -999.25        30.4192       32.56878         0.3278         0.3572        -0.5361      -60.91346              0     0.03365387
      3746.0000         1.6257        15.0255       1412.541        36.4261       123.5934        -999.25        30.4748       32.62202         0.3248         0.3643        -0.2156      -60.59296              0     0.03882322
      3746.5000         1.5823        15.0428       1420.666        37.1547       124.2103        -999.25        30.5273       32.67228         0.3219         0.3715          0.105      -60.27236              0     0.04399417
