#------------------------------------------------------------------------------
# Created by    : vladimir.rabinovich
# Created on    : 09/19/2023 17:22:34
#------------------------------------------------------------------------------
~Version Information Section
VERS.           2.0     :   CWLS log ASCII Standard - VERSION 2.0
WRAP.           NO      :   One line per depth step
~Well Information Section
#MNEM       .UNIT                                         VALUE :DESCRIPTION
#------------------------------------------------------------------------------
STRT        .FT                                            2432 :START DEPTH
STOP        .FT                                            8088 :STOP DEPTH
STEP        .FT                                             0.5 :STEP      
NULL        .                                           -999.25 :NULL      
COMP        .                                  XTO OFFSHORE INC :COMPANY   
WELL        .                               OCS G23162 ST00BP00 :WELL      
FLD         .                                 BRAZOS BLOCK 0398 :FIELD     
LOC         .                                                   :LOCATION  
CNTY        .                                BRAZOS LARGE BLOCK :LOCATION  
STAT        .                                             TEXAS :STATE     
CTRY        .                                     UNITED STATES :COUNTRY   
SRVC        .                                                   :SERVICE COMPANY
DATE        .                             9/13/2023 11:09:58 AM :LOG DATE  
API         .                                    42704403400000 :API NUMBER
UWI         .                                    42704403400000 :UNIQUE WELL ID
XCOORD      .                                  869002.191083907 :SURFACE X 
YCOORD      .                                  10369331.9113669 :SURFACE Y 
LAT         .                                        28.5523806 :LATITUDE  
LON         .                                       -95.4033279 :LONGITUDE 
ELEV        .FT                                             100 :ELEVATION VALUE
ELEV_TYPE   .                                                KB :ELEVATION REFERENCE TYPE
~Curve Information Section
#MNEM       .UNIT                                      API CODE :CURVE DESCRIPTION
#------------------------------------------------------------------------------
DEPT        .FT                                                 :DEPTH     
CO12        .MMHO                                               :          
DCAL        .IN                                                 :          
DPHI        .FRAC                                               :          
DRHO        .G/CC                                               :          
GR          .GAPI                                               :          
GR_NORM     .GAPI                                               :GammaRay Normalized
HO01        .OHMM                                               :          
HO02        .OHMM                                               :          
HO03        .OHMM                                               :          
HO06        .OHMM                                               :          
HO09        .OHMM                                               :          
HO12        .OHMM                                               :          
NPHI        .FRAC                                               :          
RWA         .OHMM                                               :          
SP          .MV                                                 :          
SP_NORM     .MV                                                 :SP Normalized
TENS        .LB/F                                               :          
VSH_GR      .V/V                                                :Volume of Shale from GR
VSH_SP      .V/V                                                :Volume of Shale from SP
~A        DEPTH           CO12           DCAL           DPHI           DRHO             GR        GR_NORM           HO01           HO02           HO03           HO06           HO09           HO12           NPHI            RWA             SP        SP_NORM           TENS         VSH_GR         VSH_SP
# ...
      7697.0000       982.8332        -2.4761         0.3605         0.1447        92.4569       70.31454         0.7805         0.9009         0.9486         0.9506         1.0267         1.0118         0.3626          0.189        77.4954      -3.957352       5353.261      0.7939263      0.9388328
      7697.5000       905.4271        -2.5837         0.3352         0.1537        90.2462       68.10301         0.8543         0.9559         1.0059         1.0089         1.0458         1.0319         0.3923         0.1585         77.668      -3.795921       5396.436      0.7468726      0.9438775
      7698.0000       780.6439        -2.5914         0.3334         0.1541        90.6627       68.51868         1.0301         1.1442         1.2282         1.2657         1.3141         1.3177         0.3895          0.167        77.7178      -3.757294       5433.959      0.7557167      0.9450846
      7698.5000       763.1564        -2.5991         0.3583         0.1428        94.4506       72.30576         1.7609         1.6636         1.6941         1.7685         1.5764         1.6287         0.4028         0.2237        77.6315      -3.854759        5456.79      0.8362929      0.9420388
      7699.0000       889.9135        -2.5991         0.3944         0.1263        99.8082       77.66254         0.9346          1.145          1.212         1.0621         1.1001          1.091         0.4219         0.2648        77.6515      -3.845932       5464.701      0.9502667      0.9423146
      7699.5000       1054.338        -2.6145         0.4134         0.1196       104.0591       81.91261         0.6617         0.8145         0.8782         0.8547         0.8915         0.8778         0.4342         0.2696        77.7212      -3.787399        5450.46              1      0.9441438
      7700.0000       1099.597        -2.6452         0.4086         0.1258       107.1683       85.02099         0.7246         0.7853          0.832         0.8514         0.9204         0.9031         0.4392         0.2278        77.8971      -3.622665       5409.999              1      0.9492917
      7700.5000       1079.095         -2.699         0.3903           0.14       107.3135       85.16537         0.8577         0.8551         0.8868         0.9011         0.9734         0.9502         0.4382         0.1886        78.2025      -3.328438       5358.912              1      0.9584863
      7701.0000       1082.945        -2.7067         0.3752         0.1514       106.3761       84.22714         0.8097         0.8911         0.9146         0.8991         0.9534         0.9279         0.4494         0.1702         78.166      -3.376106       5312.121              1      0.9569967
      7701.5000       1130.354        -2.7144         0.3726         0.1527       105.1097       82.95992         0.7546         0.8259         0.8551         0.8579         0.9192         0.8938         0.4499         0.1661        77.6813      -3.871979       5282.057              1      0.9415007
      7702.0000       1177.863        -2.7605         0.3797         0.1428       105.0705       82.91989          0.699         0.7701         0.7993         0.7985           0.86         0.8371         0.4414         0.1754         77.283      -4.281448       5269.851              1      0.9287047
      7702.5000       1189.744        -2.7682          0.387         0.1277       103.8379       81.68646         0.6599         0.7719           0.82         0.8119          0.842         0.8195         0.4246         0.1893        77.2465      -4.329117       5271.207              1      0.9272151
      7703.0000       1156.708        -2.7605         0.3871         0.1153       101.3547       79.20244         0.7431         0.8265         0.8659         0.8609         0.8922         0.8662         0.3916         0.1911         77.512      -4.074783        5279.57      0.9830306       0.935163
      7703.5000       1090.442        -2.7682         0.3739         0.1148        99.5873       77.43422         0.8244         0.8707         0.9011          0.889          0.943         0.9128         0.3563         0.1847        77.6813      -3.916656       5302.627      0.9454089      0.9401045
      7704.0000       968.4387        -2.7067         0.3546         0.1244         100.25       78.09609         0.8899          0.959         0.9764         0.9501         1.0133          0.979         0.3499         0.1683         77.512      -4.097122       5326.136      0.9594913      0.9344649
      7704.5000       884.6638        -2.6606          0.344          0.133       100.3562       78.20147         1.0424         1.2718         1.2754         1.1657         1.2969         1.2683         0.3763         0.1582        77.2265      -4.393791       5341.507      0.9617334       0.925194
      7705.0000       894.9029        -2.6068         0.3486         0.1356        98.2348       76.07925         1.1197         1.1147         1.1988         1.2418         1.2109         1.1846         0.4086         0.1803         77.024       -4.60746       5331.787      0.9165797      0.9185169
      7705.5000       977.2337        -2.5914          0.364         0.1317        95.2948       73.13842         0.7538         0.8595         0.9114          0.913         0.9741         0.9505         0.4226         0.1999        77.0572      -4.585434       5302.627      0.8540089      0.9192052
      7706.0000       1030.461        -2.5761         0.3773         0.1288        94.8638        72.7066         0.8656         0.8546         0.8945         0.9224         0.9857         0.9658         0.4291         0.2076        77.0672      -4.586601       5274.372      0.8448212      0.9191687
      7706.5000       1012.496         -2.553         0.3792         0.1288        96.1017       73.94367         0.8903         0.8951         0.9381         0.9589         1.0132         0.9962         0.4193         0.2065         76.868      -4.796974       5264.425       0.871142      0.9125946
      7707.0000        1000.38        -2.5069         0.3732         0.1284        96.9147       74.75585         0.9135          0.922         0.9603         0.9668          1.018         1.0018         0.4175         0.1909        76.4398      -5.236343       5268.494      0.8884224      0.8988643
      7707.5000       989.0342        -2.5069         0.3636         0.1269        97.2831       75.12342         0.8879         0.9335         0.9673         0.9562         1.0188         1.0009          0.413         0.1827        76.0613      -5.626007       5282.509       0.896243      0.8866873
      7708.0000       982.9897        -2.4992         0.3543         0.1246        96.3333        74.1728         0.8818         0.9897         1.0211         0.9855         1.0532         1.0311         0.4027          0.176        75.8422      -5.856277       5301.044       0.876017      0.8794913
      7708.5000        989.462        -2.4992         0.3494          0.123        94.6977       72.53638         0.7767         0.9965         1.0226         0.9475         1.0496         1.0203         0.3979         0.1636        75.7924      -5.917252       5324.102      0.8411995      0.8775859
      7709.0000       985.7924        -2.5453         0.3464          0.123        91.1581       68.99595         0.7158         0.9753          1.019         0.9571         1.0211         0.9818         0.3745         0.1609        75.8256      -5.895218       5340.603      0.7658712      0.8782744
      7709.5000       1073.206        -2.6375         0.3461         0.1229          86.33       64.16703         0.8248         1.0255          1.035         0.9808         1.0924          1.043         0.3389         0.1529        75.6597      -6.072289       5341.055      0.6631283       0.872741
      7710.0000       1167.465        -2.7221         0.3452         0.1228        79.0399       56.87611         1.0424         0.9886         0.9605         0.9515         0.8467         0.8049         0.3195         0.1465        73.7675      -7.975655       5319.581      0.5080023      0.8132608
