#------------------------------------------------------------------------------
# Created by    : vladimir.rabinovich
# Created on    : 09/19/2023 17:21:34
#------------------------------------------------------------------------------
~Version Information Section
VERS.           2.0     :   CWLS log ASCII Standard - VERSION 2.0
WRAP.           NO      :   One line per depth step
~Well Information Section
#MNEM       .UNIT                                         VALUE :DESCRIPTION
#------------------------------------------------------------------------------
STRT        .FT                                            4500 :START DEPTH
STOP        .FT                                            8225 :STOP DEPTH
STEP        .FT                                             0.5 :STEP      
NULL        .                                           -999.25 :NULL      
COMP        .                             WALTER OIL & GAS CORP :COMPANY   
WELL        .                               OCS G08132 ST00BP00 :WELL      
FLD         .                              GALVESTON BLOCK 0385 :FIELD     
LOC         .                                                   :LOCATION  
CNTY        .                             GALVESTON LARGE BLOCK :LOCATION  
STAT        .                                             TEXAS :STATE     
CTRY        .                                     UNITED STATES :COUNTRY   
SRVC        .                                                   :SERVICE COMPANY
DATE        .                             9/13/2023 11:19:34 AM :LOG DATE  
API         .                                    42706402490000 :API NUMBER
UWI         .                                    42706402490000 :UNIQUE WELL ID
XCOORD      .                                  1009947.10754335 :SURFACE X 
YCOORD      .                                  10405011.8756564 :SURFACE Y 
LAT         .                                         28.657556 :LATITUDE  
LON         .                                        -94.966279 :LONGITUDE 
ELEV        .FT                                             101 :ELEVATION VALUE
ELEV_TYPE   .                                                KB :ELEVATION REFERENCE TYPE
~Curve Information Section
#MNEM       .UNIT                                      API CODE :CURVE DESCRIPTION
#------------------------------------------------------------------------------
DEPT        .FT                                                 :DEPTH     
CALI        .IN                                                 :          
DPHI        .%                                                  :          
DRHO        .G/C3                                               :          
GR          .GAPI                                               :          
GR_NORM     .GAPI                                               :GammaRay Normalized
ILD         .OHMM                                               :          
ILM         .OHMM                                               :          
NPHI        .%                                                  :          
SFL         .OHMM                                               :          
SP          .MV                                                 :          
SP_NORM     .MV                                                 :SP Normalized
VSH_GR      .V/V                                                :Volume of Shale from GR
VSH_SP      .V/V                                                :Volume of Shale from SP
~A        DEPTH           CALI           DPHI           DRHO             GR        GR_NORM            ILD            ILM           NPHI            SFL             SP        SP_NORM         VSH_GR         VSH_SP
# ...
      5811.0000        10.0078        21.9092        -0.0183        58.9469       51.12524         0.6769         0.7279        32.0764         0.8179       -90.8918      -20.28312      0.3856435      0.6619479
      5811.5000         10.013        21.9641         -0.018        58.5746       50.73743         0.6735         0.7182        31.3732          0.829       -90.6931      -20.05788      0.3773922       0.665702
      5812.0000        10.0182        21.8048        -0.0156        58.1322        50.2766         0.6719         0.7092        30.5371         0.8396        -90.777      -20.16233      0.3675872      0.6639612
      5812.5000        10.0202        21.3154        -0.0132        58.3662       50.52035         0.6704         0.7008        29.9937         0.8343        -90.571      -19.92856      0.3727733      0.6678573
      5813.0000        10.0194        20.6423        -0.0107        60.2006       52.43118         0.6716         0.6968        29.9283           0.82       -89.9069      -19.16035      0.4134294      0.6806608
      5813.5000        10.0186        20.2423        -0.0082        62.8397       55.18024         0.6821         0.6996        30.3636         0.8051        -88.817      -17.89537      0.4719201      0.7017438
      5814.0000        10.0178         19.983        -0.0071        67.7839       60.33045         0.6927         0.7045        31.0945         0.7867        -88.166      -17.14244       0.581499      0.7142927
      5814.5000        10.0169        19.9364        -0.0059        69.5468       62.16681         0.7058         0.7133         31.536         0.7688       -87.5156      -16.39021      0.6205703      0.7268298
      5815.0000         10.016         19.823         -0.005        69.9077       62.54274         0.7194         0.7243        31.6835         0.7854       -87.1742      -15.99848       0.628569      0.7333587
      5815.5000        10.0106        19.6357        -0.0042        68.9968       61.59389         0.7325         0.7389        31.4605         0.8085       -86.5621      -15.29093      0.6083807      0.7451511
      5816.0000         9.9998        19.1933        -0.0033        66.9226       59.43327         0.7443         0.7543         31.227         0.8491       -85.3116      -13.83858      0.5624099       0.769357
      5816.5000          9.989        19.2954        -0.0025        64.5798       56.99286         0.7563         0.7708        31.1715         0.8682       -83.5049      -11.73733      0.5104863      0.8043778
      5817.0000         9.9731        20.0181        -0.0017        62.7003       55.03503         0.7603         0.7826        31.6125         0.8411       -81.2568      -9.121108      0.4688305      0.8479815
      5817.5000         9.9541        20.3512        -0.0012        61.4514        53.7341         0.7619         0.7909        32.5353         0.7985       -80.6737      -8.447394      0.4411511      0.8592101
      5818.0000         9.9351        20.3774        -0.0006        61.1724       53.44348         0.7526         0.7872        33.4427         0.7797       -82.0648      -10.07691      0.4349676      0.8320515
      5818.5000         9.9451        20.2237         0.0001        62.6865       55.02066         0.7359         0.7818        32.7697         0.7952       -82.9568      -11.12415      0.4685248      0.8145974
      5819.0000         9.9572        19.9867         0.0002        63.7393       56.11733         0.7087         0.7712        32.0049         0.8216       -83.7234      -12.02508      0.4918581      0.7995819
      5819.5000         9.9736        19.7845              0         65.642       58.09931         0.6889         0.7553        31.3897         0.8249       -83.6555      -11.95244      0.5340278      0.8007926
      5820.0000         9.9943        19.6272        -0.0015        68.1381       60.69941         0.6695         0.7303        31.6414         0.8125       -83.4016       -11.6628      0.5893492      0.8056201
      5820.5000        10.0078        19.6063        -0.0037        69.5511       62.17129         0.6507         0.7094        32.7554         0.7853       -83.1176      -11.33803      0.6206657      0.8110329
      5821.0000        10.0059         20.139        -0.0069        68.0978       60.65743          0.632         0.6807         33.904         0.7517       -83.2889      -11.54445       0.588456      0.8075925
      5821.5000         9.9905        21.2981        -0.0104        66.6138        59.1116         0.6137          0.653        34.7037         0.7281       -84.4327      -12.88545       0.555566      0.7852425
      5822.0000         9.9678        22.7757        -0.0138        65.9248       58.39389         0.6003          0.631        34.3878         0.7131       -86.4655      -15.26362      0.5402955      0.7456064
      5822.5000         9.9556        23.6389         -0.017        66.3652       58.85264         0.5923         0.6193        33.3459         0.7178       -88.8635      -18.06785      0.5500562      0.6988691
      5823.0000         9.9483        24.1046        -0.0179        67.7092       60.25264         0.5947         0.6237        32.3701         0.7335       -91.2566      -20.86637      0.5798434      0.6522272
      5823.5000         9.9551         23.403        -0.0166        66.7092       59.21097         0.6022         0.6371        32.7502         0.7587       -92.4594       -22.2762      0.5576802        0.62873
      5824.0000         9.9618        22.7547        -0.0143        65.8571       58.32337           0.62         0.6581        33.3568         0.7847       -92.3501      -22.15526      0.5387952      0.6307457
      5824.5000           9.98        22.6467        -0.0113        66.0513       58.52566         0.6435         0.6843        33.6851         0.8045        -90.684      -20.21804      0.5430992      0.6630327
      5825.0000        10.0028        22.2826        -0.0085        68.1656       60.72806         0.6713         0.7096        33.2854         0.8201       -88.7203      -17.93362      0.5899588      0.7011064
      5825.5000        10.0257        21.5843        -0.0061        70.4708       63.12931         0.6977          0.732        33.1576          0.827       -86.4905      -15.33876      0.6410491      0.7443541
      5826.0000        10.0479        20.7888        -0.0038        70.9203       63.59754         0.7234         0.7493        34.5808         0.8275       -84.3687      -12.86989      0.6510115      0.7855018
      5826.5000        10.0688        20.1999        -0.0023        70.8296       63.50306         0.7369         0.7617        35.6896         0.7946       -82.3096      -10.47418      0.6490012      0.8254303
      5827.0000        10.0898        19.9681        -0.0008        72.3867       65.12504         0.7467         0.7646        36.3297         0.7706       -80.9398      -8.882642      0.6835114       0.851956
      5827.5000        10.1107        20.0699        -0.0012        77.1929        70.1315         0.7487         0.7597        36.5555         0.7483       -79.7675      -7.521534      0.7900319      0.8746411
      5828.0000          10.11        20.3182         -0.002         80.824       73.91389         0.7357         0.7486        36.2891         0.7326       -79.5189      -7.238065      0.8705083      0.8793656
      5828.5000        10.1022        20.7419         -0.004        83.1102       76.29535         0.7228          0.737         35.649         0.7172       -79.1456      -6.809119      0.9211776      0.8865147
      5829.0000        10.0956        21.1974        -0.0062        83.7551       76.96712         0.7104         0.7243        37.9417         0.7052       -78.5787      -6.154302      0.9354706      0.8974283
      5829.5000        10.0917        21.6553        -0.0076        83.2697       76.46149         0.6984         0.7118        40.3726         0.7008       -77.8136      -5.268256      0.9247127      0.9121957
