#------------------------------------------------------------------------------
# Created by    : vladimir.rabinovich
# Created on    : 09/19/2023 17:21:25
#------------------------------------------------------------------------------
~Version Information Section
VERS.           2.0     :   CWLS log ASCII Standard - VERSION 2.0
WRAP.           NO      :   One line per depth step
~Well Information Section
#MNEM       .UNIT                                         VALUE :DESCRIPTION
#------------------------------------------------------------------------------
STRT        .FT                                            3400 :START DEPTH
STOP        .FT                                            8653 :STOP DEPTH
STEP        .FT                                             0.5 :STEP      
NULL        .                                           -999.25 :NULL      
COMP        .                          KING RANCH OIL & GAS INC :COMPANY   
WELL        .                               OCS G13784 ST00BP00 :WELL      
FLD         .                                           WILDCAT :FIELD     
LOC         .                                                   :LOCATION  
CNTY        .                             GALVESTON LARGE BLOCK :LOCATION  
STAT        .                                             TEXAS :STATE     
CTRY        .                                     UNITED STATES :COUNTRY   
SRVC        .                                                   :SERVICE COMPANY
DATE        .                             9/13/2023 11:19:54 AM :LOG DATE  
API         .                                    42706403430000 :API NUMBER
UWI         .                                    42706403430000 :UNIQUE WELL ID
XCOORD      .                                   967589.17441186 :SURFACE X 
YCOORD      .                                  10424680.8833423 :SURFACE Y 
LAT         .                                         28.709654 :LATITUDE  
LON         .                                        -95.099391 :LONGITUDE 
ELEV        .FT                                             106 :ELEVATION VALUE
ELEV_TYPE   .                                                KB :ELEVATION REFERENCE TYPE
~Curve Information Section
#MNEM       .UNIT                                      API CODE :CURVE DESCRIPTION
#------------------------------------------------------------------------------
DEPT        .FT                                                 :DEPTH     
CALI        .IN                                                 :          
DPHI        .%                                                  :          
DRHO        .G/C3                                               :          
DTLN        .US/F                                               :          
GR          .GAPI                                               :          
GR_1        .GAPI                                               :          
GR_NORM     .GAPI                                               :GammaRay Normalized
ILD         .OHMM                                               :          
ILM         .OHMM                                               :          
NPHI        .%                                                  :          
SFL         .OHMM                                               :          
SP          .MV                                                 :          
SP_NORM     .MV                                                 :SP Normalized
VSH_GR      .V/V                                                :Volume of Shale from GR
VSH_SP      .V/V                                                :Volume of Shale from SP
~A        DEPTH           CALI           DPHI           DRHO           DTLN             GR           GR_1        GR_NORM            ILD            ILM           NPHI            SFL             SP        SP_NORM         VSH_GR         VSH_SP
# ...
      4811.0000        -999.25        -999.25        -999.25       108.8939        -999.25        55.3719       55.14988         0.5138         0.5848        -999.25         0.8104       -75.8872        -23.651       0.471274      0.4964883
      4811.5000        -999.25        -999.25        -999.25       118.4392        -999.25        59.6829       62.16748         0.5197         0.5802        -999.25         0.7673       -74.5078      -22.27278      0.6205846      0.5285401
      4812.0000        -999.25        -999.25        -999.25       124.7043        -999.25        64.4313       69.89705         0.5267         0.5826        -999.25          0.707       -71.7798      -19.54595      0.7850436      0.5919546
      4812.5000        -999.25        -999.25        -999.25        127.917        -999.25        68.7937       76.99832         0.5354         0.5926        -999.25         0.6746       -69.1991      -16.96642      0.9361345      0.6519436
      4813.0000        -999.25        -999.25        -999.25       129.2122        -999.25        67.7971       75.37637          0.547         0.6046        -999.25         0.6576       -67.7032       -15.4717      0.9016248      0.6867047
      4813.5000        -999.25        -999.25        -999.25       130.0303        -999.25        65.7953       72.11819         0.5579         0.6171        -999.25         0.6669       -67.4321      -15.20177      0.8323019      0.6929821
      4814.0000        -999.25        -999.25        -999.25       130.7327        -999.25        64.4637       69.95091         0.5679         0.6274        -999.25         0.6954       -67.3817      -15.15255      0.7861896      0.6941268
      4814.5000        -999.25        -999.25        -999.25       131.2874        -999.25         63.959       69.12965         0.5781         0.6362        -999.25         0.7114       -67.4412      -15.21322       0.768716      0.6927158
      4815.0000        -999.25        -999.25        -999.25       127.5739        -999.25        64.2472       69.59907         0.5877         0.6408        -999.25         0.7128       -67.1453       -14.9185      0.7787036      0.6995699
      4815.5000        -999.25        -999.25        -999.25       122.9189        -999.25        64.5553       70.10086         0.5974         0.6425        -999.25         0.7129       -66.7969      -14.57126        0.78938      0.7076451
      4816.0000        -999.25        -999.25        -999.25       119.9929        -999.25        64.8635       70.60282         0.6071         0.6411        -999.25         0.7176       -66.5967      -14.37224        0.80006      0.7122734
      4816.5000        -999.25        -999.25        -999.25       119.7501        -999.25        64.7339       70.39214         0.6164         0.6399        -999.25         0.7435       -66.6178      -14.39451      0.7955775      0.7117556
      4817.0000        -999.25        -999.25        -999.25       120.1892        -999.25        64.4453       69.92263         0.6259         0.6388        -999.25         0.7396       -66.6733      -14.45119      0.7855879      0.7104375
      4817.5000        -999.25        -999.25        -999.25       120.8676        -999.25         63.587        68.5258         0.6357          0.637        -999.25         0.7214       -66.6215      -14.40056      0.7558681      0.7116149
      4818.0000        -999.25        -999.25        -999.25       121.8766        -999.25        63.1307       67.78333         0.6464         0.6388        -999.25         0.7092       -66.1582      -13.93843      0.7400708       0.722362
      4818.5000        -999.25        -999.25        -999.25       122.4193        -999.25        63.8445       68.94553         0.6573         0.6458        -999.25         0.7123       -65.6915       -13.4729      0.7647984      0.7331883
      4819.0000        -999.25        -999.25        -999.25       121.8622        -999.25         64.467       69.95908         0.6677         0.6531        -999.25         0.7062       -65.2252      -13.00777      0.7863635      0.7440053
      4819.5000        -999.25        -999.25        -999.25       121.1211        -999.25         64.043       69.26918         0.6769         0.6626        -999.25         0.6972       -64.8959      -12.67965      0.7716847      0.7516361
      4820.0000        -999.25        -999.25        -999.25        118.145        -999.25        62.4884       66.73893         0.6862         0.6755        -999.25         0.7237       -64.6836      -12.46852      0.7178496       0.756546
      4820.5000        -999.25        -999.25        -999.25       116.7891        -999.25        60.9836       64.28975         0.6949         0.6926        -999.25         0.8045       -64.6268       -12.4129      0.6657394      0.7578396
      4821.0000        -999.25        -999.25        -999.25       116.3975        -999.25        60.1142       62.87483         0.6999         0.7117        -999.25          0.851        -64.397      -12.18428      0.6356347      0.7631564
      4821.5000        -999.25        -999.25        -999.25       116.3911        -999.25        59.2441       61.45879          0.705         0.7292        -999.25         0.8306       -63.8581      -11.64655      0.6055062      0.7756617
      4822.0000        -999.25        -999.25        -999.25       116.6852        -999.25         58.564       60.35202         0.7096         0.7416        -999.25         0.8074       -63.3367      -11.12632      0.5819579        0.78776
      4822.5000        -999.25        -999.25        -999.25       117.6423        -999.25        57.9471       59.34814         0.7102         0.7457        -999.25         0.8101       -62.8802      -10.67099      0.5605987      0.7983491
      4823.0000        -999.25        -999.25        -999.25       118.6733        -999.25        58.2722        59.8776         0.7108         0.7483        -999.25         0.8137       -62.6329      -10.42487      0.5718638      0.8040729
      4823.5000        -999.25        -999.25        -999.25       119.7764        -999.25        60.1671       62.96234         0.7087         0.7475        -999.25         0.8156       -62.6135      -10.40664      0.6374967      0.8044968
      4824.0000        -999.25        -999.25        -999.25       120.0969        -999.25        62.9025       67.41521         0.7052         0.7467        -999.25         0.8141        -62.606      -10.40031      0.7322385      0.8046439
      4824.5000        -999.25        -999.25        -999.25       119.5911        -999.25        65.2939       71.30814         0.6994          0.746        -999.25         0.8242       -62.5809      -10.37638      0.8150669      0.8052003
      4825.0000        -999.25        -999.25        -999.25       119.1276        -999.25        65.4288       71.52802         0.6932         0.7388        -999.25         0.8553       -62.4655      -10.26216       0.819745      0.8078568
      4825.5000        -999.25        -999.25        -999.25       120.5288        -999.25        64.7722       70.45952         0.6864         0.7253        -999.25         0.8515       -62.0329      -9.830734       0.797011      0.8178899
      4826.0000        -999.25        -999.25        -999.25       122.1803        -999.25        64.0165       69.22968         0.6784         0.7141        -999.25          0.777       -60.5872      -8.386204      0.7708442      0.8514836
      4826.5000        -999.25        -999.25        -999.25       123.6176        -999.25        65.7511       72.05348         0.6706         0.7023        -999.25         0.7127       -58.9417      -6.741879      0.8309252      0.8897238
      4827.0000        -999.25        -999.25        -999.25       124.8276        -999.25        67.7554       75.31631         0.6676         0.6884        -999.25         0.6591       -57.2544      -5.055748      0.9003469      0.9289361
      4827.5000        -999.25        -999.25        -999.25       125.4625        -999.25        69.4611       78.09307         0.6647         0.6755        -999.25         0.6157       -56.4633      -4.265823      0.9594271      0.9473065
