#------------------------------------------------------------------------------
# Created by    : vladimir.rabinovich
# Created on    : 09/19/2023 17:20:05
#------------------------------------------------------------------------------
~Version Information Section
VERS.           2.0     :   CWLS log ASCII Standard - VERSION 2.0
WRAP.           NO      :   One line per depth step
~Well Information Section
#MNEM       .UNIT                                         VALUE :DESCRIPTION
#------------------------------------------------------------------------------
STRT        .FT                                             712 :START DEPTH
STOP        .FT                                            9469 :STOP DEPTH
STEP        .FT                                             0.5 :STEP      
NULL        .                                           -999.25 :NULL      
COMP        .                                 MESA PETROLEUM CO :COMPANY   
WELL        .                                ST TR 00279-L SW/4 :WELL      
FLD         .                                           WILDCAT :FIELD     
LOC         .                                                   :LOCATION  
CNTY        .                             GALVESTON LARGE BLOCK :LOCATION  
STAT        .                                             TEXAS :STATE     
CTRY        .                                     UNITED STATES :COUNTRY   
SRVC        .                                                   :SERVICE COMPANY
DATE        .                             9/13/2023 11:18:53 AM :LOG DATE  
API         .                                    42706300950000 :API NUMBER
UWI         .                                    42706300950000 :UNIQUE WELL ID
XCOORD      .                                  947289.050530544 :SURFACE X 
YCOORD      .                                  10490529.0152507 :SURFACE Y 
LAT         .                                         28.889695 :LATITUDE  
LON         .                                        -95.166438 :LONGITUDE 
ELEV        .FT                                              84 :ELEVATION VALUE
ELEV_TYPE   .                                                KB :ELEVATION REFERENCE TYPE
~Curve Information Section
#MNEM       .UNIT                                      API CODE :CURVE DESCRIPTION
#------------------------------------------------------------------------------
DEPT        .FT                                                 :DEPTH     
ASFL        .OHMM                                               :          
CILD        .MMHO                                               :          
GR          .GAPI                                               :          
GR_NORM     .GAPI                                               :GammaRay Normalized
ILD         .OHMM                                               :          
SP          .MV                                                 :          
SP_NORM     .MV                                                 :SP Normalized
VSH_GR      .V/V                                                :Volume of Shale from GR
VSH_SP      .V/V                                                :Volume of Shale from SP
~A        DEPTH           ASFL           CILD             GR        GR_NORM            ILD             SP        SP_NORM         VSH_GR         VSH_SP
# ...
      8264.5000         0.8558       1313.406        74.0455       75.99837         0.7165       -45.5952      -9.950935      0.9148589      0.8673208
      8265.0000         0.8717       1295.154        73.1211       74.83194         0.7266       -48.8904      -13.24508      0.8900413      0.8233989
      8265.5000         0.8876       1276.902        72.1968       73.66565          0.733       -51.5452      -15.89883      0.8652266      0.7880156
      8266.0000         0.9055       1257.662        71.2711        72.4976         0.7344       -51.9896      -16.34218      0.8403746      0.7821043
      8266.5000         0.9243       1237.359        70.6929       71.76831         0.7358       -48.0204      -12.37193      0.8248577       0.835041
      8267.0000         0.9165       1226.977        70.1572       71.09267         0.7372       -46.3005      -10.65097      0.8104824       0.857987
      8267.5000         0.9054       1228.797        69.6216        70.4173         0.7386       -44.7399      -9.089321      0.7961127       0.878809
      8268.0000         0.8944       1230.617        69.0865       69.74242           0.74       -43.1792      -7.527569      0.7817537      0.8996324
      8268.5000         0.8786       1242.918        68.5509       69.06693         0.7355       -41.6168      -5.964115      0.7673814      0.9204785
      8269.0000         0.8605       1257.342        68.7422       69.30922         0.7294       -40.5082      -4.854465      0.7725366      0.9352738
      8269.5000         0.8425       1260.453        69.6642       70.47411         0.7234       -40.1227      -4.467911      0.7973216      0.9404278
      8270.0000         0.8244       1247.932        70.2671       71.23611         0.7173       -39.7368      -4.080963      0.8135342      0.9455872
      8270.5000         0.8184       1234.988        70.8397       71.95998         0.7113       -39.3512      -3.694309      0.8289357      0.9507425
      8271.0000         0.8193       1221.355         71.413        72.6846         0.7165       -38.9657      -3.307755      0.8443532      0.9558966
      8271.5000         0.8201       1207.723        71.9863       73.40921         0.7303       -38.5825      -2.923504      0.8597704      0.9610199
      8272.0000         0.8209       1194.088         72.559       74.13308         0.7441        -38.302      -2.641949      0.8751719       0.964774
      8272.5000         0.8231        1180.48        72.3497       73.86957         0.7579       -38.0215      -2.360401      0.8695652       0.968528
      8273.0000         0.8256       1166.846        72.1051       73.56149         0.7718       -37.7406      -2.078449      0.8630105      0.9722874
      8273.5000          0.828        1156.25        72.1869       73.66565         0.7856       -37.4601      -1.796894      0.8652266      0.9760414
      8274.0000         0.8305       1162.758        72.8336       74.48296         0.7994       -37.1796      -1.515343      0.8826161      0.9797955
      8274.5000          0.833        1175.17        73.4803       75.30025         0.8116       -36.8992      -1.233891      0.9000053      0.9835481
      8275.0000         0.8335       1187.568        74.1271       76.11768         0.8121       -36.6182     -0.9518356      0.9173975      0.9873089
      8275.5000         0.8308       1199.967        74.7256       76.87411         0.8127       -36.5406      -0.873188      0.9334918      0.9883575
      8276.0000         0.8282       1212.365         75.252       77.53952         0.8132       -36.4946     -0.8261337      0.9476494      0.9889849
      8276.5000         0.8255       1224.764        75.7789       78.20555         0.8137       -36.4484     -0.7788811      0.9618202      0.9896149
      8277.0000         0.8228       1236.865        76.2548       78.80732         0.8142       -36.4813       -0.81073      0.9746238      0.9891903
      8277.5000         0.8201       1246.586        75.0514       77.28864         0.8147       -37.3717      -1.700077      0.9423115      0.9773323
      8278.0000         0.8225       1256.291        73.7629       75.66249         0.8152       -38.2631      -2.590427      0.9077126       0.965461
      8278.5000         0.8266        1266.01        72.1906       73.67803         0.8159       -39.1536      -3.479874        0.86549      0.9536017
      8279.0000         0.8307       1272.635        70.6182       71.69344         0.8168       -40.0441      -4.369324      0.8232646      0.9417424
      8279.5000         0.8347       1277.885         71.036       72.22184         0.8177       -40.0831      -4.407269      0.8345072      0.9412364
      8280.0000         0.8388       1267.047        71.6056        72.9418         0.8186       -40.0167      -4.339817      0.8498254      0.9421358
      8280.5000         0.8429       1254.008        72.1752       73.66174           0.82       -39.9503      -4.272366      0.8651435      0.9430351
      8281.0000         0.8521       1240.967        72.7448        74.3817         0.8301       -39.8839      -4.204914      0.8804617      0.9439345
      8281.5000         0.8619       1223.109        73.2964       75.07891         0.8401       -39.8176      -4.137562       0.895296      0.9448325
      8282.0000         0.8716       1204.438        73.5389       75.38585         0.8502       -39.7513       -4.07021      0.9018266      0.9457306
      8282.5000         0.8813       1185.766        73.7811       75.69243         0.8603       -39.5183      -3.836155      0.9083496      0.9488513
      8283.0000         0.8911       1167.537        74.0237       75.99963         0.8703       -39.2211      -3.537903      0.9148856       0.952828
      8283.5000         0.9008       1151.014        74.3282       76.38486         0.8804        -38.924      -3.239754      0.9230821      0.9568033
      8284.0000          0.913       1144.197        74.7003       76.85542         0.8905       -38.6269      -2.941601      0.9330941      0.9607787
      8284.5000         0.9278       1152.064        75.0724       77.32602         0.9005       -38.3298      -2.643448      0.9431068       0.964754
      8285.0000         0.9427        1159.93        75.3199       77.63927         0.8982       -38.0327      -2.345295      0.9497716      0.9687294
      8285.5000         0.9321       1178.701        75.2769       77.58573         0.8772       -37.7355      -2.047043      0.9486326      0.9727061
      8286.0000         0.9178       1200.484        75.2338        77.5322         0.8562       -37.4384      -1.748894      0.9474936      0.9766814
      8286.5000         0.9075       1222.295         75.384        77.7226         0.8353       -37.1412      -1.450642      0.9515448      0.9806581
      8287.0000         0.8993       1244.078        75.7179       78.14494         0.8142       -36.9446      -1.252987      0.9605307      0.9832935
      8287.5000          0.891       1265.887        76.0518        78.5673         0.7933       -36.9124      -1.219734       0.969517      0.9837369
      8288.0000         0.8828       1287.672        76.3856       78.98952         0.7725       -36.8802      -1.186481      0.9785004      0.9841803
      8288.5000         0.8745       1307.998         76.915       79.65871         0.7518        -36.848      -1.153229      0.9927386      0.9846236
      8289.0000         0.8663       1327.855        78.6084       81.79772         0.7312       -36.8159      -1.120079              1      0.9850656
      8289.5000         0.8581       1347.713        79.5167       82.94533         0.7106       -36.7853      -1.088428              1      0.9854876
      8290.0000         0.8498        1367.57        79.0996       82.41944         0.6933       -36.9612      -1.263275              1      0.9831563
      8290.5000          0.841       1385.051        78.6818       81.89268          0.697       -37.1371      -1.438122              1      0.9808251
