#------------------------------------------------------------------------------
# Created by    : vladimir.rabinovich
# Created on    : 09/19/2023 17:22:32
#------------------------------------------------------------------------------
~Version Information Section
VERS.           2.0     :   CWLS log ASCII Standard - VERSION 2.0
WRAP.           NO      :   One line per depth step
~Well Information Section
#MNEM       .UNIT                                         VALUE :DESCRIPTION
#------------------------------------------------------------------------------
STRT        .FT                                          2841.5 :START DEPTH
STOP        .FT                                          6769.5 :STOP DEPTH
STEP        .FT                                             0.5 :STEP      
NULL        .                                           -999.25 :NULL      
COMP        .                      SPINNAKER EXPLORATION CO LLC :COMPANY   
WELL        .                               OCS G18941 ST00BP00 :WELL      
FLD         .                            HIGH ISLAND BLOCK 0235 :FIELD     
LOC         .                                                   :LOCATION  
CNTY        .                           HIGH ISLAND LARGE BLOCK :LOCATION  
STAT        .                                             TEXAS :STATE     
CTRY        .                                     UNITED STATES :COUNTRY   
SRVC        .                                                   :SERVICE COMPANY
DATE        .                             9/13/2023 11:20:02 AM :LOG DATE  
API         .                                    42708405540000 :API NUMBER
UWI         .                                    42708405540000 :UNIQUE WELL ID
XCOORD      .                                  1178439.61066162 :SURFACE X 
YCOORD      .                                  10526520.2311607 :SURFACE Y 
LAT         .                                         28.998365 :LATITUDE  
LON         .                                        -94.445565 :LONGITUDE 
ELEV        .FT                                              98 :ELEVATION VALUE
ELEV_TYPE   .                                                KB :ELEVATION REFERENCE TYPE
~Curve Information Section
#MNEM       .UNIT                                      API CODE :CURVE DESCRIPTION
#------------------------------------------------------------------------------
DEPT        .FT                                                 :DEPTH     
CNCF        .%                                                  :          
DCAL        .IN                                                 :          
DT24        .US/F                                               :          
GR          .GAPI                                               :          
GR_NORM     .GAPI                                               :GammaRay Normalized
M2R1        .OHMM                                               :          
M2R2        .OHMM                                               :          
M2R3        .OHMM                                               :          
M2R6        .OHMM                                               :          
M2R9        .OHMM                                               :          
M2RX        .OHMM                                               :          
PORZ        .%                                                  :          
RWAZ        .OHMM                                               :          
SPCH        .MV                                                 :          
TEN         .LB/F                                               :          
VSH_GR      .V/V                                                :Volume of Shale from GR
ZCOR        .G/CC                                               :          
~A        DEPTH           CNCF           DCAL           DT24             GR        GR_NORM           M2R1           M2R2           M2R3           M2R6           M2R9           M2RX           PORZ           RWAZ           SPCH            TEN         VSH_GR           ZCOR
# ...
      4431.5000         55.678          0.469         146.17        110.629       74.96935          0.664          0.705          0.722          0.731          0.737          0.749         36.836          0.141          6.528        -35.835       0.892965          0.158
      4432.0000          52.16          0.791        146.069        112.391       76.73083          0.659          0.697          0.715          0.724           0.73          0.741         36.385          0.136          6.847        -39.349      0.9304431          0.156
      4432.5000         50.394          1.502        146.617        114.909       79.24829           0.66          0.697          0.716          0.726          0.732          0.743         35.316          0.128          6.842         -17.38      0.9840062          0.108
      4433.0000         51.086          2.391        147.456        115.278       79.61677          0.659          0.697          0.717          0.728          0.734          0.745         33.836          0.117          6.511        -16.002      0.9918461          0.053
      4433.5000         52.857          3.146        148.418        112.006       76.34424          0.649          0.689          0.711          0.722          0.728           0.74         33.256          0.112          6.216         -53.24      0.9222178          0.039
      4434.0000         53.387          3.588        150.184        107.371       71.70872          0.632          0.674          0.699           0.71          0.716          0.727         34.832          0.121          5.941         -64.14      0.8235897          0.074
      4434.5000         51.759          3.544         151.56        104.976       69.31319          0.616          0.661          0.686          0.698          0.704          0.715         37.989          0.144          5.602        -39.228       0.772621          0.114
      4435.0000         51.828          2.931        153.635        104.497       68.83366          0.607          0.653          0.678          0.691          0.697          0.708         42.633          0.183          5.495        -24.429      0.7624184          0.132
      4435.5000         55.608          2.197        155.644        103.327       67.66314          0.605          0.649          0.675          0.688          0.695          0.706         47.377          0.228          5.773        -33.038      0.7375136          0.141
      4436.0000         59.553          2.186        155.905         101.68        66.0156          0.606          0.648          0.674          0.688          0.694          0.706         49.666          0.253          6.008        -44.057      0.7024596          0.157
      4436.5000         59.715          3.032        154.642        100.885       65.22008          0.608          0.648          0.673          0.689          0.695          0.707         48.913          0.245          5.892        -51.658      0.6855336          0.176
      4437.0000         57.203          3.759        151.362        100.674       65.00855          0.611           0.65          0.674          0.691          0.698           0.71         47.271          0.229          5.626        -50.142       0.681033          0.179
      4437.5000         54.313          3.741        146.412         99.816       64.15002          0.614          0.652          0.676          0.695          0.702          0.714         46.145          0.219          5.675        -42.555      0.6627665          0.166
      4438.0000         53.079          3.707        142.932         98.286        62.6195          0.621          0.658          0.682          0.703           0.71          0.723         45.108          0.211           6.31        -52.104      0.6302021          0.167
      4438.5000          53.82          4.271         141.69         97.635       61.96797           0.64          0.673          0.697          0.722          0.729          0.742         42.871          0.194          7.266         -71.33      0.6163398          0.174
      4439.0000         55.058          4.978        141.784         99.043       63.37544          0.673            0.7          0.725          0.753           0.76          0.774          39.47          0.169          7.799         -64.66       0.646286          0.146
      4439.5000         54.837          5.209        143.875        102.168       66.49991          0.711          0.728          0.752          0.784          0.792          0.806         37.291          0.156          7.643        -46.192       0.712764          0.093
      4440.0000         52.494          4.847        144.604        104.928       69.25938          0.734          0.741          0.765            0.8          0.808          0.822         36.304           0.15          7.225         -53.91      0.7714763          0.056
      4440.5000         50.068           3.94        143.595        104.474       68.80486          0.741          0.745          0.771          0.807          0.816           0.83         36.727          0.155          6.797         -71.26      0.7618054          0.035
      4441.0000         50.042          3.005        142.635        100.817       65.14733           0.76          0.771          0.801           0.84          0.849          0.864         40.455          0.199          6.319        -74.437      0.6839858          0.028
      4441.5000         50.757          2.864        141.657         97.406        61.7358          0.795           0.82          0.858            0.9          0.909          0.924         46.869          0.292          5.873        -71.651         0.6114          0.069
      4442.0000         49.751          3.687        142.315         96.069       60.39828          0.816          0.857          0.903          0.947          0.957          0.972         51.256          0.373           5.57        -64.488      0.5829421          0.127
      4442.5000         49.418            4.3        141.777         95.536       59.86475          0.826          0.882          0.934          0.978          0.989          1.004         52.875          0.412          5.346        -52.462      0.5715905          0.152
      4443.0000         50.316          3.501         139.75         95.283       59.61121          0.849          0.916          0.973          1.016          1.028          1.043         52.146          0.415          4.864        -45.911       0.566196          0.147
      4443.5000         50.363          1.821        138.349         96.042       60.36969          0.868           0.94          0.997           1.04          1.052          1.066         49.654          0.382          3.855        -49.853      0.5823338          0.124
      4444.0000         49.066          0.686        138.613         97.758       62.08517          0.859          0.932          0.985          1.025          1.038          1.052         46.039           0.32          2.639        -51.763      0.6188334          0.083
      4444.5000         47.243          0.403        141.255         99.932       64.25864          0.838          0.911           0.96          0.997           1.01          1.023         43.642          0.278          1.752        -43.228      0.6650774          0.033
      4445.0000         45.973          0.393        145.773        102.039       66.36511           0.82          0.895          0.941          0.975          0.989          1.002         46.698          0.314          1.153        -43.287       0.709896         -0.007
      4445.5000         45.965          0.422        149.492        102.617       66.94258          0.798          0.873          0.916          0.949          0.963          0.976          53.75          0.414          0.667        -47.385      0.7221826         -0.005
      4446.0000         48.075          0.491        149.176        100.682       65.00706          0.772          0.844          0.886          0.916          0.931          0.943         59.205          0.493           0.47        -23.387      0.6810012          0.034
