#------------------------------------------------------------------------------
# Created by    : vladimir.rabinovich
# Created on    : 09/19/2023 17:20:38
#------------------------------------------------------------------------------
~Version Information Section
VERS.           2.0     :   CWLS log ASCII Standard - VERSION 2.0
WRAP.           NO      :   One line per depth step
~Well Information Section
#MNEM       .UNIT                                         VALUE :DESCRIPTION
#------------------------------------------------------------------------------
STRT        .FT                                             540 :START DEPTH
STOP        .FT                                            8409 :STOP DEPTH
STEP        .FT                                             0.5 :STEP      
NULL        .                                           -999.25 :NULL      
COMP        .                                      SHELL OIL CO :COMPANY   
WELL        .                                OCS 00706 ST00BP00 :WELL      
FLD         .                                           WILDCAT :FIELD     
LOC         .                                                   :LOCATION  
CNTY        .                             GALVESTON LARGE BLOCK :LOCATION  
STAT        .                                             TEXAS :STATE     
CTRY        .                                     UNITED STATES :COUNTRY   
SRVC        .                                                   :SERVICE COMPANY
DATE        .                             9/13/2023 11:19:25 AM :LOG DATE  
API         .                                    42706000280000 :API NUMBER
UWI         .                                    42706000280000 :UNIQUE WELL ID
XCOORD      .                                  1100625.96198943 :SURFACE X 
YCOORD      .                                  10499283.7203345 :SURFACE Y 
LAT         .                                         28.920625 :LATITUDE  
LON         .                                        -94.687754 :LONGITUDE 
ELEV        .FT                                              78 :ELEVATION VALUE
ELEV_TYPE   .                                                KB :ELEVATION REFERENCE TYPE
~Curve Information Section
#MNEM       .UNIT                                      API CODE :CURVE DESCRIPTION
#------------------------------------------------------------------------------
DEPT        .FT                                                 :DEPTH     
ASN         .OHMM                                               :          
DT          .US/F                                               :          
ILD         .OHMM                                               :          
LAT         .OHMM                                               :          
LN          .OHMM                                               :          
SP          .MV                                                 :          
SP_NORM     .MV                                                 :SP Normalized
VSH_SP      .V/V                                                :Volume of Shale from SP
~A        DEPTH            ASN             DT            ILD            LAT             LN             SP        SP_NORM         VSH_SP
# ...
      8387.0000         1.0555        -999.25         0.9573        -999.25        -999.25       -42.4285       -3.40411      0.9592524
      8387.5000         1.0586        -999.25         0.9394        -999.25        -999.25       -42.0514      -3.027008      0.9656439
      8388.0000         1.0617        -999.25         0.9216        -999.25        -999.25       -41.6974      -2.673008      0.9716439
      8388.5000         1.0648        -999.25         0.9105        -999.25        -999.25       -41.5577       -2.53331      0.9740117
      8389.0000         1.0679        -999.25         0.9162        -999.25        -999.25       -41.4181      -2.393707      0.9763778
      8389.5000          1.071        -999.25         0.9218        -999.25        -999.25       -41.2781      -2.253708      0.9787507
      8390.0000         1.0741        -999.25         0.9275        -999.25        -999.25       -41.1385      -2.114109      0.9811168
      8390.5000         1.0772        -999.25         0.9332        -999.25        -999.25       -41.0769      -2.052509      0.9821609
      8391.0000         1.0803        -999.25         0.9389        -999.25        -999.25       -41.0876       -2.06321      0.9819795
      8391.5000         1.0834        -999.25         0.9479        -999.25        -999.25       -41.0984      -2.074009      0.9817964
      8392.0000         1.0865        -999.25         0.9575        -999.25        -999.25       -41.1091      -2.084709      0.9816151
      8392.5000         1.0896        -999.25         0.9671        -999.25        -999.25       -41.1199      -2.095509      0.9814321
      8393.0000         1.0924        -999.25         0.9767        -999.25        -999.25       -41.1306      -2.106209      0.9812507
      8393.5000         1.0948        -999.25         0.9863        -999.25        -999.25       -41.1414      -2.117008      0.9810677
      8394.0000         1.0973        -999.25         0.9821        -999.25        -999.25       -41.1483      -2.123909      0.9809507
      8394.5000         1.1006        -999.25         0.9603        -999.25        -999.25       -41.1548      -2.130409      0.9808405
      8395.0000         1.1224        -999.25         0.9384        -999.25        -999.25       -41.1614      -2.137009      0.9807287
      8395.5000         1.1442        -999.25         0.9165        -999.25        -999.25        -41.168      -2.143608      0.9806168
      8396.0000         1.1659        -999.25         0.8946        -999.25        -999.25       -41.1746      -2.150208      0.9805049
      8396.5000         1.1233        -999.25         0.8738        -999.25        -999.25       -41.1812      -2.156807      0.9803931
      8397.0000         0.9902        -999.25          0.858        -999.25        -999.25       -41.1877      -2.163307      0.9802829
      8397.5000         0.9102        -999.25         0.8421        -999.25        -999.25       -41.1943       -2.16991       0.980171
      8398.0000         0.8975        -999.25         0.8263        -999.25        -999.25       -41.2008      -2.176411      0.9800608
      8398.5000         0.8848        -999.25         0.8104        -999.25        -999.25       -41.2074       -2.18301       0.979949
      8399.0000         0.8726        -999.25         0.7946        -999.25        -999.25       -41.2142      -2.189808      0.9798338
      8399.5000         0.8625        -999.25         0.7787        -999.25        -999.25       -41.2236      -2.199207      0.9796745
      8400.0000         0.8525        -999.25         0.7635        -999.25        -999.25        -41.233      -2.208611      0.9795151
      8400.5000         0.8424        -999.25         0.7533        -999.25        -999.25       -41.2424       -2.21801      0.9793558
      8401.0000         0.8342        -999.25          0.743        -999.25        -999.25       -41.2519      -2.227509      0.9791948
      8401.5000          0.827        -999.25         0.7336        -999.25        -999.25       -41.2613      -2.236908      0.9790354
      8402.0000         0.8323        -999.25         0.7451        -999.25        -999.25       -41.2707      -2.246307      0.9788762
      8402.5000         0.8449        -999.25         0.7566        -999.25        -999.25       -41.2802       -2.25581      0.9787151
      8403.0000         0.8575        -999.25         0.7681        -999.25        -999.25       -41.2896      -2.265209      0.9785558
      8403.5000         0.8705        -999.25         0.7795        -999.25        -999.25        -41.299      -2.274609      0.9783965
      8404.0000         0.8834        -999.25          0.791        -999.25        -999.25       -41.3084      -2.284008      0.9782372
      8404.5000         0.8963        -999.25         0.8025        -999.25        -999.25       -41.3178      -2.293407      0.9780778
      8405.0000         0.9093        -999.25          0.814        -999.25        -999.25       -41.3273       -2.30291      0.9779168
      8405.5000         0.9222        -999.25         0.8255        -999.25        -999.25       -41.3367      -2.312309      0.9777575
      8406.0000         0.9349        -999.25          0.837        -999.25        -999.25       -41.3461      -2.321709      0.9775981
      8406.5000         0.9472        -999.25         0.8484        -999.25        -999.25       -41.3555      -2.331108      0.9774389
      8407.0000         0.9355        -999.25         0.8599        -999.25        -999.25       -41.3649      -2.340508      0.9772795
      8407.5000         0.9231        -999.25         0.8671        -999.25        -999.25       -41.3744       -2.35001      0.9771185
      8408.0000         0.9107        -999.25         0.8718        -999.25        -999.25       -41.3657      -2.341309       0.977266
      8408.5000         0.9025        -999.25         0.8765        -999.25        -999.25       -41.3507      -2.326309      0.9775202
      8409.0000          0.909        -999.25         0.8812        -999.25        -999.25       -41.3358      -2.311409      0.9777727
