#------------------------------------------------------------------------------
# Created by    : vladimir.rabinovich
# Created on    : 09/19/2023 17:21:31
#------------------------------------------------------------------------------
~Version Information Section
VERS.           2.0     :   CWLS log ASCII Standard - VERSION 2.0
WRAP.           NO      :   One line per depth step
~Well Information Section
#MNEM       .UNIT                                         VALUE :DESCRIPTION
#------------------------------------------------------------------------------
STRT        .FT                                              40 :START DEPTH
STOP        .FT                                           13401 :STOP DEPTH
STEP        .FT                                             0.5 :STEP      
NULL        .                                           -999.25 :NULL      
COMP        .                                        TEXACO USA :COMPANY   
WELL        .                               OCS G01759 ST00BP00 :WELL      
FLD         .                                           WILDCAT :FIELD     
LOC         .                                                   :LOCATION  
CNTY        .                             GALVESTON LARGE BLOCK :LOCATION  
STAT        .                                             TEXAS :STATE     
CTRY        .                                     UNITED STATES :COUNTRY   
SRVC        .                                                   :SERVICE COMPANY
DATE        .                             9/13/2023 11:19:24 AM :LOG DATE  
API         .                                    42706001440000 :API NUMBER
UWI         .                                    42706001440000 :UNIQUE WELL ID
XCOORD      .                                   1131482.4965331 :SURFACE X 
YCOORD      .                                  10562344.6824913 :SURFACE Y 
LAT         .                                         29.095227 :LATITUDE  
LON         .                                        -94.593967 :LONGITUDE 
ELEV        .FT                                              83 :ELEVATION VALUE
ELEV_TYPE   .                                                KB :ELEVATION REFERENCE TYPE
~Curve Information Section
#MNEM       .UNIT                                      API CODE :CURVE DESCRIPTION
#------------------------------------------------------------------------------
DEPT        .FT                                                 :DEPTH     
CALI        .IN                                                 :          
DT          .US/F                                               :          
GR          .GAPI                                               :          
GR_NORM     .GAPI                                               :GammaRay Normalized
RHOB        .G/C3                                               :          
SP          .MV                                                 :          
SP_NORM     .MV                                                 :SP Normalized
VSH_GR      .V/V                                                :Volume of Shale from GR
VSH_SP      .V/V                                                :Volume of Shale from SP
~A        DEPTH           CALI             DT             GR        GR_NORM           RHOB             SP        SP_NORM         VSH_GR         VSH_SP
# ...
      1444.5000        15.0141       159.2983        64.2786       74.69165         2.7969        -999.25        -999.25      0.8870564        -999.25
      1445.0000        15.0148       155.6382        66.0201       77.63811         2.8151        -999.25        -999.25      0.9497471        -999.25
      1445.5000        15.0152       153.5901        67.7554        80.6832         2.7824        -999.25        -999.25              1        -999.25
      1446.0000        15.0151       153.8774         69.132       83.27548         2.7602        -999.25        -999.25              1        -999.25
      1446.5000        15.0149       155.9958        69.7745       84.62454          2.743        -999.25        -999.25              1        -999.25
      1447.0000        15.0148       157.5481        68.3822       82.52767         2.7538        -999.25        -999.25              1        -999.25
      1447.5000        15.0145       160.2109        65.3584       77.66783         2.7683        -999.25        -999.25      0.9503794        -999.25
      1448.0000        15.0081       162.9297        62.6855       73.40224         2.7784        -999.25        -999.25      0.8596222        -999.25
      1448.5000        15.0045       164.5366        64.3348       76.45634         2.7688        -999.25        -999.25      0.9246031        -999.25
      1449.0000        15.0053       164.7649        66.5364       80.44574         2.7683        -999.25        -999.25              1        -999.25
      1449.5000        15.0057       166.0015        67.2546       81.92301         2.7725        -999.25        -999.25              1        -999.25
      1450.0000        14.9762       166.5847        66.5635       81.01362         2.7746        -999.25        -999.25              1        -999.25
      1450.5000        14.9775       166.7427        65.6554       79.73676         2.7566        -999.25        -999.25      0.9943991        -999.25
      1451.0000        14.9745       165.5642         64.774       78.50508          2.731        -999.25        -999.25      0.9681932        -999.25
      1451.5000        14.9703       163.1125        63.8654       77.22734         2.7364        -999.25        -999.25      0.9410073        -999.25
      1452.0000        14.9655       161.6389        63.0186       76.05426         2.7511        -999.25        -999.25      0.9160481        -999.25
      1452.5000        14.9617       160.8945        62.3251       75.14082         2.7657        -999.25        -999.25      0.8966131        -999.25
      1453.0000         14.958       159.8936        61.5821       74.14352          2.783        -999.25        -999.25       0.875394        -999.25
      1453.5000        14.9571       158.3069        60.8052       73.08882         2.7987        -999.25        -999.25      0.8529537        -999.25
      1454.0000        14.9608       156.5266        59.9293       71.86648         2.7799        -999.25        -999.25      0.8269463        -999.25
      1454.5000        14.9682       155.2263        58.8665       70.32761         2.7549        -999.25        -999.25      0.7942045        -999.25
      1455.0000        14.9784       154.2588        57.6129        68.4656         2.7422        -999.25        -999.25      0.7545872        -999.25
      1455.5000        14.9866       153.4202         56.741       67.25003         2.7406        -999.25        -999.25      0.7287241        -999.25
      1456.0000        14.9921       153.0371        56.0652       66.36655          2.739        -999.25        -999.25      0.7099265        -999.25
      1456.5000        14.9976       152.7712        55.6921        65.9957         2.7397        -999.25        -999.25      0.7020363        -999.25
      1457.0000        14.9994       152.7351        55.4547       65.85464         2.7411        -999.25        -999.25       0.699035        -999.25
      1457.5000        15.0007       153.7559        55.1612       65.61858         2.7471        -999.25        -999.25      0.6940124        -999.25
      1458.0000        14.9973       155.2124        54.7598       65.19981         2.7481        -999.25        -999.25      0.6851024        -999.25
      1458.5000        14.9923       156.4824        54.3399       64.74969         2.7435        -999.25        -999.25      0.6755252        -999.25
      1459.0000        14.9876       157.9189        53.6176       63.78746         2.7423        -999.25        -999.25      0.6550524        -999.25
      1459.5000        14.9847       159.5325        53.1909       63.32582         2.7479        -999.25        -999.25      0.6452302        -999.25
      1460.0000        14.9819       159.7136        53.6758         64.408         2.7404        -999.25        -999.25      0.6682554        -999.25
      1460.5000         14.979       159.1018        54.6824        66.3737         2.7172        -999.25        -999.25      0.7100786        -999.25
      1461.0000        14.9744         158.04        55.8171        68.5563         2.7178        -999.25        -999.25       0.756517        -999.25
      1461.5000        14.9698       156.6531        56.3177       69.66506         2.7275        -999.25        -999.25      0.7801077        -999.25
      1462.0000        14.9669       156.8699        56.3462       69.97431         2.7279        -999.25        -999.25      0.7866875        -999.25
      1462.5000        14.9658       157.9778        56.2124       70.00871         2.7184        -999.25        -999.25      0.7874194        -999.25
      1463.0000        14.9671       159.6001         56.755       71.18861         2.7077        -999.25        -999.25      0.8125235        -999.25
      1463.5000        14.9675       160.8257        57.0178       71.89464         2.6968        -999.25        -999.25      0.8275455        -999.25
      1464.0000        14.9657       161.6924        56.9005         71.957         2.6922        -999.25        -999.25      0.8288724        -999.25
      1464.5000         14.964       161.3137        57.2639        72.8334         2.6941        -999.25        -999.25      0.8475191        -999.25
      1465.0000        14.9617       160.4763        57.8782        74.1347         2.6974        -999.25        -999.25      0.8752065        -999.25
      1465.5000        14.9552       159.4541        58.4925       75.43604         2.6995        -999.25        -999.25      0.9028944        -999.25
      1466.0000        14.9495       159.4155        59.3934       77.22269         2.7053        -999.25        -999.25      0.9409084        -999.25
      1466.5000        14.9472       160.2144        60.2774       78.98077          2.708        -999.25        -999.25      0.9783142        -999.25
      1467.0000         14.945       161.4893        60.2485        79.1928         2.7143        -999.25        -999.25      0.9828256        -999.25
      1467.5000        14.9409       162.7605        59.4152        78.0426         2.7334        -999.25        -999.25      0.9583532        -999.25
      1468.0000        14.9366        163.125        58.2615       76.34978         2.7437        -999.25        -999.25      0.9223357        -999.25
      1468.5000        14.9324        162.061        56.3588       73.38853         2.7472        -999.25        -999.25      0.8593304        -999.25
      1469.0000        14.9326       160.2595        53.6282       69.02522         2.7456        -999.25        -999.25      0.7664941        -999.25
      1469.5000        14.9339       158.4976        52.1262       66.74256         2.7366        -999.25        -999.25      0.7179269        -999.25
      1470.0000        14.9352       157.2683        52.4493       67.49574         2.7203        -999.25        -999.25       0.733952        -999.25
      1470.5000        14.9365       156.7039        53.8229       69.80957          2.697        -999.25        -999.25      0.7831823        -999.25
