#------------------------------------------------------------------------------
# Created by    : vladimir.rabinovich
# Created on    : 09/19/2023 17:22:38
#------------------------------------------------------------------------------
~Version Information Section
VERS.           2.0     :   CWLS log ASCII Standard - VERSION 2.0
WRAP.           NO      :   One line per depth step
~Well Information Section
#MNEM       .UNIT                                         VALUE :DESCRIPTION
#------------------------------------------------------------------------------
STRT        .FT                                             597 :START DEPTH
STOP        .FT                                            8696 :STOP DEPTH
STEP        .FT                                             0.5 :STEP      
NULL        .                                           -999.25 :NULL      
COMP        .                MURPHY EXPLORATION & PRODUCTION CO :COMPANY   
WELL        .                               OCS G13308 ST00BP00 :WELL      
FLD         .                                           WILDCAT :FIELD     
LOC         .                                                   :LOCATION  
CNTY        .                             GALVESTON LARGE BLOCK :LOCATION  
STAT        .                                             TEXAS :STATE     
CTRY        .                                     UNITED STATES :COUNTRY   
SRVC        .                                                   :SERVICE COMPANY
DATE        .                             9/13/2023 11:19:54 AM :LOG DATE  
API         .                                    42706403460000 :API NUMBER
UWI         .                                    42706403460000 :UNIQUE WELL ID
XCOORD      .                                  1110706.35492259 :SURFACE X 
YCOORD      .                                  10520329.8149831 :SURFACE Y 
LAT         .                                         28.978895 :LATITUDE  
LON         .                                        -94.657168 :LONGITUDE 
ELEV        .FT                                              71 :ELEVATION VALUE
ELEV_TYPE   .                                                KB :ELEVATION REFERENCE TYPE
~Curve Information Section
#MNEM       .UNIT                                      API CODE :CURVE DESCRIPTION
#------------------------------------------------------------------------------
DEPT        .FT                                                 :DEPTH     
DCAL        .IN                                                 :          
DPHI        .%                                                  :          
DRHO        .G/C3                                               :          
DTLN        .US/F                                               :          
GR          .GAPI                                               :          
GR_1        .GAPI                                               :          
GR_NORM     .GAPI                                               :GammaRay Normalized
ILD         .OHMM                                               :          
ILM         .OHMM                                               :          
NPHI        .%                                                  :          
SFL         .OHMM                                               :          
SP          .MV                                                 :          
VSH_GR      .V/V                                                :Volume of Shale from GR
~A        DEPTH           DCAL           DPHI           DRHO           DTLN             GR           GR_1        GR_NORM            ILD            ILM           NPHI            SFL             SP         VSH_GR
# ...
      3865.0000        -999.25        -999.25        -999.25       137.9143       106.3557        -999.25       88.95834         0.8047         0.7619        -999.25          0.736       -52.0432              1
      3865.5000        -999.25        -999.25        -999.25       135.4736       103.9567        -999.25       86.59722          0.823         0.7869        -999.25         0.7639       -52.9031              1
      3866.0000        -999.25        -999.25        -999.25       133.4465       102.5461        -999.25       85.20764         0.8428         0.8156        -999.25         0.8088       -53.4122              1
      3866.5000        -999.25        -999.25        -999.25       132.2964       101.2145        -999.25       83.89571          0.865         0.8468        -999.25         0.8457       -53.3594              1
      3867.0000        -999.25        -999.25        -999.25       130.8396        99.2694        -999.25       81.98075         0.8881         0.8729        -999.25         0.8738       -53.1855              1
      3867.5000        -999.25        -999.25        -999.25       129.3044        96.7843        -999.25         79.535         0.9101         0.8958        -999.25          0.892       -52.9086      0.9901063
      3868.0000        -999.25        -999.25        -999.25       127.7096        96.3032        -999.25       79.05906         0.9324         0.9148        -999.25         0.9084       -52.9739        0.97998
      3868.5000        -999.25        -999.25        -999.25       126.1855        98.7428        -999.25       81.45405         0.9508          0.924        -999.25         0.9215       -53.4523              1
      3869.0000        -999.25        -999.25        -999.25       125.4858       100.1053        -999.25        82.7903         0.9647         0.9298        -999.25         0.9265       -53.6179              1
      3869.5000        -999.25        -999.25        -999.25       126.0018       101.1862        -999.25       83.84973         0.9702         0.9299        -999.25         0.9187       -53.3018              1
      3870.0000        -999.25        -999.25        -999.25       127.7468       103.0254        -999.25       85.65456         0.9647         0.9276        -999.25         0.8995       -52.4954              1
      3870.5000        -999.25        -999.25        -999.25       129.7603       109.4202        -999.25       91.93729         0.9578         0.9243        -999.25         0.8838       -51.4589              1
      3871.0000        -999.25        -999.25        -999.25       131.4954       111.7885        -999.25        94.2622         0.9494         0.9196        -999.25         0.8735       -51.1476              1
      3871.5000        -999.25        -999.25        -999.25       133.3684       106.7383        -999.25       89.29507         0.9382         0.9132        -999.25         0.8707       -53.4703              1
      3872.0000        -999.25        -999.25        -999.25       135.2605        99.7874        -999.25       82.45964         0.9259         0.9056        -999.25         0.8678       -55.1791              1
      3872.5000        -999.25        -999.25        -999.25       136.3914        97.5243        -999.25       80.23212          0.912            0.9        -999.25         0.8648       -54.4102              1
      3873.0000        -999.25        -999.25        -999.25       135.1768       102.5308        -999.25       85.15023          0.898          0.898        -999.25         0.8637       -52.8625              1
      3873.5000        -999.25        -999.25        -999.25       133.3391        105.791        -999.25       88.35181         0.8866         0.8907        -999.25         0.8496       -52.2142              1
      3874.0000        -999.25        -999.25        -999.25       133.2534       106.3262        -999.25       88.87488         0.8779         0.8786        -999.25         0.8324       -53.0446              1
      3874.5000        -999.25        -999.25        -999.25       134.8179       105.6996        -999.25       88.25592         0.8779          0.865        -999.25         0.8201       -54.6415              1
      3875.0000        -999.25        -999.25        -999.25       136.4299       105.1816        -999.25       87.74373         0.8774         0.8524        -999.25         0.8157        -55.035              1
      3875.5000        -999.25        -999.25        -999.25       137.7092       105.1719        -999.25       87.73116         0.8761         0.8417        -999.25         0.8234       -54.4742              1
      3876.0000        -999.25        -999.25        -999.25       138.5806       104.0243        -999.25       86.60011         0.8698         0.8399        -999.25         0.8353       -54.5458              1
      3876.5000        -999.25        -999.25        -999.25       138.7683       101.3842        -999.25       84.00199          0.864         0.8403        -999.25         0.8431       -54.8782              1
      3877.0000        -999.25        -999.25        -999.25       137.9441        99.9924        -999.25       82.63088         0.8595         0.8423        -999.25         0.8424       -55.1767              1
      3877.5000        -999.25        -999.25        -999.25       136.2412       103.0254        -999.25       85.60915         0.8573         0.8415        -999.25         0.8404       -55.0663              1
      3878.0000        -999.25        -999.25        -999.25       133.8303       106.4922        -999.25       89.01383         0.8511         0.8358        -999.25         0.8227       -54.9116              1
      3878.5000        -999.25        -999.25        -999.25        132.043       108.5813        -999.25       91.06427         0.8373         0.8231        -999.25         0.8051       -55.2969              1
      3879.0000        -999.25        -999.25        -999.25       133.4578       107.4653        -999.25       89.96428         0.8316         0.8097        -999.25          0.795       -55.3428              1
      3879.5000        -999.25        -999.25        -999.25       136.5642       103.6429        -999.25         86.204           0.83         0.8051        -999.25         0.7893       -55.1022              1
      3880.0000        -999.25        -999.25        -999.25       137.7458       100.4172        -999.25       83.03028         0.8258         0.8031        -999.25         0.7882       -55.3806              1
      3880.5000        -999.25        -999.25        -999.25       137.8804        98.4691        -999.25       81.11237         0.8231         0.8056        -999.25         0.7856       -55.6295              1
      3881.0000        -999.25        -999.25        -999.25       135.6772        97.9196        -999.25       80.56922         0.8222         0.8103        -999.25         0.7853       -55.4393              1
      3881.5000        -999.25        -999.25        -999.25       133.7698        98.2981        -999.25       80.93823         0.8293         0.8166        -999.25         0.7941       -55.3929              1
      3882.0000        -999.25        -999.25        -999.25       134.3147        99.3358        -999.25       81.95522         0.8371         0.8285        -999.25         0.8114       -55.1965              1
      3882.5000        -999.25        -999.25        -999.25       134.5361       100.6658        -999.25       83.25951         0.8461         0.8405        -999.25         0.8222       -55.9935              1
      3883.0000        -999.25        -999.25        -999.25       133.7893       101.6031        -999.25       84.17781         0.8552         0.8526        -999.25         0.8244       -56.2038              1
      3883.5000        -999.25        -999.25        -999.25       131.7661        99.1698        -999.25       81.78297         0.8671         0.8657        -999.25         0.8221       -56.4611              1
