#------------------------------------------------------------------------------
# Created by    : vladimir.rabinovich
# Created on    : 09/19/2023 17:22:52
#------------------------------------------------------------------------------
~Version Information Section
VERS.           2.0     :   CWLS log ASCII Standard - VERSION 2.0
WRAP.           NO      :   One line per depth step
~Well Information Section
#MNEM       .UNIT                                         VALUE :DESCRIPTION
#------------------------------------------------------------------------------
STRT        .FT                                            1126 :START DEPTH
STOP        .FT                                            9906 :STOP DEPTH
STEP        .FT                                             0.5 :STEP      
NULL        .                                           -999.25 :NULL      
COMP        .                                        EXXON CORP :COMPANY   
WELL        .                               OCS G06053 ST00BP00 :WELL      
FLD         .                                           WILDCAT :FIELD     
LOC         .                                                   :LOCATION  
CNTY        .                      MATAGORDA ISLAND LARGE BLOCK :LOCATION  
STAT        .                                             TEXAS :STATE     
CTRY        .                                     UNITED STATES :COUNTRY   
SRVC        .                                                   :SERVICE COMPANY
DATE        .                             9/13/2023 11:12:11 AM :LOG DATE  
API         .                                    42703402640000 :API NUMBER
UWI         .                                    42703402640000 :UNIQUE WELL ID
XCOORD      .                                  440255.018680432 :SURFACE X 
YCOORD      .                                  10152284.9344853 :SURFACE Y 
LAT         .                                         27.926249 :LATITUDE  
LON         .                                        -96.716438 :LONGITUDE 
ELEV        .FT                                              94 :ELEVATION VALUE
ELEV_TYPE   .                                                KB :ELEVATION REFERENCE TYPE
~Curve Information Section
#MNEM       .UNIT                                      API CODE :CURVE DESCRIPTION
#------------------------------------------------------------------------------
DEPT        .FT                                                 :DEPTH     
GR          .GAPI                                               :          
GR_NORM     .GAPI                                               :GammaRay Normalized
ILD         .OHMM                                               :          
SP          .MV                                                 :          
SP_NORM     .MV                                                 :SP Normalized
VSH_GR      .V/V                                                :Volume of Shale from GR
VSH_SP      .V/V                                                :Volume of Shale from SP
~A        DEPTH             GR        GR_NORM            ILD             SP        SP_NORM         VSH_GR         VSH_SP
# ...
      6385.5000        39.0272       36.71518         0.3703       -108.682      -58.50117     0.07904637      0.2721371
      6386.0000        42.2664       43.52137         0.3899      -106.4331      -56.25294      0.2238588      0.3005957
      6386.5000        47.2008       53.88947         0.4118      -108.1768      -57.99732      0.4444568       0.278515
      6387.0000        48.7712       57.18921         0.4314      -107.1061      -56.92729      0.5146639      0.2920596
      6387.5000        48.0495       55.67276         0.4494      -100.2919      -50.11376      0.4823991      0.3783068
      6388.0000        47.1157       53.71068         0.4677       -94.3896      -44.21214      0.4406527      0.4530109
      6388.5000        46.2365        51.8633         0.4851       -90.6288      -40.45201      0.4013467      0.5006074
      6389.0000        48.0641       55.70344         0.4985         -90.76      -40.58389      0.4830519      0.4989382
      6389.5000         52.264       64.52824         0.5039       -91.6738      -41.49836      0.6708136      0.4873626
      6390.0000        54.7518       69.75558         0.5061       -91.0884      -40.91364      0.7820337      0.4947641
      6390.5000        56.2719       72.94962         0.5005       -88.3552      -38.18111       0.849992      0.5293531
      6391.0000        54.4114       69.04034         0.4951        -87.632      -37.45858      0.7668158      0.5384989
      6391.5000        50.9289       61.72294         0.4901       -86.9681      -36.79535      0.6111264      0.5468943
      6392.0000        47.0816       53.63902         0.4854       -85.9558      -35.78373      0.4391281      0.5596997
      6392.5000         45.327       49.95227         0.4847       -84.6663       -34.4949      0.3606867      0.5760139
      6393.0000        47.0062        53.4806         0.4915       -82.7877      -32.61697      0.4357575      0.5997852
      6393.5000        49.1098       57.90065         0.5047       -83.5135      -33.34344       0.529801      0.5905893
      6394.0000        50.7128       61.26886         0.5322       -85.2354      -35.06602      0.6014652      0.5687846
      6394.5000        50.5903       61.01149         0.5691       -86.5887      -36.41999      0.5959892      0.5516456
      6395.0000         49.795       59.34038         0.6244       -87.4824      -37.31437      0.5604336      0.5403244
      6395.5000        50.0023       59.77596         0.7191       -85.8518      -35.68444      0.5697012      0.5609564
      6396.0000        50.3939        60.5988         0.8535       -81.8411      -31.67442      0.5872084      0.6117162
      6396.5000        51.8578       63.67474         1.0219        -77.511      -27.34499      0.6526539       0.666519
      6397.0000        53.1857        66.4649         1.2081       -74.4359      -24.27056      0.7120191      0.7054359
      6397.5000        52.1728       64.33659         1.3788       -72.2015      -22.03684      0.6667359      0.7337109
      6398.0000        50.3842        60.5784         1.5038       -69.9271      -19.76311      0.5867745      0.7624922
      6398.5000         48.959       57.58381         1.5563       -67.0636      -16.90028      0.5230597      0.7987306
      6399.0000         47.858       55.27037         1.5563       -64.7017      -14.53906      0.4738378      0.8286195
      6399.5000         47.202       53.89201          1.452       -69.5477      -19.38573      0.4445108      0.7672693
      6400.0000         47.328       54.15674         1.1425       -76.5151      -26.35381      0.4501434      0.6790658
      6400.5000        48.8521       57.35919         0.7985       -83.4097      -33.24908      0.5182806      0.5917838
      6401.0000        51.0237       61.92215         0.6113       -98.9203      -48.76036      0.6153649      0.3954385
      6401.5000        49.7372       59.21895         0.5051      -110.6517      -60.49243      0.5578499      0.2469312
      6402.0000         46.943       53.34778          0.437       -120.501       -70.3424      0.4329315      0.1222481
      6402.5000        45.0279        49.3238         0.3976      -125.2833      -75.12538       0.347315     0.06170403
      6403.0000        43.8824       46.91689         0.3729      -127.1912      -77.03395       0.296104     0.03754492
      6403.5000        43.6064       46.33695         0.3481      -121.4203      -71.26373      0.2837649      0.1105858
      6404.0000        44.8005       48.84598         0.3306      -116.3132       -66.1573      0.3371485       0.175224
      6404.5000        46.9381       53.33749         0.3232      -112.5304      -62.37517      0.4327126      0.2230991
      6405.0000        49.2533       58.20219         0.3199        -115.27      -65.11544      0.5362168      0.1884121
      6405.5000        48.7183       57.07805         0.3185      -121.5005      -71.34662       0.512299      0.1095365
      6406.0000        45.6954       50.72633         0.3124      -125.2505      -75.09729       0.377156     0.06205962
      6406.5000        42.4951        44.0019         0.3054      -128.3037      -78.15116      0.2340829     0.02340302
      6407.0000        39.0272       36.71518         0.2966      -129.8184      -79.66655     0.07904637     0.00422089
      6407.5000        36.5442       31.49791         0.2886      -129.4873      -79.33612              0    0.008403537
      6408.0000        35.5027       29.30952         0.2816      -127.6434      -77.49289              0     0.03173558
      6408.5000        36.5515       31.51325         0.2778      -126.5892      -76.43936              0     0.04507137
      6409.0000        38.1067       34.78102         0.2765      -129.2996      -79.15044     0.03789415     0.01075397
      6409.5000        38.9609       36.57586         0.2766      -131.3132      -81.16471     0.07608219              0
      6410.0000         38.711       36.05077         0.2783      -131.7507      -81.60288     0.06490999              0
      6410.5000        36.8725       32.18775         0.2794      -130.9109      -80.76376              0              0
      6411.0000        35.8912       30.12584         0.2784      -129.8704      -79.72394              0    0.003494456
      6411.5000         36.391       31.17601         0.2775      -129.0515       -78.9057              0     0.01385189
      6412.0000        37.2324       32.94395         0.2768      -128.5872      -78.44208              0     0.01972054
      6412.5000        38.1143         34.797         0.2764       -128.502      -78.35754     0.03823398     0.02079058
      6413.0000        38.5022       35.61206         0.2766      -129.0493      -78.90553     0.05557568     0.01385411
      6413.5000        38.8582       36.36008         0.2736      -130.4248      -80.28171       0.071491              0
      6414.0000        38.7609       36.15563         0.2748      -131.8098      -81.66737     0.06714103              0
      6414.5000        38.0994       34.76568         0.2772      -131.4243      -81.28255     0.03756771              0
      6415.0000        37.1038       32.67375         0.2795      -129.2156      -79.07452              0     0.01171489
      6415.5000        36.7518       31.93412         0.2818      -127.0178       -76.8774              0     0.03952664
      6416.0000        36.9023       32.25035         0.2823      -127.3188      -77.17907              0     0.03570798
      6416.5000        37.6331        33.7859         0.2779      -130.6565      -80.51743      0.0167212              0
      6417.0000        37.4243       33.34719          0.272      -132.7344      -82.59602    0.007386958              0
      6417.5000        35.9241       30.19496         0.2657       -132.231      -82.09329              0              0
      6418.0000        35.1206       28.50667         0.2724      -130.1277      -79.99066              0   0.0001182073
      6418.5000        35.6371       29.59192         0.2835       -127.897      -77.76064              0     0.02834639
