#------------------------------------------------------------------------------
# Created by    : vladimir.rabinovich
# Created on    : 09/19/2023 17:20:32
#------------------------------------------------------------------------------
~Version Information Section
VERS.           2.0     :   CWLS log ASCII Standard - VERSION 2.0
WRAP.           NO      :   One line per depth step
~Well Information Section
#MNEM       .UNIT                                         VALUE :DESCRIPTION
#------------------------------------------------------------------------------
STRT        .FT                                             642 :START DEPTH
STOP        .FT                                           11989 :STOP DEPTH
STEP        .FT                                             0.5 :STEP      
NULL        .                                           -999.25 :NULL      
COMP        .                       CORPUS CHRISTI OIL & GAS CO :COMPANY   
WELL        .                               OCS G05177 ST00BP00 :WELL      
FLD         .                              GALVESTON BLOCK 0151 :FIELD     
LOC         .                                                   :LOCATION  
CNTY        .                             GALVESTON LARGE BLOCK :LOCATION  
STAT        .                                             TEXAS :STATE     
CTRY        .                                     UNITED STATES :COUNTRY   
SRVC        .                                                   :SERVICE COMPANY
DATE        .                             9/13/2023 11:19:27 AM :LOG DATE  
API         .                                    42706401010000 :API NUMBER
UWI         .                                    42706401010000 :UNIQUE WELL ID
XCOORD      .                                   1130272.6689428 :SURFACE X 
YCOORD      .                                  10609756.0111422 :SURFACE Y 
LAT         .                                         29.225567 :LATITUDE  
LON         .                                        -94.599775 :LONGITUDE 
ELEV        .FT                                              83 :ELEVATION VALUE
ELEV_TYPE   .                                                KB :ELEVATION REFERENCE TYPE
~Curve Information Section
#MNEM       .UNIT                                      API CODE :CURVE DESCRIPTION
#------------------------------------------------------------------------------
DEPT        .FT                                                 :DEPTH     
ASN         .OHMM                                               :          
CILD        .MMHO                                               :          
DT          .US/F                                               :          
ILD         .OHMM                                               :          
RHOB        .G/CC                                               :          
SP          .MV                                                 :          
SP_NORM     .MV                                                 :SP Normalized
VSH_SP      .V/V                                                :Volume of Shale from SP
~A        DEPTH            ASN           CILD             DT            ILD           RHOB             SP        SP_NORM         VSH_SP
# ...
      6689.5000         0.6075       1900.375       128.1501          0.494        -999.25       -44.8984      0.1099243              1
      6690.0000         0.6215       1854.941       127.2317         0.5044        -999.25       -45.1514     -0.1497307       0.997861
      6690.5000         0.6356       1805.484       124.8674         0.5153        -999.25       -45.4296     -0.4345856      0.9937916
      6691.0000         0.6479       1760.795       119.0418         0.5262        -999.25       -45.7078     -0.7194443      0.9897223
      6691.5000         0.6576       1725.986       117.9664         0.5371        -999.25       -45.9857      -1.003998      0.9856572
      6692.0000         0.6689        1696.02       117.2147         0.5479        -999.25       -46.3258      -1.350758      0.9807035
      6692.5000         0.7159        1674.27        116.915         0.5576        -999.25       -46.6761      -1.707714      0.9756041
      6693.0000         0.7379       1653.973       117.2365         0.5635        -999.25       -47.0264      -2.064671      0.9705047
      6693.5000         0.7563       1640.852         115.39         0.5693        -999.25       -47.3771      -2.422028      0.9653996
      6694.0000         0.7631       1627.742       113.5436         0.5752        -999.25         -48.48      -3.531578      0.9495489
      6694.5000         0.7549       1614.621       112.1611          0.581        -999.25       -48.7652      -3.823437      0.9453795
      6695.0000         0.7468        1611.27       112.0137         0.5869        -999.25       -48.5124      -3.577293      0.9488958
      6695.5000         0.7387        1608.08       112.1805         0.5927        -999.25       -48.3412       -3.41275      0.9512464
      6696.0000         0.7306       1604.887       115.4385         0.5961        -999.25         -48.17      -3.248203      0.9535971
      6696.5000         0.7225        1604.02       117.3043         0.5956        -999.25        -47.999      -3.083862      0.9559448
      6697.0000         0.7216       1607.408       117.0046         0.5952        -999.25       -47.8894      -2.980919      0.9574155
      6697.5000          0.721       1610.799       116.3956         0.5947        -999.25        -47.786      -2.884171      0.9587976
      6698.0000         0.7219       1614.188        114.932         0.5942        -999.25       -47.6827      -2.787529      0.9601781
      6698.5000         0.7245       1617.572       112.8329         0.5938        -999.25       -47.5793      -2.690784      0.9615602
      6699.0000          0.727       1620.961       111.6288         0.5933        -999.25       -47.4761      -2.594242      0.9629394
      6699.5000         0.7233       1632.832       111.4838         0.5928        -999.25       -47.7717        -2.8965      0.9586214
      6700.0000         0.7183       1645.346       112.1702         0.5912        -999.25       -48.1774      -3.308853      0.9527307
      6700.5000         0.7099       1657.846       115.0632         0.5885        -999.25       -49.1658      -4.303909      0.9385156
      6701.0000         0.7015       1675.834       117.2384         0.5859        -999.25       -50.5354      -5.680168      0.9188547
      6701.5000         0.6931       1702.797       119.4136         0.5832        -999.25       -51.7174       -6.86882       0.901874
      6702.0000         0.6847       1729.734       123.1356         0.5806        -999.25       -52.4031      -7.561176      0.8919832
      6702.5000         0.6772       1751.559       123.6093         0.5779        -999.25       -52.6503      -7.815033      0.8883567
      6703.0000         0.6776       1764.891        122.651         0.5753        -999.25       -52.5442      -7.715591      0.8897772
      6703.5000         0.6779       1778.236       121.2678         0.5727        -999.25       -52.4382      -7.616249      0.8911964
      6704.0000         0.6804       1780.234       120.6581         0.5699        -999.25       -52.2742      -7.458904      0.8934442
      6704.5000         0.6843       1775.994       120.6671          0.565        -999.25       -52.0892       -7.28056       0.895992
      6705.0000         0.6881       1771.762       120.3667         0.5602        -999.25       -51.9044      -7.102413       0.898537
      6705.5000         0.6919       1763.648       121.4708         0.5553        -999.25       -51.7195      -6.924171      0.9010833
      6706.0000          0.694       1755.506       121.4673         0.5505        -999.25       -51.5012      -6.712528      0.9041067
      6706.5000         0.6952       1747.363       121.4785         0.5456        -999.25       -51.1699      -6.387882      0.9087445
      6707.0000         0.6963       1739.219       121.3306         0.5408        -999.25       -50.8381       -6.06274      0.9133894
      6707.5000         0.6974       1732.963       120.8777         0.5371        -999.25       -50.5068      -5.738098      0.9180272
      6708.0000         0.6982       1728.729       119.9586         0.5338        -999.25       -50.2046      -5.442554      0.9222492
      6708.5000         0.6981        1724.49       119.1942         0.5305        -999.25       -50.1445      -5.389107      0.9230127
      6709.0000          0.698        1720.25       119.0462         0.5273        -999.25       -50.0844      -5.335663      0.9237763
      6709.5000         0.6979       1716.018       119.5215          0.524        -999.25       -50.0375      -5.295418      0.9243512
      6710.0000         0.6978       1712.908       120.4585         0.5207        -999.25       -50.1147      -5.379276      0.9231532
      6710.5000         0.6977       1714.863       121.2409         0.5232        -999.25       -50.1918      -5.463032      0.9219567
      6711.0000         0.6974       1716.818       121.7139         0.5258        -999.25       -50.0049      -5.282791      0.9245316
      6711.5000         0.6968        1718.77       121.4112         0.5284        -999.25       -49.7644      -5.048946      0.9278722
      6712.0000         0.6961       1720.725       121.1131          0.531        -999.25       -49.5242      -4.815403      0.9312086
      6712.5000         0.6955       1725.836       120.5033         0.5335        -999.25       -49.2836      -4.581455      0.9345506
      6713.0000         0.6948       1735.619       119.8934         0.5331        -999.25       -49.0431       -4.34761      0.9378913
      6713.5000         0.6928       1745.414       119.9025         0.5327        -999.25       -48.7832      -4.094368       0.941509
      6714.0000         0.6903       1755.207       120.2209         0.5322        -999.25       -48.4926      -3.810425      0.9455653
      6714.5000         0.6878       1763.891       120.3847         0.5318        -999.25       -48.2019      -3.526382      0.9496231
      6715.0000         0.6853       1771.588       120.2388         0.5314        -999.25       -47.9113      -3.242439      0.9536794
      6715.5000         0.6842       1779.291       120.0931          0.531        -999.25       -47.6206      -2.958397      0.9577372
      6716.0000         0.6839       1788.266       119.7927         0.5306        -999.25       -47.3304      -2.674847      0.9617879
      6716.5000         0.6836       1801.338       120.1132         0.5301        -999.25       -47.0397      -2.390804      0.9658456
      6717.0000         0.6833        1814.41       120.7409         0.5297        -999.25       -46.6854      -2.043159       0.970812
      6717.5000         0.6832       1827.494       121.0592         0.5292        -999.25       -46.2977      -1.662117      0.9762555
      6718.0000          0.686       1837.027       121.0682         0.5288        -999.25         -45.91      -1.281075      0.9816989
      6718.5000         0.6889       1845.209       120.4584         0.5283        -999.25       -45.7043      -1.082031      0.9845424
