#------------------------------------------------------------------------------
# Created by    : vladimir.rabinovich
# Created on    : 09/19/2023 17:22:48
#------------------------------------------------------------------------------
~Version Information Section
VERS.           2.0     :   CWLS log ASCII Standard - VERSION 2.0
WRAP.           NO      :   One line per depth step
~Well Information Section
#MNEM       .UNIT                                         VALUE :DESCRIPTION
#------------------------------------------------------------------------------
STRT        .FT                                             306 :START DEPTH
STOP        .FT                                           13139 :STOP DEPTH
STEP        .FT                                             0.5 :STEP      
NULL        .                                           -999.25 :NULL      
COMP        .                                    CITIES SERVICE :COMPANY   
WELL        .                                          SL 77337 :WELL      
FLD         .                                           WILDCAT :FIELD     
LOC         .                                                   :LOCATION  
CNTY        .                                BRAZOS LARGE BLOCK :LOCATION  
STAT        .                                             TEXAS :STATE     
CTRY        .                                     UNITED STATES :COUNTRY   
SRVC        .                                                   :SERVICE COMPANY
DATE        .                             9/13/2023 11:18:52 AM :LOG DATE  
API         .                                    42704301950000 :API NUMBER
UWI         .                                    42704301950000 :UNIQUE WELL ID
XCOORD      .                                   673900.18951543 :SURFACE X 
YCOORD      .                                   10333530.060148 :SURFACE Y 
LAT         .                                        28.4418955 :LATITUDE  
LON         .                                       -96.0077528 :LONGITUDE 
ELEV        .FT                                              82 :ELEVATION VALUE
ELEV_TYPE   .                                                KB :ELEVATION REFERENCE TYPE
~Curve Information Section
#MNEM       .UNIT                                      API CODE :CURVE DESCRIPTION
#------------------------------------------------------------------------------
DEPT        .FT                                                 :DEPTH     
DT          .US/F                                               :          
SP          .MV                                                 :          
SP_NORM     .MV                                                 :SP Normalized
VSH_SP      .V/V                                                :Volume of Shale from SP
~A        DEPTH             DT             SP        SP_NORM         VSH_SP
# ...
     10535.0000       104.7065       -40.3897        2.30331              1
     10535.5000       104.3011       -40.4329       2.259624              1
     10536.0000       104.0774       -40.4648        2.22723              1
     10536.5000       103.7329       -40.4874       2.204144              1
     10537.0000       102.8691       -40.4813       2.209755              1
     10537.5000       101.6882        -40.425       2.265564              1
     10538.0000       100.6234       -40.8033       1.886776              1
     10538.5000       100.1069       -41.3333       1.356281              1
     10539.0000       100.2783       -41.6428       1.046295              1
     10539.5000       100.9067       -41.8567      0.8319054              1
     10540.0000       101.9479       -41.9873      0.7008133              1
     10540.5000       102.8704       -42.1179       0.569725              1
     10541.0000       103.0468       -42.2366      0.4505348              1
     10541.5000       103.0077       -42.3463      0.3403473              1
     10542.0000       101.9354       -42.4561      0.2300568              1
     10542.5000       100.6371       -42.5659      0.1197662              1
     10543.0000        99.1841       -42.6133     0.07187653              1
     10543.5000        98.1525        -42.653     0.03168488              1
     10544.0000         99.254       -42.6971    -0.01290512              1
     10544.5000       100.5148       -42.7818    -0.09809113              1
     10545.0000       101.8629       -42.8217      -0.138485              1
     10545.5000       103.4508       -42.7894     -0.1066704              1
     10546.0000       102.7942       -42.7571    -0.07486343              1
     10546.5000       101.9541       -42.9053     -0.2235527              1
     10547.0000       101.6716       -43.0543     -0.3730392              1
     10547.5000       102.3124         -43.04     -0.3592339              1
     10548.0000       103.4733       -43.0258       -0.34552              1
     10548.5000       105.0461       -42.9464      -0.266613              1
     10549.0000       106.7438       -42.8523     -0.1730003              1
     10549.5000       108.2367       -42.7793     -0.1004906              1
     10550.0000       109.4475       -42.6838    -0.00548172              1
     10550.5000       110.1703       -42.5801     0.09772873              1
     10551.0000       110.7408       -42.3876      0.2897377              1
     10551.5000       110.1366       -42.0951       0.581749              1
     10552.0000       108.7161       -41.7944       0.881958              1
     10552.5000       107.3105       -41.8815      0.7943687              1
     10553.0000       106.2257       -42.0998      0.5755806              1
     10553.5000       105.3719       -42.3181      0.3567886              1
     10554.0000       104.7378        -42.511      0.1633987              1
     10554.5000       104.3033       -42.4241      0.2498093              1
     10555.0000        104.266       -42.4489      0.2245216              1
     10555.5000       104.5131       -42.5402      0.1327324              1
     10556.0000        105.453       -42.7159    -0.04346085              1
     10556.5000       106.9036       -42.7582    -0.08625031              1
     10557.0000        107.851       -42.7048    -0.03334045              1
     10557.5000       108.4558       -42.5937     0.07727051              1
     10558.0000       107.9321       -42.3939      0.2765808              1
     10558.5000       107.0046       -42.2163      0.4536896              1
     10559.0000       106.9559       -42.1258      0.5437012              1
     10559.5000       108.1643       -42.5142      0.1548119              1
     10560.0000       109.3889       -42.8938     -0.2252769              1
     10560.5000       110.1829       -43.0087     -0.3406677              1
     10561.0000       110.6715       -42.9382     -0.2706604              1
     10561.5000       110.4039       -42.5405      0.1265526              1
     10562.0000       110.2969       -42.0644      0.6021614              1
     10562.5000       110.4209       -41.6021       1.063972              1
     10563.0000       110.6522         -41.22       1.445583              1
     10563.5000       110.7266       -40.9594       1.705692              1
     10564.0000       110.5514       -40.7636       1.901005              1
     10564.5000       110.3195       -40.6068       2.057312              1
     10565.0000       110.0873       -40.4648       2.198822              1
     10565.5000       109.9891       -40.1218       2.541336              1
     10566.0000       110.0657       -40.0221       2.640545              1
     10566.5000       110.1249       -40.1757       2.486454              1
     10567.0000       110.1019       -40.2747       2.386963              1
     10567.5000       109.8707       -40.6255       2.035675              1
     10568.0000        109.583       -41.0966       1.564087              1
     10568.5000       109.3572       -41.6691      0.9910927              1
     10569.0000       109.3003       -42.2278      0.4319077              1
     10569.5000       109.6897       -42.6855    -0.02628708              1
     10570.0000       110.0468       -42.8204     -0.1616745              1
     10570.5000       110.3507       -42.7077    -0.04946518              1
     10571.0000        110.634       -42.4963      0.1614456              1
     10571.5000       110.8134       -42.2491      0.4081573              1
     10572.0000       110.7402       -42.0021      0.6546631              1
     10572.5000       110.5289       -41.7581      0.8981781              1
     10573.0000       110.4983       -41.5162       1.139584              1
     10573.5000       110.6797       -41.2895       1.365795              1
     10574.0000       110.8491        -40.928       1.726807              1
     10574.5000       110.7769       -40.6048       2.049515              1
     10575.0000        109.892       -40.6035       2.050327              1
     10575.5000       108.1519       -41.0865       1.566837              1
     10576.0000       106.2694       -41.6196       1.033249              1
     10576.5000       105.3182        -42.102      0.5503578              1
     10577.0000        105.142       -42.6125     0.03936768              1
     10577.5000       105.2155       -43.1964     -0.5450211              1
     10578.0000       105.0243        -43.673      -1.022114      0.9993496
     10578.5000       104.5905       -44.0333        -1.3829      0.9887382
     10579.0000         104.01       -44.4598      -1.809891      0.9761797
     10579.5000        104.422       -44.6381      -1.988682      0.9709211
     10580.0000       105.6278       -44.4736      -1.824669       0.975745
     10580.5000       106.8362       -43.9431      -1.294662      0.9913335
     10581.0000       108.1593       -42.8731     -0.2251511              1
     10581.5000       108.6187       -42.4257      0.2217598              1
     10582.0000        107.866       -42.3619      0.2850685              1
     10582.5000       107.3606       -42.3083      0.3381805              1
     10583.0000       107.5002       -42.2559      0.3900871              1
     10583.5000       107.8411       -42.2393      0.4062004              1
     10584.0000       108.4377        -42.226      0.4190102              1
     10584.5000        108.781        -42.111      0.5335197              1
     10585.0000       108.7822       -42.0118      0.6322327              1
     10585.5000       108.3323        -42.003      0.6405411              1
     10586.0000       107.8235       -41.9672      0.6758499              1
     10586.5000       108.6262        -41.913      0.7295647              1
     10587.0000       109.7496       -41.7719      0.8701706              1
     10587.5000        110.968       -41.6042       1.037384              1
