#------------------------------------------------------------------------------
# Created by    : vladimir.rabinovich
# Created on    : 09/19/2023 17:21:46
#------------------------------------------------------------------------------
~Version Information Section
VERS.           2.0     :   CWLS log ASCII Standard - VERSION 2.0
WRAP.           NO      :   One line per depth step
~Well Information Section
#MNEM       .UNIT                                         VALUE :DESCRIPTION
#------------------------------------------------------------------------------
STRT        .FT                                            2869 :START DEPTH
STOP        .FT                                           10002 :STOP DEPTH
STEP        .FT                                             0.5 :STEP      
NULL        .                                           -999.25 :NULL      
COMP        .                          SEAGULL ENERGY E & P INC :COMPANY   
WELL        .                               OCS G06145 ST00BP00 :WELL      
FLD         .                                           WILDCAT :FIELD     
LOC         .                                                   :LOCATION  
CNTY        .                           HIGH ISLAND LARGE BLOCK :LOCATION  
STAT        .                                             TEXAS :STATE     
CTRY        .                                     UNITED STATES :COUNTRY   
SRVC        .                                                   :SERVICE COMPANY
DATE        .                             9/13/2023 11:19:59 AM :LOG DATE  
API         .                                    42708402850000 :API NUMBER
UWI         .                                    42708402850000 :UNIQUE WELL ID
XCOORD      .                                  1277324.30822617 :SURFACE X 
YCOORD      .                                   10672684.104362 :SURFACE Y 
LAT         .                                         29.403374 :LATITUDE  
LON         .                                        -94.140646 :LONGITUDE 
ELEV        .FT                                              88 :ELEVATION VALUE
ELEV_TYPE   .                                                KB :ELEVATION REFERENCE TYPE
~Curve Information Section
#MNEM       .UNIT                                      API CODE :CURVE DESCRIPTION
#------------------------------------------------------------------------------
DEPT        .FT                                                 :DEPTH     
CALI        .IN                                                 :          
DPHI        .%                                                  :          
DRHO        .G/C3                                               :          
GR          .GAPI                                               :          
GR_NORM     .GAPI                                               :GammaRay Normalized
ILD         .OHMM                                               :          
ILM         .OHMM                                               :          
NPHI        .%                                                  :          
SFL         .OHMM                                               :          
SP          .MV                                                 :          
SP_NORM     .MV                                                 :SP Normalized
VSH_GR      .V/V                                                :Volume of Shale from GR
VSH_SP      .V/V                                                :Volume of Shale from SP
~A        DEPTH           CALI           DPHI           DRHO             GR        GR_NORM            ILD            ILM           NPHI            SFL             SP        SP_NORM         VSH_GR         VSH_SP
# ...
      7182.0000         9.9489        34.7584        -0.0065        54.7245       50.43858          0.094         0.1185        32.7001         0.6653      -112.9644      -77.16467      0.3710337              0
      7182.5000         9.9498        34.7519        -0.0081        54.0516        49.6918         0.0938         0.1161        31.6661         0.6302      -113.0322      -77.22257      0.3551447              0
      7183.0000          9.947        34.6876        -0.0089         52.242       47.68202          0.096         0.1156        30.6264         0.5905      -113.0466       -77.2365      0.3123834              0
      7183.5000         9.9442        34.7205        -0.0097        50.5792       45.83535         0.1007         0.1167        30.2508          0.554      -112.8395      -77.06802      0.2730926              0
      7184.0000         9.9363        34.9672        -0.0104        51.2517       46.58346         0.1064         0.1197        31.3491         0.5383      -112.5626      -76.84206      0.2890098              0
      7184.5000         9.9286        35.1747        -0.0106        52.1844       47.62068         0.1097         0.1224        32.0178         0.5435      -112.2372      -76.57614      0.3110783              0
      7185.0000         9.9244        35.3615        -0.0104        52.8423       48.35257         0.1115         0.1238        31.7739          0.557      -111.9062      -76.30563      0.3266503              0
      7185.5000         9.9236        35.4869          -0.01        52.7586       48.26044         0.1124         0.1236        31.4114         0.5604      -111.6169      -76.06944      0.3246903              0
      7186.0000         9.9409        35.3845        -0.0095        53.0325       48.56567         0.1114         0.1222        31.0715         0.5428      -111.1748      -75.70743      0.3311845              0
      7186.5000         9.9753        34.9939         -0.009        53.5508       49.14244         0.1085         0.1202        30.9186         0.4954      -110.6577      -75.28365      0.3434562              0
      7187.0000        10.0151        34.5248        -0.0083        52.8607       48.37656         0.1041         0.1178        30.8439         0.4396      -110.0298      -74.76863      0.3271608              0
      7187.5000        10.0485        34.2036        -0.0064        51.7404       47.13266         0.0992         0.1158        30.7785         0.3711      -108.8778      -73.82199      0.3006949              0
      7188.0000        10.0681        33.8953        -0.0037        51.0502       46.36666          0.096         0.1154        30.5423         0.2998      -106.3883      -71.77388       0.284397              0
      7188.5000        10.0696        33.4419         0.0013        50.9563       46.26321         0.0953         0.1165         29.761         0.2428      -101.5107      -67.75911      0.2821959     0.03201272
      7189.0000        10.0607        32.6899         0.0078        51.7255       47.11876         0.1012         0.1212        29.0121         0.1519       -94.2079      -61.74711      0.3003992      0.1178984
      7189.5000        10.0663        31.0185         0.0119        54.5253       50.23054         0.1131         0.1293        28.7941         0.1219       -84.5865      -53.82567      0.3666072      0.2310619
      7190.0000        10.1099        28.4104         0.0144        58.5458       54.69865         0.1401          0.147        28.9974         0.1278       -67.3057       -39.5965      0.4616733      0.4343358
      7190.5000        10.2072        25.7421         0.0158        63.7702       60.50442         0.1848         0.1857        29.4418         0.1903        -50.124      -25.44893      0.5852004      0.6364439
      7191.0000        10.3481        23.3983         0.0178        67.4116       64.55131         0.2547         0.2661        30.4957         0.2756        -39.363      -16.58899      0.6713044      0.7630144
      7191.5000        10.5012        22.0882         0.0207        71.1051       68.65608         0.3494         0.3356        32.1423         0.4324       -30.1777        -9.0267      0.7586401      0.8710471
      7192.0000        10.5967        21.7403         0.0246        74.4308       72.35219         0.4297         0.3955        34.3719         0.5795       -25.2332      -4.956827      0.8372806      0.9291882
      7192.5000        10.6665        22.1273         0.0288         76.629       74.79552         0.5354         0.4472        36.8419         0.6576       -24.5668      -4.410096      0.8892663      0.9369986
      7193.0000        10.7272        23.3548         0.0318         76.826        75.0153         0.6437         0.4863         38.049         0.6449       -26.2142      -5.768848      0.8939425      0.9175879
      7193.5000        10.7825        25.1441         0.0303         75.174       73.18063         0.6963         0.5108        38.5554         0.6015        -33.616      -11.86652      0.8549069      0.8304783
      7194.0000        10.7837         27.569         0.0238        72.9556       70.71662          0.648         0.4929        38.7131         0.5544       -43.7823      -20.24083      0.8024813      0.7108453
      7194.5000        10.6122         30.081         0.0174        70.2207       67.67873         0.5004          0.453        37.9672         0.5549       -57.2087      -31.29993      0.7378452      0.5528581
      7195.0000        10.2443        31.0847         0.0123        68.1938       65.42751         0.3974         0.3928        37.1191         0.5546       -65.3586      -38.01369      0.6899469      0.4569473
      7195.5000        10.0418        30.8788         0.0089        68.1938       65.42839         0.3156         0.3295        36.8727         0.4523       -69.4608      -41.39404      0.6899658      0.4086566
      7196.0000         9.9584        30.5438         0.0067          69.08       66.41395         0.2225         0.2742        37.3301         0.3118        -72.691      -44.05627      0.7109351      0.3706247
      7196.5000         9.9458        30.5074          0.005         69.918       67.34593         0.1661         0.2278        37.1791         0.3551       -74.4635      -45.51805      0.7307645      0.3497421
      7197.0000        10.0063        30.3965         0.0051        68.9871       66.31249         0.1506           0.21        36.5414         0.4216       -74.3025      -45.38753      0.7087764      0.3516068
      7197.5000        10.1219        28.4494         0.0069        68.7086       66.00394         0.1594          0.206         36.379         0.3463       -69.7532      -41.64312      0.7022114      0.4050983
      7198.0000        10.2581         26.307         0.0087        69.8491       67.27204         0.1784         0.2128        37.2911         0.2641       -52.2841      -27.25887      0.7291924      0.6105876
      7198.5000        10.3575        24.8962         0.0102        76.1437       74.26693         0.2076         0.2389        40.3845         0.2434       -42.5042       -19.2069      0.8780198      0.7256157
      7199.0000        10.4178        24.5578         0.0101         78.806       77.22592         0.2284         0.2705        41.9726         0.2793       -39.1178      -16.42017       0.940977      0.7654261
      7199.5000        10.4132        25.8172         0.0086        78.6027       77.00092         0.2382         0.2887        41.6871         0.3275       -44.5552       -20.9001      0.9361898      0.7014272
      7200.0000        10.3409        27.9916         0.0045        74.6588        72.6197         0.2351         0.2928        37.1758         0.3485       -56.2932      -30.56876      0.8429723      0.5633034
      7200.5000        10.0882        30.0107         -0.001        69.1855       66.53914         0.2355         0.2871        34.2275          0.398       -75.3264      -46.24523      0.7135987      0.3393539
