#------------------------------------------------------------------------------
# Created by    : vladimir.rabinovich
# Created on    : 09/19/2023 17:22:18
#------------------------------------------------------------------------------
~Version Information Section
VERS.           2.0     :   CWLS log ASCII Standard - VERSION 2.0
WRAP.           NO      :   One line per depth step
~Well Information Section
#MNEM       .UNIT                                         VALUE :DESCRIPTION
#------------------------------------------------------------------------------
STRT        .FT                                            4012 :START DEPTH
STOP        .FT                                            9352 :STOP DEPTH
STEP        .FT                                             0.5 :STEP      
NULL        .                                           -999.25 :NULL      
COMP        .                                   KERR-MCGEE CORP :COMPANY   
WELL        .                                ST TR 00007-L SE/4 :WELL      
FLD         .                                           WILDCAT :FIELD     
LOC         .                                                   :LOCATION  
CNTY        .                           HIGH ISLAND LARGE BLOCK :LOCATION  
STAT        .                                             TEXAS :STATE     
CTRY        .                                     UNITED STATES :COUNTRY   
SRVC        .                                                   :SERVICE COMPANY
DATE        .                             9/13/2023 11:19:15 AM :LOG DATE  
API         .                                    42708302700000 :API NUMBER
UWI         .                                    42708302700000 :UNIQUE WELL ID
XCOORD      .                                   1285759.2062487 :SURFACE X 
YCOORD      .                                  10728779.4927599 :SURFACE Y 
LAT         .                                        29.5578886 :LATITUDE  
LON         .                                       -94.1158411 :LONGITUDE 
ELEV        .FT                                             125 :ELEVATION VALUE
ELEV_TYPE   .                                                KB :ELEVATION REFERENCE TYPE
~Curve Information Section
#MNEM       .UNIT                                      API CODE :CURVE DESCRIPTION
#------------------------------------------------------------------------------
DEPT        .FT                                                 :DEPTH     
CALI        .IN                                                 :          
CILD        .MMHO                                               :          
DPHI        .%                                                  :          
ILD         .OHMM                                               :          
ILM         .OHMM                                               :          
SFL         .OHMM                                               :          
SP          .MV                                                 :          
SP_NORM     .MV                                                 :SP Normalized
VSH_SP      .V/V                                                :Volume of Shale from SP
~A        DEPTH           CALI           CILD           DPHI            ILD            ILM            SFL             SP        SP_NORM         VSH_SP
# ...
      6132.0000        14.2751       3969.227        37.2975         0.2458         0.2812          0.598      -112.5509       -45.8842      0.3445114
      6132.5000        13.9383       3974.113        34.5286         0.2442         0.2809         0.5805      -112.6182       -45.9515        0.34355
      6133.0000        13.5384       3979.008        33.6534         0.2445         0.2805         0.5913      -112.6853       -46.0186      0.3425914
      6133.5000        13.1615       3983.898        34.6537         0.2462         0.2785          0.599      -112.8624       -46.1957      0.3400614
      6134.0000        12.8732       3988.793        41.1603         0.2479         0.2764         0.6064      -113.1567         -46.49      0.3358571
      6134.5000        12.7511       3993.688        42.5693         0.2497         0.2746          0.609      -113.0568       -46.3901      0.3372843
      6135.0000        12.6871       3998.574        42.1878         0.2504         0.2749         0.6006      -112.3384       -45.6717      0.3475471
      6135.5000        12.6501       3987.141        40.1357          0.251         0.2752         0.5949      -110.9949       -44.3282        0.36674
      6136.0000        12.6471       3958.289        35.8049         0.2516         0.2756         0.5897       -110.153       -43.4863      0.3787671
      6136.5000         12.688        3948.75        33.2066         0.2509         0.2759         0.5858      -110.1279       -43.4612      0.3791257
      6137.0000        12.7903       3945.711        32.2778           0.25         0.2762         0.5819      -110.5243       -43.8576      0.3734628
      6137.5000        12.9931       3947.844        33.3685         0.2491         0.2785         0.5781      -111.0811       -44.4144      0.3655086
      6138.0000         13.314       3944.059        34.2687         0.2499         0.2844         0.5751      -111.1184       -44.4517      0.3649758
      6138.5000        13.6965       3923.105        34.7144         0.2509         0.2904         0.5723      -109.7136       -43.0469      0.3850442
      6139.0000        14.0773       3815.301         34.321          0.256         0.3012         0.5718      -106.7964       -40.1297      0.4267186
      6139.5000        14.1668       3638.457        32.9681         0.2685         0.3138         0.5746      -104.5986       -37.9319      0.4581157
      6140.0000         14.234       3477.898        31.1531         0.2906         0.3313          0.577      -101.8527        -35.186      0.4973429
      6140.5000        13.9515       3053.547        28.5534         0.3152          0.353         0.5789       -95.7538       -29.0871        0.58447
      6141.0000        13.5213       2746.961        25.7211         0.3441         0.3773         0.5676       -91.8967         -25.23      0.6395714
      6141.5000        13.3454       2420.555        24.9056         0.3797         0.4047         0.5538       -87.4326       -20.7659      0.7033443
      6142.0000        13.3103       2229.574        24.6627         0.4174         0.4354         0.5452       -83.0568       -16.3901      0.7658557
      6142.5000        13.2724        2029.57          24.52         0.4563         0.4674         0.5529        -77.041       -10.3743      0.8517957
      6143.0000         13.174        2005.23        24.3969         0.4956         0.5006         0.5728       -64.6573         2.0094              1
      6143.5000        13.1092       2000.086        24.1257         0.5257         0.5232         0.5898       -62.5795         4.0872              1
      6144.0000        13.1363       1996.334        23.7805         0.5526         0.5442          0.598       -61.9272         4.3761              1
      6144.5000        13.2127       1992.584        23.5227         0.5772         0.5619         0.6063       -61.8089         2.9117              1
      6145.0000        13.2743       1990.955        23.3074         0.5929         0.5702         0.6148       -61.7434         1.3944              1
      6145.5000        13.3227       1989.998        23.0922         0.5972         0.5554         0.6233        -61.633        -0.0779      0.9988871
      6146.0000        13.5073       1990.021        23.1531         0.5979         0.5413          0.632       -61.5203        -1.5479      0.9778872
      6146.5000        13.5428       1990.555        23.3812         0.6085         0.5319         0.6408       -61.4561        -3.0665      0.9561929
      6147.0000        13.5428       1985.457        23.7927         0.5824         0.5238         0.6341       -61.5234        -3.9313      0.9438386
      6147.5000        13.5428       1975.789         23.916         0.5619         0.5167         0.6252       -61.5906        -3.7108      0.9469886
      6148.0000        13.5375       1974.318        23.9686          0.546         0.5159         0.6141       -61.5366         -3.369      0.9518715
      6148.5000        13.5303       1984.486         23.754         0.5328          0.515         0.6113       -61.4363        -2.9809      0.9574157
      6149.0000         13.527       1993.896        23.8575         0.5202         0.5149          0.619       -61.3361         -2.593      0.9629571
      6149.5000        13.5323       1998.633        24.0556         0.5143         0.5155         0.6265        -61.294        -2.2631        0.96767
      6150.0000        13.5376       1998.836        24.1541         0.5084         0.5161         0.6226       -61.2913        -1.9726        0.97182
      6150.5000        13.5465       1999.039        24.1028          0.504         0.5167         0.6139       -61.2885        -1.6821        0.97597
      6151.0000        13.5592       1978.365        24.0515         0.5014         0.5173          0.598       -61.2879        -1.3937        0.98009
      6151.5000        13.5705       1952.531        23.9281         0.4987         0.5167         0.6012       -61.3115        -1.1295      0.9838643
      6152.0000        13.5756       1925.689        23.7557         0.4991         0.5148         0.6202       -61.3351        -0.8653      0.9876386
      6152.5000        13.5806        1898.85        23.5833         0.5009         0.5129         0.6419       -61.3588        -0.6013        0.99141
      6153.0000        13.5873       1889.195        23.2635         0.5027         0.5117         0.6509       -61.2949        -0.2496      0.9964343
      6153.5000        13.6055       1880.104        22.8513         0.5061         0.5112         0.6525       -61.2172         0.1159              1
      6154.0000        13.6305       1876.313        22.4395         0.5104         0.5107         0.6445       -61.1396         0.4812              1
      6154.5000        13.7067       1875.355        21.9588         0.5148         0.5102         0.6366       -61.0237         0.8849              1
      6155.0000        13.8179       1874.396        21.6221         0.5187         0.5096         0.6286        -60.903         1.2934              1
      6155.5000        13.9198       1873.439        21.9806         0.5204         0.5091         0.6217       -60.7899         1.6942              1
      6156.0000        13.9857        1872.48         22.668         0.5207         0.5085          0.616       -60.6869          2.085              1
      6156.5000        14.0204       1875.236        23.3128         0.5196         0.5096         0.6191       -60.6558         2.4039              1
      6157.0000        14.0437       1878.313        23.8096         0.5184         0.5107         0.6262       -60.7258         2.6217              1
      6157.5000        14.0371       1885.563        23.5362          0.517         0.5118         0.6334       -61.0878         2.5474              1
      6158.0000        14.0257        1895.77        23.2659         0.5156         0.5127         0.6478       -61.5381         2.3849              1
