#------------------------------------------------------------------------------
# Created by    : vladimir.rabinovich
# Created on    : 09/19/2023 17:20:38
#------------------------------------------------------------------------------
~Version Information Section
VERS.           2.0     :   CWLS log ASCII Standard - VERSION 2.0
WRAP.           NO      :   One line per depth step
~Well Information Section
#MNEM       .UNIT                                         VALUE :DESCRIPTION
#------------------------------------------------------------------------------
STRT        .FT                                             510 :START DEPTH
STOP        .FT                                            8711 :STOP DEPTH
STEP        .FT                                             0.5 :STEP      
NULL        .                                           -999.25 :NULL      
COMP        .                                      SHELL OIL CO :COMPANY   
WELL        .                                OCS 00708 ST00BP00 :WELL      
FLD         .                                           WILDCAT :FIELD     
LOC         .                                                   :LOCATION  
CNTY        .                             GALVESTON LARGE BLOCK :LOCATION  
STAT        .                                             TEXAS :STATE     
CTRY        .                                     UNITED STATES :COUNTRY   
SRVC        .                                                   :SERVICE COMPANY
DATE        .                             9/13/2023 11:19:25 AM :LOG DATE  
API         .                                    42706000300000 :API NUMBER
UWI         .                                    42706000300000 :UNIQUE WELL ID
XCOORD      .                                  1082576.09526943 :SURFACE X 
YCOORD      .                                  10493698.2734572 :SURFACE Y 
LAT         .                                         28.904546 :LATITUDE  
LON         .                                        -94.743912 :LONGITUDE 
ELEV        .FT                                              92 :ELEVATION VALUE
ELEV_TYPE   .                                                KB :ELEVATION REFERENCE TYPE
~Curve Information Section
#MNEM       .UNIT                                      API CODE :CURVE DESCRIPTION
#------------------------------------------------------------------------------
DEPT        .FT                                                 :DEPTH     
ASN         .OHMM                                               :          
CILD        .MMHO                                               :          
DT          .US/F                                               :          
ILD         .OHMM                                               :          
SP          .MV                                                 :          
SP_NORM     .MV                                                 :SP Normalized
VSH_SP      .V/V                                                :Volume of Shale from SP
~A        DEPTH            ASN           CILD             DT            ILD             SP        SP_NORM         VSH_SP
# ...
      4329.0000         1.0768       991.9834       132.3324         1.1609       -61.8993      -5.701942      0.9139083
      4329.5000         1.0823       988.6465       134.2579         1.1668       -61.7648      -5.560417      0.9171996
      4330.0000         1.0879       986.0391       135.9353         1.1727        -61.485       -5.27359        0.92387
      4330.5000         1.0935       983.4336       137.6673         1.1599       -61.2053      -4.986862      0.9305381
      4331.0000         1.0993        980.873       137.5625         1.1423       -60.9255      -4.700035      0.9372085
      4331.5000         1.0929       990.0977       136.8325         1.1247       -60.4119      -4.179409      0.9493161
      4332.0000         1.0762       1008.973       136.7989         1.1073       -59.5738      -3.334282      0.9689702
      4332.5000         1.0598       1034.303       137.2437          1.091       -58.9178      -2.671257      0.9843894
      4333.0000         1.0434       1059.297       138.7324         1.0747       -58.3786      -2.125031      0.9970923
      4333.5000         1.0263       1083.641        141.048         1.0584       -57.8391      -1.578503              1
      4334.0000         1.0065        1121.01       142.0779         1.0421       -57.3877      -1.120075              1
      4334.5000         0.9868       1185.725        142.334         1.0258       -57.0753     -0.8006477              1
      4335.0000         0.9671       1226.949       142.3924         1.0094       -56.7626     -0.4809227              1
      4335.5000         0.9475       1280.344       141.7994         0.9931       -56.6976     -0.4088974              1
      4336.0000         0.9309       1327.688       141.4603         0.9768       -57.0533     -0.7575684              1
      4336.5000         0.9171       1355.596       141.6017         0.9631       -57.4091      -1.106342              1
      4337.0000         0.9065       1386.105       142.2471         0.9498       -57.7255      -1.415714              1
      4337.5000         0.8992        1407.07       143.7945         0.9365       -57.8226      -1.505791              1
      4338.0000         0.8919       1417.836       146.3687         0.9231        -57.818      -1.494164              1
      4338.5000          0.888       1426.572       148.0447         0.9098       -57.6156      -1.284737              1
      4339.0000          0.886       1430.895       148.1844         0.8965       -57.4133      -1.075409              1
      4339.5000          0.884       1434.215       147.5559          0.892       -57.2108     -0.8658829              1
      4340.0000         0.8865       1435.316       146.3687         0.8875       -57.6179      -1.265957              1
      4340.5000         0.8901       1432.271       146.2906          0.883       -58.0789      -1.719929              1
      4341.0000         0.8937       1420.066        145.374         0.8819       -58.5399      -2.173904      0.9959557
      4341.5000         0.8973       1402.604       145.0419         0.8985       -58.9037      -2.530678      0.9876587
      4342.0000         0.9009       1373.463       145.3667         0.9151         -59.17      -2.789948      0.9816291
      4342.5000         0.9086        1343.58       145.6704         0.9317       -59.2587      -2.871624      0.9797297
      4343.0000         0.9191       1307.244       145.0822         0.9483         -59.16      -2.765896      0.9821885
      4343.5000         0.9297       1275.189       144.9369         0.9649       -59.0613      -2.660168      0.9846473
      4344.0000         0.9408       1235.871       144.7098         0.9815       -59.2023      -2.794144      0.9815316
      4344.5000         0.9524       1209.486       143.9948         0.9981       -59.3789      -2.963715      0.9775881
      4345.0000          0.964        1190.08       142.4785         1.0081       -59.5479       -3.12569      0.9738212
      4345.5000         0.9877       1184.469       140.2416         1.0118       -59.5797      -3.150463       0.973245
      4346.0000         1.0035       1189.844       138.8459         1.0155       -59.6114       -3.17514      0.9726712
      4346.5000         0.9944        1198.66       139.5553         1.0193       -59.6431      -3.199814      0.9720973
      4347.0000         0.9853       1209.834        140.757         1.0162       -59.6749      -3.224586      0.9715213
      4347.5000         0.9763       1222.891       141.9444         1.0057       -59.5091      -3.051762      0.9755404
      4348.0000         0.9671       1235.949       143.5071         0.9952       -59.3022      -2.837833      0.9805155
      4348.5000         0.9576        1245.33       146.5903         0.9847       -59.0952      -2.623806      0.9854929
      4349.0000          0.948       1253.496       149.1015         0.9742       -58.8884      -2.409981      0.9904656
      4349.5000         0.9385       1236.543       149.8054         0.9714       -58.8315      -2.346054      0.9919522
      4350.0000         0.9601       1213.588       146.2725         0.9791        -58.874      -2.381527      0.9911273
      4350.5000         0.9976       1194.221       142.3184         0.9868       -59.1857      -2.686199      0.9840419
      4351.0000         1.0315       1177.699       141.1313         0.9945       -59.5004      -2.993874      0.9768867
      4351.5000         1.0478       1165.299       142.1788         1.0022       -59.6957      -3.182148      0.9725082
      4352.0000         1.0393       1156.084       143.0168         1.0093       -59.6934      -3.172821      0.9727251
      4352.5000         1.0308       1146.871       143.2961          1.014       -59.7104      -3.182793      0.9724932
      4353.0000         1.0223       1152.051       144.1997         1.0186       -59.8275      -3.292866      0.9699333
      4353.5000         1.0138       1161.537       147.3342         1.0232       -60.1533      -3.611641        0.96252
      4354.0000         1.0063       1171.025       149.2318         1.0257       -60.3835      -3.834812      0.9573299
      4354.5000          0.999       1202.291       147.1064         1.0157        -59.985      -3.429287      0.9667608
      4355.0000         0.9917       1243.762       146.0894         1.0058       -59.5862       -3.02346      0.9761986
      4355.5000         0.9844       1273.014       148.4627         0.9959       -59.2759      -2.706135      0.9835783
      4356.0000         0.9772       1286.004       147.5308          0.986       -59.1483      -2.571507      0.9867092
      4356.5000         0.9699       1294.166       145.9579         0.9761       -59.0898      -2.505981       0.988233
      4357.0000         0.9641       1298.221       145.0849         0.9668       -59.1823      -2.591454      0.9862453
      4357.5000         0.9596       1299.615       144.5517         0.9641       -59.2747      -2.676826      0.9842598
      4358.0000          0.955       1300.486       143.6964         0.9615       -59.3671      -2.762199      0.9822744
      4358.5000         0.9505       1299.168       142.9043         0.9588       -59.1472      -2.535275      0.9875517
      4359.0000         0.9507       1290.588       142.1033         0.9564       -58.8901      -2.271145      0.9936943
      4359.5000         0.9617       1275.771       141.9514         0.9546        -58.633      -2.007019      0.9998367
      4360.0000         0.9726       1240.893       142.1089         0.9627       -58.3759      -1.742893              1
      4360.5000         0.9835       1182.811       142.6806         0.9839       -58.1188      -1.478767              1
      4361.0000         0.9945       1144.883       143.7654         1.0051       -57.9118       -1.26474              1
      4361.5000         1.0111        1128.07       144.9286         1.0262        -57.957      -1.302914              1
      4362.0000         1.0284       1112.166        145.776         1.0463       -58.2745      -1.613388              1
