#------------------------------------------------------------------------------
# Created by    : vladimir.rabinovich
# Created on    : 09/19/2023 17:22:15
#------------------------------------------------------------------------------
~Version Information Section
VERS.           2.0     :   CWLS log ASCII Standard - VERSION 2.0
WRAP.           NO      :   One line per depth step
~Well Information Section
#MNEM       .UNIT                                         VALUE :DESCRIPTION
#------------------------------------------------------------------------------
STRT        .FT                                              41 :START DEPTH
STOP        .FT                                            7991 :STOP DEPTH
STEP        .FT                                             0.5 :STEP      
NULL        .                                           -999.25 :NULL      
COMP        .                           ENERGY DEVELOPMENT CORP :COMPANY   
WELL        .                               OCS G11200 ST00BP00 :WELL      
FLD         .                                           WILDCAT :FIELD     
LOC         .                                                   :LOCATION  
CNTY        .                    NORTH PADRE ISLAND LARGE BLOCK :LOCATION  
STAT        .                                             TEXAS :STATE     
CTRY        .                                     UNITED STATES :COUNTRY   
SRVC        .                                                   :SERVICE COMPANY
DATE        .                             9/13/2023 11:18:55 AM :LOG DATE  
API         .                                    42701400410000 :API NUMBER
UWI         .                                    42701400410000 :UNIQUE WELL ID
XCOORD      .                                   309944.09600436 :SURFACE X 
YCOORD      .                                  9740515.29665267 :SURFACE Y 
LAT         .                                          26.78454 :LATITUDE  
LON         .                                        -97.077486 :LONGITUDE 
ELEV        .FT                                              91 :ELEVATION VALUE
ELEV_TYPE   .                                                KB :ELEVATION REFERENCE TYPE
~Curve Information Section
#MNEM       .UNIT                                      API CODE :CURVE DESCRIPTION
#------------------------------------------------------------------------------
DEPT        .FT                                                 :DEPTH     
CALI        .IN                                                 :          
DRHO        .G/C3                                               :          
DT          .US/F                                               :          
GR          .GAPI                                               :          
GR_NORM     .GAPI                                               :GammaRay Normalized
ILD         .OHMM                                               :          
ILM         .OHMM                                               :          
NPHI        .%                                                  :          
RFOC        .OHMM                                               :          
RHOB        .G/C3                                               :          
SP          .MV                                                 :          
SP_NORM     .MV                                                 :SP Normalized
VSH_GR      .V/V                                                :Volume of Shale from GR
VSH_SP      .V/V                                                :Volume of Shale from SP
~A        DEPTH           CALI           DRHO             DT             GR        GR_NORM            ILD            ILM           NPHI           RFOC           RHOB             SP        SP_NORM         VSH_GR         VSH_SP
# ...
      7943.0000        10.1443         0.0514        96.9177        -999.25        -999.25         0.9804         1.0094        -999.25         1.0935         2.3101       -34.8485       1.296082        -999.25              1
      7943.5000         10.098         0.0332        93.2054        -999.25        -999.25         1.0156         1.0255        -999.25          1.087         2.2928       -34.6558       1.488781        -999.25              1
      7944.0000        10.0702        -0.4987        90.8195        -999.25        -999.25         1.0587         1.0951        -999.25         1.0563          1.701       -35.7454      0.3991814        -999.25              1
      7944.5000        10.0598        -999.25        90.1085        -999.25        -999.25         1.1049         1.1401        -999.25         1.0937        -999.25        -37.261      -1.116421        -999.25      0.9980268
      7945.0000        10.0557        -999.25        89.4523        -999.25        -999.25          1.128         1.1179        -999.25         1.2145        -999.25       -37.7858       -1.64122        -999.25      0.9891319
      7945.5000         10.042        -999.25         88.528        -999.25        -999.25         1.0999         1.0721        -999.25         1.2473        -999.25       -37.2741       -1.12952        -999.25      0.9978048
      7946.0000        10.0298        -999.25        87.6422        -999.25        -999.25         1.0516         1.0342        -999.25         1.1999        -999.25       -36.7393     -0.5947189        -999.25              1
      7946.5000        10.0223        -999.25        88.5081        -999.25        -999.25         1.0125         1.0168        -999.25          1.114        -999.25       -36.6625     -0.5179176        -999.25              1
      7947.0000        10.0381        -999.25        91.5684        -999.25        -999.25          0.992         1.0048        -999.25          1.029        -999.25       -36.7925     -0.6479187        -999.25              1
      7947.5000         10.069        -999.25        92.9928        -999.25        -999.25         0.9767         0.9877        -999.25          0.974        -999.25       -37.0233     -0.8787193        -999.25              1
      7948.0000        10.0243        -999.25        92.1766        -999.25        -999.25         0.9481         0.9721        -999.25         1.0006        -999.25       -37.3279      -1.183319        -999.25      0.9968929
      7948.5000         9.5803        -999.25        92.2498        -999.25        -999.25         0.9195         0.9573        -999.25         0.9883        -999.25       -37.6989      -1.554317        -999.25      0.9906048
      7949.0000         8.1692        -999.25        92.5107        -999.25        -999.25         0.8888         0.9517        -999.25         0.9642        -999.25       -38.0485      -1.903919        -999.25      0.9846793
      7949.5000        -999.25        -999.25        92.6631        -999.25        -999.25         0.8746         0.9461        -999.25         0.9695        -999.25       -39.4483      -3.303719        -999.25       0.960954
      7950.0000        -999.25        -999.25        91.5037        -999.25        -999.25         0.8712         0.9397        -999.25         1.0934        -999.25       -42.3606      -6.216019        -999.25      0.9115929
      7950.5000        -999.25        -999.25        88.8477        -999.25        -999.25         0.8717         0.9339        -999.25         1.1779        -999.25       -44.9977      -8.853119        -999.25      0.8668963
      7951.0000        -999.25        -999.25        87.6981        -999.25        -999.25          0.874          0.931        -999.25         1.1413        -999.25         -48.04      -11.89542        -999.25      0.8153319
      7951.5000        -999.25        -999.25        87.4403        -999.25        -999.25         0.8793         0.9264        -999.25         1.0028        -999.25        -49.899      -13.75442        -999.25      0.7838234
      7952.0000        -999.25        -999.25        86.5972        -999.25        -999.25         0.8858         0.9192        -999.25         1.0643        -999.25       -51.1512      -15.00662        -999.25      0.7625997
      7952.5000        -999.25        -999.25         80.611        -999.25        -999.25         0.8925          0.916        -999.25         1.4678        -999.25        -51.676      -15.53142        -999.25      0.7537048
      7953.0000        -999.25        -999.25        76.7296        -999.25        -999.25         0.8993         0.9163        -999.25         1.8921        -999.25       -50.6633      -14.51872        -999.25      0.7708692
      7953.5000        -999.25        -999.25        75.8015        -999.25        -999.25         0.9061         0.9224        -999.25         1.8697        -999.25        -48.608      -12.46342        -999.25      0.8057047
      7954.0000        -999.25        -999.25        80.4617        -999.25        -999.25         0.9129         0.9321        -999.25         1.4484        -999.25        -46.111      -9.966419        -999.25      0.8480268
      7954.5000        -999.25        -999.25        86.1245        -999.25        -999.25         0.9055         0.9324        -999.25          1.037        -999.25       -43.8292       -7.68462        -999.25      0.8867013
      7955.0000        -999.25        -999.25        90.9662        -999.25        -999.25         0.8697         0.8833        -999.25         0.8872        -999.25       -42.3105       -6.16592        -999.25       0.912442
      7955.5000        -999.25        -999.25        95.4274        -999.25        -999.25         0.8046         0.8049        -999.25         0.8476        -999.25       -41.7076      -5.563019        -999.25      0.9226607
      7956.0000        -999.25        -999.25        97.4501        -999.25        -999.25         0.7352         0.7558        -999.25         0.8324        -999.25       -41.8252      -5.680618        -999.25      0.9206675
      7956.5000        -999.25        -999.25        97.7288        -999.25        -999.25         0.6732         0.7008        -999.25         0.8929        -999.25       -43.4915       -7.34692        -999.25      0.8924251
      7957.0000        -999.25        -999.25        96.2808        -999.25        -999.25         0.5974         0.6469        -999.25         0.9991        -999.25       -48.1851      -12.04052        -999.25      0.8128725
      7957.5000        -999.25        -999.25        94.6934        -999.25        -999.25         0.5298          0.593        -999.25         1.0102        -999.25       -56.2914      -20.14682        -999.25      0.6754776
      7958.0000        -999.25        -999.25        92.9716        -999.25        -999.25         0.4752         0.5417        -999.25         0.9401        -999.25       -62.0359      -25.89132        -999.25      0.5781133
      7958.5000        -999.25        -999.25         91.123        -999.25        -999.25         0.4384         0.4962        -999.25         0.9155        -999.25       -71.1731      -35.02852        -999.25      0.4232454
      7959.0000        -999.25        -999.25        88.9534        -999.25        -999.25          0.415         0.4659        -999.25         0.9745        -999.25       -76.9525      -40.80792        -999.25      0.3252895
      7959.5000        -999.25        -999.25        86.2141        -999.25        -999.25         0.3992         0.4525        -999.25         1.0222        -999.25        -80.075      -43.93042        -999.25      0.2723658
      7960.0000        -999.25        -999.25        83.9421        -999.25        -999.25         0.3899         0.4477        -999.25         0.9802        -999.25       -81.7075      -45.56292        -999.25      0.2446963
      7960.5000        -999.25        -999.25        84.7312        -999.25        -999.25         0.3976         0.4578        -999.25         0.8639        -999.25       -81.5862      -45.44162        -999.25      0.2467523
