#------------------------------------------------------------------------------
# Created by    : vladimir.rabinovich
# Created on    : 09/19/2023 17:19:38
#------------------------------------------------------------------------------
~Version Information Section
VERS.           2.0     :   CWLS log ASCII Standard - VERSION 2.0
WRAP.           NO      :   One line per depth step
~Well Information Section
#MNEM       .UNIT                                         VALUE :DESCRIPTION
#------------------------------------------------------------------------------
STRT        .FT                                            9400 :START DEPTH
STOP        .FT                                           17100 :STOP DEPTH
STEP        .FT                                             0.5 :STEP      
NULL        .                                           -999.25 :NULL      
COMP        .                                   FOREST OIL CORP :COMPANY   
WELL        .                               OCS G18937 ST00BP00 :WELL      
FLD         .                            HIGH ISLAND BLOCK 0116 :FIELD     
LOC         .                                                   :LOCATION  
CNTY        .                           HIGH ISLAND LARGE BLOCK :LOCATION  
STAT        .                                             TEXAS :STATE     
CTRY        .                                     UNITED STATES :COUNTRY   
SRVC        .                                                   :SERVICE COMPANY
DATE        .                             9/13/2023 11:19:48 AM :LOG DATE  
API         .                                    42708405250000 :API NUMBER
UWI         .                                    42708405250000 :UNIQUE WELL ID
XCOORD      .                                  1337259.97993026 :SURFACE X 
YCOORD      .                                  10628189.4209318 :SURFACE Y 
LAT         .                                         29.282461 :LATITUDE  
LON         .                                        -93.951246 :LONGITUDE 
ELEV        .FT                                              93 :ELEVATION VALUE
ELEV_TYPE   .                                                KB :ELEVATION REFERENCE TYPE
~Curve Information Section
#MNEM       .UNIT                                      API CODE :CURVE DESCRIPTION
#------------------------------------------------------------------------------
DEPT        .FT                                                 :DEPTH     
AHT10       .OHMM                                               :          
AHT20       .OHMM                                               :          
AHT30       .OHMM                                               :          
AHT60       .OHMM                                               :          
AHT90       .OHMM                                               :          
CALI        .IN                                                 :          
COND        .MMHO                                               :          
DTCO        .US/F                                               :          
GR          .GAPI                                               :          
GR_NORM     .GAPI                                               :GammaRay Normalized
HDRA        .G/CC                                               :          
NPOR        .FRAC                                               :          
RHOZ        .G/CC                                               :          
VSH_GR      .V/V                                                :Volume of Shale from GR
~A        DEPTH          AHT10          AHT20          AHT30          AHT60          AHT90           CALI           COND           DTCO             GR        GR_NORM           HDRA           NPOR           RHOZ         VSH_GR
# ...
     10426.0000          1.721          1.243          1.029          0.875          0.815          9.695       1226.994         87.677         54.245       68.60818         -0.004          0.227          2.467      0.7576208
     10426.5000           2.06          1.439          1.166          0.966          0.897          9.613       1114.827         85.445          52.05       66.30344         -0.001          0.205          2.471      0.7085838
     10427.0000          2.132          1.499          1.218          0.981          0.913          9.413        1095.29         87.253         53.545       67.87318          0.001          0.195          2.484      0.7419826
     10427.5000          1.878          1.375          1.147          0.914          0.857          9.377       1166.861          90.04         56.407       70.87829          0.002           0.22          2.493       0.805921
     10428.0000          1.599          1.217          1.054          0.835          0.789          9.413       1267.427          94.18         60.717       75.40379         -0.001          0.263          2.482      0.9022082
     10428.5000          1.468          1.137          0.983          0.773          0.735           9.46       1360.544          99.79         60.881       75.57598         -0.003          0.278          2.473      0.9058719
     10429.0000          1.398          1.074          0.921          0.726          0.693          9.483       1443.001         103.99           65.4       80.32093         -0.004          0.294          2.466              1
     10429.5000          1.298          0.989          0.873          0.696          0.666          9.472       1501.501        107.456         66.229       81.19139          0.001          0.336          2.459              1
     10430.0000          1.206          0.923          0.852          0.677           0.65          9.472       1538.462        106.008         69.831       84.97349         -0.001          0.366          2.441              1
     10430.5000          1.299          0.951          0.889          0.707          0.677          9.566       1477.105        103.182          67.12       82.12694         -0.002          0.396          2.438              1
     10431.0000            1.6           1.12          0.996          0.796          0.758          9.613       1319.261        101.137         59.818       74.45984         -0.008           0.37          2.461      0.8821242
     10431.5000          1.587          1.167          1.002          0.817          0.777          9.472       1287.001         99.952         50.663       64.84708         -0.007          0.217          2.497      0.6775975
     10432.0000          1.166           0.94          0.833          0.709          0.677          9.542       1477.105         98.603         47.198       61.20884         -0.004          0.165          2.514      0.6001881
     10432.5000          0.886          0.746          0.698          0.611          0.587          9.613       1703.578         96.744          47.94       61.98794         -0.002          0.277          2.485      0.6167647
     10433.0000          0.877           0.75          0.694          0.612          0.587          9.589       1703.578         96.047          48.81       62.90144         -0.003          0.346          2.427      0.6362008
     10433.5000           0.95          0.801          0.738          0.647          0.618          9.578       1618.123         98.398         47.353       61.37158         -0.005           0.27          2.374      0.6036507
     10434.0000          0.913          0.758          0.722          0.637          0.607          9.495       1647.447        100.266         43.746       57.58423         -0.005          0.257          2.348      0.5230688
     10434.5000          0.789          0.682          0.663          0.597          0.569          9.472       1757.469         99.493         46.157       60.11579          0.001          0.305          2.335      0.5769317
     10435.0000          0.744          0.661          0.637          0.582          0.554          9.507       1805.054        101.559         47.915       61.96169          0.005          0.305          2.316      0.6162062
     10435.5000           0.77          0.673           0.64          0.594          0.563           9.46       1776.199        102.294         47.454       61.47764          0.012          0.308          2.295      0.6059072
     10436.0000          0.753          0.667          0.631          0.595          0.563          9.389       1776.199        103.073          48.52       62.59694          0.011           0.31           2.29       0.629722
     10436.5000          0.699          0.637          0.608          0.585          0.552          9.448       1811.594        105.601         52.232       66.49453          0.004          0.317          2.306      0.7126496
     10437.0000          0.672          0.618          0.596          0.591          0.555         10.061       1801.802        107.877         58.409       72.98038              0           0.35          2.349      0.8506465
     10437.5000          0.685          0.636          0.615          0.618          0.577          9.684       1733.102        108.582         61.711       76.44749          0.005          0.387           2.44      0.9244146
     10438.0000          0.723          0.677          0.649           0.65          0.601          9.519       1663.893        109.895         60.861       75.55499          0.005          0.315          2.478      0.9054254
     10438.5000          0.763          0.731          0.683          0.682          0.626          9.377       1597.444        109.589         59.676       74.31073          0.004          0.336          2.479      0.8789517
     10439.0000          0.789          0.758          0.701          0.698          0.637          9.366       1569.859         109.48         62.706       77.49223         -0.005          0.347          2.416      0.9466432
     10439.5000          0.769          0.728          0.687          0.679          0.618          9.424       1618.123        109.229         59.843       74.48609         -0.007           0.31          2.389      0.8826828
     10440.0000          0.731          0.703          0.662           0.65          0.592          9.472       1689.189         108.74         61.028       75.73035         -0.006          0.333          2.374      0.9091563
     10440.5000          0.744          0.721          0.653           0.64          0.582           9.46       1718.213        109.093         59.135       73.74268         -0.006          0.336          2.368      0.8668656
     10441.0000           0.79          0.749           0.66          0.642          0.582           9.46       1718.213        109.456         59.587        74.2173          0.003          0.329          2.354      0.8769639
     10441.5000          0.772          0.714          0.631          0.618          0.561          9.448       1782.531        106.589         62.464       77.23814           0.01          0.333          2.337      0.9412371
     10442.0000          0.722          0.664          0.598          0.596          0.542          9.389       1845.018        105.031         59.822       74.46404          0.013          0.288          2.332      0.8822135
     10442.5000          0.818           0.75          0.661          0.664          0.597          9.424       1675.042         96.971         64.739       79.62688          0.008          0.336          2.372      0.9920614
     10443.0000          1.293          1.092          0.878          0.869          0.757          9.424       1321.004         94.549         55.384       69.80415              0          0.346          2.408      0.7830669
     10443.5000          1.743          1.384          1.035          1.023          0.874          9.342       1144.165         95.407         50.111       64.26749         -0.004          0.201          2.433      0.6652657
