#------------------------------------------------------------------------------
# Created by    : vladimir.rabinovich
# Created on    : 09/19/2023 17:20:04
#------------------------------------------------------------------------------
~Version Information Section
VERS.           2.0     :   CWLS log ASCII Standard - VERSION 2.0
WRAP.           NO      :   One line per depth step
~Well Information Section
#MNEM       .UNIT                                         VALUE :DESCRIPTION
#------------------------------------------------------------------------------
STRT        .FT                                             723 :START DEPTH
STOP        .FT                                            8219 :STOP DEPTH
STEP        .FT                                             0.5 :STEP      
NULL        .                                           -999.25 :NULL      
COMP        .                                    MOBIL OIL CORP :COMPANY   
WELL        .                               OCS G02338 ST00BP00 :WELL      
FLD         .                                           WILDCAT :FIELD     
LOC         .                                                   :LOCATION  
CNTY        .                             GALVESTON LARGE BLOCK :LOCATION  
STAT        .                                             TEXAS :STATE     
CTRY        .                                     UNITED STATES :COUNTRY   
SRVC        .                                                   :SERVICE COMPANY
DATE        .                             9/13/2023 11:18:53 AM :LOG DATE  
API         .                                    42706400200000 :API NUMBER
UWI         .                                    42706400200000 :UNIQUE WELL ID
XCOORD      .                                  941616.333010477 :SURFACE X 
YCOORD      .                                  10405518.1254327 :SURFACE Y 
LAT         .                                         28.655687 :LATITUDE  
LON         .                                        -95.179294 :LONGITUDE 
ELEV        .FT                                              84 :ELEVATION VALUE
ELEV_TYPE   .                                                KB :ELEVATION REFERENCE TYPE
~Curve Information Section
#MNEM       .UNIT                                      API CODE :CURVE DESCRIPTION
#------------------------------------------------------------------------------
DEPT        .FT                                                 :DEPTH     
ASFL        .OHMM                                               :          
CALI        .IN                                                 :          
CILD        .MMHO                                               :          
DPHI        .%                                                  :          
DT          .US/F                                               :          
GR          .GAPI                                               :          
GR_1        .GAPI                                               :          
GR_NORM     .GAPI                                               :GammaRay Normalized
ILD         .OHMM                                               :          
NPHI        .DEC                                                :          
SP          .MV                                                 :          
SP_NORM     .MV                                                 :SP Normalized
VSH_GR      .V/V                                                :Volume of Shale from GR
VSH_SP      .V/V                                                :Volume of Shale from SP
~A        DEPTH           ASFL           CALI           CILD           DPHI             DT             GR           GR_1        GR_NORM            ILD           NPHI             SP        SP_NORM         VSH_GR         VSH_SP
# ...
      1731.0000          1.997        11.4335       609.7656        -999.25       153.2185        49.7712        -999.25       37.01107         1.7459        -999.25        46.0708       -35.9354     0.08534184     0.00184566
      1731.5000         1.9979        11.4328       606.9053        -999.25       152.7119        49.4965        -999.25       36.66335         1.7604        -999.25        46.1366       -35.8713      0.0779436    0.003677041
      1732.0000         1.9989        11.4305       604.0459        -999.25       154.8452        49.2216        -999.25       36.31537         1.7749        -999.25         47.068       -34.9416     0.07053976     0.03024009
      1732.5000         1.9996        11.4282       601.1855        -999.25       161.8865        48.9468        -999.25       35.96752         1.7894        -999.25        47.9287      -34.08259     0.06313876     0.05478309
      1733.0000         1.9997        11.4259       605.0488        -999.25       166.7422         48.672        -999.25       35.61967         1.8044        -999.25        47.9592      -34.05378     0.05573776     0.05560619
      1733.5000         1.9998        11.4287       610.7822        -999.25       164.4409        48.3972        -999.25       35.27182         1.8128        -999.25        47.7654      -34.24929     0.04833668     0.05002038
      1734.0000         1.9999        11.4352       617.8516        -999.25        157.624        48.1817        -999.25       34.99993         1.8041        -999.25         48.246      -33.77038     0.04255165     0.06370337
      1734.5000              2        11.4416       624.9229        -999.25       150.9514        47.9764        -999.25        34.7411         1.7953        -999.25        48.8562      -33.16187     0.03704469     0.08108935
      1735.0000         2.0001         11.448       631.9922        -999.25       149.9561        47.7712        -999.25       34.48239         1.7866        -999.25        49.4897      -32.53007     0.03154016     0.09914093
      1735.5000         2.0002        11.4539       639.0635        -999.25       150.6921         47.566        -999.25       34.22369         1.7778        -999.25        50.1305      -31.89097     0.02603596      0.1174009
      1736.0000         2.0003        11.4592       646.1338        -999.25       152.2058        47.3608        -999.25       33.96498         1.7675        -999.25        50.1936      -31.82956     0.02053143      0.1191553
      1736.5000         2.0004        11.4646       653.2051        -999.25        155.594        47.1555        -999.25       33.70615         1.7567        -999.25        49.9475      -32.07736     0.01502439      0.1120755
      1737.0000         2.0002        11.4699       660.2744        -999.25       161.8494        46.9509        -999.25       33.44822         1.7459        -999.25        49.4929      -32.53366    0.009536581     0.09903837
      1737.5000         2.0001        11.4752       665.2656        -999.25       162.5264        46.8776        -999.25       33.35845         1.7351        -999.25        49.0625      -32.96575    0.007626554     0.08669281
      1738.0000              2        11.4806       668.1953        -999.25       163.1743        46.8043        -999.25       33.26868         1.7243        -999.25        49.2108      -32.81915    0.005716608     0.09088156
      1738.5000         1.9999        11.4842        671.124        -999.25       164.3057         46.731        -999.25       33.17892         1.7135        -999.25        49.2545      -32.77714    0.003806824     0.09208178
      1739.0000         1.9998         11.481       674.0547        -999.25       166.3032        46.6577        -999.25       33.08915         1.7027        -999.25        48.8883      -33.14504    0.001896878     0.08157033
      1739.5000         1.9997        11.4778       676.9844        -999.25       163.2556        46.5844        -999.25       32.99939         1.6919        -999.25        48.4434      -33.59163              0     0.06881049
      1740.0000         1.9996        11.4746       679.9131        -999.25        154.448         46.511        -999.25        32.9095         1.6812        -999.25        47.8446      -34.19213              0     0.05165351
      1740.5000         1.9992        11.4714       682.8428        -999.25       150.1958        46.4956        -999.25        32.8939         1.6705        -999.25        47.1652      -34.87322              0     0.03219365
      1741.0000         1.9988        11.4682       685.7734        -999.25       151.1384        46.5782        -999.25       33.00381         1.6599        -999.25        47.6409      -34.39922  0.00008116377     0.04573648
      1741.5000         1.9984        11.4659       691.5518        -999.25        155.387        46.6607        -999.25        33.1136         1.6492        -999.25        47.1935      -34.84832    0.002416976     0.03290525
      1742.0000          1.998        11.4641       697.3613        -999.25       158.0593        46.7432        -999.25       33.22338         1.6386        -999.25        46.6071      -35.43641    0.004752788      0.0161026
      1742.5000         1.9976        11.4623       703.1709        -999.25       144.4282        46.8257        -999.25       33.33318         1.6279        -999.25        46.0835       -35.9617    0.007088925    0.001094164
      1743.0000         1.9972        11.4606       708.9824        -999.25       142.1838        46.9083        -999.25       33.44308         1.6173        -999.25        45.6637      -36.38321    0.009427334              0
      1743.5000         1.9968        11.4588        714.792        -999.25       146.1592        46.9943        -999.25       33.55736         1.6082        -999.25        46.2673       -35.7813     0.01185868    0.006248583
      1744.0000         1.9965         11.457       718.9238        -999.25       153.3293        47.0992        -999.25       33.69584         1.5991        -999.25        46.8522      -35.19809       0.014805     0.02291162
      1744.5000         1.9968        11.4604       721.1494        -999.25       159.0444        47.2042        -999.25       33.83445           1.59        -999.25        47.0198      -35.03219     0.01775417     0.02765176
      1745.0000         1.9971        11.4641        723.374        -999.25       161.4512        47.3091        -999.25       33.97293          1.581        -999.25        47.6001      -34.45359     0.02070058     0.04418324
      1745.5000         1.9975        11.4677       725.5996        -999.25       163.9871        47.4142        -999.25       34.11166         1.5719        -999.25        48.3091      -33.74628     0.02365226     0.06439198
      1746.0000         1.9978        11.4714       727.8252        -999.25        167.009        47.5191        -999.25       34.25014         1.5628        -999.25        48.9188      -33.13828     0.02659867     0.08176357
      1746.5000         1.9981        11.4751       730.0498        -999.25        174.304        47.6241        -999.25       34.38875          1.556        -999.25        49.4093      -32.64947     0.02954783      0.0957295
      1747.0000         1.9984        11.4785       732.2754        -999.25       180.2849        47.7206        -999.25       34.51646         1.5493        -999.25        49.6472      -32.41327     0.03226512       0.102478
      1747.5000         1.9988        11.4724          734.5        -999.25       180.9353         47.814        -999.25       34.64021         1.5426        -999.25        48.9501      -33.11206     0.03489815     0.08251245
      1748.0000         1.9994        11.4662       736.7246        -999.25       179.6665        47.9075        -999.25       34.76409         1.5359        -999.25        48.2823      -33.78156     0.03753378     0.06338403
      1748.5000         2.0001          11.46       740.4502        -999.25       172.0925         48.001        -999.25       34.88796         1.5292        -999.25        49.0863      -32.97926     0.04016941     0.08630687
