#------------------------------------------------------------------------------
# Created by    : vladimir.rabinovich
# Created on    : 09/19/2023 17:22:47
#------------------------------------------------------------------------------
~Version Information Section
VERS.           2.0     :   CWLS log ASCII Standard - VERSION 2.0
WRAP.           NO      :   One line per depth step
~Well Information Section
#MNEM       .UNIT                                         VALUE :DESCRIPTION
#------------------------------------------------------------------------------
STRT        .FT                                            4658 :START DEPTH
STOP        .FT                                           10852 :STOP DEPTH
STEP        .FT                                             0.5 :STEP      
NULL        .                                           -999.25 :NULL      
COMP        .                             WALTER OIL & GAS CORP :COMPANY   
WELL        .                               OCS G04721 ST00BP00 :WELL      
FLD         .                              GALVESTON BLOCK 0350 :FIELD     
LOC         .                                                   :LOCATION  
CNTY        .                             GALVESTON LARGE BLOCK :LOCATION  
STAT        .                                             TEXAS :STATE     
CTRY        .                                     UNITED STATES :COUNTRY   
SRVC        .                                                   :SERVICE COMPANY
DATE        .                             9/13/2023 11:19:36 AM :LOG DATE  
API         .                                    42706401870000 :API NUMBER
UWI         .                                    42706401870000 :UNIQUE WELL ID
XCOORD      .                                  1032064.33467067 :SURFACE X 
YCOORD      .                                   10428906.138822 :SURFACE Y 
LAT         .                                        28.7242451 :LATITUDE  
LON         .                                       -94.8985179 :LONGITUDE 
ELEV        .FT                                              92 :ELEVATION VALUE
ELEV_TYPE   .                                                KB :ELEVATION REFERENCE TYPE
~Curve Information Section
#MNEM       .UNIT                                      API CODE :CURVE DESCRIPTION
#------------------------------------------------------------------------------
DEPT        .FT                                                 :DEPTH     
DT          .US/F                                               :          
GR          .GAPI                                               :          
GR_1        .GAPI                                               :          
GR_NORM     .GAPI                                               :GammaRay Normalized
ILD         .OHMM                                               :          
ILM         .OHMM                                               :          
NPHI        .%                                                  :          
RFOC        .OHMM                                               :          
RHOB        .G/C3                                               :          
SP          .MV                                                 :          
SP_NORM     .MV                                                 :SP Normalized
VSH_GR      .V/V                                                :Volume of Shale from GR
VSH_SP      .V/V                                                :Volume of Shale from SP
~A        DEPTH             DT             GR           GR_1        GR_NORM            ILD            ILM           NPHI           RFOC           RHOB             SP        SP_NORM         VSH_GR         VSH_SP
# ...
      5532.0000        -999.25        66.7791        -999.25       68.21204         1.0837         1.0742        40.5978         1.0546         2.3302       -56.8237      -8.945683      0.7491924      0.8623741
      5532.5000        -999.25         69.626        -999.25       71.57687         1.0767         1.0623        41.0098         1.0471         2.3125       -56.1468      -8.154717      0.8207846      0.8745428
      5533.0000        -999.25        69.9556        -999.25       71.96616         1.0575         1.0438        40.9711          1.036         2.3115       -55.6967      -7.628355      0.8290672      0.8826407
      5533.5000        -999.25        68.3577        -999.25       70.07708         1.0347         1.0233        40.7936         1.0177         2.3176       -55.6129      -7.529335       0.788874      0.8841641
      5534.0000        -999.25        65.5697        -999.25       66.78128         1.0124         1.0073        39.8156         0.9994         2.3247       -55.6602      -7.583271      0.7187507      0.8833343
      5534.5000        -999.25        65.3789        -999.25       66.55544         0.9909          0.996        39.0812         0.9812         2.3174       -55.3906      -7.267487      0.7139456      0.8881925
      5535.0000        -999.25        68.8756        -999.25       70.68835         0.9699         0.9896        38.8728         0.9907         2.3013       -54.9315      -6.730621      0.8018797       0.896452
      5535.5000        -999.25        70.8019        -999.25       72.96499         0.9566         0.9899        38.8471         0.9924         2.3023       -54.4901       -6.21441      0.8503189      0.9043937
      5536.0000        -999.25        70.7458        -999.25       72.89836         0.9515         0.9878        37.6487         0.9833         2.3117       -54.5485      -6.281292      0.8489013      0.9033647
      5536.5000        -999.25        70.5088        -999.25       72.61792         0.9642         0.9806        36.1087          0.986         2.3472       -54.7615      -6.528543      0.8429345      0.8995609
      5537.0000        -999.25        65.0687        -999.25       66.18725         0.9781          0.989         35.962         1.0122         2.3686       -55.0415      -6.853962      0.7061117      0.8945544
      5537.5000        -999.25        64.6379        -999.25       65.67773         0.9926         1.0066        36.2289         1.0442         2.3537       -55.2792       -7.13003      0.6952708      0.8903072
      5538.0000        -999.25         64.405        -999.25       65.40212         1.0142         1.0353        35.1954         1.0591         2.3368        -55.373      -7.238212      0.6894069      0.8886429
      5538.5000        -999.25        63.9787        -999.25       64.89791         1.0444         1.0668        34.1685         1.0813         2.3198       -55.4278      -7.300897      0.6786789      0.8876785
      5539.0000        -999.25        62.1002        -999.25       62.67716         1.0913         1.0987        34.2325         1.1058         2.3206        -55.491      -7.373382       0.631429      0.8865634
      5539.5000        -999.25        60.5984        -999.25       60.90168          1.153         1.1359        34.0692         1.1258         2.3339       -56.3311      -8.352247      0.5936528      0.8715039
      5540.0000        -999.25        60.6566        -999.25       60.97017         1.1567         1.1743        33.4919         1.1697         2.3703       -57.5231       -9.74167      0.5951101      0.8501282
      5540.5000        -999.25        61.3078        -999.25        61.7396         1.1478         1.1714        33.8232         1.2104         2.3855       -58.7932       -11.2222       0.611481      0.8273507
      5541.0000        -999.25        62.2161        -999.25       62.81294         1.1229         1.1629        36.0439         1.1717         2.3776        -60.015      -12.64639      0.6343178      0.8054402
      5541.5000        -999.25        63.7891        -999.25       64.67197         1.0743         1.1166        38.6075         1.1145         2.3506       -58.1836       -10.5085      0.6738716      0.8383307
      5542.0000        -999.25        65.6193        -999.25       66.83501         1.0115         1.0414        40.3872         1.0592         2.3178       -56.4798      -8.519487      0.7198939      0.8689309
      5542.5000        -999.25        67.6143        -999.25       69.19288         0.9506         0.9455        39.3816         0.9915         2.3135        -55.596      -7.487141      0.7700613      0.8848132
      5543.0000        -999.25        69.9995        -999.25       72.01195         0.9184         0.9121        36.8746         0.9596         2.3087       -55.4362      -7.299455      0.8300415      0.8877007
      5543.5000        -999.25        71.3055        -999.25       73.55537         0.9021         0.8924        34.5999         0.9703         2.2988        -55.162      -6.978304      0.8628803      0.8926415
      5544.0000        -999.25        71.5819        -999.25       73.88179         0.8918         0.8782        33.1588         0.9781         2.2743       -54.7841      -6.536175      0.8698253      0.8994434
      5544.5000        -999.25        70.0392        -999.25       72.05796         0.8844         0.8778        32.8375         0.9903          2.267       -54.2482      -5.909708      0.8310204      0.9090814
      5545.0000        -999.25        69.4113        -999.25       71.31547         0.8915         0.8865        32.6317         1.0118          2.276       -53.9368      -5.545156      0.8152227      0.9146899
      5545.5000        -999.25        69.2487        -999.25       71.12296         0.9136         0.9053        32.3769         1.0277         2.2966       -54.0746      -5.704679      0.8111269      0.9122357
      5546.0000        -999.25        69.4031        -999.25       71.30516         0.9511          0.945        32.6058         1.0453         2.3247       -54.2771      -5.939678      0.8150034      0.9086204
      5546.5000        -999.25        70.2821        -999.25       72.34386          1.003         1.0109        33.4283         1.0955          2.348       -54.5446      -6.250513      0.8371033      0.9038383
      5547.0000        -999.25        71.7479        -999.25       74.07618         1.0282         1.0271        35.3517         1.0877         2.3549       -54.7873      -6.532415      0.8739613      0.8995013
      5547.5000        -999.25        73.6884        -999.25       76.36961         1.0086         1.0167        37.3674         1.0466         2.3604       -54.9016      -6.664514      0.9227576       0.897469
      5548.0000        -999.25        75.7528        -999.25        78.8095         0.9664         0.9841        39.0094         1.0028         2.3654       -54.8941      -6.654518      0.9746702      0.8976228
      5548.5000        -999.25        78.1344        -999.25       81.62432           0.93         0.9535        40.3835         0.9742         2.3356       -54.9032      -6.663882              1      0.8974788
      5549.0000        -999.25        81.8715        -999.25       86.04139          0.906         0.9247        41.3405         0.9468         2.3073       -54.9113      -6.672084              1      0.8973526
      5549.5000        -999.25        83.4948        -999.25       87.95988         0.8935         0.8977        41.6109         0.9251         2.2971       -54.8394      -6.586956              1      0.8986622
      5550.0000        -999.25        84.8715        -999.25       89.58688          0.882         0.8856        41.4214         0.9039         2.2865       -54.7723      -6.507421              1      0.8998858
      5550.5000        -999.25        84.3993        -999.25       89.02842         0.8716         0.8743        41.2019         0.8954         2.2756       -54.7183      -6.443169              1      0.9008743
