#------------------------------------------------------------------------------
# Created by    : vladimir.rabinovich
# Created on    : 09/19/2023 17:20:10
#------------------------------------------------------------------------------
~Version Information Section
VERS.           2.0     :   CWLS log ASCII Standard - VERSION 2.0
WRAP.           NO      :   One line per depth step
~Well Information Section
#MNEM       .UNIT                                         VALUE :DESCRIPTION
#------------------------------------------------------------------------------
STRT        .FT                                            1664 :START DEPTH
STOP        .FT                                            5300 :STOP DEPTH
STEP        .FT                                             0.5 :STEP      
NULL        .                                           -999.25 :NULL      
COMP        .                       CORPUS CHRISTI OIL & GAS CO :COMPANY   
WELL        .                                ST TR 00597-L NE/4 :WELL      
FLD         .                                           WILDCAT :FIELD     
LOC         .                                                   :LOCATION  
CNTY        .                      MATAGORDA ISLAND LARGE BLOCK :LOCATION  
STAT        .                                             TEXAS :STATE     
CTRY        .                                     UNITED STATES :COUNTRY   
SRVC        .                                                   :SERVICE COMPANY
DATE        .                             9/13/2023 11:12:01 AM :LOG DATE  
API         .                                    42703301570000 :API NUMBER
UWI         .                                    42703301570000 :UNIQUE WELL ID
XCOORD      .                                   499677.54355151 :SURFACE X 
YCOORD      .                                  10240770.6634848 :SURFACE Y 
LAT         .                                        28.1741034 :LATITUDE  
LON         .                                       -96.5406837 :LONGITUDE 
ELEV        .FT                                              79 :ELEVATION VALUE
ELEV_TYPE   .                                                KB :ELEVATION REFERENCE TYPE
~Curve Information Section
#MNEM       .UNIT                                      API CODE :CURVE DESCRIPTION
#------------------------------------------------------------------------------
DEPT        .FT                                                 :DEPTH     
ASFL        .OHMM                                               :          
CILD        .MMHO                                               :          
ILD         .OHMM                                               :          
SP          .MV                                                 :          
SP_NORM     .MV                                                 :SP Normalized
VSH_SP      .V/V                                                :Volume of Shale from SP
~A        DEPTH           ASFL           CILD            ILD             SP        SP_NORM         VSH_SP
# ...
      5274.0000         0.6008       3296.624         0.3033      -122.2107      -49.59924      0.1019012
      5274.5000         0.6008         3526.5         0.2836      -121.4961      -48.88464      0.1153842
      5275.0000         0.6008       3756.375         0.2662      -120.8975      -48.28603      0.1266786
      5275.5000         0.5968       3986.251         0.2509      -120.5987      -47.98724      0.1323163
      5276.0000         0.5968       4258.587         0.2348      -122.0721      -49.46063      0.1045164
      5276.5000         0.6048       4266.578         0.2344      -123.5454      -50.93394     0.07671817
      5277.0000         0.6449       4266.569         0.2344      -125.0187      -52.40723     0.04892011
      5277.5000         0.6699       3998.841         0.2501      -126.8878      -54.27634     0.01365403
      5278.0000         0.6949       3731.113          0.268      -125.6904      -53.07893     0.03624653
      5278.5000         0.7199       3463.385         0.2887      -124.1944      -51.58293     0.06447299
      5279.0000         0.7449       3195.656         0.3129       -124.195      -51.58353     0.06446162
      5279.5000         0.7651       2860.062         0.3496      -124.4949      -51.88344     0.05880306
      5280.0000         0.7197       2836.088         0.3526      -128.0883      -55.47684              0
      5280.5000         0.6744       2788.128         0.3587           -123      -50.38853     0.08700878
      5281.0000         0.6291       2764.142         0.3618      -123.5987      -50.98724     0.07571252
      5281.5000         0.5837       2980.819         0.3355       -124.447      -51.83553     0.05970692
      5282.0000         0.5528       3197.496         0.3127      -125.2952      -52.68373     0.04370319
      5282.5000         0.5688       3414.173         0.2929      -126.1435      -53.53204     0.02769744
      5283.0000         0.5848        3630.85         0.2754      -126.9918      -54.38033     0.01169183
      5283.5000         0.5888       3847.528         0.2599        -127.84      -55.22853              0
      5284.0000         0.6049       4064.205         0.2461      -128.6883      -56.07683              0
      5284.5000         0.5968       4280.882         0.2336      -129.5365      -56.92503              0
      5285.0000         0.5848       4466.198         0.2239      -130.4895      -57.87804              0
      5285.5000         0.5808       4134.729         0.2419        -130.49      -57.87854              0
      5286.0000         0.6049       3803.261         0.2629      -130.1907      -57.57924              0
      5286.5000         0.6409       3471.793          0.288      -127.4971      -54.88564    0.002157823
      5287.0000         0.6449       3140.325         0.3184      -124.2048      -51.59334     0.06427664
      5287.5000         0.6909       2808.856          0.356      -115.7968      -43.18533      0.2229182
      5288.0000          0.737       2477.388         0.4037      -107.3888      -34.77734      0.3815597
      5288.5000          0.783        2145.92          0.466       -98.9808      -26.36933      0.5402013
      5289.0000          0.829       1814.451         0.5511       -90.5728      -17.96133      0.6988428
      5289.5000          0.875       1482.983         0.6743       -79.3031      -6.691635      0.9114786
      5290.0000         0.9211       1151.515         0.8684       -79.3034      -6.691933       0.911473
      5290.5000         0.9494       757.9809         1.3193       -77.8067      -5.195236      0.9397125
      5291.0000         0.9614        734.006         1.3624       -76.3102      -3.698738      0.9679483
      5291.5000         0.9814       718.0048         1.3927       -75.4124      -2.800934       0.984888
      5292.0000         1.0095       709.9991         1.4085       -75.1134      -2.501938      0.9905295
      5292.5000         1.0615       709.9772         1.4085       -75.7126      -3.101135      0.9792238
      5293.0000         1.1016       725.9428         1.3775       -76.9104      -4.298935      0.9566239
      5293.5000         1.1377       741.9084         1.3479       -83.5528      -10.94134      0.8312955
      5294.0000         1.1457       773.8576         1.2922       -90.1952      -17.58373      0.7059673
      5294.5000         1.0983       917.3825         1.0901       -96.8376      -24.22614      0.5806389
      5295.0000         1.0509       1060.907         0.8192        -103.48      -30.86854      0.4553106
      5295.5000         1.0035       1204.432         0.8192      -110.1224      -37.51093      0.3299824
      5296.0000          0.956       1357.175         0.7992      -114.6359      -42.02444       0.244822
      5296.5000         0.8933        1365.15         0.7592       -115.834      -43.22253      0.2222163
      5297.0000         0.8893       1365.134         0.7392      -118.2297      -45.61823      0.1770145
      5297.5000         0.8813       1365.118         0.7392      -120.0267      -47.41524      0.1431087
      5298.0000         0.8773       1365.101         0.7393      -121.2249      -48.61343      0.1205013
      5298.5000         0.8693       1365.085         0.7393      -122.4231      -49.81164     0.09789363
      5299.0000         0.8693       1365.069         0.7393      -123.6213      -51.00983     0.07528614
      5299.5000         0.8653        -999.25          0.752      -124.5201      -51.90864     0.05832759
      5300.0000         0.8613        -999.25          0.752      -126.0177      -53.40623     0.03007104
