#------------------------------------------------------------------------------
# Created by    : vladimir.rabinovich
# Created on    : 09/19/2023 17:22:45
#------------------------------------------------------------------------------
~Version Information Section
VERS.           2.0     :   CWLS log ASCII Standard - VERSION 2.0
WRAP.           NO      :   One line per depth step
~Well Information Section
#MNEM       .UNIT                                         VALUE :DESCRIPTION
#------------------------------------------------------------------------------
STRT        .FT                                            3370 :START DEPTH
STOP        .FT                                           10136 :STOP DEPTH
STEP        .FT                                             0.5 :STEP      
NULL        .                                           -999.25 :NULL      
COMP        .                                  W&T OFFSHORE INC :COMPANY   
WELL        .                               OCS G04565 ST00BP00 :WELL      
FLD         .                              GALVESTON BLOCK 0303 :FIELD     
LOC         .                                                   :LOCATION  
CNTY        .                             GALVESTON LARGE BLOCK :LOCATION  
STAT        .                                             TEXAS :STATE     
CTRY        .                                     UNITED STATES :COUNTRY   
SRVC        .                                                   :SERVICE COMPANY
DATE        .                             9/13/2023 11:19:27 AM :LOG DATE  
API         .                                    42706401000000 :API NUMBER
UWI         .                                    42706401000000 :UNIQUE WELL ID
XCOORD      .                                  988505.563749319 :SURFACE X 
YCOORD      .                                  10486369.8338556 :SURFACE Y 
LAT         .                                        28.8802688 :LATITUDE  
LON         .                                       -95.0374578 :LONGITUDE 
ELEV        .FT                                              93 :ELEVATION VALUE
ELEV_TYPE   .                                                KB :ELEVATION REFERENCE TYPE
~Curve Information Section
#MNEM       .UNIT                                      API CODE :CURVE DESCRIPTION
#------------------------------------------------------------------------------
DEPT        .FT                                                 :DEPTH     
DPHI        .DEC                                                :          
DRHO        .G/C3                                               :          
DT          .US/F                                               :          
GR          .GAPI                                               :          
GR_1        .GAPI                                               :          
GR_NORM     .GAPI                                               :GammaRay Normalized
ILD         .OHMM                                               :          
NPHI        .DEC                                                :          
RHOB        .G/C3                                               :          
SP          .MV                                                 :          
SP_NORM     .MV                                                 :SP Normalized
VSH_GR      .V/V                                                :Volume of Shale from GR
VSH_SP      .V/V                                                :Volume of Shale from SP
~A        DEPTH           DPHI           DRHO             DT             GR           GR_1        GR_NORM            ILD           NPHI           RHOB             SP        SP_NORM         VSH_GR         VSH_SP
# ...
      5688.0000         0.2923        -0.0302       130.5613        69.8789        -999.25       77.60487         0.4918          0.504         2.1614       -44.6422      -3.132763      0.9490399      0.9552463
      5688.5000         0.2912        -0.0309       128.9731         69.277        -999.25       76.84402         0.4973         0.4932         2.1641       -45.3511      -3.841663      0.9328514      0.9451191
      5689.0000          0.285        -0.0308       127.2295        68.4231        -999.25       75.76814         0.5026         0.4741         2.1722       -47.6197      -6.110264      0.9099605      0.9127105
      5689.5000         0.2685        -0.0305       124.7708        67.7288        -999.25       74.89178         0.5009         0.4625         2.1915       -51.8638      -10.35436      0.8913144      0.8520805
      5690.0000         0.2564        -0.0308        120.519        66.0778        -999.25       72.81953         0.4824         0.4519         2.2264       -57.1987      -15.68926       0.847224      0.7758677
      5690.5000         0.2514        -0.0311       119.8501        63.6516        -999.25       69.77829         0.4274         0.4274         2.2353       -65.2122      -23.70276      0.7825168      0.6613892
      5691.0000         0.2686          -0.03       112.6814        60.3522        -999.25       65.64555         0.3766         0.3789         2.2175       -73.9453      -32.43586      0.6945862      0.5366306
      5691.5000           0.29        -0.0287       110.4844        51.7946        -999.25       54.94006         0.3317         0.3619         2.1845       -82.6785      -41.16906      0.4668099      0.4118706
      5692.0000         0.3115        -0.0276       115.1969        45.7054        -999.25       47.32007         0.2922         0.3806         2.1315       -89.3193      -47.80986      0.3046823       0.317002
      5692.5000         0.3237        -0.0273       120.3809        44.7098        -999.25       46.06708         0.2574         0.4094         2.1147       -94.1533      -52.64386      0.2780229      0.2479449
      5693.0000         0.3319        -0.0289       123.2817         44.384        -999.25       45.65134         0.2311         0.4378         2.1075       -97.1769      -55.66747      0.2691774      0.2047505
      5693.5000         0.3393        -0.0332       123.6206        44.0483        -999.25       45.22323         0.2163         0.4464         2.0909       -99.4121      -57.90266      0.2600687      0.1728191
      5694.0000         0.3472        -0.0377       123.4924        42.2477        -999.25       42.96398          0.204         0.4472         2.0695      -100.4677      -58.95826      0.2119995      0.1577391
      5694.5000         0.3553        -0.0422       124.0161        40.5078        -999.25       40.78062         0.1959         0.4459         2.0639      -101.1113      -59.60186       0.165545      0.1485449
      5695.0000         0.3576        -0.0466       125.4712        39.9393        -999.25       40.06149         0.1958         0.4484         2.0572      -101.4044      -59.89497      0.1502445      0.1443576
      5695.5000         0.3651        -0.0539       128.1963        39.9694        -999.25       40.09063         0.2011         0.4579         2.0406      -101.5522      -60.04276      0.1508645      0.1422462
      5696.0000         0.3815        -0.0632        133.072         40.794        -999.25       41.11289         0.2089         0.4839         2.0184       -101.531      -60.02156      0.1726147      0.1425491
      5696.5000         0.3884        -0.0624       132.2124        41.9893        -999.25       42.59852         0.2204         0.5016         2.0107      -100.9703      -59.46086      0.2042238      0.1505591
      5697.0000         0.3708        -0.0596       130.2803        43.8751        -999.25       44.94728         0.2336         0.4969         2.0467        -99.644      -58.13456      0.2541975      0.1695063
      5697.5000         0.3311        -0.0539         128.47        46.2816        -999.25       47.94691         0.2454          0.485          2.114       -97.7631      -56.25366      0.3180194      0.1963762
      5698.0000         0.3017        -0.0482       126.7166        47.7781        -999.25       49.80904         0.2412         0.4721          2.162       -96.5875      -55.07806      0.3576392      0.2131705
      5698.5000         0.2874        -0.0417       124.1172        47.4997        -999.25       49.45255         0.2221         0.4581         2.1765       -97.5367      -56.02726      0.3500542      0.1996106
      5699.0000          0.298        -0.0378       120.9653        46.0108        -999.25       47.58294          0.205         0.4214         2.1531      -101.7104      -60.20097      0.3102752      0.1399862
      5699.5000         0.3215        -0.0361       117.9369        45.2559        -999.25       46.63083         0.1818         0.3735         2.1221      -105.8063      -64.29686      0.2900175     0.08147343
      5700.0000         0.3332        -0.0343       111.0537        45.1504        -999.25       46.49045         0.1613         0.3544         2.1033      -107.4878      -65.97836      0.2870308     0.05745196
      5700.5000         0.3365        -0.0355       107.7306        45.3996        -999.25       46.79346         0.1476         0.3482         2.1029      -107.8907      -66.38126       0.293478     0.05169623
      5701.0000         0.3307        -0.0367       108.5358        45.6228        -999.25       47.06396         0.1423         0.3515         2.1091      -105.5428      -64.03336      0.2992333     0.08523767
      5701.5000         0.3217        -0.0376       109.5765        46.3057        -999.25        47.9091          0.143         0.3554          2.115      -100.5679      -59.05846       0.317215      0.1563077
      5702.0000         0.3128        -0.0369        111.579         48.055        -999.25       50.08724         0.1512         0.3637         2.1306       -92.9847      -51.47527      0.3635584       0.264639
      5702.5000         0.2996        -0.0361       113.9811        50.3922        -999.25       53.00024         0.1714          0.385         2.1625       -82.4337      -40.92426      0.4255371      0.4153677
      5703.0000         0.2744        -0.0352       116.1958        54.8442        -999.25       58.55676         0.2061         0.4015         2.1988       -74.1456      -32.63616      0.5437607      0.5337691
      5703.5000         0.2544        -0.0342       116.4917        55.8211        -999.25       59.76938         0.2558         0.4047          2.217       -69.8143      -28.30486      0.5695613      0.5956448
      5704.0000         0.2472        -0.0328        113.499         56.824        -999.25       61.01452         0.3256         0.3921         2.2308       -67.4659      -25.95646      0.5960537      0.6291934
      5704.5000         0.2334        -0.0293       111.8799        57.5988        -999.25       61.97453         0.4145         0.3791         2.2538       -65.8633      -24.35386      0.6164795      0.6520877
      5705.0000          0.195        -0.0247        107.675         57.791        -999.25       62.20629         0.5277         0.3639         2.2853        -64.153      -22.64356      0.6214104      0.6765205
      5705.5000         0.1486        -0.0199       102.4763        56.8611        -999.25       61.03542         0.6131         0.3405         2.3551       -62.6802      -21.17076      0.5964984      0.6975605
      5706.0000         0.1111        -0.0157        96.3799        55.4736        -999.25       59.29255         0.6438         0.2763         2.4064       -61.3214      -19.81196      0.5594159       0.716972
      5706.5000         0.1142        -0.0152        91.0585        54.7407        -999.25       58.36794         0.6348         0.2456         2.4627       -60.7451      -19.23566      0.5397434      0.7252048
