#------------------------------------------------------------------------------
# Created by    : vladimir.rabinovich
# Created on    : 09/19/2023 17:20:49
#------------------------------------------------------------------------------
~Version Information Section
VERS.           2.0     :   CWLS log ASCII Standard - VERSION 2.0
WRAP.           NO      :   One line per depth step
~Well Information Section
#MNEM       .UNIT                                         VALUE :DESCRIPTION
#------------------------------------------------------------------------------
STRT        .FT                                             507 :START DEPTH
STOP        .FT                                            6530 :STOP DEPTH
STEP        .FT                                             0.5 :STEP      
NULL        .                                           -999.25 :NULL      
COMP        .                                      SHELL OIL CO :COMPANY   
WELL        .                                ST TR 00692-L SE/4 :WELL      
FLD         .                                           WILDCAT :FIELD     
LOC         .                                                   :LOCATION  
CNTY        .                      MATAGORDA ISLAND LARGE BLOCK :LOCATION  
STAT        .                                             TEXAS :STATE     
CTRY        .                                     UNITED STATES :COUNTRY   
SRVC        .                                                   :SERVICE COMPANY
DATE        .                             9/13/2023 11:12:05 AM :LOG DATE  
API         .                                    42703000180000 :API NUMBER
UWI         .                                    42703000180000 :UNIQUE WELL ID
XCOORD      .                                  399042.886430441 :SURFACE X 
YCOORD      .                                  10159669.4462586 :SURFACE Y 
LAT         .                                        27.9430215 :LATITUDE  
LON         .                                       -96.8445442 :LONGITUDE 
ELEV        .FT                                              84 :ELEVATION VALUE
ELEV_TYPE   .                                                DF :ELEVATION REFERENCE TYPE
~Curve Information Section
#MNEM       .UNIT                                      API CODE :CURVE DESCRIPTION
#------------------------------------------------------------------------------
DEPT        .FT                                                 :DEPTH     
ASN         .OHMM                                               :          
CILD        .MMHO                                               :          
ILD         .OHMM                                               :          
SP          .MV                                                 :          
SP_NORM     .MV                                                 :SP Normalized
VSH_SP      .V/V                                                :Volume of Shale from SP
~A        DEPTH            ASN           CILD            ILD             SP        SP_NORM         VSH_SP
# ...
      1723.0000         0.7278       1258.586         0.7467       -43.6558        -0.6138              1
      1723.5000         0.7154       1293.818         0.7493       -43.3353         -0.296              1
      1724.0000         0.7063        1311.77         0.7519       -43.2094        -0.1728              1
      1724.5000         0.7002       1327.961         0.7533       -43.2798        -0.2458              1
      1725.0000         0.6942       1332.061          0.754       -43.3684        -0.3371              1
      1725.5000         0.6885       1323.762         0.7546       -43.4565        -0.4279              1
      1726.0000         0.6856       1306.529         0.7553       -43.5438        -0.5179              1
      1726.5000         0.6827       1289.303          0.756       -43.6373         -0.614              1
      1727.0000           0.68        1272.07         0.7567       -43.8087        -0.7881              1
      1727.5000         0.6781       1254.844         0.7573       -43.9594        -0.9415              1
      1728.0000         0.6762       1239.211          0.758        -44.048        -1.0328              1
      1728.5000         0.6744       1246.578         0.7587       -44.1366        -1.1241              1
      1729.0000         0.6725       1265.924         0.7558       -44.2543        -1.2444              1
      1729.5000         0.6707       1295.824         0.7524       -44.3892         -1.382              1
      1730.0000         0.6689       1322.717          0.749       -44.3115         -1.307              1
      1730.5000         0.6676         1347.9         0.7456       -44.0949        -1.0931              1
      1731.0000         0.6663       1362.584         0.7422       -43.8788        -0.8796              1
      1731.5000          0.665       1369.721         0.7389       -43.6777        -0.6812              1
      1732.0000         0.6638       1363.268         0.7363       -43.4765        -0.4827              1
      1732.5000         0.6625       1356.813         0.7336        -43.254        -0.2629              1
      1733.0000         0.6612       1351.348          0.731       -43.0764         -0.088              1
      1733.5000         0.6601       1346.096         0.7284       -43.0317        -0.0459              1
      1734.0000         0.6592       1343.619         0.7257        -42.987        -0.0039              1
      1734.5000         0.6584       1346.875         0.7236       -42.9423         0.0381              1
      1735.0000         0.6576       1350.129         0.7241       -42.8976         0.0801              1
      1735.5000         0.6567       1352.887         0.7246       -42.9717         0.0034              1
      1736.0000         0.6559       1355.516         0.7251       -43.1052        -0.1328              1
      1736.5000         0.6564       1358.143         0.7256       -43.2401        -0.2704              1
      1737.0000         0.6578       1360.771          0.726       -43.4135        -0.4465              1
      1737.5000         0.6592       1363.398         0.7265       -43.5875        -0.6232              1
      1738.0000         0.6605       1366.027         0.7276       -43.8245        -0.8628              1
      1738.5000         0.6618       1366.742         0.7295       -44.0615        -1.1025              1
      1739.0000         0.6631       1355.422         0.7315       -44.2823         -1.326              1
      1739.5000         0.6644       1344.102         0.7335       -44.4752        -1.5216              1
      1740.0000         0.6657       1327.621         0.7354       -44.6323        -1.6813              1
      1740.5000          0.667       1306.244         0.7374       -44.5491        -1.6008              1
      1741.0000         0.6725       1280.957         0.7385       -44.4658        -1.5202              1
      1741.5000         0.6788       1252.213         0.7384       -44.3826        -1.4397              1
      1742.0000         0.6852       1205.221         0.7383       -44.2548        -1.3145              1
      1742.5000         0.6915       1170.896         0.7382       -44.1111        -1.1735              1
      1743.0000         0.6987       1174.836         0.7381       -43.9675        -1.0326              1
      1743.5000         0.7058       1178.777          0.738       -43.8238        -0.8916              1
      1744.0000         0.7051        1187.32         0.7379       -43.7042        -0.7747              1
      1744.5000         0.6986       1205.832         0.7368       -43.6034        -0.6765              1
      1745.0000         0.6922       1224.338         0.7345       -43.5025        -0.5783              1
      1745.5000          0.686       1242.848         0.7322       -43.4017        -0.4802              1
      1746.0000         0.6801       1261.359         0.7299       -43.3448         -0.426              1
      1746.5000         0.6742       1279.871         0.7276       -43.2891        -0.3729              1
      1747.0000         0.6684       1309.406         0.7198       -43.2497        -0.3362              1
      1747.5000         0.6625        1340.26         0.7091        -43.215        -0.3042              1
      1748.0000         0.6566       1367.541         0.6984       -43.1829        -0.2748              1
      1748.5000         0.6508       1387.578         0.6886       -43.1548        -0.2494              1
      1749.0000         0.6449       1407.367         0.6848       -43.1267        -0.2239              1
      1749.5000         0.6413       1425.176          0.681       -43.1163        -0.2162              1
      1750.0000         0.6401       1442.191         0.6772       -43.1364         -0.239              1
      1750.5000          0.639       1454.842         0.6768       -43.1552        -0.2605              1
      1751.0000         0.6378       1391.557         0.6821       -43.1731         -0.281              1
      1751.5000         0.6381       1360.654         0.6875       -43.2072        -0.3178              1
      1752.0000         0.6418        1331.68         0.6928       -43.2545        -0.3678              1
      1752.5000         0.6455       1306.791         0.6982       -43.3018        -0.4178              1
      1753.0000         0.6492       1296.248         0.7026       -43.3491        -0.4678              1
      1753.5000         0.6524       1285.705          0.702       -43.4016        -0.5229              1
      1754.0000         0.6543        1275.58         0.7013       -43.4586        -0.5826              1
      1754.5000         0.6563       1270.938         0.7006       -43.5557        -0.6824              1
      1755.0000         0.6582       1266.297            0.7       -43.6906          -0.82              1
      1755.5000         0.6601       1261.654         0.6993       -43.7953        -0.9273              1
      1756.0000          0.662        1256.32         0.6986        -43.869        -1.0037              1
      1756.5000         0.6639       1257.873          0.698       -43.9425        -1.0799              1
      1757.0000         0.6658        1262.16         0.6973       -44.0263        -1.1664              1
      1757.5000         0.6677       1270.391         0.6966       -44.1104        -1.2532              1
      1758.0000         0.6697       1278.619          0.694       -44.1739        -1.3193              1
      1758.5000         0.6716       1285.666         0.6884       -44.2375        -1.3856              1
      1759.0000         0.6721       1292.596         0.6828       -44.1535        -1.3043              1
      1759.5000         0.6687       1299.525         0.6771       -43.9799        -1.1334              1
      1760.0000         0.6653       1306.455         0.6728        -43.799        -0.9551              1
      1760.5000          0.662       1313.385         0.6702       -43.5851        -0.7439              1
