#------------------------------------------------------------------------------
# Created by    : vladimir.rabinovich
# Created on    : 09/19/2023 17:20:35
#------------------------------------------------------------------------------
~Version Information Section
VERS.           2.0     :   CWLS log ASCII Standard - VERSION 2.0
WRAP.           NO      :   One line per depth step
~Well Information Section
#MNEM       .UNIT                                         VALUE :DESCRIPTION
#------------------------------------------------------------------------------
STRT        .FT                                             501 :START DEPTH
STOP        .FT                                            8659 :STOP DEPTH
STEP        .FT                                             0.5 :STEP      
NULL        .                                           -999.25 :NULL      
COMP        .                                      SHELL OIL CO :COMPANY   
WELL        .                                OCS 00705 ST00BP00 :WELL      
FLD         .                                           WILDCAT :FIELD     
LOC         .                                                   :LOCATION  
CNTY        .                             GALVESTON LARGE BLOCK :LOCATION  
STAT        .                                             TEXAS :STATE     
CTRY        .                                     UNITED STATES :COUNTRY   
SRVC        .                                                   :SERVICE COMPANY
DATE        .                             9/13/2023 11:19:25 AM :LOG DATE  
API         .                                    42706000440000 :API NUMBER
UWI         .                                    42706000440000 :UNIQUE WELL ID
XCOORD      .                                  1104214.94625617 :SURFACE X 
YCOORD      .                                  10500066.5450575 :SURFACE Y 
LAT         .                                         28.922918 :LATITUDE  
LON         .                                        -94.676571 :LONGITUDE 
ELEV        .FT                                              41 :ELEVATION VALUE
ELEV_TYPE   .                                                KB :ELEVATION REFERENCE TYPE
~Curve Information Section
#MNEM       .UNIT                                      API CODE :CURVE DESCRIPTION
#------------------------------------------------------------------------------
DEPT        .FT                                                 :DEPTH     
ASN         .OHMM                                               :          
CILD        .MMHO                                               :          
DT          .US/F                                               :          
ILD         .OHMM                                               :          
LAT         .OHMM                                               :          
SP          .MV                                                 :          
SP_NORM     .MV                                                 :SP Normalized
VSH_SP      .V/V                                                :Volume of Shale from SP
~A        DEPTH            ASN           CILD             DT            ILD            LAT             SP        SP_NORM         VSH_SP
# ...
      2123.5000         0.6686        -999.25        -999.25         0.7038          0.522       -60.5164      -7.997913      0.6001391
      2124.0000         0.6568        -999.25        -999.25         0.7036         0.5109       -61.3669      -8.847099      0.5435267
      2124.5000         0.6449        -999.25        -999.25         0.7034         0.5117       -62.2172      -9.696083      0.4869278
      2125.0000         0.6331        -999.25        -999.25         0.7032         0.5124       -63.0677      -10.54527      0.4303156
      2125.5000         0.6213        -999.25        -999.25          0.703         0.5132       -63.3342      -10.81045      0.4126366
      2126.0000         0.6167        -999.25        -999.25         0.7027          0.514       -63.5463      -11.02123      0.3985845
      2126.5000         0.6287        -999.25        -999.25         0.7025         0.5147        -62.894      -10.36762      0.4421588
      2127.0000         0.6406        -999.25        -999.25         0.7023         0.5159       -61.8665      -9.338806      0.5107462
      2127.5000         0.6525        -999.25        -999.25         0.7021           0.52       -60.8392      -8.310188      0.5793208
      2128.0000         0.6688        -999.25        -999.25         0.7019         0.5241       -59.8175      -7.287174      0.6475217
      2128.5000          0.686        -999.25        -999.25         0.7017         0.5282       -58.9133      -6.381657      0.7078896
      2129.0000         0.7032        -999.25        -999.25         0.7039         0.5323       -58.0093      -5.476341      0.7682439
      2129.5000         0.7204        -999.25        -999.25         0.7086         0.5365       -57.1054      -4.571125      0.8285916
      2130.0000         0.7376        -999.25        -999.25         0.7132         0.5406       -56.2015      -3.665909      0.8889394
      2130.5000         0.7544        -999.25        -999.25         0.7178         0.5447        -55.443      -2.906094      0.9395937
      2131.0000         0.7641        -999.25        -999.25         0.7225         0.5488       -55.1236      -2.585381      0.9609746
      2131.5000         0.7695        -999.25        -999.25         0.7271         0.5529       -55.1528      -2.613266      0.9591156
      2132.0000         0.7601        -999.25        -999.25         0.7318          0.557        -55.182      -2.641148      0.9572569
      2132.5000         0.7507        -999.25        -999.25         0.7364         0.5611       -55.2112      -2.669033      0.9553978
      2133.0000         0.7413        -999.25        -999.25          0.741         0.5651       -55.2404      -2.696915       0.953539
      2133.5000         0.7319        -999.25        -999.25         0.7457         0.5687       -55.2696        -2.7248        0.95168
      2134.0000         0.7225        -999.25        -999.25         0.7494         0.5722       -55.2988      -2.752686      0.9498209
      2134.5000         0.7131        -999.25        -999.25         0.7507         0.5758       -55.3088      -2.761368      0.9492422
      2135.0000         0.7037        -999.25        -999.25          0.752         0.5794       -55.3111      -2.762352      0.9491765
      2135.5000         0.6968        -999.25        -999.25         0.7533         0.5829       -55.3134       -2.76334      0.9491107
      2136.0000         0.6908        -999.25        -999.25         0.7547         0.5865       -55.3158      -2.764423      0.9490384
      2136.5000         0.6849        -999.25        -999.25          0.756         0.5901       -55.3181      -2.765408      0.9489728
      2137.0000         0.6867        -999.25        -999.25         0.7573         0.5937       -55.3204      -2.766392      0.9489072
      2137.5000         0.6925        -999.25        -999.25         0.7586         0.5972       -55.3228      -2.767475       0.948835
      2138.0000         0.6988        -999.25        -999.25         0.7599         0.6008        -55.121      -2.564358      0.9623762
      2138.5000          0.705        -999.25        -999.25         0.7612         0.6044       -54.8841      -2.326145       0.978257
      2139.0000         0.7113        -999.25        -999.25         0.7625         0.6108       -54.6472      -2.087929      0.9941381
      2139.5000         0.7175        -999.25        -999.25         0.7639         0.6186       -54.4104      -1.849815              1
      2140.0000         0.7238        -999.25        -999.25         0.7651         0.6264       -54.1053        -1.5434              1
      2140.5000         0.7301        -999.25        -999.25         0.7662         0.6343       -53.7844      -1.221184              1
      2141.0000         0.7363        -999.25        -999.25         0.7672         0.6421       -53.4636     -0.8990669              1
      2141.5000         0.7426        -999.25        -999.25         0.7683         0.6499       -53.1426     -0.5767517              1
      2142.0000         0.7489        -999.25        -999.25         0.7694         0.6577       -52.8218     -0.2546349              1
      2142.5000         0.7552        -999.25        -999.25         0.7705         0.6655       -52.5009     0.06758118              1
      2143.0000         0.7615        -999.25        -999.25         0.7716         0.6733       -52.1801       0.389698              1
      2143.5000         0.7679        -999.25        -999.25         0.7726         0.6812       -51.8592      0.7119141              1
      2144.0000         0.7742        -999.25        -999.25         0.7737         0.6877       -51.7089      0.8635254              1
      2144.5000         0.7805        -999.25        -999.25         0.7748         0.6939       -51.6226      0.9511414              1
      2145.0000         0.7869        -999.25        -999.25         0.7759         0.7002       -51.5363       1.038757              1
      2145.5000         0.7932        -999.25        -999.25          0.777         0.7064       -51.4854       1.090973              1
      2146.0000         0.7995        -999.25        -999.25         0.7781         0.7127       -51.7802      0.7974892              1
      2146.5000         0.8059        -999.25        -999.25         0.7791         0.7189        -52.075      0.5040054              1
      2147.0000           0.81        -999.25        -999.25         0.7802         0.7252       -52.3697      0.2106209              1
      2147.5000         0.8096        -999.25        -999.25         0.7821         0.7314       -52.3464      0.2352371              1
      2148.0000         0.8092        -999.25        -999.25          0.784         0.7377       -52.1634      0.4195518              1
      2148.5000         0.8088        -999.25        -999.25          0.786          0.739       -51.9805      0.6037674              1
      2149.0000         0.8084        -999.25        -999.25          0.788         0.7336       -51.7975      0.7880821              1
      2149.5000          0.808        -999.25        -999.25         0.7899         0.7282        -51.636      0.9508972              1
      2150.0000         0.8076        -999.25        -999.25         0.7919         0.7229       -51.5497       1.038513              1
      2150.5000         0.8046        -999.25        -999.25         0.7939         0.7175       -51.4634       1.126129              1
      2151.0000         0.7992        -999.25        -999.25         0.7958         0.7122       -51.3771       1.213745              1
      2151.5000         0.7938        -999.25        -999.25         0.7978         0.7046       -51.6089      0.9832649              1
      2152.0000         0.7884        -999.25        -999.25         0.7998         0.6959       -51.8434      0.7500801              1
      2152.5000          0.783        -999.25        -999.25         0.8017         0.6871       -52.0779      0.5168915              1
