#------------------------------------------------------------------------------
# Created by    : vladimir.rabinovich
# Created on    : 09/19/2023 17:21:25
#------------------------------------------------------------------------------
~Version Information Section
VERS.           2.0     :   CWLS log ASCII Standard - VERSION 2.0
WRAP.           NO      :   One line per depth step
~Well Information Section
#MNEM       .UNIT                                         VALUE :DESCRIPTION
#------------------------------------------------------------------------------
STRT        .FT                                            2957 :START DEPTH
STOP        .FT                                            7390 :STOP DEPTH
STEP        .FT                                             0.5 :STEP      
NULL        .                                           -999.25 :NULL      
COMP        .                              DEVON LOUISIANA CORP :COMPANY   
WELL        .                               OCS G09039 ST00BP00 :WELL      
FLD         .                              GALVESTON BLOCK 0273 :FIELD     
LOC         .                                                   :LOCATION  
CNTY        .                             GALVESTON LARGE BLOCK :LOCATION  
STAT        .                                             TEXAS :STATE     
CTRY        .                                     UNITED STATES :COUNTRY   
SRVC        .                                                   :SERVICE COMPANY
DATE        .                             9/13/2023 11:19:54 AM :LOG DATE  
API         .                                    42706403330000 :API NUMBER
UWI         .                                    42706403330000 :UNIQUE WELL ID
XCOORD      .                                  1020560.14583294 :SURFACE X 
YCOORD      .                                  10500181.0477632 :SURFACE Y 
LAT         .                                        28.9197225 :LATITUDE  
LON         .                                       -94.9380297 :LONGITUDE 
ELEV        .FT                                              98 :ELEVATION VALUE
ELEV_TYPE   .                                                KB :ELEVATION REFERENCE TYPE
~Curve Information Section
#MNEM       .UNIT                                      API CODE :CURVE DESCRIPTION
#------------------------------------------------------------------------------
DEPT        .FT                                                 :DEPTH     
CALI        .IN                                                 :          
DCAL        .IN                                                 :          
DPHI        .%                                                  :          
DRHO        .G/C3                                               :          
GR          .GAPI                                               :          
GR_NORM     .GAPI                                               :GammaRay Normalized
ILD         .OHMM                                               :          
ILM         .OHMM                                               :          
LL3         .OHMM                                               :          
NPHI        .%                                                  :          
SP          .MV                                                 :          
SP_NORM     .MV                                                 :SP Normalized
VSH_GR      .V/V                                                :Volume of Shale from GR
VSH_SP      .V/V                                                :Volume of Shale from SP
~A        DEPTH           CALI           DCAL           DPHI           DRHO             GR        GR_NORM            ILD            ILM            LL3           NPHI             SP        SP_NORM         VSH_GR         VSH_SP
# ...
      4433.0000        12.7928         2.8998        29.2603         0.0516        45.2704       46.96086         0.2541          0.363         1.5161        27.2042       -71.7314      -64.48982      0.2970396     0.07871682
      4433.5000        12.7445         2.8301        27.8505         0.0592         43.638       45.08873         0.2527         0.3509         1.3744        26.2536       -71.3953      -64.15791      0.2572069     0.08345839
      4434.0000        12.6796         2.7547        24.9056         0.0699        42.4934       43.77593         0.2606         0.3549         1.2445        24.2998       -70.0813       -62.8481      0.2292751        0.10217
      4434.5000        12.6914         2.7706         21.916         0.0788         42.472       43.75108         0.2762         0.3768         1.2027        21.3203       -67.0316      -59.80259      0.2287464      0.1456772
      4435.0000        12.7146         2.8174        18.9264         0.0802        42.9185       44.26274         0.2984         0.4145         1.4358        18.3377       -61.9014      -54.67658      0.2396327       0.218906
      4435.5000        12.7413         2.8664        17.5683         0.0772        43.7117       45.17196         0.3272          0.462         2.2761        15.5339       -55.9517      -48.73107      0.2589778      0.3038419
      4436.0000        12.8852         3.1293        17.8884         0.0649        44.1986       45.72995         0.3638         0.5114         2.8776        14.4699       -51.3183      -44.10186      0.2708499      0.3699735
      4436.5000        13.2839         3.5099        21.2126          0.054        44.3977       45.95793         0.4077         0.5564          2.487        14.4099       -49.6826      -42.47034      0.2757007      0.3932808
      4437.0000        13.6111          4.001        25.0725         0.0462        44.5021       46.07732         0.4536         0.5947         1.7621        17.1183       -51.1163      -43.90823      0.2782409      0.3727395
      4437.5000        14.0056         4.6417         27.922         0.0416        44.1166       45.63496         0.4931         0.6235         1.4935        20.5784       -54.1898      -46.98592      0.2688289      0.3287725
      4438.0000        14.7574         5.3307        29.1188         0.0406        43.0562       44.41872         0.5191         0.6382         1.5647        24.4049       -57.0493      -49.84962      0.2429514      0.2878626
      4438.5000        15.4507         5.8247        29.2278         0.0479         41.543       42.68325         0.5318         0.6388         1.5977        28.0377       -58.9032       -51.7077      0.2060267      0.2613185
      4439.0000        15.8599         6.1284        28.9889         0.0533        40.5402       41.53307         0.5396         0.6327         1.4469        30.0981       -59.8481      -52.65679      0.1815546      0.2477601
      4439.5000        16.0448         6.2056        28.5957         0.0501        40.3894       41.35983         0.5504         0.6304          1.421        31.6682       -60.2266      -53.03948      0.1778686      0.2422931
      4440.0000        15.9264         5.9231        28.5137         0.0406        40.9973       42.05657         0.5668         0.6398          1.557        32.2509       -60.1101      -52.92717      0.1926929      0.2438976
      4440.5000         15.513          5.373        29.3676         0.0245         41.394       42.51113         0.5885         0.6639         1.6996        32.4075        -59.647      -52.46826      0.2023644      0.2504534
      4441.0000        14.8974         4.5539        30.2656         0.0152        41.0522       42.11889         0.6134         0.7017         1.7554        32.1075       -58.9148      -51.74025      0.1940188      0.2608536
      4441.5000        14.1266         3.8121        31.1792         0.0265        40.5481       41.54052         0.6387         0.7492           1.74        31.2943       -58.1887      -51.01834      0.1817133      0.2711666
      4442.0000        13.5379         3.2906        31.7235         0.0434        40.3071       41.26386         0.6618         0.7954          1.735        30.1875       -57.6924      -50.52623      0.1758268      0.2781967
      4442.5000        13.1168         3.0529        31.8984         0.0516        40.7071       41.72221         0.6751         0.8239         1.6843        29.0349       -57.5743      -50.41232      0.1855789      0.2798241
      4443.0000        12.9262         2.9435        31.5569         0.0518         41.403       42.51986         0.6716         0.8226         1.5532        28.6644        -57.786       -50.6282      0.2025501      0.2767399
      4443.5000        12.8538         3.0473        30.6523         0.0459        42.1277       43.35052         0.6521         0.7916         1.6584        28.7171       -58.2673      -51.11369      0.2202239      0.2698044
      4444.0000        12.9333         3.0556        30.1318         0.0377        42.7887       44.10815         0.6222         0.7424         1.6712        29.1633       -58.8024      -51.65298      0.2363436      0.2621002
      4444.5000         12.912         2.9749        29.8874         0.0388        43.3308       44.72944         0.5866         0.6883         1.5315        29.8811       -59.2982      -52.15297      0.2495625      0.2549575
      4445.0000        12.8706         2.9105        29.8837         0.0341        43.4494       44.86512         0.5485         0.6383         1.3307        30.6395       -59.7213      -52.58026      0.2524494      0.2488534
      4445.5000        12.8346          2.927        29.8739         0.0236        43.1271       44.49523         0.5077         0.5936         1.2982        31.2429       -60.1885      -53.05165      0.2445793      0.2421193
      4446.0000        12.8222         2.9269        29.6791         0.0182         41.543       42.67846         0.4647          0.551         1.2968        31.6219       -60.7175      -53.58484      0.2059247      0.2345023
      4446.5000        12.8265         2.9397         29.387         0.0214        39.8669       40.75622         0.4229         0.5099         1.2195        31.5805       -61.3685      -54.24003       0.165026      0.2251424
      4447.0000        12.8577         3.0471        29.0603         0.0249        39.5288       40.36821         0.3846         0.4726          1.364        31.4701       -62.2112      -55.08692      0.1567705       0.213044
      4447.5000         12.994         3.2601        29.1367         0.0259        38.6407       39.34954         0.3499         0.4395         1.4331        31.5684       -63.2592      -56.13911      0.1350966      0.1980127
      4448.0000        13.1857          3.368        30.4399         0.0261        38.0057       38.62108         0.3186         0.4104         1.2702        32.0985       -64.5017       -57.3858      0.1195974      0.1802029
      4448.5000        13.4574         3.6819        32.1203         0.0279        37.7211       38.29443         0.2922         0.3843          0.938        32.9695       -65.8723      -58.76059      0.1126474      0.1605631
      4449.0000        13.9056         4.2453        33.7306         0.0277        37.3553       37.87465         0.2717         0.3609          0.886        33.8578       -67.0941      -59.98658       0.103716      0.1430489
      4449.5000        14.4072          4.769        34.9229         0.0264        37.0506       37.52495         0.2562         0.3423         0.8122        34.4855       -68.1648      -61.06147     0.09627549      0.1276933
      4450.0000        14.6865          4.821        35.8517          0.031        36.7805       37.21491         0.2446           0.33         0.7599        34.5886       -69.3263      -62.22715     0.08967891      0.1110407
      4450.5000        14.8259         4.9915        36.1791         0.0361        36.5024       36.89571         0.2358         0.3233         0.8077        34.0869       -70.6826      -63.58765     0.08288737     0.09160505
