#------------------------------------------------------------------------------
# Created by    : vladimir.rabinovich
# Created on    : 09/19/2023 17:22:42
#------------------------------------------------------------------------------
~Version Information Section
VERS.           2.0     :   CWLS log ASCII Standard - VERSION 2.0
WRAP.           NO      :   One line per depth step
~Well Information Section
#MNEM       .UNIT                                         VALUE :DESCRIPTION
#------------------------------------------------------------------------------
STRT        .FT                                              96 :START DEPTH
STOP        .FT                                            7107 :STOP DEPTH
STEP        .FT                                             0.5 :STEP      
NULL        .                                           -999.25 :NULL      
COMP        .                                  XTO OFFSHORE INC :COMPANY   
WELL        .                               OCS G23162 ST00BP00 :WELL      
FLD         .                                 BRAZOS BLOCK 0398 :FIELD     
LOC         .                                                   :LOCATION  
CNTY        .                                BRAZOS LARGE BLOCK :LOCATION  
STAT        .                                             TEXAS :STATE     
CTRY        .                                     UNITED STATES :COUNTRY   
SRVC        .                                                   :SERVICE COMPANY
DATE        .                             9/13/2023 11:18:28 AM :LOG DATE  
API         .                                    42704403370000 :API NUMBER
UWI         .                                    42704403370000 :UNIQUE WELL ID
XCOORD      .                                  864551.184430364 :SURFACE X 
YCOORD      .                                  10381025.1526549 :SURFACE Y 
LAT         .                                        28.5842785 :LATITUDE  
LON         .                                       -95.4179199 :LONGITUDE 
ELEV        .FT                                             100 :ELEVATION VALUE
ELEV_TYPE   .                                                KB :ELEVATION REFERENCE TYPE
~Curve Information Section
#MNEM       .UNIT                                      API CODE :CURVE DESCRIPTION
#------------------------------------------------------------------------------
DEPT        .FT                                                 :DEPTH     
DCAL        .IN                                                 :          
DPHI        .FRAC                                               :          
DT          .US/F                                               :          
GR          .GAPI                                               :          
GR_NORM     .GAPI                                               :GammaRay Normalized
HT01        .OHMM                                               :          
HT02        .OHMM                                               :          
HT03        .OHMM                                               :          
HT06        .OHMM                                               :          
HT09        .OHMM                                               :          
HT12        .OHMM                                               :          
NPHI        .FRAC                                               :          
RWA         .OHMM                                               :          
SP          .MV                                                 :          
TENS        .LB                                                 :          
VSH_GR      .V/V                                                :Volume of Shale from GR
~A        DEPTH           DCAL           DPHI             DT             GR        GR_NORM           HT01           HT02           HT03           HT06           HT09           HT12           NPHI            RWA             SP           TENS         VSH_GR
# ...
      1024.0000        -999.25        -999.25        -999.25        76.1689       81.64837         1.4658         1.6453         1.6786         1.7586         1.7725         1.7757        -999.25        -999.25       110.8204       1194.261              1
      1024.5000        -999.25        -999.25        -999.25        73.0878       78.22066         1.4628          1.645           1.68         1.7605         1.7747         1.7787        -999.25        -999.25       110.9387       1190.834      0.9621416
      1025.0000        -999.25        -999.25        -999.25        72.5028       77.56638         1.4612          1.646         1.6826         1.7638         1.7781          1.783        -999.25        -999.25       111.0747        1188.03      0.9482208
      1025.5000        -999.25        -999.25        -999.25        75.6229       81.02887         1.4598         1.6469         1.6847         1.7666         1.7811         1.7871        -999.25        -999.25       111.1989       1187.718              1
      1026.0000        -999.25        -999.25        -999.25         78.704       84.44804         1.4583         1.6472         1.6859         1.7686         1.7832         1.7901        -999.25        -999.25       111.2107       1185.848              1
      1026.5000        -999.25        -999.25        -999.25         80.732       86.69709         1.4559         1.6459         1.6849         1.7685          1.783          1.791        -999.25        -999.25       111.0629       1183.044              1
      1027.0000        -999.25        -999.25        -999.25        84.6711       91.06958         1.4515         1.6415         1.6806         1.7648         1.7792         1.7883        -999.25        -999.25       110.7021       1179.305              1
      1027.5000        -999.25        -999.25        -999.25        83.3061       89.54864         1.4461         1.6356         1.6745         1.7593         1.7734         1.7835        -999.25        -999.25        110.229       1180.863              1
      1028.0000        -999.25        -999.25        -999.25         78.743       84.47424          1.441         1.6298         1.6686         1.7537         1.7676         1.7786        -999.25        -999.25       109.7441       1184.602              1
      1028.5000        -999.25        -999.25        -999.25        74.8819       80.17986         1.4357         1.6236         1.6623         1.7475         1.7609         1.7728        -999.25        -999.25        109.407       1186.471              1
      1029.0000        -999.25        -999.25        -999.25        73.2048       78.31213         1.4327         1.6203         1.6593         1.7442         1.7573         1.7699        -999.25        -999.25       109.3065       1187.406       0.964088
      1029.5000        -999.25        -999.25        -999.25        75.0379       80.34464         1.4327         1.6208         1.6604         1.7445         1.7573         1.7705        -999.25        -999.25       109.5135        1186.16              1
      1030.0000        -999.25        -999.25        -999.25         78.197       83.85046         1.4326         1.6214         1.6616         1.7445         1.7569         1.7705        -999.25        -999.25       109.9806       1187.094              1
      1030.5000        -999.25        -999.25        -999.25        74.4919        79.7294         1.4317         1.6212         1.6621         1.7431          1.755         1.7687        -999.25        -999.25       110.4656       1191.457      0.9942425
      1031.0000        -999.25        -999.25        -999.25        73.3608       78.46835         1.4298         1.6199         1.6617         1.7401         1.7517         1.7651        -999.25        -999.25         110.85       1194.261      0.9674118
      1031.5000        -999.25        -999.25        -999.25         79.094       84.83429         1.4308         1.6226         1.6656         1.7412         1.7523         1.7652        -999.25        -999.25       111.0688        1192.08              1
      1032.0000        -999.25        -999.25        -999.25        82.4091       88.51345         1.4386         1.6344         1.6795         1.7523          1.763         1.7751        -999.25        -999.25       111.1338       1184.914              1
      1032.5000        -999.25        -999.25        -999.25          78.86       84.56573         1.4612         1.6661         1.7148         1.7856         1.7962         1.8071        -999.25        -999.25       111.1752       1176.189              1
      1033.0000        -999.25        -999.25        -999.25        73.9458       79.10122         1.5148         1.7392          1.795         1.8658         1.8765          1.886        -999.25        -999.25       111.2166       1172.138       0.980877
      1033.5000        -999.25        -999.25        -999.25        70.1237       74.85017         1.6127          1.874         1.9427         2.0169         2.0282         2.0362        -999.25        -999.25       111.2166        1170.58      0.8904291
      1034.0000        -999.25        -999.25        -999.25        65.1706       69.34244         1.7687         2.0948         2.1865         2.2695         2.2821         2.2881        -999.25        -999.25       111.3999       1165.907      0.7732434
      1034.5000        -999.25        -999.25        -999.25        60.8415       64.52805         1.9863         2.4178          2.549         2.6491          2.664         2.6672        -999.25        -999.25       111.5892       1158.428      0.6708096
      1035.0000        -999.25        -999.25        -999.25        59.1255       62.61711         2.2428         2.8257         3.0211         3.1492         3.1679         3.1669        -999.25        -999.25       111.6483       1154.378      0.6301512
      1035.5000        -999.25        -999.25        -999.25        57.8774       61.22605         2.4972         3.2671         3.5577         3.7271         3.7513         3.7444        -999.25        -999.25       111.5005       1153.755      0.6005542
      1036.0000        -999.25        -999.25        -999.25        53.7043       56.58499         2.7102          3.677         4.0908         4.3153         4.3471         4.3328        -999.25        -999.25       111.5714       1156.871      0.5018082
      1036.5000        -999.25        -999.25        -999.25        49.5312       51.94393         2.8681         4.0192         4.5662         4.8596         4.9015         4.8791        -999.25        -999.25       111.8671       1160.298      0.4030624
      1037.0000        -999.25        -999.25        -999.25        46.8402       48.94965         2.9322         4.1981          4.843          5.211         5.2644          5.235        -999.25        -999.25       112.4999       1164.037      0.3393542
      1037.5000        -999.25        -999.25        -999.25        46.2162       48.25204         2.8281         4.0375         4.6849         5.1039         5.1662         5.1339        -999.25        -999.25       113.0203       1168.088      0.3245114
      1038.0000        -999.25        -999.25        -999.25        44.4611       46.29765         2.5466         3.5248         4.0737         4.4918         4.5565         4.5268        -999.25        -999.25       113.5525       1173.385      0.2829286
      1038.5000        -999.25        -999.25        -999.25        43.5251       45.25336          2.181         2.8838         3.2959         3.6703         3.7315         3.7075        -999.25        -999.25       113.9842       1177.436      0.2607099
      1039.0000        -999.25        -999.25        -999.25        43.5251       45.24908         1.8492         2.3427         2.6387         2.9593         3.0153         2.9971        -999.25        -999.25       114.1025       1177.436      0.2606187
      1039.5000        -999.25        -999.25        -999.25        43.5641       45.28814         1.6049         1.9696          2.186         2.4629         2.5145         2.5012        -999.25        -999.25       114.0315       1171.515      0.2614498
