#------------------------------------------------------------------------------
# Created by    : vladimir.rabinovich
# Created on    : 09/19/2023 17:19:58
#------------------------------------------------------------------------------
~Version Information Section
VERS.           2.0     :   CWLS log ASCII Standard - VERSION 2.0
WRAP.           NO      :   One line per depth step
~Well Information Section
#MNEM       .UNIT                                         VALUE :DESCRIPTION
#------------------------------------------------------------------------------
STRT        .FT                                             782 :START DEPTH
STOP        .FT                                            8251 :STOP DEPTH
STEP        .FT                                             0.5 :STEP      
NULL        .                                           -999.25 :NULL      
COMP        .                                     TALOS ERT LLC :COMPANY   
WELL        .                               OCS G06037 ST00BP00 :WELL      
FLD         .                       MATAGORDA ISLAND BLOCK 0619 :FIELD     
LOC         .                                                   :LOCATION  
CNTY        .                      MATAGORDA ISLAND LARGE BLOCK :LOCATION  
STAT        .                                             TEXAS :STATE     
CTRY        .                                     UNITED STATES :COUNTRY   
SRVC        .                                                   :SERVICE COMPANY
DATE        .                             9/13/2023 11:18:52 AM :LOG DATE  
API         .                                    42703402240000 :API NUMBER
UWI         .                                    42703402240000 :UNIQUE WELL ID
XCOORD      .                                  606760.800591327 :SURFACE X 
YCOORD      .                                  10227689.0556145 :SURFACE Y 
LAT         .                                        28.1463556 :LATITUDE  
LON         .                                       -96.2076889 :LONGITUDE 
ELEV        .FT                                              77 :ELEVATION VALUE
ELEV_TYPE   .                                                KB :ELEVATION REFERENCE TYPE
~Curve Information Section
#MNEM       .UNIT                                      API CODE :CURVE DESCRIPTION
#------------------------------------------------------------------------------
DEPT        .FT                                                 :DEPTH     
ASFL        .OHMM                                               :          
CALI        .IN                                                 :          
CILD        .MMHO                                               :          
DRHO        .G/C3                                               :          
DT          .US/F                                               :          
GR          .GAPI                                               :          
GR_NORM     .GAPI                                               :GammaRay Normalized
ILD         .OHMM                                               :          
ILM         .OHMM                                               :          
NPHI        .%                                                  :          
RHOB        .G/C3                                               :          
SFL         .OHMM                                               :          
SP          .MV                                                 :          
SP_NORM     .MV                                                 :SP Normalized
VSH_GR      .V/V                                                :Volume of Shale from GR
VSH_SP      .V/V                                                :Volume of Shale from SP
~A        DEPTH           ASFL           CALI           CILD           DRHO             DT             GR        GR_NORM            ILD            ILM           NPHI           RHOB            SFL             SP        SP_NORM         VSH_GR         VSH_SP
# ...
      3774.0000         0.8525        17.1386       967.9229         0.0304       111.4045        81.0586       98.38098         0.9983         0.9734        37.1921         2.2689         0.8481       -55.2267      -4.035461              1      0.9115017
      3774.5000         0.8546        16.7134       959.2188         0.0298       112.9615        82.3669       100.1645         1.0239         0.9842        37.3569         2.2646         0.8393       -54.9541      -3.766575              1      0.9231924
      3775.0000         0.8567        16.6139       950.5205         0.0326       113.2111         83.075       101.1303          1.038          0.992          36.71          2.264         0.8328       -54.6885      -3.504681              1      0.9345791
      3775.5000         0.8588        16.6182       946.8145         0.0391       111.9481         82.188       99.92256          1.041         0.9908        35.7232         2.2757         0.8276       -54.4742      -3.294094              1      0.9437351
      3776.0000         0.8607        16.9066       947.3486         0.0504       110.1964        80.0182       96.96693         1.0411         0.9906        35.5895         2.3032         0.8278       -54.1057      -2.929302              1      0.9595956
      3776.5000         0.8622          17.11       947.8828         0.0599       108.7931        77.6902       93.79576          1.042         0.9914        36.8626         2.3107         0.8405       -53.7139       -2.54121              1      0.9764691
      3777.0000         0.8638        17.2059        948.417         0.0607       108.6401        78.5309       94.94216         1.0463          0.994        37.7097         2.3177         0.8552       -53.4253      -2.256321              1      0.9888556
      3777.5000         0.8653        17.2181       948.9512         0.0606       108.6499        80.0796       97.05328          1.045         0.9977        37.5062         2.3242         0.8494       -53.1607       -1.99543              1              1
      3778.0000         0.8595        17.2118       952.7617         0.0568       108.9482         78.755        95.2493          1.037          0.998        36.4279         2.3189         0.8494       -52.8812      -1.719639              1              1
      3778.5000         0.8485        17.1909       964.0723         0.0435       109.1768        76.0168        91.5192         1.0264         0.9969        35.7512           2.28         0.8465       -52.6823      -1.524448              1              1
      3779.0000         0.8375        17.1678       975.3828          0.032       109.3867        73.7395       88.41709         1.0173         0.9876        36.6019         2.2629         0.8425       -52.3589      -1.204758              1              1
      3779.5000         0.8243        17.1548       986.6992         0.0313       109.3893        74.0543       88.84693         1.0035         0.9774         37.461         2.2582         0.8367       -51.9318     -0.7813683              1              1
      3780.0000         0.8052        17.1321       1006.442         0.0436       109.5377        74.6024       89.59464         0.9927         0.9567        39.4108         2.2753         0.8263       -51.3756      -0.228878              1              1
      3780.5000         0.7861        17.1108        1028.01         0.0549        111.358        75.0342        90.1839         0.9737         0.9338        39.7662         2.2812         0.8075       -51.0203      0.1227112              1              1
      3781.0000          0.768        17.0882       1049.566         0.0609       114.1575         75.063       90.22404          0.949         0.9035        40.1711         2.2608         0.7788       -50.8665      0.2728004              1              1
      3781.5000         0.7501        17.0108       1073.637         0.0557       118.6792        74.6208       89.62239         0.9273         0.8736         40.904         2.2442         0.7588       -50.7795      0.3560944              1              1
      3782.0000         0.7349        16.8751       1110.732         0.0407       125.0591         74.074       88.87823         0.9012         0.8444        42.6021         2.2095         0.7357       -50.7046      0.4272804              1              1
      3782.5000         0.7288        16.7555       1147.803          0.029       130.7632        73.9072       88.65186         0.8716         0.8142        44.5602         2.1723         0.7177       -50.7719      0.3562737              1              1
      3783.0000         0.7245        16.6147       1183.363           0.02       135.2383         74.972       90.10362         0.8536         0.7888        45.8666         2.1485         0.7037       -50.8577      0.2667656              1              1
      3783.5000         0.7248        16.5094       1202.105         0.0131       137.0168         76.132        91.6851         0.8341         0.7717        46.9994         2.1354         0.6982       -50.9649      0.1558533              1              1
      3784.0000         0.7251         16.437        1205.18         0.0108       136.5872        76.9978       92.86572         0.8191         0.7597        47.3645         2.1302         0.6924       -51.1964    -0.07935333              1              1
      3784.5000         0.7267        16.4048       1208.254         0.0133       135.5186        77.7164       93.84575         0.8138         0.7546        47.4348         2.1361         0.6897       -51.5989     -0.4855652              1              1
      3785.0000         0.7304        16.4255       1198.951         0.0183       134.0093        78.2933       94.63271         0.8161         0.7607        47.4833         2.1468         0.6911       -51.8557     -0.7460747              1              1
      3785.5000         0.7342        16.4445       1189.566         0.0259       130.5918        78.9948       95.58945         0.8245         0.7705        47.6453         2.1735         0.6975       -52.1562      -1.050285              1              1
      3786.0000          0.738        16.4382       1177.965         0.0335       125.7739        77.9052        94.1057         0.8356         0.7877          47.48         2.1944         0.7132       -52.4794      -1.377193              1              1
      3786.5000         0.7417         16.431       1160.383         0.0366       119.1688         77.554       93.62805         0.8482         0.8098         46.585         2.2155         0.7263       -52.7957      -1.697205              1              1
      3787.0000          0.741         16.622       1142.813         0.0418       114.5859        77.3004        93.2834         0.8623         0.8252        45.8256         2.2228          0.733       -53.1435      -2.048714              1       0.997882
      3787.5000         0.7397        17.1096       1138.867          0.051       113.3972        76.9752       92.84118         0.8711         0.8339        45.1342         2.2281         0.7358       -53.5463      -2.455223              1      0.9802077
      3788.0000         0.7385        17.2859       1139.818           0.06       113.6361        76.6639       92.41792         0.8683         0.8349        44.8265         2.2323         0.7345       -53.7521      -2.664734              1      0.9710985
      3788.5000         0.7319        17.3364       1140.768         0.0636       115.4379        76.5615       92.27927         0.8596         0.8277        44.1277          2.235         0.7247       -53.8972      -2.813545              1      0.9646285
      3789.0000          0.724         17.337       1141.717         0.0622       118.8873        78.4357       94.83392         0.8541         0.8013        42.8065         2.2309         0.7114       -54.1716      -3.091652              1      0.9525369
      3789.5000         0.7162        17.1939       1143.463         0.0606       122.2657        79.9982       96.96382         0.8472         0.7827        41.0054         2.2273         0.6946       -54.4803       -3.40406              1      0.9389539
