#------------------------------------------------------------------------------
# Created by    : vladimir.rabinovich
# Created on    : 09/19/2023 17:20:02
#------------------------------------------------------------------------------
~Version Information Section
VERS.           2.0     :   CWLS log ASCII Standard - VERSION 2.0
WRAP.           NO      :   One line per depth step
~Well Information Section
#MNEM       .UNIT                                         VALUE :DESCRIPTION
#------------------------------------------------------------------------------
STRT        .FT                                             994 :START DEPTH
STOP        .FT                                           14137 :STOP DEPTH
STEP        .FT                                             0.5 :STEP      
NULL        .                                           -999.25 :NULL      
COMP        .                                   MARATHON OIL CO :COMPANY   
WELL        .                                     ST TR 00841-L :WELL      
FLD         .                                           WILDCAT :FIELD     
LOC         .                                                   :LOCATION  
CNTY        .                        MUSTANG ISLAND LARGE BLOCK :LOCATION  
STAT        .                                             TEXAS :STATE     
CTRY        .                                     UNITED STATES :COUNTRY   
SRVC        .                                                   :SERVICE COMPANY
DATE        .                             9/13/2023 11:18:55 AM :LOG DATE  
API         .                                    42702301400000 :API NUMBER
UWI         .                                    42702301400000 :UNIQUE WELL ID
XCOORD      .                                  272565.632686387 :SURFACE X 
YCOORD      .                                  9953986.84876921 :SURFACE Y 
LAT         .                                         27.367086 :LATITUDE  
LON         .                                       -97.2136853 :LONGITUDE 
ELEV        .FT                                              88 :ELEVATION VALUE
ELEV_TYPE   .                                                KB :ELEVATION REFERENCE TYPE
~Curve Information Section
#MNEM       .UNIT                                      API CODE :CURVE DESCRIPTION
#------------------------------------------------------------------------------
DEPT        .FT                                                 :DEPTH     
ASFL        .OHMM                                               :          
CILD        .MMHO                                               :          
GR          .GAPI                                               :          
GR_NORM     .GAPI                                               :GammaRay Normalized
ILD         .OHMM                                               :          
SP          .MV                                                 :          
SP_NORM     .MV                                                 :SP Normalized
VSH_GR      .V/V                                                :Volume of Shale from GR
VSH_SP      .V/V                                                :Volume of Shale from SP
~A        DEPTH           ASFL           CILD             GR        GR_NORM            ILD             SP        SP_NORM         VSH_GR         VSH_SP
# ...
      4492.0000         0.8379       1093.834         56.908       71.72977          0.993        -52.879      -4.978783      0.8240377      0.9423365
      4492.5000         0.8569       1073.619        56.0569       70.24366         1.0225       -51.8233      -3.931362      0.7924183      0.9575165
      4493.0000         0.8832       1055.807        55.3234       68.96278         1.0519       -50.4818      -2.598141      0.7651656      0.9768385
      4493.5000         0.9051       1037.996        54.6501       67.78699          1.081       -49.2912      -1.415817      0.7401488      0.9939737
      4494.0000          0.924       1019.764        53.9774       66.61221         1.0941        -47.962    -0.09489822      0.7151535              1
      4494.5000          0.943       977.9688        53.4658       65.71859         1.1072       -46.6497       1.209126      0.6961402              1
      4495.0000         0.9639       944.6396        54.5295       67.57423         1.1203        -46.253       1.597549       0.735622              1
      4495.5000         0.9788       941.8027        55.5925       69.42866         1.1333        -47.507      0.3352699      0.7750778              1
      4496.0000         0.9765       976.1094        57.0709       72.00803         1.1464       -49.4193      -1.585308       0.829958      0.9915172
      4496.5000         0.9623        991.207        58.6003       74.67638         1.1509       -49.6182      -1.792484      0.8867314      0.9885147
      4497.0000          0.948       1006.303        59.4166       76.10024         1.1523       -44.5937       3.223736      0.9170265              1
      4497.5000         0.9338       1021.412        60.0718       77.24297         1.1538       -43.3279       4.481258      0.9413397              1
      4498.0000         0.9196        1036.51        60.7264       78.38461         1.1552       -43.0681        4.73278      0.9656301              1
      4498.5000         0.9072       1032.553        61.2863       79.36102         1.1504       -44.6882       3.104401      0.9864046              1
      4499.0000         0.9027       1026.984        60.7852       78.48571         1.1398       -46.6863       1.098026      0.9677811              1
      4499.5000         0.9088       1023.719        60.2844       77.61096         1.1292       -49.7233      -1.947254      0.9491694      0.9862717
      4500.0000         0.9139       1021.398        59.7834       76.73586         1.1186       -48.9723      -1.204533      0.9305501      0.9970357
      4500.5000         0.9021       1019.078        59.4365       76.12968          1.106       -48.1162     -0.3567085      0.9176527              1
      4501.0000         0.8869       1016.759        59.8231       76.80362         1.0849       -47.2607      0.4905128      0.9319919              1
      4501.5000         0.8716       1028.664        60.2098       77.47774         1.0639       -48.6646      -0.921669      0.9463348              1
      4502.0000         0.8618       1042.756        60.5965       78.15186         1.0455       -50.8541      -3.119446      0.9606778      0.9692834
      4502.5000         0.8645       1056.973        60.9474       78.76349         1.0328       -52.3878      -4.661423      0.9736912      0.9469359
      4503.0000         0.8673       1082.357        60.9723        78.8062         1.0247       -51.3353      -3.617203         0.9746      0.9620695
      4503.5000         0.8701        1107.74        60.9971       78.84872         1.0244       -50.4084      -2.698582      0.9755046      0.9753829
      4504.0000         0.8632        1133.15        60.8216       78.54166          1.024       -49.7755      -2.073959      0.9689716      0.9844354
      4504.5000         0.8552       1167.879        60.2518        77.5465         1.0237       -49.1426      -1.449337      0.9477979      0.9934879
      4505.0000          0.836       1204.021         59.682       76.55131         1.0233       -48.7914      -1.106415      0.9266236      0.9984577
      4505.5000         0.8238       1238.355        59.0734       75.48841         1.0118       -50.0248      -2.348091      0.9040087      0.9804624
      4506.0000         0.8119        1264.51        58.4293       74.36356         0.9948       -49.7096      -2.041168      0.8800756      0.9849106
      4506.5000         0.8001       1265.598        57.7853       73.23886         0.9778       -48.8703      -1.210148       0.856146      0.9969544
      4507.0000         0.7908       1266.684        57.4565       72.66429         0.9607       -48.0391     -0.3872261      0.8439211              1
      4507.5000         0.7817        1267.77         58.213        73.9838         0.9357        -47.188      0.4555969      0.8719956              1
      4508.0000         0.7725       1255.336        59.2767       75.83943         0.9059       -46.1902       1.445118      0.9114773              1
      4508.5000         0.7633        1237.24        60.1725       77.40204         0.8863       -44.9294       2.697639      0.9447242              1
      4509.0000         0.7539       1219.143        60.7874       78.47441         0.8878        -43.106       4.512764      0.9675407              1
      4509.5000         0.7414       1201.047        61.4028       79.54767         0.8916        -42.374       5.236485      0.9903759              1
      4510.0000         0.7462       1182.951        62.0177       80.62004         0.9069       -42.0448       5.557407              1              1
      4510.5000         0.7622        1162.15        61.4725       79.66779         0.9221       -42.8194       4.774529      0.9929318              1
      4511.0000         0.7772       1135.678        60.7016       78.32164         0.9374       -43.6537       3.931946      0.9642902              1
      4511.5000         0.7923       1114.805        59.9313       76.97655         0.9498       -44.0131        3.56427      0.9356714              1
      4512.0000         0.8074        1101.68        59.3236       75.91521         0.9603       -43.5922       3.976891      0.9130895              1
      4512.5000         0.8211       1131.486        58.8698       75.12248         0.9708       -43.3553       4.205513       0.896223              1
      4513.0000         0.8207       1161.732        58.4156       74.32904         0.9813       -44.2872       3.265335      0.8793413              1
      4513.5000          0.807       1190.684        59.3047       75.87995         0.9918       -45.2067       2.337559      0.9123394              1
      4514.0000         0.7934       1215.697        60.4131       77.81361         0.9911       -46.1199        1.41608      0.9534811              1
      4514.5000         0.7797       1240.732        61.5197       79.74409         0.9771       -47.4709     0.05680084      0.9945551              1
      4515.0000         0.7657       1265.746        62.5635       81.56499          0.963       -49.2216      -1.702175              1      0.9898235
      4515.5000         0.7517       1294.576        63.6074       83.38607          0.949       -44.4482       3.062946              1              1
      4516.0000         0.7376       1326.701        63.8903       83.87906         0.9349       -45.0674       2.435467              1              1
      4516.5000         0.7235       1347.613        63.2051       82.68245         0.9008       -45.6866       1.807991              1              1
      4517.0000         0.7111       1367.232        62.4672        81.3939         0.8619       -46.3058       1.180511              1              1
      4517.5000         0.6987       1386.285        61.5222       79.74391          0.823       -46.2501       1.227936      0.9945513              1
      4518.0000         0.6863       1405.332        61.2008       79.18224         0.7937       -45.7917       1.678059      0.9826009              1
