#------------------------------------------------------------------------------
# Created by    : vladimir.rabinovich
# Created on    : 09/19/2023 17:20:32
#------------------------------------------------------------------------------
~Version Information Section
VERS.           2.0     :   CWLS log ASCII Standard - VERSION 2.0
WRAP.           NO      :   One line per depth step
~Well Information Section
#MNEM       .UNIT                                         VALUE :DESCRIPTION
#------------------------------------------------------------------------------
STRT        .FT                                             530 :START DEPTH
STOP        .FT                                           15895 :STOP DEPTH
STEP        .FT                                             0.5 :STEP      
NULL        .                                           -999.25 :NULL      
COMP        .                                      SHELL OIL CO :COMPANY   
WELL        .                                OCS 00708 ST00BP00 :WELL      
FLD         .                                FEDERAL BLOCK 0288 :FIELD     
LOC         .                                                   :LOCATION  
CNTY        .                             GALVESTON LARGE BLOCK :LOCATION  
STAT        .                                             TEXAS :STATE     
CTRY        .                                     UNITED STATES :COUNTRY   
SRVC        .                                                   :SERVICE COMPANY
DATE        .                             9/13/2023 11:19:24 AM :LOG DATE  
API         .                                    42706000930000 :API NUMBER
UWI         .                                    42706000930000 :UNIQUE WELL ID
XCOORD      .                                  1077631.85251343 :SURFACE X 
YCOORD      .                                  10490946.9562601 :SURFACE Y 
LAT         .                                         28.896779 :LATITUDE  
LON         .                                        -94.759235 :LONGITUDE 
ELEV        .FT                                              76 :ELEVATION VALUE
ELEV_TYPE   .                                                KB :ELEVATION REFERENCE TYPE
~Curve Information Section
#MNEM       .UNIT                                      API CODE :CURVE DESCRIPTION
#------------------------------------------------------------------------------
DEPT        .FT                                                 :DEPTH     
ASN         .OHMM                                               :          
CILD        .MMHO                                               :          
SP          .MV                                                 :          
SP_NORM     .MV                                                 :SP Normalized
VSH_SP      .V/V                                                :Volume of Shale from SP
~A        DEPTH            ASN           CILD             SP        SP_NORM         VSH_SP
# ...
      6646.0000         1.0172         1288.5       -66.0352      -7.976692      0.8754162
      6646.5000         1.0015       1391.875       -71.9922      -13.93504      0.7690172
      6647.0000         0.9863         1495.5       -75.4102      -17.35438      0.7079574
      6647.5000          0.971           1599        -79.332      -21.27753      0.6379013
      6648.0000         0.9347       1702.625         -81.54      -23.48687      0.5984488
      6648.5000         0.8931       1806.125       -82.2346      -24.18281      0.5860212
      6649.0000          0.842        1909.75        -82.489      -24.43856      0.5814543
      6649.5000          0.798           2389       -82.7891      -24.74001      0.5760713
      6650.0000          0.774       2462.688       -83.3013      -25.25355      0.5669009
      6650.5000         0.7598       2485.094       -84.7871       -26.7407      0.5403447
      6651.0000           0.76        2442.75       -89.8633      -31.81823      0.4496744
      6651.5000         0.7629           2333       -92.3984      -34.35468      0.4043806
      6652.0000         0.7723       2157.625       -93.5498      -35.50742       0.383796
      6652.5000         0.7818       2009.109       -93.4731      -35.43207      0.3851416
      6653.0000         0.7913       1972.625       -93.0767      -35.03701      0.3921962
      6653.5000         0.8307        1815.75       -92.6421      -34.60376      0.3999329
      6654.0000         0.8757           1659       -92.1963       -34.1593      0.4078696
      6654.5000         0.9149        1502.25       -90.7578      -32.72215       0.433533
      6655.0000         0.9527         1345.5       -87.5586       -29.5243      0.4906376
      6655.5000         0.9904        1188.75       -84.5625      -26.52954      0.5441154
      6656.0000         1.0244           1106       -83.0195      -24.98788      0.5716449
      6656.5000         1.0583       1069.063       -81.6016      -23.57133      0.5969406
      6657.0000         1.0753       1036.688       -79.9902      -21.96127      0.6256916
      6657.5000         1.0918          979.5       -78.4023      -20.37471       0.654023
      6658.0000         1.1073       948.2188       -76.9531      -18.92686      0.6798774
      6658.5000         1.1227       922.2187       -75.5625      -17.53761      0.7046856
      6659.0000         1.1381         897.25       -74.3184      -16.29485      0.7268777
      6659.5000         1.1552       870.7812       -73.0508      -15.02859      0.7494894
      6660.0000         1.1733       845.5469       -71.7539      -13.73304      0.7726243
      6660.5000         1.1914       827.1719       -69.9629      -11.94338      0.8045825
      6661.0000         1.2069       833.9453       -67.9746      -9.956432      0.8400637
      6661.5000         1.2135       842.3516       -66.5518      -8.534977      0.8654469
      6662.0000         1.2068       850.7578       -65.7148      -7.699318      0.8803693
      6662.5000         1.2001       859.1719       -65.2061      -7.191963      0.8894292
      6663.0000         1.1942       867.5781       -65.0354       -7.02261      0.8924534
      6663.5000         1.1885       875.9922       -64.8237      -6.812252      0.8962098
      6664.0000         1.1829       884.3984       -64.5847      -6.574596      0.9004536
      6664.5000         1.1772       892.8047       -64.3459      -6.337143      0.9046939
      6665.0000         1.1716       901.2188       -63.9917      -5.984283      0.9109949
      6665.5000         1.1659        909.625       -63.5601      -5.554031       0.918678
      6666.0000         1.1602       918.0391       -63.1289      -5.124172      0.9263541
      6666.5000         1.1547       926.4453       -62.6665       -4.66312      0.9345871
      6667.0000         1.1493       934.8516        -62.062      -4.059963      0.9453578
      6667.5000          1.144       936.3438       -61.4575       -3.45681      0.9561284
      6668.0000         1.1387       936.3555       -60.8911      -2.891754      0.9662187
      6668.5000         1.1366       936.3672       -60.5645      -2.566498      0.9720268
      6669.0000          1.135       936.3799       -60.2383      -2.241642      0.9778278
      6669.5000         1.1334       935.4082       -60.0362       -2.04089      0.9814127
      6670.0000         1.1348       933.0898       -60.0874       -2.09343      0.9804745
      6670.5000         1.1371       930.7734       -60.1387      -2.146076      0.9795343
      6671.0000         1.1393        928.457       -60.1899       -2.19862      0.9785961
      6671.5000         1.1416       926.1406       -60.2411      -2.251167      0.9776577
      6672.0000         1.1438       927.7617       -60.2291      -2.240509      0.9778481
      6672.5000         1.1459       931.6406       -60.1696      -2.182354      0.9788865
      6673.0000         1.1479       935.5195       -60.1102      -2.124298      0.9799232
      6673.5000           1.15       940.7422       -60.0507      -2.066143      0.9809617
      6674.0000          1.152       946.0078       -59.9912      -2.007988      0.9820002
      6674.5000         1.1518       951.2812       -59.9317      -1.949833      0.9830387
      6675.0000          1.146       952.9766       -59.7927       -1.81218      0.9854968
      6675.5000         1.1402       947.3125       -59.6011      -1.621922      0.9888943
      6676.0000         1.1343       941.6484       -59.4094      -1.431568      0.9922934
      6676.5000         1.1318       935.9766       -59.2175      -1.241009      0.9956962
      6677.0000         1.1336       930.3125       -59.0259      -1.050758      0.9990936
      6677.5000         1.1355       924.6484        -58.834      -0.860199              1
      6678.0000         1.1373       929.7656       -58.6423     -0.6698456              1
      6678.5000         1.1391       942.7813       -58.4507     -0.4795876              1
      6679.0000         1.1409       955.7969       -58.2588     -0.2890358              1
      6679.5000         1.1427            974       -58.0671    -0.09867859              1
      6680.0000         1.1446       1002.594        -57.877     0.09007645              1
      6680.5000         1.1471       1031.188       -57.8516      0.1141319              1
      6681.0000         1.1515       1059.781       -57.8262      0.1381912              1
      6681.5000         1.1559       1089.875       -57.8007      0.1623421              1
      6682.0000         1.1313       1120.156       -57.7753      0.1864014              1
      6682.5000         1.0961       1150.313       -57.7503      0.2100525              1
      6683.0000         1.0668       1180.313        -57.726      0.2330093              1
      6683.5000         1.0428       1208.531       -57.7017      0.2559662              1
      6684.0000         1.0202       1226.531       -57.6773      0.2790222              1
      6684.5000         1.0013       1244.547        -57.653      0.3019753              1
      6685.0000         0.9856       1261.148        -57.559      0.3946342              1
      6685.5000         0.9753        1264.73       -57.4304      0.5218849              1
      6686.0000          0.965       1268.313       -57.3019       0.649044              1
      6686.5000         0.9578       1265.984       -57.1733      0.7762947              1
      6687.0000         0.9537       1255.516       -57.0448      0.9034538              1
      6687.5000         0.9561       1245.031       -56.9161       1.030807              1
      6688.0000         0.9587       1234.563       -56.7943       1.151264              1
      6688.5000         0.9673       1205.875       -56.6793       1.264919              1
      6689.0000          0.977       1171.938       -56.5645       1.378376              1
      6689.5000         0.9868       1137.063       -56.4496       1.491928              1
