#------------------------------------------------------------------------------
# Created by    : vladimir.rabinovich
# Created on    : 09/19/2023 17:20:12
#------------------------------------------------------------------------------
~Version Information Section
VERS.           2.0     :   CWLS log ASCII Standard - VERSION 2.0
WRAP.           NO      :   One line per depth step
~Well Information Section
#MNEM       .UNIT                                         VALUE :DESCRIPTION
#------------------------------------------------------------------------------
STRT        .FT                                             970 :START DEPTH
STOP        .FT                                            6500 :STOP DEPTH
STEP        .FT                                             0.5 :STEP      
NULL        .                                           -999.25 :NULL      
COMP        .                                CONTINENTAL OIL CO :COMPANY   
WELL        .                               OCS G03106 ST00BP00 :WELL      
FLD         .                       MATAGORDA ISLAND BLOCK 0687 :FIELD     
LOC         .                                                   :LOCATION  
CNTY        .                      MATAGORDA ISLAND LARGE BLOCK :LOCATION  
STAT        .                                             TEXAS :STATE     
CTRY        .                                     UNITED STATES :COUNTRY   
SRVC        .                                                   :SERVICE COMPANY
DATE        .                             9/13/2023 11:12:09 AM :LOG DATE  
API         .                                    42703400330000 :API NUMBER
UWI         .                                    42703400330000 :UNIQUE WELL ID
XCOORD      .                                  468864.661343862 :SURFACE X 
YCOORD      .                                  10154488.9405743 :SURFACE Y 
LAT         .                                         27.934663 :LATITUDE  
LON         .                                        -96.628194 :LONGITUDE 
ELEV        .FT                                              96 :ELEVATION VALUE
ELEV_TYPE   .                                                KB :ELEVATION REFERENCE TYPE
~Curve Information Section
#MNEM       .UNIT                                      API CODE :CURVE DESCRIPTION
#------------------------------------------------------------------------------
DEPT        .FT                                                 :DEPTH     
ASFL        .OHMM                                               :          
CALI        .IN                                                 :          
CILD        .MMHO                                               :          
DRHO        .G/C3                                               :          
DT          .US/F                                               :          
DTL         .US/F                                               :          
GR          .GAPI                                               :          
GR_1        .GAPI                                               :          
GR_NORM     .GAPI                                               :GammaRay Normalized
ILD         .OHMM                                               :          
ILM         .OHMM                                               :          
NPHI        .%                                                  :          
RHOB        .G/C3                                               :          
SFL         .OHMM                                               :          
SP          .MV                                                 :          
SP_NORM     .MV                                                 :SP Normalized
VSH_GR      .V/V                                                :Volume of Shale from GR
VSH_SP      .V/V                                                :Volume of Shale from SP
~A        DEPTH           ASFL           CALI           CILD           DRHO             DT            DTL             GR           GR_1        GR_NORM            ILD            ILM           NPHI           RHOB            SFL             SP        SP_NORM         VSH_GR         VSH_SP
# ...
      1726.0000         0.6021        -999.25        1603.98        -999.25       121.6685        -999.25        36.1138        -999.25       54.48819         0.6027          0.618        -999.25        -999.25         0.5537       -63.6302        -10.874      0.4571955      0.5368236
      1726.5000         0.6181        -999.25       1555.084        -999.25       120.5754        -999.25        36.4443        -999.25       55.12093         0.6101         0.6416        -999.25        -999.25         0.5752         -63.75       -11.0079      0.4706581      0.5289471
      1727.0000         0.6326        -999.25       1499.674        -999.25       120.1676        -999.25        35.7809        -999.25       53.83516         0.6175         0.6807        -999.25        -999.25         0.6212       -63.6609       -10.9329      0.4433013      0.5333588
      1727.5000         0.6461        -999.25       1443.104        -999.25       120.3938        -999.25        35.3464        -999.25       52.99124         0.6248         0.7217        -999.25        -999.25         0.6758       -63.2439       -10.5299      0.4253456      0.5570647
      1728.0000         0.6595        -999.25       1384.531        -999.25       121.2241        -999.25        38.4729        -999.25       59.02102         0.6322         0.7598        -999.25        -999.25         0.7272       -62.9792       -10.2793      0.5536387      0.5718059
      1728.5000          0.673        -999.25       1338.449        -999.25       122.9623        -999.25        42.3464        -999.25       66.49249         0.6432         0.7777        -999.25        -999.25         0.7471       -62.5143        -9.8285      0.7126063      0.5983235
      1729.0000         0.6865        -999.25       1313.877        -999.25         126.64        -999.25        43.0298        -999.25       67.80643         0.6837         0.7819        -999.25        -999.25         0.7603       -61.7454        -9.0737      0.7405624      0.6427236
      1729.5000         0.6954        -999.25       1319.133        -999.25       139.9851        -999.25        42.6763        -999.25       67.11887         0.7242          0.774        -999.25        -999.25         0.7527        -61.286        -8.6283      0.7259333      0.6689236
      1730.0000          0.703        -999.25       1370.893        -999.25       144.3826        -999.25        41.6702        -999.25       65.17161         0.7584         0.7517        -999.25        -999.25         0.7045       -62.1332        -9.4896      0.6845023      0.6182588
      1730.5000         0.7106        -999.25       1428.891        -999.25       149.5596        -999.25        40.5241        -999.25       62.95413         0.7836         0.7186        -999.25        -999.25         0.6491       -62.9256       -10.2961      0.6373219      0.5708176
      1731.0000         0.6974        -999.25       1486.891        -999.25        151.219        -999.25        39.7363        -999.25       61.42825         0.8018         0.6775        -999.25        -999.25         0.6034       -63.0654         -10.45      0.6048564      0.5617647
      1731.5000         0.6752        -999.25       1545.316        -999.25       152.1506        -999.25        39.4766        -999.25       60.92175         0.7533         0.6396        -999.25        -999.25         0.5804        -62.471        -9.8697      0.5940797         0.5959
      1732.0000         0.6549        -999.25       1611.863        -999.25       152.0579        -999.25        38.2418        -999.25       58.53303         0.7093         0.6108        -999.25        -999.25         0.5644       -61.4606        -8.8733       0.543256      0.6545118
      1732.5000         0.6361        -999.25       1678.408        -999.25       149.5657        -999.25        37.4019        -999.25       56.90641         0.6898         0.5935        -999.25        -999.25         0.5563        -60.487        -7.9138       0.508647      0.7109529
      1733.0000         0.6174        -999.25       1732.377        -999.25       146.2207        -999.25        37.2399        -999.25        56.5885         0.6703         0.5837        -999.25        -999.25          0.553       -59.5919        -7.0328      0.5018831      0.7627765
      1733.5000         0.5987        -999.25       1759.229        -999.25       143.4341        -999.25        36.6134        -999.25       55.37397         0.6509         0.5766        -999.25        -999.25         0.5564       -59.1725        -6.6275      0.4760418      0.7866177
      1734.0000         0.5885        -999.25       1755.736        -999.25       140.0435        -999.25        34.8632        -999.25       51.99043         0.6314         0.5697        -999.25        -999.25         0.5599       -59.4244        -6.8934      0.4040516      0.7709765
      1734.5000         0.5827        -999.25       1734.723        -999.25       137.0349        -999.25        32.8743        -999.25       48.14609         0.6206         0.5762        -999.25        -999.25         0.5586       -60.2542        -7.7373      0.3222573      0.7213353
      1735.0000         0.5769        -999.25       1706.865        -999.25       135.4385        -999.25        31.8893        -999.25       46.23956         0.6182         0.5933        -999.25        -999.25         0.5394       -60.4969        -7.9941      0.2816927      0.7062294
      1735.5000         0.5711        -999.25           1679        -999.25       135.3906        -999.25        31.3042        -999.25       45.10495         0.6159          0.613        -999.25        -999.25          0.527       -60.3127         -7.824      0.2575522      0.7162353
      1736.0000         0.5692        -999.25       1651.143        -999.25       135.6921        -999.25        30.7933        -999.25       44.11356         0.6135         0.6316        -999.25        -999.25         0.5307       -59.9405        -7.4658      0.2364587      0.7373059
      1736.5000         0.5701        -999.25       1623.285        -999.25       137.0759        -999.25        30.3491        -999.25       43.25074         0.6111         0.6399        -999.25        -999.25         0.5668       -59.8102        -7.3496      0.2181008      0.7441412
      1737.0000         0.5711        -999.25       1617.717        -999.25        140.135        -999.25        30.4087        -999.25       43.36057         0.6084         0.6345        -999.25        -999.25         0.5922       -60.2381        -7.7916      0.2204376      0.7181411
      1737.5000          0.572        -999.25       1644.977        -999.25        147.001        -999.25        30.8243        -999.25       44.15758         0.6048         0.6274        -999.25        -999.25         0.6046        -60.212        -7.7796      0.2373953       0.718847
      1738.0000         0.5729        -999.25       1672.236        -999.25       149.6245        -999.25        30.6641        -999.25       43.84314         0.6012         0.6044        -999.25        -999.25         0.5806       -59.5545        -7.1362      0.2307052      0.7566941
      1738.5000         0.5728        -999.25       1699.496        -999.25       151.3494        -999.25          29.82        -999.25       42.20858         0.5977         0.5805        -999.25        -999.25         0.5541       -59.5163         -7.112      0.1959273      0.7581176
      1739.0000          0.572        -999.25       1726.762        -999.25       152.7024        -999.25        29.9785        -999.25       42.50933         0.5941         0.5603        -999.25        -999.25         0.5262       -60.5843        -8.1941      0.2023263      0.6944647
      1739.5000         0.5676        -999.25       1755.174        -999.25       153.2429        -999.25        32.5386        -999.25       47.44579         0.5905         0.5464        -999.25        -999.25         0.5063       -61.6085        -9.2324      0.3073571      0.6333882
