#------------------------------------------------------------------------------
# Created by    : vladimir.rabinovich
# Created on    : 09/19/2023 17:21:46
#------------------------------------------------------------------------------
~Version Information Section
VERS.           2.0     :   CWLS log ASCII Standard - VERSION 2.0
WRAP.           NO      :   One line per depth step
~Well Information Section
#MNEM       .UNIT                                         VALUE :DESCRIPTION
#------------------------------------------------------------------------------
STRT        .FT                                            2869 :START DEPTH
STOP        .FT                                           10002 :STOP DEPTH
STEP        .FT                                             0.5 :STEP      
NULL        .                                           -999.25 :NULL      
COMP        .                          SEAGULL ENERGY E & P INC :COMPANY   
WELL        .                               OCS G06145 ST00BP00 :WELL      
FLD         .                                           WILDCAT :FIELD     
LOC         .                                                   :LOCATION  
CNTY        .                           HIGH ISLAND LARGE BLOCK :LOCATION  
STAT        .                                             TEXAS :STATE     
CTRY        .                                     UNITED STATES :COUNTRY   
SRVC        .                                                   :SERVICE COMPANY
DATE        .                             9/13/2023 11:19:59 AM :LOG DATE  
API         .                                    42708402850000 :API NUMBER
UWI         .                                    42708402850000 :UNIQUE WELL ID
XCOORD      .                                  1277324.30822617 :SURFACE X 
YCOORD      .                                   10672684.104362 :SURFACE Y 
LAT         .                                         29.403374 :LATITUDE  
LON         .                                        -94.140646 :LONGITUDE 
ELEV        .FT                                              88 :ELEVATION VALUE
ELEV_TYPE   .                                                KB :ELEVATION REFERENCE TYPE
~Curve Information Section
#MNEM       .UNIT                                      API CODE :CURVE DESCRIPTION
#------------------------------------------------------------------------------
DEPT        .FT                                                 :DEPTH     
CALI        .IN                                                 :          
DPHI        .%                                                  :          
DRHO        .G/C3                                               :          
GR          .GAPI                                               :          
GR_NORM     .GAPI                                               :GammaRay Normalized
ILD         .OHMM                                               :          
ILM         .OHMM                                               :          
NPHI        .%                                                  :          
SFL         .OHMM                                               :          
SP          .MV                                                 :          
SP_NORM     .MV                                                 :SP Normalized
VSH_GR      .V/V                                                :Volume of Shale from GR
VSH_SP      .V/V                                                :Volume of Shale from SP
~A        DEPTH           CALI           DPHI           DRHO             GR        GR_NORM            ILD            ILM           NPHI            SFL             SP        SP_NORM         VSH_GR         VSH_SP
# ...
      6726.0000         10.352        21.6929          0.014        73.1023       70.05051         0.4495          0.505        35.0089         0.7205       -35.7463       -11.6862      0.7883087      0.8330542
      6726.5000        10.3066        21.7408         0.0155        75.2594       72.44817          0.444         0.4928        38.6417         0.7022        -30.688      -7.522614      0.8393227      0.8925341
      6727.0000        10.2678        21.7734         0.0173        77.3179       74.73628         0.4511         0.4929        42.8485         0.6273       -26.3232      -3.930144       0.888006      0.9438551
      6727.5000        10.2679        21.6382         0.0197        78.5404        76.0955         0.4698         0.5071        45.1607         0.6135       -24.6535      -2.557165      0.9169255      0.9634691
      6728.0000        10.2699        21.2446          0.024        78.9789        76.5836         0.4922         0.5275        44.9774         0.6471        -23.872      -1.915646      0.9273105      0.9726337
      6728.5000        10.2723        20.8731         0.0327        79.1399       76.76338          0.516         0.5423        43.5787         0.6597       -22.7554     -0.9981632      0.9311358      0.9857405
      6729.0000        10.2749        20.5257         0.0447        79.2306       76.86504         0.5356         0.5538        42.3752         0.6381       -22.3383     -0.6567385      0.9332988      0.9906181
      6729.5000        10.2787        20.3192         0.0546        79.2645        76.9036          0.548         0.5628        43.8055         0.6289       -22.0181     -0.3951131      0.9341192      0.9943555
      6730.0000        10.2842        20.3888         0.0513        79.1842       76.81525         0.5576          0.569         44.139         0.6416       -21.6868     -0.1243459      0.9322395      0.9982236
      6730.5000        10.2966         21.355         0.0384        78.9022       76.50281         0.5638         0.5723        42.7403         0.6644       -21.3363       0.162231      0.9255916              1
      6731.0000        10.3157        22.7568         0.0231        78.2803       75.81269          0.565         0.5721        41.1042         0.6811       -20.9656      0.4654453      0.9109083              1
      6731.5000        10.3454        23.7694         0.0107        77.0819       74.48203         0.5661         0.5709        40.5615         0.6772       -20.7451      0.6449641      0.8825964              1
      6732.0000         10.363        24.2863         0.0048        75.9877       73.26714         0.5667         0.5703        40.6852         0.6416       -20.6184      0.7472346      0.8567476              1
      6732.5000        10.3609          24.08         0.0065        75.2883       72.49091         0.5653         0.5681         41.032         0.6115       -20.6737      0.6996249      0.8402322              1
      6733.0000        10.3327        23.7653         0.0098          75.11       72.29369         0.5626         0.5652        42.3857         0.5962       -20.6404      0.7249801      0.8360358              1
      6733.5000        10.3015        23.5568         0.0132        75.6895       72.93846         0.5564          0.559        43.6192         0.5932        -20.653      0.7125334      0.8497545              1
      6734.0000         10.279        23.4485         0.0166        77.4293       74.87245         0.5486         0.5524        44.5094         0.5995       -20.8021       0.587677      0.8909032              1
      6734.5000        10.2715        23.3054         0.0198        79.7555       77.45801         0.5343         0.5457        44.8766         0.6086       -21.2777      0.1939367       0.945915              1
      6735.0000        10.2657        23.1407         0.0224        80.6027       78.40023         0.5162         0.5391        44.6679         0.5837       -22.5033     -0.8174506      0.9659624      0.9883221
      6735.5000        10.2638        23.0395         0.0221        79.0643       76.69178         0.4901         0.5293        43.0228         0.5266       -25.2927      -3.116672      0.9296123      0.9554761
      6736.0000        10.2331        23.2886         0.0181        76.6454         74.005         0.4565         0.5113        39.3088          0.498       -29.9052       -6.91727      0.8724469      0.9011819
      6736.5000        10.2283         24.035         0.0128        73.2231       70.20333         0.4229           0.49        35.7061          0.495       -36.2319      -12.12956      0.7915602      0.8267205
      6737.0000        10.2518        24.1307         0.0085        68.5709        65.0351         0.3948         0.4635        32.9566           0.56       -44.0301      -18.55368      0.6815979      0.7349474
      6737.5000        10.3454        22.1393          0.009        62.4622       58.24855         0.3786         0.4363        30.1531         0.5974       -51.0653      -24.34944      0.5372032      0.6521508
      6738.0000        10.5012        18.6537         0.0102         57.903       53.18365         0.3759         0.4179        27.4789         0.6696       -54.6368      -27.29274      0.4294394      0.6101037
      6738.5000        10.6448        14.9293         0.0105        58.0256       53.32077         0.3817         0.4118        25.0585         0.8918        -52.725      -25.72039      0.4323567      0.6325658
      6739.0000        10.7191        15.7361         0.0117        63.0568       58.91187         0.4022         0.4124        25.9734         0.9671       -48.3304      -22.10338      0.5513164      0.6842375
      6739.5000        10.7117        17.3391         0.0138        69.0577       65.58043         0.4338         0.4295        27.8785         0.8646       -43.7278      -18.31507      0.6932006      0.7383561
      6740.0000        10.7091        18.2841         0.0166        72.4113       69.30753         0.4748         0.4681        28.9978         0.6373       -40.8221      -15.92422      0.7725006      0.7725112
      6740.5000        10.7534        18.1475         0.0193        73.5919        70.6202         0.5145         0.5194        29.5428         0.5899       -39.4646      -14.80834      0.8004298      0.7884523
      6741.0000        10.8166        18.3675          0.021        72.7587        69.6953         0.5464         0.5647        29.6635         0.5763       -43.3464      -18.00719       0.780751      0.7427545
      6741.5000        10.8576        20.3214         0.0206        68.3108       64.75408         0.5654         0.5713         28.831          0.614       -50.8176      -24.16201      0.6756188      0.6548284
      6742.0000        10.6516        23.9662         0.0188        54.6071       49.52863         0.4838         0.5292        27.7869         0.8189       -65.3834      -36.15944       0.351673      0.4834365
      6742.5000        10.3499        27.8124         0.0157        45.7709       39.71152         0.4057         0.4451        26.9928         1.0435       -78.4034      -46.88387      0.1427982      0.3302305
      6743.0000        10.3897        31.1688          0.014        41.0482       34.46495         0.3126         0.3632        28.4104         1.1387       -89.7094      -56.19675     0.03116924      0.1971892
      6743.5000        10.6754        32.9702         0.0135        39.5521       32.80352         0.2435         0.3035        31.4662         0.8613       -95.1691      -60.69504              0       0.132928
      6744.0000        11.0999        33.9354         0.0129        40.2177       33.54395         0.1921         0.2613        33.4359         0.5106       -97.8494      -62.90443     0.01157339      0.1013653
      6744.5000        11.6633        34.3636         0.0107         41.025       34.44184         0.1587         0.2293        34.2111         0.3956       -99.7816      -64.49772     0.03067747     0.07860402
