#------------------------------------------------------------------------------
# Created by    : vladimir.rabinovich
# Created on    : 09/19/2023 17:19:40
#------------------------------------------------------------------------------
~Version Information Section
VERS.           2.0     :   CWLS log ASCII Standard - VERSION 2.0
WRAP.           NO      :   One line per depth step
~Well Information Section
#MNEM       .UNIT                                         VALUE :DESCRIPTION
#------------------------------------------------------------------------------
STRT        .FT                                            4790 :START DEPTH
STOP        .FT                                           12963 :STOP DEPTH
STEP        .FT                                             0.5 :STEP      
NULL        .                                           -999.25 :NULL      
COMP        .                         ATLANTIC RICHFIELD CO THE :COMPANY   
WELL        .                               OCS G06150 ST00BP00 :WELL      
FLD         .                                           WILDCAT :FIELD     
LOC         .                                                   :LOCATION  
CNTY        .                           HIGH ISLAND LARGE BLOCK :LOCATION  
STAT        .                                             TEXAS :STATE     
CTRY        .                                     UNITED STATES :COUNTRY   
SRVC        .                                                   :SERVICE COMPANY
DATE        .                             9/13/2023 11:19:59 AM :LOG DATE  
API         .                                    42708402440000 :API NUMBER
UWI         .                                    42708402440000 :UNIQUE WELL ID
XCOORD      .                                  1291497.32246636 :SURFACE X 
YCOORD      .                                   10652058.279547 :SURFACE Y 
LAT         .                                         29.347015 :LATITUDE  
LON         .                                        -94.095521 :LONGITUDE 
ELEV        .FT                                             105 :ELEVATION VALUE
ELEV_TYPE   .                                                KB :ELEVATION REFERENCE TYPE
~Curve Information Section
#MNEM       .UNIT                                      API CODE :CURVE DESCRIPTION
#------------------------------------------------------------------------------
DEPT        .FT                                                 :DEPTH     
ALL         .OHMM                                               :          
CILD        .MMHO                                               :          
GR          .GAPI                                               :          
GR_NORM     .GAPI                                               :GammaRay Normalized
ILD         .OHMM                                               :          
SP          .MV                                                 :          
SP_NORM     .MV                                                 :SP Normalized
VSH_GR      .V/V                                                :Volume of Shale from GR
VSH_SP      .V/V                                                :Volume of Shale from SP
~A        DEPTH            ALL           CILD             GR        GR_NORM            ILD             SP        SP_NORM         VSH_GR         VSH_SP
# ...
      8632.5000         0.6668       1847.432        84.2711       89.22543         0.5479       -32.9763       1.452213              1              1
      8633.0000          0.659       1840.977        83.1301       87.79918         0.5458       -33.0671       1.360611              1              1
      8633.5000         0.6493       1829.918        82.6514       87.20081         0.5437        -33.158       1.268909              1              1
      8634.0000         0.6537       1806.313        83.4353       88.18069         0.5422       -33.2488       1.177311              1              1
      8634.5000         0.6661       1782.707        84.2194        89.1608         0.5439       -33.3397       1.085609              1              1
      8635.0000         0.6784         1759.1        84.9395       90.06093         0.5455       -33.4305      0.9940071              1              1
      8635.5000         0.6908       1735.494        84.7744       89.85455         0.5472       -33.5214      0.9023094              1              1
      8636.0000         0.6876       1711.887         83.913       88.77781         0.5489       -33.6122      0.8107071              1              1
      8636.5000         0.6746       1690.316        83.0514       87.70081         0.5505       -33.7032      0.7189064              1              1
      8637.0000         0.6617        1672.32        82.1898        86.6238         0.5522       -33.7994      0.6219063              1              1
      8637.5000         0.6488       1654.324        81.2963       85.50694         0.5538       -33.8981      0.5224037              1              1
      8638.0000         0.6405        1667.43        80.4015       84.38843         0.5555       -33.9968      0.4229088              1              1
      8638.5000         0.6459       1692.254        79.5066       83.26981         0.5559       -34.0955      0.3234062              1              1
      8639.0000         0.6585       1717.076        78.6118       82.15131         0.5553       -34.1942      0.2239075              1              1
      8639.5000         0.6751       1741.898         77.717       81.03281         0.5546       -34.2929      0.1244049              1              1
      8640.0000         0.6916       1766.721        76.8223       79.91444          0.554       -34.3916     0.02490234      0.9981795              1
      8640.5000         0.7082       1774.607        75.9275       78.79593         0.5534       -34.4902    -0.07449722      0.9743814      0.9988539
      8641.0000         0.7247       1777.811        75.8597       78.71118         0.5528        -34.589     -0.1740952      0.9725783      0.9973216
      8641.5000         0.7413       1781.012         76.954       80.07906         0.5522       -34.6774     -0.2632942              1      0.9959493
      8642.0000         0.7578       1784.215        78.0469       81.44518         0.5515       -34.7648     -0.3514977              1      0.9945924
      8642.5000         0.7744       1787.416        79.1411       82.81293         0.5509       -34.8522     -0.4396973              1      0.9932354
      8643.0000         0.7909       1790.619        79.2131       82.90292         0.5561       -34.9396     -0.5279007              1      0.9918784
      8643.5000         0.7993        1793.82         78.629       82.17281         0.5657        -35.027     -0.6160965              1      0.9905216
      8644.0000         0.7832       1793.703        78.0457       81.44368         0.5752       -35.1144     -0.7042961              1      0.9891647
      8644.5000         0.7672        1777.42        77.4623       80.71443         0.5847       -35.2017     -0.7923965              1      0.9878093
      8645.0000         0.7512       1761.111        76.8783       79.98444         0.5943       -35.2892     -0.8806992      0.9996688      0.9864508
      8645.5000         0.7352       1744.826        76.2949       79.25518         0.6038       -35.3765     -0.9687996      0.9841528      0.9850954
      8646.0000         0.7191        1728.52        76.3638       79.34131         0.6134       -35.4639      -1.057003      0.9859853      0.9837384
      8646.5000         0.7031       1712.234        76.7982       79.88431         0.6229       -35.8703      -1.464199      0.9975384      0.9774739
      8647.0000         0.6871       1695.928          77.61       80.89906         0.6325       -36.2982      -1.892899              1      0.9708785
      8647.5000         0.6729       1671.154        78.4937       82.00368          0.642        -36.726      -2.321503              1      0.9642846
      8648.0000         0.7026       1624.686        78.0937       81.50368         0.6515       -37.1543      -2.750603              1       0.957683
      8648.5000         0.7323        1578.17        76.0703       78.97443         0.6611       -37.8102      -3.407303      0.9781793        0.94758
      8649.0000          0.767       1531.701        74.0469       76.44518         0.6716       -38.5422      -4.140099      0.9243654      0.9363062
      8649.5000         0.8229       1488.809        71.8339       73.67893         0.6824       -39.2733      -4.872002      0.8655092      0.9250461
      8650.0000         0.8788       1452.369        69.5938       70.87881         0.6932       -40.0053      -5.604801      0.8059322      0.9137723
      8650.5000         0.9249        1415.93        67.6725       68.47718         0.7029       -40.7585      -6.358803      0.7548336      0.9021723
      8651.0000         0.9614       1383.957        66.4995       67.01093         0.7066       -41.5182      -7.119305      0.7236367      0.8904722
      8651.5000         0.9979       1356.803        65.3279       65.54643         0.7054        -42.278      -7.879906      0.6924773      0.8787707
      8652.0000         1.0327       1363.256        64.1549       64.08018         0.6783       -43.0386      -8.641304      0.6612805      0.8670568
      8652.5000         1.0615       1418.857        63.3328       63.05256         0.6512       -43.9331      -9.536606      0.6394162       0.853283
      8653.0000          1.048       1482.006        62.8207       62.41243          0.624       -45.0389       -10.6432      0.6257964      0.8362584
      8653.5000         1.0243       1545.254        62.3093       61.77318         0.5969       -46.1448       -11.7499      0.6121954      0.8192322
      8654.0000         1.0006       1608.502        61.7973       61.13318         0.5698       -47.2562      -12.86211      0.5985783      0.8021215
      8654.5000          0.977       1711.168         61.289       60.49781         0.5426       -48.7775       -14.3842      0.5850598      0.7787045
      8655.0000         0.9533       1823.961        60.7874        59.8708         0.5155       -51.7684       -17.3759      0.5717192      0.7326784
      8655.5000         0.9166       2282.281        60.2859       59.24393         0.4884       -54.9734      -20.58171      0.5583815      0.6833584
      8656.0000         0.8738       2598.023        59.7838        58.6163         0.4628       -62.7385      -28.34761      0.5450277      0.5638829
      8656.5000         0.8309       2798.789        59.2822       57.98931         0.4376        -64.677      -30.28691      0.5316874      0.5340475
      8657.0000          0.732       2866.504        58.3862       56.86931         0.4124       -66.5471      -32.15781      0.5078576      0.5052645
      8657.5000         0.7368       2934.121        56.8231       54.91543         0.3872        -67.642      -33.25351      0.4662858      0.4884076
      8658.0000         0.7415       3047.809        55.2599       52.96143         0.3621       -68.7662      -34.37851      0.4247113      0.4710999
      8658.5000         0.7691       3166.262        53.9061       51.26918         0.3369        -69.959      -35.57211      0.3887061      0.4527368
