#------------------------------------------------------------------------------
# Created by    : vladimir.rabinovich
# Created on    : 09/19/2023 17:20:58
#------------------------------------------------------------------------------
~Version Information Section
VERS.           2.0     :   CWLS log ASCII Standard - VERSION 2.0
WRAP.           NO      :   One line per depth step
~Well Information Section
#MNEM       .UNIT                                         VALUE :DESCRIPTION
#------------------------------------------------------------------------------
STRT        .FT                                             521 :START DEPTH
STOP        .FT                                           11050 :STOP DEPTH
STEP        .FT                                             0.5 :STEP      
NULL        .                                           -999.25 :NULL      
COMP        .                                      SHELL OIL CO :COMPANY   
WELL        .                                     ST TR 00335-L :WELL      
FLD         .                                           WILDCAT :FIELD     
LOC         .                                                   :LOCATION  
CNTY        .                                BRAZOS LARGE BLOCK :LOCATION  
STAT        .                                             TEXAS :STATE     
CTRY        .                                     UNITED STATES :COUNTRY   
SRVC        .                                                   :SERVICE COMPANY
DATE        .                             9/13/2023 11:18:52 AM :LOG DATE  
API         .                                    42704000130000 :API NUMBER
UWI         .                                    42704000130000 :UNIQUE WELL ID
XCOORD      .                                  903482.990868916 :SURFACE X 
YCOORD      .                                   10450808.276789 :SURFACE Y 
LAT         .                                        28.7782296 :LATITUDE  
LON         .                                       -95.3008656 :LONGITUDE 
ELEV        .FT                                              81 :ELEVATION VALUE
ELEV_TYPE   .                                                DF :ELEVATION REFERENCE TYPE
~Curve Information Section
#MNEM       .UNIT                                      API CODE :CURVE DESCRIPTION
#------------------------------------------------------------------------------
DEPT        .FT                                                 :DEPTH     
ASN         .OHMM                                               :          
CILD        .MMHO                                               :          
ILD         .OHMM                                               :          
SP          .MV                                                 :          
SP_NORM     .MV                                                 :SP Normalized
VSH_SP      .V/V                                                :Volume of Shale from SP
~A        DEPTH            ASN           CILD            ILD             SP        SP_NORM         VSH_SP
# ...
      8197.0000         0.4058       3394.848         0.2742       -38.8535      0.1708908              1
      8197.5000         0.4058       3412.785         0.2744       -38.7607      0.2636909              1
      8198.0000         0.4057       3428.125         0.2746       -38.5485      0.4758911              1
      8198.5000         0.4057        3441.18          0.275       -38.3157      0.7086906              1
      8199.0000         0.4056       3451.254         0.2754       -38.0831      0.9412918              1
      8199.5000         0.4056       3458.012         0.2757       -37.8507       1.173691              1
      8200.0000         0.4054       3463.043         0.2761        -37.618       1.406391              1
      8200.5000         0.4051       3468.074         0.2765       -37.3853       1.639091              1
      8201.0000         0.4049       3381.988         0.2768       -37.1625       1.861893              1
      8201.5000         0.4047       3210.277         0.2778        -37.081        1.94339              1
      8202.0000         0.4088       3150.672          0.282       -36.9996       2.024792              1
      8202.5000         0.4128       3122.328         0.2862       -36.9183       2.106091              1
      8203.0000         0.4169       3093.984         0.2904        -36.837       2.187389              1
      8203.5000          0.421       3065.641         0.2945       -36.8336       2.190792              1
      8204.0000         0.4251        3021.84         0.2987       -36.8369       2.187492              1
      8204.5000         0.4292       3000.301          0.302       -36.8402       2.184193              1
      8205.0000         0.4357         2985.5          0.305        -36.916       2.108391              1
      8205.5000         0.4428        2964.18         0.3081       -37.0459       1.978493              1
      8206.0000         0.4498       2933.648         0.3111       -37.4529       1.571491              1
      8206.5000         0.4568       2903.457         0.3141       -38.2509      0.7734909              1
      8207.0000         0.4638        2865.73         0.3171       -38.6543      0.3700905              1
      8207.5000         0.4708       2828.055         0.3202       -38.6663      0.3580894              1
      8208.0000         0.4778       2790.328         0.3252       -38.6782      0.3461914              1
      8208.5000         0.4848       2752.652         0.3323       -38.6901      0.3342896              1
      8209.0000         0.4903       2714.926         0.3395        -38.702      0.3223915              1
      8209.5000         0.4954       2677.246         0.3467       -38.7474      0.2769928              1
      8210.0000         0.5004        2639.57         0.3538       -38.7936       0.230793              1
      8210.5000         0.5055       2601.844          0.361       -38.8397      0.1846924              1
      8211.0000         0.5106       2564.164         0.3683        -38.886      0.1383896              1
      8211.5000         0.5157       2508.258          0.376       -38.9322     0.09218979              1
      8212.0000         0.5206        2405.82         0.3838       -38.9784     0.04598999              1
      8212.5000         0.5254       2361.531         0.3916       -39.0246  -0.0002098083       0.999997
      8213.0000         0.5302       2295.027         0.3994       -39.2346     -0.2102089       0.996997
      8213.5000         0.5342       2242.473         0.4072       -39.5142     -0.4898071      0.9930028
      8214.0000         0.5373       2203.773         0.4129       -39.7938     -0.7694092      0.9890084
      8214.5000         0.5387       2171.297         0.4181       -40.0731       -1.04871      0.9850184
      8215.0000         0.5384       2145.445         0.4233       -40.2789      -1.254509      0.9820784
      8215.5000         0.5381       2133.219         0.4284        -40.437      -1.412609      0.9798199
      8216.0000         0.5377       2146.602         0.4308       -40.5951      -1.570709      0.9775613
      8216.5000         0.5374       2180.242         0.4297       -40.7068      -1.682407      0.9759656
      8217.0000         0.5355       2236.004         0.4286       -40.3195      -1.295109      0.9814984
      8217.5000         0.5324       2284.961         0.4275       -39.9321     -0.9077072      0.9870328
      8218.0000         0.5293       2420.555         0.4236       -39.4953     -0.4709091      0.9932727
      8218.5000         0.5262       2496.906         0.4167       -39.0074     0.01699066              1
      8219.0000         0.5231       2513.676         0.4098       -38.5189      0.5054893              1
      8219.5000         0.5199       2528.457         0.4029        -38.031      0.9933929              1
      8220.0000         0.5168       2535.711          0.396        -37.936        1.08839              1
      8220.5000         0.5137       2542.688           0.39       -38.0234       1.000992              1
      8221.0000         0.5106       2547.277         0.3858       -38.1108      0.9135895              1
      8221.5000         0.5075       2551.859         0.3816       -38.1981      0.8262901              1
      8222.0000         0.5042       2555.738         0.3774       -38.2855      0.7388916              1
      8222.5000         0.5005       2559.086         0.3732       -38.3535      0.6708908              1
      8223.0000         0.4968       2562.406           0.37       -38.4076      0.6167908              1
      8223.5000         0.4931       2565.039         0.3673       -38.4618      0.5625916              1
      8224.0000         0.4895       2567.676         0.3646       -38.5159      0.5084915              1
      8224.5000         0.4858       2572.332         0.3619       -38.5701      0.4542923              1
      8225.0000         0.4821       2577.844         0.3593       -38.6243      0.4000931              1
      8225.5000         0.4784       2584.148         0.3567       -38.6785        0.34589              1
      8226.0000         0.4748       2594.172         0.3541       -38.7326        0.29179              1
      8226.5000         0.4727       2606.266         0.3515       -38.7241       0.300293              1
      8227.0000         0.4709        2624.84          0.349       -38.7098      0.3145905              1
      8227.5000         0.4691        2650.07         0.3464       -38.6956      0.3287926              1
      8228.0000         0.4673       2703.598         0.3438       -38.6813      0.3430901              1
      8228.5000         0.4655       2721.293         0.3422        -38.667      0.3573914              1
      8229.0000         0.4638       2738.988          0.341       -38.6527      0.3716927              1
      8229.5000          0.459       2742.297         0.3397       -38.6384      0.3859901              1
      8230.0000         0.4534       2806.371         0.3385       -38.6241      0.4002914              1
      8230.5000         0.4477       2927.063         0.3373       -38.6147      0.4096909              1
      8231.0000         0.4421       2947.555          0.336       -38.6925      0.3318901              1
      8231.5000         0.4364       2962.723         0.3348       -38.7701      0.2542915              1
      8232.0000         0.4319       2940.988         0.3349        -38.848      0.1763916              1
      8232.5000         0.4304       2914.152         0.3354       -38.9258     0.09859085              1
      8233.0000         0.4288       2894.563         0.3359       -39.0034     0.02099228              1
      8233.5000         0.4272       2878.082         0.3363       -39.0812    -0.05680847      0.9991884
      8234.0000         0.4257       2861.965         0.3368       -39.1591     -0.1347084      0.9980756
      8234.5000         0.4268       2855.965         0.3372       -39.2369     -0.2125092      0.9969642
