#------------------------------------------------------------------------------
# Created by    : vladimir.rabinovich
# Created on    : 09/19/2023 17:22:10
#------------------------------------------------------------------------------
~Version Information Section
VERS.           2.0     :   CWLS log ASCII Standard - VERSION 2.0
WRAP.           NO      :   One line per depth step
~Well Information Section
#MNEM       .UNIT                                         VALUE :DESCRIPTION
#------------------------------------------------------------------------------
STRT        .FT                                            1000 :START DEPTH
STOP        .FT                                            7796 :STOP DEPTH
STEP        .FT                                             0.5 :STEP      
NULL        .                                           -999.25 :NULL      
COMP        .                                SHELL OFFSHORE INC :COMPANY   
WELL        .                               OCS G06060 ST00BP00 :WELL      
FLD         .                                           WILDCAT :FIELD     
LOC         .                                                   :LOCATION  
CNTY        .                                BRAZOS LARGE BLOCK :LOCATION  
STAT        .                                             TEXAS :STATE     
CTRY        .                                     UNITED STATES :COUNTRY   
SRVC        .                                                   :SERVICE COMPANY
DATE        .                             9/13/2023 11:19:08 AM :LOG DATE  
API         .                                    42704401260000 :API NUMBER
UWI         .                                    42704401260000 :UNIQUE WELL ID
XCOORD      .                                   881020.58603234 :SURFACE X 
YCOORD      .                                   10392321.681828 :SURFACE Y 
LAT         .                                         28.616238 :LATITUDE  
LON         .                                        -95.367327 :LONGITUDE 
ELEV        .FT                                              90 :ELEVATION VALUE
ELEV_TYPE   .                                                KB :ELEVATION REFERENCE TYPE
~Curve Information Section
#MNEM       .UNIT                                      API CODE :CURVE DESCRIPTION
#------------------------------------------------------------------------------
DEPT        .FT                                                 :DEPTH     
CALI        .IN                                                 :          
CILD        .MMHO                                               :          
DPHI        .%                                                  :          
DT          .US/F                                               :          
GR          .GAPI                                               :          
GR_NORM     .GAPI                                               :GammaRay Normalized
ILD         .OHMM                                               :          
ILM         .OHMM                                               :          
SFL         .OHMM                                               :          
SP          .MV                                                 :          
SP_NORM     .MV                                                 :SP Normalized
VSH_GR      .V/V                                                :Volume of Shale from GR
VSH_SP      .V/V                                                :Volume of Shale from SP
~A        DEPTH           CALI           CILD           DPHI             DT             GR        GR_NORM            ILD            ILM            SFL             SP        SP_NORM         VSH_GR         VSH_SP
# ...
      4629.0000        11.5847       3309.609        26.2348       113.4097          36.02       48.88152         0.2982         0.3667         0.7297       -136.364      -47.34666      0.3379046     0.03444465
      4629.5000        11.5907       3429.473         26.896       113.4075        35.1873       47.33977         0.2898         0.3611         0.6895      -133.1899      -44.17255      0.3051014      0.1005718
      4630.0000        11.6075       3495.145        27.8049       113.1029        34.0853       45.29803         0.2813         0.3688         0.6723      -131.3525      -42.33515      0.2616603       0.138851
      4630.5000        11.6868       3571.016        28.3105       112.5592        33.9594       45.06856         0.2751         0.3759         0.8889      -131.6091      -42.59176      0.2567778       0.133505
      4631.0000        11.8432       3633.828        28.4635       112.2705        34.2929       45.69201         0.2729         0.3742         1.0083       -132.291      -43.27366      0.2700428      0.1192988
      4631.5000        12.0459       3644.102        28.5002       112.5848        34.2211       45.56297         0.2735         0.3623         1.0215      -132.8276      -43.81026      0.2672971      0.1081195
      4632.0000        12.1797       3635.465         28.567       113.8295        32.8243        42.9739          0.275         0.3498         0.9104      -133.2693      -44.25196      0.2122107     0.09891748
      4632.5000         12.078       3704.031        28.6417       115.6024        31.5706       40.65054         0.2735         0.3378         0.7789      -133.4482      -44.43085      0.1627775     0.09519053
      4633.0000        12.0064       3925.039        28.6815       116.4233        30.3646       38.41572         0.2645         0.3264         0.7295      -133.6748      -44.65746      0.1152281     0.09046952
      4633.5000        12.0233       4057.859        28.4706       116.0144        29.9393       37.63036         0.2538         0.3163         0.7179      -134.0122      -44.99487     0.09851837      0.0834403
      4634.0000        12.2293       4185.156        28.0177       114.4266        29.6682        37.1313         0.2432         0.3072         0.7137      -134.4771      -45.45975     0.08789996     0.07375511
      4634.5000        12.3904       4207.578        27.9891       112.5116        29.2654       36.38772           0.24         0.3031         0.6915      -135.0632      -46.04586     0.07207911     0.06154458
      4635.0000        12.3552       4058.547        28.4866       110.7301         30.394       38.48737         0.2439         0.3016         0.6417      -135.0344      -46.01705      0.1167525     0.06214476
      4635.5000        12.2479       3950.703        28.8755       110.1339        33.0457       43.41479         0.2514         0.3062         0.6003      -134.9001      -45.88276      0.2215913     0.06494252
      4636.0000        12.2036       3904.348        28.9848       111.9021         34.946       46.94718         0.2561         0.3148         0.6335      -134.5713      -45.55396      0.2967485     0.07179245
      4636.5000        12.4148       3892.973        29.0106        113.879        34.8975        46.8614         0.2598         0.3238         0.8133      -134.6719      -45.65456      0.2949235     0.06969658
      4637.0000        12.6743       3882.609        28.9807        115.187        33.5496       44.36314         0.2605         0.3258         0.9209      -135.2957      -46.27836       0.241769     0.05670087
      4637.5000        12.9611       3868.109        28.7996       114.7018        31.8287       41.17234         0.2611         0.3196         0.9526      -135.7993      -46.78196      0.1738797     0.04620918
      4638.0000        13.2574       3864.617        29.4044       113.3696        30.3719        38.4719         0.2612         0.3114         0.9096      -136.2334      -47.21606      0.1164233     0.03716548
      4638.5000        13.5876       3894.051        34.6336       111.2766        31.1364       39.89554         0.2602         0.3039         0.8328      -136.2021      -47.18476      0.1467136     0.03781748
      4639.0000         14.094       3969.328        34.4792       109.7064        32.0623       41.61885         0.2532         0.2969         0.7831      -135.7622      -46.74487      0.1833797     0.04698197
      4639.5000        14.3735       4048.004         2.1743       109.6564        31.1859       39.99598         0.2464         0.2913         0.7407      -135.6223      -46.60496      0.1488505     0.04989672
      4640.0000        14.0595       4183.484        -4.8475       110.1985        29.9708       37.74427         0.2393         0.2866         0.6841      -135.5452      -46.52785      0.1009418     0.05150302
      4640.5000         13.772       4302.656         -3.701       110.7208        28.0676       34.21502         0.2291         0.2837         0.6234      -135.4307      -46.41335     0.02585155     0.05388848
      4641.0000        13.5871       4319.969         8.5469       111.6783        27.7692       33.66528         0.2276         0.2825         0.5893      -135.3101      -46.29276      0.0141548     0.05640078
      4641.5000        13.3662       4216.984         23.697       112.3636        29.2975         36.507         0.2322         0.2858          0.592      -135.1304      -46.11306     0.07461702     0.06014458
      4642.0000        12.9716       3933.809        28.6012       112.3431        29.4256       36.74909         0.2411         0.2931         0.5858      -135.2563      -46.23896     0.07976792     0.05752166
      4642.5000        12.7042       3593.676          28.35       111.8934        29.7956        37.4403         0.2593         0.3102         0.5654       -135.687      -46.66965     0.09447455     0.04854886
      4643.0000        12.4978       3236.402        28.0309       110.4581        30.2986       38.37843         0.2866         0.3528         0.5758      -136.0686      -47.05126      0.1144347     0.04059871
      4643.5000        12.4224       2926.422        28.1114        104.969         31.584        40.7692         0.3185         0.4003         0.7319      -136.3716      -47.35426       0.165302     0.03428634
      4644.0000        12.4857       2798.973         28.351         94.772        32.9564       43.32147         0.3406         0.4344         1.1327      -136.3425      -47.32516      0.2196058     0.03489256
      4644.5000        12.5982       2731.281        28.3426        88.5608        34.4877       46.16878         0.3573         0.4469         1.3364      -135.3494      -46.33205      0.2801867     0.05558221
      4645.0000        12.5161       2654.277        27.9022        81.0366         36.671       50.22658         0.3729          0.443         1.2502      -132.9058      -43.88847      0.3665229      0.1064903
      4645.5000        12.2829       2623.672        27.7241        81.3693        39.2468       55.01311         0.3828         0.4302         0.7379      -130.3794      -41.36205      0.4683641      0.1591239
      4646.0000        12.1065       2646.988        28.0719        89.1196        43.2391       62.42953          0.385         0.4118         0.5812      -129.3667      -40.34936      0.6261601      0.1802217
      4646.5000        12.0774       2703.988        28.3255        97.3187        44.1503       64.12553         0.3795         0.4059         0.5381      -129.0547      -40.03736      0.6622452      0.1867216
      4647.0000        12.1096       2751.875        28.0169       102.5483        42.6153        61.2799         0.3707         0.4069         0.5925      -131.2068      -42.18946         0.6017      0.1418862
      4647.5000        12.1335       2810.746        27.6248       104.8639        39.9562       56.34724         0.3606         0.4159          0.734      -133.2468      -44.22945      0.4967497     0.09938637
