#------------------------------------------------------------------------------
# Created by    : vladimir.rabinovich
# Created on    : 09/19/2023 17:22:38
#------------------------------------------------------------------------------
~Version Information Section
VERS.           2.0     :   CWLS log ASCII Standard - VERSION 2.0
WRAP.           NO      :   One line per depth step
~Well Information Section
#MNEM       .UNIT                                         VALUE :DESCRIPTION
#------------------------------------------------------------------------------
STRT        .FT                                             890 :START DEPTH
STOP        .FT                                            9058 :STOP DEPTH
STEP        .FT                                             0.5 :STEP      
NULL        .                                           -999.25 :NULL      
COMP        .                            COASTAL OIL & GAS CORP :COMPANY   
WELL        .                               OCS G01773 ST00BP00 :WELL      
FLD         .                                           WILDCAT :FIELD     
LOC         .                                                   :LOCATION  
CNTY        .                             GALVESTON LARGE BLOCK :LOCATION  
STAT        .                                             TEXAS :STATE     
CTRY        .                                     UNITED STATES :COUNTRY   
SRVC        .                                                   :SERVICE COMPANY
DATE        .                             9/13/2023 11:19:54 AM :LOG DATE  
API         .                                    42706403500000 :API NUMBER
UWI         .                                    42706403500000 :UNIQUE WELL ID
XCOORD      .                                  1074939.13305719 :SURFACE X 
YCOORD      .                                   10531967.363633 :SURFACE Y 
LAT         .                                         29.009472 :LATITUDE  
LON         .                                        -94.769566 :LONGITUDE 
ELEV        .FT                                              83 :ELEVATION VALUE
ELEV_TYPE   .                                                KB :ELEVATION REFERENCE TYPE
~Curve Information Section
#MNEM       .UNIT                                      API CODE :CURVE DESCRIPTION
#------------------------------------------------------------------------------
DEPT        .FT                                                 :DEPTH     
DCAL        .IN                                                 :          
DPSS        .V/V                                                :          
DRHO        .G/CM3                                              :          
DTLF        .US/FT                                              :          
DTLN        .US/FT                                              :          
GR          .GAPI                                               :          
GRS         .GAPI                                               :          
NPSS        .V/V                                                :Neutron Porosity Sandstone
SFL         .OHMM                                               :          
SP          .MV                                                 :          
SP_NORM     .MV                                                 :SP Normalized
SPHI_SAN    .V/V                                                :          
TENS        .LB                                                 :          
VSH_SP      .V/V                                                :Volume of Shale from SP
~A        DEPTH           DCAL           DPSS           DRHO           DTLF           DTLN             GR            GRS           NPSS            SFL             SP        SP_NORM       SPHI_SAN           TENS         VSH_SP
# ...
      3014.0000           0.08        -999.25        -999.25        -999.25        -999.25         67.451        -999.25        -999.25         0.6335         8.2353      0.3256955         0.3931       1708.333              1
      3014.5000           0.08        -999.25        -999.25        -999.25        -999.25        68.4314        -999.25        -999.25          0.611         8.5294      0.6197953         0.3931       1729.167              1
      3015.0000           0.08        -999.25        -999.25        -999.25        -999.25        70.3846        -999.25        -999.25         0.5946         8.5294      0.6197953         0.3931       1708.333              1
      3015.5000           0.08        -999.25        -999.25        -999.25        -999.25        72.6923        -999.25        -999.25         0.5785         9.1176       1.207996         0.3918       1708.333              1
      3016.0000           0.08        -999.25        -999.25        -999.25        -999.25        74.6154        -999.25        -999.25         0.5681         9.1176       1.207996         0.3882       1708.333              1
      3016.5000           0.08        -999.25        -999.25        -999.25        -999.25        75.3846        -999.25        -999.25         0.6222         9.1176       1.207996          0.382       1708.333              1
      3017.0000           0.08        -999.25        -999.25        -999.25        -999.25        72.8846        -999.25        -999.25         0.6937         9.1176       1.207996         0.3796       1708.333              1
      3017.5000           0.08        -999.25        -999.25        -999.25        -999.25        69.8039        -999.25        -999.25         0.7627         8.5294      0.6197953         0.3759       1708.333              1
      3018.0000           0.08        -999.25        -999.25        -999.25        -999.25        66.4706        -999.25        -999.25         0.8371         7.9412     0.03159523         0.3759       1708.333              1
      3018.5000           0.08        -999.25        -999.25        -999.25        -999.25        64.1176        -999.25        -999.25         0.9174         7.0588     -0.8508043         0.3796       1708.333      0.9886559
      3019.0000           0.08        -999.25        -999.25        -999.25        -999.25        62.9412        -999.25        -999.25         0.9624         6.7647      -1.144905         0.3833       1708.333      0.9847346
      3019.5000           0.08        -999.25        -999.25        -999.25        -999.25         62.549        -999.25        -999.25         0.9174         7.0588     -0.8508043         0.3869       1708.333      0.9886559
      3020.0000           0.08        -999.25        -999.25        -999.25        -999.25        63.1373        -999.25        -999.25          0.822         8.2353      0.3256955         0.3894       1708.333              1
      3020.5000         0.0812        -999.25        -999.25        -999.25        -999.25        64.7059        -999.25        -999.25         0.7342         9.7115       1.801896         0.3918       1708.333              1
      3021.0000         0.0832        -999.25        -999.25        -999.25        -999.25        66.2745        -999.25        -999.25         0.6569        12.0774       4.167796         0.3918       1708.333              1
      3021.5000         0.0851        -999.25        -999.25        -999.25        -999.25        68.0392        -999.25        -999.25         0.6335        13.8582       5.948596         0.3894       1729.167              1
      3022.0000         0.1271        -999.25        -999.25        -999.25        -999.25        68.8235        -999.25        -999.25         0.6222        14.7569       6.847295         0.3857       1729.167              1
      3022.5000         0.1691        -999.25        -999.25        -999.25        -999.25        68.0392        -999.25        -999.25         0.6222        15.0676       7.157996         0.3833       1729.167              1
      3023.0000         0.2111        -999.25        -999.25        -999.25        -999.25        66.4706        -999.25        -999.25         0.6278        15.3853       7.475695         0.3808       1708.333              1
      3023.5000         0.2531        -999.25        -999.25        -999.25        -999.25        65.6863        -999.25        -999.25         0.6278           15.4       7.490395         0.3784       1708.333              1
      3024.0000          0.295        -999.25        -999.25        -999.25        -999.25        65.8824        -999.25        -999.25         0.6335        15.1147       7.205096         0.3796       1708.333              1
      3024.5000          0.337        -999.25        -999.25        -999.25        -999.25        66.8627        -999.25        -999.25          0.669        14.8313       6.921695         0.3833           1750              1
      3025.0000          0.339        -999.25        -999.25        -999.25        -999.25        66.8627        -999.25        -999.25         0.7067        13.6581       5.748496         0.3869       1729.167              1
      3025.5000         0.3814        -999.25        -999.25        -999.25        -999.25        66.2745        -999.25        -999.25         0.7701        12.1853       4.275695         0.3894       1729.167              1
      3026.0000         0.3834        -999.25        -999.25        -999.25        -999.25         67.451        -999.25        -999.25          0.822        10.7097       2.800095         0.3906           1750              1
      3026.5000         0.2253        -999.25        -999.25        -999.25        -999.25        68.6275        -999.25        -999.25         0.8371          9.529       1.619396         0.3906       1729.167              1
      3027.0000         0.2273        -999.25        -999.25        -999.25        -999.25        70.1948        -999.25        -999.25         0.7627         9.5383       1.628695         0.3906       1729.167              1
      3027.5000         0.1893        -999.25        -999.25        -999.25        -999.25        70.9751        -999.25        -999.25         0.6751        10.1443       2.234696         0.3931       1729.167              1
      3028.0000         0.1513        -999.25        -999.25        -999.25        -999.25        71.9525        -999.25        -999.25          0.611        11.9485       4.038895         0.3931       1729.167              1
      3028.5000         0.1533        -999.25        -999.25        -999.25        -999.25         71.759        -999.25        -999.25         0.5946        12.5581       4.648495         0.3931       1708.333              1
      3029.0000         0.1552        -999.25        -999.25        -999.25        -999.25        71.1738        -999.25        -999.25         0.5892        13.4683       5.558695         0.3931       1729.167              1
      3029.5000         0.1572        -999.25        -999.25        -999.25        -999.25        70.3916        -999.25        -999.25         0.5946        13.4815       5.571895         0.3931       1729.167              1
      3030.0000         0.1592        -999.25        -999.25        -999.25        -999.25          70.98        -999.25        -999.25         0.5946        13.4947       5.585096         0.3931       1729.167              1
      3030.5000           0.16        -999.25        -999.25        -999.25        -999.25        71.7647        -999.25        -999.25          0.611           13.5       5.590395         0.3918           1750              1
      3031.0000           0.16        -999.25        -999.25        -999.25        -999.25        72.7451        -999.25        -999.25         0.6222           12.9       4.990395         0.3931       1729.167              1
      3031.5000           0.16        -999.25        -999.25        -999.25        -999.25        72.7451        -999.25        -999.25         0.6222           12.9       4.990395         0.3906       1729.167              1
