#------------------------------------------------------------------------------
# Created by    : vladimir.rabinovich
# Created on    : 09/19/2023 17:19:44
#------------------------------------------------------------------------------
~Version Information Section
VERS.           2.0     :   CWLS log ASCII Standard - VERSION 2.0
WRAP.           NO      :   One line per depth step
~Well Information Section
#MNEM       .UNIT                                         VALUE :DESCRIPTION
#------------------------------------------------------------------------------
STRT        .FT                                            2932 :START DEPTH
STOP        .FT                                           14530 :STOP DEPTH
STEP        .FT                                             0.5 :STEP      
NULL        .                                           -999.25 :NULL      
COMP        .                                 MESA PETROLEUM CO :COMPANY   
WELL        .                                 ST TR 00022-L W/2 :WELL      
FLD         .                                           WILDCAT :FIELD     
LOC         .                                                   :LOCATION  
CNTY        .                           HIGH ISLAND LARGE BLOCK :LOCATION  
STAT        .                                             TEXAS :STATE     
CTRY        .                                     UNITED STATES :COUNTRY   
SRVC        .                                                   :SERVICE COMPANY
DATE        .                             9/13/2023 11:19:15 AM :LOG DATE  
API         .                                    42708300770000 :API NUMBER
UWI         .                                    42708300770000 :UNIQUE WELL ID
XCOORD      .                                  1307803.37781852 :SURFACE X 
YCOORD      .                                  10713200.3443699 :SURFACE Y 
LAT         .                                         29.515602 :LATITUDE  
LON         .                                       -94.0460534 :LONGITUDE 
ELEV        .FT                                              85 :ELEVATION VALUE
ELEV_TYPE   .                                                KB :ELEVATION REFERENCE TYPE
~Curve Information Section
#MNEM       .UNIT                                      API CODE :CURVE DESCRIPTION
#------------------------------------------------------------------------------
DEPT        .FT                                                 :DEPTH     
ASFL        .OHMM                                               :          
CILD        .MMHO                                               :          
ILD         .OHMM                                               :          
SP          .MV                                                 :          
SP_NORM     .MV                                                 :SP Normalized
VSH_SP      .V/V                                                :Volume of Shale from SP
~A        DEPTH           ASFL           CILD            ILD             SP        SP_NORM         VSH_SP
# ...
      8328.0000         0.5167         1307.5         0.7946       -44.7344       1.806477              1
      8328.5000         0.5147       1363.125         0.7675        -47.125     -0.5841217              1
      8329.0000         0.5129       1394.656         0.7543       -48.6084       -2.06752      0.9855741
      8329.5000         0.5112       1415.719         0.7549       -49.4912      -2.950321      0.9736443
      8330.0000         0.5094       1436.469         0.7554       -50.1221      -3.581223      0.9651186
      8330.5000         0.5077       1452.969          0.756       -50.2688      -3.727921      0.9631362
      8331.0000         0.5062       1469.469         0.7599        -49.627      -3.086121      0.9718092
      8331.5000         0.5078       1479.953         0.7667       -48.6133      -2.072422      0.9855078
      8332.0000         0.5093       1488.953         0.7734       -47.5996      -1.058723      0.9992064
      8332.5000         0.5109       1497.953         0.7802       -48.3906       -1.84972      0.9885173
      8333.0000         0.5125       1493.406         0.7869        -49.291      -2.750122      0.9763497
      8333.5000          0.514       1483.594         0.7817       -50.1924      -3.651524      0.9641686
      8334.0000         0.5156       1473.688         0.7661       -50.5206      -3.979721      0.9597335
      8334.5000         0.5164        1457.25         0.7505        -50.546      -4.005123      0.9593902
      8335.0000         0.5169       1440.813         0.7158       -50.5626      -4.021721      0.9591659
      8335.5000         0.5156       1424.375         0.6697       -50.5333       -3.99242      0.9595619
      8336.0000         0.5101       1407.906         0.6236       -50.5039       -3.96302      0.9599592
      8336.5000         0.5046       1391.813         0.5775       -50.4745       -3.93362      0.9603565
      8337.0000          0.499       1376.109         0.5298       -51.3438      -4.802921      0.9486092
      8337.5000         0.4913       1360.406         0.4808       -53.9453      -7.404423      0.9134538
      8338.0000         0.4829       1409.125         0.4318       -55.4043      -8.863422      0.8937376
      8338.5000         0.4745       1600.875         0.3872       -69.9375      -23.39662      0.6973429
      8339.0000         0.4692         1843.5         0.3578       -97.9063      -51.36543      0.3193862
      8339.5000         0.4699         2311.5         0.3283      -119.4687      -72.92782     0.02800246
      8340.0000         0.4761           2780         0.2989      -120.8496      -74.30872    0.009341575
      8340.5000         0.4824         3248.5         0.2897      -122.6738      -76.13292              0
      8341.0000          0.489           3717         0.2822      -121.7773      -75.23642              0
      8341.5000          0.496        4022.25         0.2748      -121.1299      -74.58902    0.005553787
      8342.0000         0.4897        4106.75         0.2674      -120.5762      -74.03532     0.01303616
      8342.5000         0.4833       4065.625         0.2647      -120.0371      -73.49622      0.0203213
      8343.0000         0.4807       4024.563         0.2711      -120.5869      -74.04602     0.01289161
      8343.5000          0.485       4024.656         0.2774      -121.0615      -74.52062    0.006478078
      8344.0000         0.4934       4036.391         0.2838      -121.4033      -74.86242    0.001859201
      8344.5000         0.5024       4048.125         0.2901      -121.7446      -75.20372              0
      8345.0000         0.5114       4059.875         0.2965      -119.9492      -73.40833     0.02150912
      8345.5000         0.5179       4071.609         0.3028      -110.5273      -63.98642      0.1488322
      8346.0000         0.4996       4083.344         0.3263       -91.8438      -45.30293      0.4013118
      8346.5000         0.4813       4080.219         0.3521       -83.0625      -36.52162      0.5199781
      8347.0000         0.4659       4055.563         0.3779       -74.2969      -27.75602      0.6384321
      8347.5000         0.4513           4024         0.4038       -65.5156      -18.97472      0.7570983
      8348.0000         0.4569           3716         0.4296       -62.3828      -15.84192      0.7994335
      8348.5000         0.4626           3198         0.4554       -60.6094      -14.06852      0.8233984
      8349.0000         0.4735           2679         0.4973       -58.6055      -12.06462      0.8504781
      8349.5000         0.4849           2160         0.5432       -56.7217      -10.18082      0.8759348
      8350.0000         0.4952           1642         0.5891       -55.9639      -9.423023      0.8861753
      8350.5000         0.5057       1373.875         0.6351       -55.2061      -8.665222      0.8964159
      8351.0000         0.5162        1311.25          0.681       -53.4844      -6.943523      0.9196821
      8351.5000         0.5247       1265.688         0.7177        -52.041      -5.500122      0.9391875
      8352.0000           0.53       1256.313         0.7513       -51.0039       -4.46302      0.9532024
      8352.5000         0.5338       1276.125         0.7391       -50.9321       -4.39122      0.9541727
      8353.0000         0.5357       1298.688         0.7056       -51.4482      -4.907322      0.9471983
      8353.5000         0.5375       1332.563         0.6721        -51.374      -4.833122      0.9482011
      8354.0000         0.5394           1372         0.6159       -50.7891      -4.248222      0.9561051
      8354.5000         0.5336        1444.25         0.5558       -50.2031       -3.66222      0.9640241
      8355.0000         0.5268         1519.5         0.5018        -55.625      -9.084122      0.8907551
      8355.5000           0.52        1640.75         0.4694       -71.9316      -25.39072      0.6703956
      8356.0000         0.5133           1773         0.4371       -71.8047      -25.26382      0.6721105
      8356.5000         0.5055        1905.25         0.4047       -69.4766      -22.93572      0.7035713
      8357.0000         0.4969        2037.25         0.3724       -67.2871      -20.74622      0.7331591
      8357.5000         0.4882         2169.5         0.3556       -66.0352      -19.49432      0.7500767
      8358.0000         0.4878        2301.75         0.3408       -66.2344      -19.69352      0.7473848
      8358.5000         0.4879       2423.375         0.3261       -69.5859      -23.04502      0.7020943
      8359.0000         0.4887        2492.25         0.3485       -76.1992      -29.65833      0.6127253
      8359.5000         0.4931       2563.625         0.3885       -73.9531      -27.41222       0.643078
      8360.0000         0.4975         2636.5         0.4285       -71.3359      -24.79502      0.6784456
      8360.5000         0.5019        2621.25         0.4579       -66.8711      -20.33022      0.7387808
      8361.0000         0.5063        2412.25         0.4857       -64.5781      -18.03722      0.7697672
      8361.5000         0.5107       2339.875         0.5134        -62.668      -16.12712      0.7955794
      8362.0000         0.5134         2219.5         0.5411       -61.0957      -14.55482      0.8168268
      8362.5000         0.5144           2009         0.5688       -59.4609      -12.92002      0.8389186
      8363.0000         0.5106       1844.688         0.5957        -57.707      -11.16612        0.86262
      8363.5000         0.5049       1800.813         0.5937       -55.8691       -9.32822      0.8874565
      8364.0000         0.4992       1756.938         0.5916       -54.0293      -7.488422      0.9123186
      8364.5000         0.4935       1734.688         0.5895       -52.9082      -6.367321      0.9274687
      8365.0000         0.4878       1768.188         0.5838        -52.167      -5.626122      0.9374849
      8365.5000         0.4835       1831.125         0.5679       -51.8394      -5.298523      0.9419119
