#------------------------------------------------------------------------------
# Created by    : vladimir.rabinovich
# Created on    : 09/19/2023 17:19:22
#------------------------------------------------------------------------------
~Version Information Section
VERS.           2.0     :   CWLS log ASCII Standard - VERSION 2.0
WRAP.           NO      :   One line per depth step
~Well Information Section
#MNEM       .UNIT                                         VALUE :DESCRIPTION
#------------------------------------------------------------------------------
STRT        .FT                                            2350 :START DEPTH
STOP        .FT                                            7008 :STOP DEPTH
STEP        .FT                                             0.5 :STEP      
NULL        .                                           -999.25 :NULL      
COMP        .                                  W&T OFFSHORE INC :COMPANY   
WELL        .                               OCS G04565 ST00BP00 :WELL      
FLD         .                              GALVESTON BLOCK 0303 :FIELD     
LOC         .                                                   :LOCATION  
CNTY        .                             GALVESTON LARGE BLOCK :LOCATION  
STAT        .                                             TEXAS :STATE     
CTRY        .                                     UNITED STATES :COUNTRY   
SRVC        .                                                   :SERVICE COMPANY
DATE        .                             9/13/2023 11:19:03 AM :LOG DATE  
API         .                                    42706403950000 :API NUMBER
UWI         .                                    42706403950000 :UNIQUE WELL ID
XCOORD      .                                  979190.041446607 :SURFACE X 
YCOORD      .                                   10483081.623763 :SURFACE Y 
LAT         .                                        28.8707847 :LATITUDE  
LON         .                                       -95.0663777 :LONGITUDE 
ELEV        .FT                                              91 :ELEVATION VALUE
ELEV_TYPE   .                                                KB :ELEVATION REFERENCE TYPE
~Curve Information Section
#MNEM       .UNIT                                      API CODE :CURVE DESCRIPTION
#------------------------------------------------------------------------------
DEPT        .FT                                                 :DEPTH     
AF20        .OHMM                                               :          
AFCO        .MMHO                                               :          
AO90        .OHMM                                               :          
AT10        .OHMM                                               :          
AT20        .OHMM                                               :          
AT30        .OHMM                                               :          
AT60        .OHMM                                               :          
AT90        .OHMM                                               :          
DCAL        .IN                                                 :          
DPHI        .%                                                  :          
DRHO        .G/C3                                               :          
GR          .GAPI                                               :          
GR_NORM     .GAPI                                               :GammaRay Normalized
GRN         .GAPI                                               :          
NPOR        .%                                                  :          
RWA         .OHMM                                               :          
SP          .MV                                                 :          
SP_NORM     .MV                                                 :SP Normalized
TENR        .LBF                                                :          
TPHI        .%                                                  :          
VSH_GR      .V/V                                                :Volume of Shale from GR
VSH_SP      .V/V                                                :Volume of Shale from SP
~A        DEPTH           AF20           AFCO           AO90           AT10           AT20           AT30           AT60           AT90           DCAL           DPHI           DRHO             GR        GR_NORM            GRN           NPOR            RWA             SP        SP_NORM           TENR           TPHI         VSH_GR         VSH_SP
# ...
      6394.0000              1        847.458           1.18           0.96           1.06           1.08           1.07           1.09          1.025           19.6              0           93.2        88.3486         44.344        38.2678           0.06          -12.3      -2.926647           2875        51.1999              1      0.9512225
      6394.5000              1       869.5645           1.15           0.95           1.06           1.08           1.07           1.09          1.125           19.4              0           87.2       82.22889         46.594        40.3555           0.05          -12.1      -2.729902           2860        52.2999              1      0.9545016
      6395.0000              1       934.5781           1.07           0.92           1.01           1.04           1.05           1.07          1.125           19.4              0        84.8999       79.87773        46.4059        43.0313           0.05          -11.8      -2.433157           2860        51.0999      0.9973986      0.9594474
      6395.5000           0.99       990.0986           1.01           0.89           0.97           1.01           1.02           1.04          1.025           19.1              0        87.8999       82.92506         47.844        45.5639           0.05            -12      -2.636412           2860        51.9999              1      0.9560598
      6396.0000           0.98       990.0986           1.01           0.89           0.97           0.99           1.01           1.02          1.025           18.7              0           90.6       85.66691           48.5        45.2403           0.04          -11.7      -2.339666           2860        51.6999              1      0.9610056
      6396.5000           0.98       961.5381           1.04           0.89           0.97           0.98           0.99           1.01          1.125           18.4              0        94.8999       90.03828         48.812        42.8526           0.04          -12.1      -2.742922           2815           52.6              1      0.9542846
      6397.0000           0.98       1052.631           0.95           0.88           0.95           0.97           0.97           0.99          1.125           18.6              0           91.6       86.66876         46.594        41.0761           0.04          -12.1      -2.746177           2815        51.0999              1      0.9542304
      6397.5000           0.98       1086.957           0.92           0.88           0.95           0.97           0.97           0.99          1.025           18.6              0           88.5       83.50288        46.2809        42.0714           0.04          -12.4      -3.049431           2815        49.7999              1      0.9491761
      6398.0000           0.99           1000              1            0.9           0.97           0.99           0.99           1.01          1.025           18.3          -0.01           83.7       78.60542         44.969        41.4846           0.04          -12.1      -2.752687           2815        50.7999      0.9703282      0.9541219
      6398.5000              1       934.5781           1.07           0.93           1.01           1.01           1.01           1.02          1.125           17.6          -0.01        84.7999       79.71737         44.812         39.192           0.04          -11.7      -2.355941           2835           49.2      0.9939865      0.9607343
      6399.0000           1.01       990.0986           1.01           0.93           1.02           1.02           1.01           1.03          1.125           18.1          -0.01             91        86.0242         42.219        39.4799           0.04          -12.5      -3.159196           2835        48.4999              1      0.9473467
      6399.5000           1.02           1000              1           0.93           1.01           1.03           1.02           1.04          1.025           18.8          -0.02           92.7       87.74738         42.875         39.876           0.04          -12.4       -3.06245           2835           47.2              1      0.9489592
      6400.0000           1.03       952.3809           1.05           0.94           1.03           1.05           1.05           1.07          1.025           19.9          -0.02           89.2       84.17407           44.5        39.7441           0.05          -12.8      -3.465706           2835           48.2              1      0.9422382
      6400.5000           1.04       869.5645           1.15           0.98           1.08           1.09           1.08            1.1          1.125           19.1          -0.01             88       82.94344         43.688         39.504           0.05          -12.4       -3.06896           2985        49.4999              1      0.9488507
      6401.0000           1.05        847.458           1.18           0.98           1.09            1.1           1.08            1.1          1.025           19.5          -0.01           83.2       78.04599        42.4059          39.36           0.06            -12      -2.672215           2985        50.4999      0.9584253      0.9554631
      6401.5000           1.05       943.3955           1.06           0.96           1.05           1.07           1.07           1.09          1.025           19.6          -0.01           86.1       80.99146         42.562        39.8159           0.05          -12.1      -2.775471           2985        51.9999              1      0.9537421
      6402.0000           1.05        970.874           1.03           0.94           1.02           1.05           1.06           1.07          0.925           20.2              0           82.6       77.41814         44.312        40.5359           0.05          -11.9      -2.578725           2985        52.3999      0.9450668      0.9570212
      6402.5000           1.05       934.5781           1.07           0.94           1.03           1.05           1.06           1.08          0.925           20.2          -0.01        81.7999       76.59483        44.1559        41.3159           0.06          -11.7       -2.38198           2925        51.9999      0.9275495      0.9603003
      6403.0000           1.05       900.9004           1.11           0.96           1.05           1.07           1.07           1.09          0.925           19.3              0        80.7999       75.56791             44         41.256           0.05          -11.4      -2.085235           2925           50.4      0.9057002      0.9652461
      6403.5000           1.05       917.4307           1.09           0.98           1.06           1.08           1.07           1.09          1.025           18.5              0           88.1       82.99514         43.188          40.98           0.05          -11.3       -1.98849           2925           50.7              1      0.9668585
      6404.0000           1.06       925.9258           1.08           0.98           1.05           1.07           1.06           1.08          0.825           18.9          -0.01             90       84.92205         43.844        42.3475           0.05          -11.3      -1.991745           2925           48.7              1      0.9668043
      6404.5000           1.06       961.5381           1.04           0.98           1.04           1.06           1.05           1.07          0.725           19.6          -0.01        91.2999       86.23772        44.1559        43.7758           0.05          -11.8         -2.495           2845           48.2              1      0.9584166
      6405.0000           1.07       952.3809           1.05           1.01           1.05           1.07           1.06           1.08          0.625           18.6              0        86.8999        81.7477         43.344        43.8961           0.05          -12.8      -3.498255           2845        45.4999              1      0.9416957
      6405.5000           1.08       909.0908            1.1           1.05           1.09            1.1           1.07           1.09          0.525           18.5              0        89.7999       84.69317           44.5        42.2884           0.05            -14      -4.701509           2845        46.4999              1      0.9216415
