#------------------------------------------------------------------------------
# Created by    : vladimir.rabinovich
# Created on    : 09/19/2023 17:19:40
#------------------------------------------------------------------------------
~Version Information Section
VERS.           2.0     :   CWLS log ASCII Standard - VERSION 2.0
WRAP.           NO      :   One line per depth step
~Well Information Section
#MNEM       .UNIT                                         VALUE :DESCRIPTION
#------------------------------------------------------------------------------
STRT        .FT                                            4790 :START DEPTH
STOP        .FT                                           12963 :STOP DEPTH
STEP        .FT                                             0.5 :STEP      
NULL        .                                           -999.25 :NULL      
COMP        .                         ATLANTIC RICHFIELD CO THE :COMPANY   
WELL        .                               OCS G06150 ST00BP00 :WELL      
FLD         .                                           WILDCAT :FIELD     
LOC         .                                                   :LOCATION  
CNTY        .                           HIGH ISLAND LARGE BLOCK :LOCATION  
STAT        .                                             TEXAS :STATE     
CTRY        .                                     UNITED STATES :COUNTRY   
SRVC        .                                                   :SERVICE COMPANY
DATE        .                             9/13/2023 11:19:59 AM :LOG DATE  
API         .                                    42708402440000 :API NUMBER
UWI         .                                    42708402440000 :UNIQUE WELL ID
XCOORD      .                                  1291497.32246636 :SURFACE X 
YCOORD      .                                   10652058.279547 :SURFACE Y 
LAT         .                                         29.347015 :LATITUDE  
LON         .                                        -94.095521 :LONGITUDE 
ELEV        .FT                                             105 :ELEVATION VALUE
ELEV_TYPE   .                                                KB :ELEVATION REFERENCE TYPE
~Curve Information Section
#MNEM       .UNIT                                      API CODE :CURVE DESCRIPTION
#------------------------------------------------------------------------------
DEPT        .FT                                                 :DEPTH     
ALL         .OHMM                                               :          
CILD        .MMHO                                               :          
GR          .GAPI                                               :          
GR_NORM     .GAPI                                               :GammaRay Normalized
ILD         .OHMM                                               :          
SP          .MV                                                 :          
SP_NORM     .MV                                                 :SP Normalized
VSH_GR      .V/V                                                :Volume of Shale from GR
VSH_SP      .V/V                                                :Volume of Shale from SP
~A        DEPTH            ALL           CILD             GR        GR_NORM            ILD             SP        SP_NORM         VSH_GR         VSH_SP
# ...
      5399.5000         0.7882       5984.438        41.2103       35.81374         0.1378      -103.5719      -50.95514     0.05986689     0.03858228
      5400.0000         0.7588       7221.727         41.166       35.75238         0.1271      -104.1693      -51.55616      0.0585612     0.02724219
      5400.5000         0.7295       7786.969        44.0019       39.68065         0.1554       -92.4998       -39.8903      0.1421415      0.2473529
      5401.0000         0.7033        7588.43          49.04        46.6594         0.1838        -87.199      -34.59312      0.2906255      0.3472997
      5401.5000         0.6799       7389.297        54.8475       54.70392         0.2154       -75.8799      -23.27765      0.4617855      0.5607991
      5402.0000         0.6679       6657.086        58.1692       59.30512         0.2507       -72.0977      -19.49908      0.5596834      0.6320929
      5402.5000         0.6625       5991.188        60.8276       62.98752          0.286       -70.5162       -17.9212      0.6380324      0.6618642
      5403.0000         0.6651       5115.633         63.407        66.5605         0.3213       -68.9331      -16.34172      0.7140532      0.6916656
      5403.5000         0.6702       4778.117        65.5081       69.47093         0.3566       -67.5265      -14.93875      0.7759773      0.7181368
      5404.0000         0.6753       4592.484        67.5402       72.28579         0.3919       -66.5416      -13.95749      0.8358679      0.7366512
      5404.5000         0.6804       4590.195        69.8705       75.51371         0.4273       -65.5568      -12.97631       0.904547       0.755164
      5405.0000         0.6856       3602.922        71.5869       77.89126         0.4626       -64.5756      -11.99873      0.9551331      0.7736088
      5405.5000         0.6966       2199.305        70.1381       75.88438         0.4775       -64.7162      -12.14296      0.9124337      0.7708875
      5406.0000         0.7098       2195.523        68.4711       73.57526          0.481       -65.8961      -13.32649      0.8633035      0.7485567
      5406.5000         0.7231       2191.742        66.7473       71.18747         0.4845        -67.077      -14.51102      0.8124993      0.7262071
      5407.0000         0.7382       2187.957        64.7584       68.43246          0.488       -68.2571      -15.69474      0.7538821      0.7038727
      5407.5000         0.7593       2184.977        61.4518       63.85217         0.4915        -69.438      -16.87927      0.6564291      0.6815231
      5408.0000         0.7803       2182.629        61.2407       63.55975          0.495       -70.3979       -17.8428      0.6502075      0.6633434
      5408.5000         0.8013       2175.469        61.0295       63.26719         0.4983       -71.2755      -18.72402      0.6439828      0.6467166
      5409.0000         0.8223       2160.281        60.8184       62.97478         0.4973       -72.1541      -19.60625      0.6377614      0.6300708
      5409.5000         0.8434       2145.105        60.6074       62.68251         0.4964       -72.9742      -20.42997      0.6315428      0.6145288
      5410.0000         0.8717       2120.734        60.3962       62.38995         0.4955       -72.8563       -20.3157       0.625318      0.6166848
      5410.5000         0.9002       2087.902        60.1851       62.09754         0.4945       -72.1499      -19.61293      0.6190966      0.6299446
      5411.0000         0.9286       2055.043        59.9438       61.76329         0.4936       -71.4429      -18.90956       0.611985      0.6432159
      5411.5000         0.9512       2022.186        59.6951       61.41879         0.4926       -70.7358      -18.20609      0.6046551       0.656489
      5412.0000         0.9706       1989.354         59.446       61.07374         0.4917       -70.0289      -17.50281      0.5973136      0.6697583
      5412.5000           0.99       1966.111        59.2549       60.80903         0.4908       -69.3234      -16.80094      0.5916815      0.6830011
      5413.0000         1.0016       1947.883        59.8738       61.66633         0.4898       -68.9924      -16.47356      0.6099219       0.689178
      5413.5000          0.994       1929.668        60.4929        62.5239         0.4889       -68.6616      -16.14639      0.6281682      0.6953511
      5414.0000         0.9864       1911.439        61.1118        63.3812         0.4881       -68.3308      -15.81922      0.6464085      0.7015241
      5414.5000         0.9788       1893.211        61.7302       64.23781         0.4951        -68.369      -15.86105      0.6646342       0.700735
      5415.0000         0.9733       1882.129        61.6963       64.19084         0.5021       -69.1494      -16.64507       0.663635      0.6859421
      5415.5000          0.968       1882.795        61.0045       63.23257         0.5091       -69.9299       -17.4292      0.6432462      0.6711472
      5416.0000         0.9627       1883.463        60.3128       62.27443         0.5161       -70.7104      -18.21333      0.6228603      0.6563523
      5416.5000         0.9687       1884.129        59.6211       61.31629         0.5231        -71.491      -18.99755      0.6024742      0.6415557
      5417.0000         0.9937        1880.58        58.9294       60.35815         0.5301       -72.2441      -19.75428      0.5820883      0.6272777
      5417.5000         1.0188       1873.791        58.2377       59.40001         0.5371       -72.8467      -20.36051      0.5617023      0.6158395
      5418.0000         1.0522       1866.998         57.226       57.99861         0.5441       -73.4491      -20.96653      0.5318853      0.6044051
      5418.5000         1.1054       1860.211        57.2728       58.06343         0.5511       -74.0511      -21.57216      0.5332646      0.5929781
      5419.0000         1.1585       1853.424        58.2457       59.41109         0.5569       -74.6537      -22.17839      0.5619382      0.5815399
      5419.5000         1.2012       1846.635        59.2197       60.76027         0.5601       -75.2556      -22.78391      0.5906441      0.5701149
      5420.0000         1.2181       1839.842        60.1938        62.1096         0.5633       -75.2825      -22.81444      0.6193531      0.5695388
      5420.5000         1.2025       1832.037        61.1679       63.45891         0.5664       -74.5436      -22.07917      0.6480619      0.5834119
      5421.0000         1.1861       1817.283         62.142       64.80822         0.5696       -73.8047      -21.34389      0.6767706       0.597285
      5421.5000         1.1698       1802.541        62.6968       65.57674         0.5728       -72.9659      -20.50872       0.693122      0.6130431
      5422.0000         1.1535       1787.787        62.0618       64.69713          0.576       -71.8608      -19.40725       0.674407      0.6338255
      5422.5000         1.1372       1773.047         61.306        63.6502         0.5791       -70.7557      -18.30577      0.6521319      0.6546081
      5423.0000         1.1209       1758.293        60.5039       62.53914         0.5793       -69.6506       -17.2043      0.6284923      0.6753907
      5423.5000         1.1046       1743.588        59.7018       61.42807         0.5793       -68.5447      -16.10203      0.6048526      0.6961882
      5424.0000         1.1028       1730.436        59.1384       60.64766         0.5792       -67.4396      -15.00055       0.588248      0.7169707
      5424.5000         1.1067       1717.295        60.6303       62.71422         0.5792       -66.3345      -13.89908      0.6322174      0.7377532
      5425.0000         1.1107       1704.152        62.1223       64.78094         0.5791       -65.2534      -12.82161      0.6761901      0.7580829
      5425.5000          1.114           1691        63.6155       66.84932         0.5791       -64.1788      -11.75064      0.7201983      0.7782899
