#------------------------------------------------------------------------------
# Created by    : vladimir.rabinovich
# Created on    : 09/19/2023 17:20:38
#------------------------------------------------------------------------------
~Version Information Section
VERS.           2.0     :   CWLS log ASCII Standard - VERSION 2.0
WRAP.           NO      :   One line per depth step
~Well Information Section
#MNEM       .UNIT                                         VALUE :DESCRIPTION
#------------------------------------------------------------------------------
STRT        .FT                                             495 :START DEPTH
STOP        .FT                                            8683 :STOP DEPTH
STEP        .FT                                             0.5 :STEP      
NULL        .                                           -999.25 :NULL      
COMP        .                                      SHELL OIL CO :COMPANY   
WELL        .                                OCS 00706 ST00BP00 :WELL      
FLD         .                                           WILDCAT :FIELD     
LOC         .                                                   :LOCATION  
CNTY        .                             GALVESTON LARGE BLOCK :LOCATION  
STAT        .                                             TEXAS :STATE     
CTRY        .                                     UNITED STATES :COUNTRY   
SRVC        .                                                   :SERVICE COMPANY
DATE        .                             9/13/2023 11:19:25 AM :LOG DATE  
API         .                                    42706000290000 :API NUMBER
UWI         .                                    42706000290000 :UNIQUE WELL ID
XCOORD      .                                  1097630.70361638 :SURFACE X 
YCOORD      .                                  10500448.3193905 :SURFACE Y 
LAT         .                                          28.92371 :LATITUDE  
LON         .                                        -94.697168 :LONGITUDE 
ELEV        .FT                                              92 :ELEVATION VALUE
ELEV_TYPE   .                                                KB :ELEVATION REFERENCE TYPE
~Curve Information Section
#MNEM       .UNIT                                      API CODE :CURVE DESCRIPTION
#------------------------------------------------------------------------------
DEPT        .FT                                                 :DEPTH     
ASN         .OHMM                                               :          
CILD        .MMHO                                               :          
ILD         .OHMM                                               :          
SP          .MV                                                 :          
SP_NORM     .MV                                                 :SP Normalized
VSH_SP      .V/V                                                :Volume of Shale from SP
~A        DEPTH            ASN           CILD            ILD             SP        SP_NORM         VSH_SP
# ...
      6461.0000         1.0816       1261.418         0.9474       -58.8201      -21.72925      0.6486568
      6461.5000         1.0787       1228.148         0.9574       -55.8879      -18.79547      0.6983818
      6462.0000         1.0786       1175.305         0.9674       -52.9558      -15.86179      0.7481053
      6462.5000         1.0795       1139.436         0.9721       -50.0237       -12.9281      0.7978287
      6463.0000         1.0804       1129.352         0.9769       -47.0915      -9.994324      0.8475538
      6463.5000         1.0813       1136.178         0.9816       -44.5187      -7.419941      0.8911874
      6464.0000         1.0861       1150.199         0.9864       -43.8942      -6.793858       0.901799
      6464.5000         1.0679       1166.045          0.986       -43.2691      -6.167179      0.9124207
      6465.0000         1.0558       1192.619         0.9825       -42.6445      -5.540997       0.923034
      6465.5000         1.0437       1219.195          0.979       -42.0194      -4.914318      0.9336556
      6466.0000         1.0327       1246.145         0.9756       -40.2433      -3.136635      0.9637858
      6466.5000         1.0281       1274.496         0.9721       -38.7399      -1.631649      0.9892941
      6467.0000         1.0234        1302.98         0.9687       -46.0166      -8.906773      0.8659869
      6467.5000         1.0177       1331.729         0.9652       -47.2844      -10.17299      0.8445256
      6468.0000         1.0105       1348.221         0.9617       -47.9341      -10.82111      0.8335406
      6468.5000         1.0032       1359.236          0.956       -48.4365      -11.32193      0.8250521
      6469.0000         0.9959       1368.971         0.9453       -49.0485      -11.93234      0.8147061
      6469.5000         0.9881       1373.285         0.9346       -49.7684      -12.65066      0.8025312
      6470.0000         0.9803       1375.199         0.9239       -52.1494      -15.03008       0.762202
      6470.5000         0.9768       1377.113         0.9132       -53.7205       -16.5996      0.7356001
      6471.0000         0.9803       1379.029         0.9025       -53.7915      -16.66901      0.7344235
      6471.5000         0.9875       1380.943         0.8918       -53.8624      -16.73833      0.7332486
      6472.0000         0.9974       1382.971          0.881       -54.0206      -16.89495       0.730594
      6472.5000         1.0072       1401.119           0.87       -54.3559      -17.22867      0.7249377
      6473.0000          1.017       1419.246         0.8497       -55.1692      -18.04039      0.7111799
      6473.5000          1.028       1463.838         0.8294       -56.6769       -19.5465      0.6856524
      6474.0000         1.0329       1651.248         0.8091       -57.9523      -20.82033      0.6640623
      6474.5000         1.0098       1686.711         0.7777       -59.8362      -22.70264      0.6321586
      6475.0000         0.9656       1728.758         0.7451       -59.7119      -22.57676      0.6342922
      6475.5000         0.9088         2069.5         0.7124       -59.3718      -22.23508      0.6400834
      6476.0000         0.8772       2398.977         0.6798       -58.8848       -21.7465      0.6483644
      6476.5000         0.8551        2455.77         0.6618       -58.3977      -21.25782      0.6566472
      6477.0000         0.8383       2544.691         0.6438       -57.9424      -20.80094      0.6643909
      6477.5000         0.8215        2608.77         0.6258       -58.7456      -21.60255      0.6508042
      6478.0000          0.815        2644.98         0.6078       -68.1469      -31.00227       0.491487
      6478.5000         0.8089       2648.492         0.5993       -72.6305      -35.48429      0.4155205
      6479.0000         0.8163       2619.789         0.5952       -73.5132      -36.36541      0.4005863
      6479.5000         0.8365        2580.77          0.591       -73.0913      -35.94193      0.4077639
      6480.0000         0.8554       2513.355         0.5869         -72.67      -35.51904      0.4149315
      6480.5000         0.8723       2453.227           0.59       -72.2482      -35.09566      0.4221074
      6481.0000          0.887        2416.93         0.6075       -71.8263      -34.67218       0.429285
      6481.5000         0.8919       2380.633          0.625        -71.446       -34.2903      0.4357577
      6482.0000         0.8905       2342.973         0.6484       -74.5195      -37.36222      0.3836913
      6482.5000         0.8874         2186.5         0.6844       -71.1886      -34.02974       0.440174
      6483.0000         0.8842       1803.459         0.7203        -70.231      -33.07056      0.4564312
      6483.5000         0.8826       1747.895         0.7562       -68.9796      -31.81757      0.4776683
      6484.0000         0.8973       1613.416         0.7918       -66.8671       -29.7035      0.5135001
      6484.5000          0.912       1458.746         0.8274        -60.021      -22.85581      0.6295626
      6485.0000         0.9312       1328.568         0.8631        -55.202      -18.03522      0.7112674
      6485.5000         0.9536       1233.504         0.8948       -53.6395      -16.47115      0.7377772
      6486.0000         0.9761       1174.865         0.9257       -49.1142      -11.94426       0.814504
      6486.5000         0.9952       1147.215         0.9566       -47.5934      -10.42188      0.8403071
      6487.0000         1.0124       1129.748         0.9875       -45.5181      -8.345001      0.8755084
      6487.5000         1.0225       1114.145         1.0184       -43.2039      -6.029217       0.914759
      6488.0000         1.0326       1098.893         1.0421       -42.0424      -4.866138      0.9344722
      6488.5000         1.0423       1089.467         1.0538       -41.0333      -3.855453      0.9516025
      6489.0000         1.0466       1085.758         1.0655       -39.7042      -2.524773      0.9741564
      6489.5000          1.051       1098.301         1.0772       -38.5164      -1.335392      0.9943154
      6490.0000         1.0554       1122.506         1.0699       -37.7691     -0.5865097              1
      6490.5000          1.039       1146.711         1.0574       -37.1566     0.02757263              1
      6491.0000         1.0192       1170.938         1.0449       -37.3722     -0.1864471              1
      6491.5000         1.0004       1209.145         1.0324       -37.6144      -0.427063              1
      6492.0000         0.9823       1257.555         1.0199       -37.8565     -0.6675797              1
      6492.5000          0.965       1312.373         1.0074       -38.0987     -0.9082031              1
      6493.0000         0.9523        1313.91         0.9949       -38.2386       -1.04652      0.9992115
      6493.5000         0.9396       1308.803         0.9935       -37.5533     -0.3596382              1
      6494.0000         0.9269       1285.887          0.997       -36.7501      0.4451447              1
      6494.5000         0.9192       1260.408         1.0005       -35.5262       1.670628              1
      6495.0000         0.9225       1227.885         1.0039       -34.9312       2.267208              1
      6495.5000         0.9419       1195.209         1.0074       -34.4299       2.770088              1
      6496.0000         0.9621       1182.559         1.0109       -34.6376       2.563972              1
      6496.5000         0.9835       1169.906         1.0124       -34.8452       2.357952              1
      6497.0000         1.0048       1175.326         1.0132       -35.0529       2.151836              1
      6497.5000         1.0215       1211.953         1.0141       -35.2602       1.946117              1
      6498.0000         1.0335       1260.715         1.0149       -35.5602       1.647697              1
      6498.5000         1.0307       1322.688         0.9899       -36.4795      0.7299805              1
