#------------------------------------------------------------------------------
# Created by    : vladimir.rabinovich
# Created on    : 09/19/2023 17:22:44
#------------------------------------------------------------------------------
~Version Information Section
VERS.           2.0     :   CWLS log ASCII Standard - VERSION 2.0
WRAP.           NO      :   One line per depth step
~Well Information Section
#MNEM       .UNIT                                         VALUE :DESCRIPTION
#------------------------------------------------------------------------------
STRT        .FT                                            3420 :START DEPTH
STOP        .FT                                           11707 :STOP DEPTH
STEP        .FT                                             0.5 :STEP      
NULL        .                                           -999.25 :NULL      
COMP        .                        TRI-UNION DEVELOPMENT CORP :COMPANY   
WELL        .                               OCS G08154 ST00BP00 :WELL      
FLD         .                                           WILDCAT :FIELD     
LOC         .                                                   :LOCATION  
CNTY        .                           HIGH ISLAND LARGE BLOCK :LOCATION  
STAT        .                                             TEXAS :STATE     
CTRY        .                                     UNITED STATES :COUNTRY   
SRVC        .                                                   :SERVICE COMPANY
DATE        .                             9/13/2023 11:19:57 AM :LOG DATE  
API         .                                    42708403520000 :API NUMBER
UWI         .                                    42708403520000 :UNIQUE WELL ID
XCOORD      .                                  1180527.91159004 :SURFACE X 
YCOORD      .                                  10524923.1623167 :SURFACE Y 
LAT         .                                        28.9940426 :LATITUDE  
LON         .                                       -94.4389714 :LONGITUDE 
ELEV        .FT                                             100 :ELEVATION VALUE
ELEV_TYPE   .                                                KB :ELEVATION REFERENCE TYPE
~Curve Information Section
#MNEM       .UNIT                                      API CODE :CURVE DESCRIPTION
#------------------------------------------------------------------------------
DEPT        .FT                                                 :DEPTH     
DCAL        .IN                                                 :          
DPHI        .%                                                  :          
DRHO        .G/C3                                               :          
GR          .GAPI                                               :          
GR_NORM     .GAPI                                               :GammaRay Normalized
ILD         .OHMM                                               :          
ILM         .OHMM                                               :          
NPHI        .%                                                  :          
SFL         .OHMM                                               :          
SP          .MV                                                 :          
SP_NORM     .MV                                                 :SP Normalized
VSH_GR      .V/V                                                :Volume of Shale from GR
VSH_SP      .V/V                                                :Volume of Shale from SP
~A        DEPTH           DCAL           DPHI           DRHO             GR        GR_NORM            ILD            ILM           NPHI            SFL             SP        SP_NORM         VSH_GR         VSH_SP
# ...
      9500.0000         2.9384         11.563           0.05        63.4944       63.93581         1.5515         1.5827        22.2898         1.4408       -45.2402       -11.2779      0.6582088      0.7188515
      9500.5000         3.0333        10.5346         0.0523        64.3536       64.91094         1.5839         1.4681        20.8855          1.581         -44.73       -10.7677      0.6789562      0.7343121
      9501.0000         3.0487        10.5031         0.0588        65.9598       66.73374         1.6354         1.4047         21.455         1.6383       -43.4586        -9.4963      0.7177392      0.7728394
      9501.5000          3.064        11.1486         0.0708        66.5618       67.41702         1.6433         1.4347        23.3214         1.5855       -42.1896        -8.2273      0.7322771       0.811294
      9502.0000         3.2672        11.7567         0.0964         65.078       65.73344         1.6269         1.4516        27.8593         1.5343       -40.9182        -6.9559      0.6964561      0.8498212
      9502.5000         3.5331         11.738        -999.25          62.77        63.1146         1.6552         1.4585        29.5658         1.4521       -39.7766        -5.8143      0.6407361      0.8844151
      9503.0000         3.9654        10.9457        -999.25        61.6884       61.88741         1.6334         1.4971        29.6992         1.3681       -38.7524        -4.7901      0.6146256      0.9154515
      9503.5000           4.52        10.8899        -999.25        61.4123       61.57426         1.5816         1.5732        28.8417         1.3145       -38.2178        -4.2555      0.6079629      0.9316515
      9504.0000         5.0378        10.7866        -999.25        62.0193       62.26322         1.5609         1.6275        26.5891         1.3228       -37.6421        -3.6798      0.6226217       0.949097
      9504.5000         5.2495        10.5824        -999.25        62.5327       62.84595         1.5464          1.616        25.1267          1.343       -37.0164        -3.0541      0.6350203      0.9680576
      9505.0000         5.0194        10.5802        -999.25         62.903       63.26631         1.5683         1.5991         25.205         1.4095        -36.676        -2.7137       0.643964      0.9783728
      9505.5000         4.7401        11.4149         0.0955        60.5468       60.59277         1.6081         1.6446         25.679         1.4723       -36.3881        -2.4258      0.5870802       0.987097
      9506.0000         4.4444        13.7829         0.0888        55.8556       55.26958         1.6966         1.7744        27.1079         1.4603       -36.1476        -2.1853      0.4738208      0.9943848
      9506.5000         4.1587         13.934         0.0762        57.9539       57.65079          1.832         2.1018         27.822         1.4647       -35.9072        -1.9449       0.524485              1
      9507.0000         3.9987         13.161         0.0569        61.4011       61.56267         2.0002         2.3876        26.9588         1.4851       -35.6503         -1.688      0.6077163              1
      9507.5000         3.8392        13.2764         0.0314        63.8531       64.34524         2.1421         2.5936        24.3709         1.5931       -35.5428        -1.5805      0.6669199              1
      9508.0000         3.6799        13.4011         0.0119        61.9056       62.13546         2.1548         2.5828        20.4532         1.7683       -35.7899        -1.8276      0.6199035              1
      9508.5000         3.4879        12.9347         0.0027         55.401       54.75452         2.1262         2.3936        18.6434         1.9121       -36.4093         -2.447       0.462862      0.9864545
      9509.0000          3.232         12.299         0.0013        53.2628       52.32835         2.1082         2.1294        18.0642         2.0461       -37.1749        -3.2126      0.4112414      0.9632546
      9509.5000         2.9224        13.6124         -0.001        53.8748       53.02298         2.1182         1.7891        17.8272         2.1227       -37.7838        -3.8215      0.4260209       0.944803
      9510.0000         2.7457        19.0245        -0.0008        55.8806       55.29922          2.149         1.5147        18.2051         2.0736       -38.0767        -4.1144      0.4744514      0.9359273
      9510.5000         2.6513        25.6004         0.0027        58.5084       58.28128         2.1566          1.526        20.2236         1.6708       -39.0072        -5.0449      0.5378997      0.9077303
      9511.0000         2.7262        28.2661         0.0116        60.1871       60.18635         2.1374         1.7347        27.0006         1.4534       -39.5087        -5.5464      0.5784329      0.8925333
      9511.5000         2.8493        29.5406         0.0235        58.4285       58.19093         2.0583         2.2383        28.7805         1.4264       -39.4119        -5.4496      0.5359772      0.8954667
      9512.0000         3.5132        21.4179         0.0463         57.182       56.77662         1.9671         2.5045        26.4401         1.5011       -39.0775        -5.1152      0.5058856         0.9056
      9512.5000         4.2646        12.2092         0.0677          56.55       56.05962         1.8643         2.0708        22.2242         1.6709       -38.9474        -4.9851      0.4906302      0.9095424
      9513.0000           4.67         9.9474          0.062        57.4368       57.06607         1.7554         1.7562        19.7828         1.6574       -38.7374        -4.7751      0.5120441      0.9159061
      9513.5000         4.7158        13.4179         0.0369        58.3236       58.07253         1.7527         1.5717        20.3279         1.6323       -38.0205        -4.0582      0.5334581      0.9376303
      9514.0000         4.1075        16.8719         0.0108        60.6417       60.70316         1.8143         1.5069        24.0727         1.5716       -37.3186        -3.3563       0.589429         0.9589
      9514.5000         3.5496        17.7305         0.0063        62.3878       62.68472         1.8492         1.4985        28.8909         1.5274       -37.6933         -3.731      0.6315897      0.9475455
      9515.0000         3.8124        17.9602         0.0078        63.1978       63.60402         1.8248         1.4989        30.0097         1.5221       -38.4039        -4.4416      0.6511493      0.9260121
      9515.5000         4.6353        17.7216         0.0104        62.8992       63.26534         1.7258         1.5134        30.1073         1.5108       -39.2664        -5.3041      0.6439433      0.8998758
      9516.0000         5.1888        16.7672         0.0192        63.1134       63.50856         1.7133         1.6813        29.3023         1.4981       -39.0141        -5.0518      0.6491183      0.9075212
      9516.5000          5.648        15.9774         0.0336        64.0876        64.6142         1.7514          1.771        26.9916         1.4794        -38.374        -4.4117      0.6726425      0.9269182
      9517.0000         5.6537        15.4082         0.0526        64.6526       65.25549         1.7513         1.7298        25.4282         1.4583       -36.9988        -3.0365      0.6862871      0.9685909
      9517.5000         5.6083        15.0155         0.0633         64.673       65.27879         1.7662         1.7788        25.7469         1.4827       -36.5149        -2.5526      0.6867828      0.9832546
      9518.0000         5.3886        12.8375         0.0636        64.5072       65.09082         1.9356         2.0898        26.1099         1.5287       -36.4589        -2.4966      0.6827834      0.9849515
      9518.5000         5.0318        11.3072         0.0515        63.6268       64.09194         2.2836         2.3343         26.054         1.5907       -36.5159        -2.5536      0.6615307      0.9832242
