#------------------------------------------------------------------------------
# Created by    : vladimir.rabinovich
# Created on    : 09/19/2023 17:22:25
#------------------------------------------------------------------------------
~Version Information Section
VERS.           2.0     :   CWLS log ASCII Standard - VERSION 2.0
WRAP.           NO      :   One line per depth step
~Well Information Section
#MNEM       .UNIT                                         VALUE :DESCRIPTION
#------------------------------------------------------------------------------
STRT        .FT                                            3984 :START DEPTH
STOP        .FT                                           14348 :STOP DEPTH
STEP        .FT                                             0.5 :STEP      
NULL        .                                           -999.25 :NULL      
COMP        .                                  CNG PRODUCING CO :COMPANY   
WELL        .                               OCS G07292 ST00BP00 :WELL      
FLD         .                                           WILDCAT :FIELD     
LOC         .                                                   :LOCATION  
CNTY        .                           HIGH ISLAND LARGE BLOCK :LOCATION  
STAT        .                                             TEXAS :STATE     
CTRY        .                                     UNITED STATES :COUNTRY   
SRVC        .                                                   :SERVICE COMPANY
DATE        .                             9/13/2023 11:19:59 AM :LOG DATE  
API         .                                    42708402890000 :API NUMBER
UWI         .                                    42708402890000 :UNIQUE WELL ID
XCOORD      .                                  1158246.84135722 :SURFACE X 
YCOORD      .                                  10525039.0147689 :SURFACE Y 
LAT         .                                         28.993597 :LATITUDE  
LON         .                                        -94.508673 :LONGITUDE 
ELEV        .FT                                             101 :ELEVATION VALUE
ELEV_TYPE   .                                                KB :ELEVATION REFERENCE TYPE
~Curve Information Section
#MNEM       .UNIT                                      API CODE :CURVE DESCRIPTION
#------------------------------------------------------------------------------
DEPT        .FT                                                 :DEPTH     
CALX        .IN                                                 :          
DTL         .US/F                                               :          
GR          .GAPI                                               :          
GR_NORM     .GAPI                                               :GammaRay Normalized
ILD         .OHMM                                               :          
ILM         .OHMM                                               :          
LL3         .OHMM                                               :          
SP          .MV                                                 :          
SP_NORM     .MV                                                 :SP Normalized
VSH_GR      .V/V                                                :Volume of Shale from GR
VSH_SP      .V/V                                                :Volume of Shale from SP
~A        DEPTH           CALX            DTL             GR        GR_NORM            ILD            ILM            LL3             SP        SP_NORM         VSH_GR         VSH_SP
# ...
     12286.5000         8.1993       138.5217        56.2138       90.39348         0.4314         0.4381         0.4939       -47.5741      -5.815861              1      0.9169163
     12287.0000         8.1947       137.8975         57.053       91.99195         0.4338         0.4432         0.4896       -47.9186      -6.160358              1      0.9119949
     12287.5000         8.1902       136.6843        56.9804       91.85366         0.4396         0.4495         0.4897       -48.1923      -6.434059              1      0.9080849
     12288.0000         8.1859       135.7632        56.1884       90.34509         0.4473          0.456         0.5008       -48.1904      -6.432159              1       0.908112
     12288.5000         8.1912       135.0276        54.4335       87.00241         0.4576         0.4632         0.5048       -47.6594      -5.901161              1      0.9156977
     12289.0000         8.1881       134.7317        52.9895       84.25195         0.4685         0.4737          0.502       -47.0405      -5.282261              1      0.9245391
     12289.5000         8.1881        134.543        51.8179       82.02033         0.4805         0.4861         0.5042        -46.414      -4.655762              1      0.9334891
     12290.0000         8.1884       134.3015        52.5743       83.46111         0.4885         0.4947          0.506       -44.8655      -3.107262              1      0.9556106
     12290.5000         8.1883       134.2329        54.1979       86.55367         0.4937         0.4987         0.5058       -43.4813      -1.723061              1      0.9753848
     12291.0000         8.1897       134.2544         53.986       86.15005         0.4943          0.499         0.5042       -43.0305      -1.272259              1      0.9818249
     12291.5000         8.1877        134.512        53.8882       85.96376         0.4926         0.4963         0.5032       -42.5122     -0.7539597              1      0.9892291
     12292.0000         8.1811       135.0693         54.673       87.45861         0.4894         0.4937         0.5013       -42.6787     -0.9204597              1      0.9868506
     12292.5000         8.1735       135.4038        55.7375       89.48624         0.4855         0.4906         0.5003       -42.6817     -0.9234619              1      0.9868077
     12293.0000         8.1721       135.4275        56.8989       91.69843         0.4808          0.485            0.5       -42.4587     -0.7004585              1      0.9899935
     12293.5000         8.1691       135.2463        58.6486       95.03119         0.4776         0.4787         0.5073       -42.7287      -0.970459              1      0.9861363
     12294.0000         8.1651        134.866        59.9755       97.55862         0.4746         0.4729         0.5165       -42.5415     -0.7832603              1      0.9888105
     12294.5000         8.1581       134.4312        59.2497       96.17615         0.4725         0.4684          0.525       -42.3029     -0.5446587              1      0.9922192
     12295.0000         8.1545       134.0229         57.444       92.73672           0.47         0.4641         0.5254       -42.6704      -0.912159              1      0.9869692
     12295.5000         8.1532       133.3823        56.1094       90.19462         0.4665         0.4612          0.511       -42.5975     -0.8392601              1      0.9880106
     12296.0000         8.1518       132.5432        55.8073        89.6192         0.4624         0.4588         0.4952       -42.2432     -0.4849586              1       0.993072
     12296.5000         8.1708       133.2383        56.2947       90.54757         0.4588          0.457         0.5122       -42.4893       -0.73106              1      0.9895563
     12297.0000         8.2268       133.6489        56.1769        90.3232          0.456         0.4529         0.5202       -42.5989     -0.8406601              1      0.9879906
     12297.5000         8.3193       133.8555        55.8203       89.64397         0.4513         0.4502         0.5317       -42.5717     -0.8134613              1      0.9883791
     12298.0000         8.3351       134.0356        55.7939       89.59367         0.4457          0.443         0.5335       -42.4829      -0.724659              1      0.9896477
     12298.5000           8.34       134.2493        56.3411       90.63596         0.4389         0.4377         0.5309       -42.3871     -0.6288605              1      0.9910163
     12299.0000         8.3231       134.4634        56.5067       90.95139         0.4318         0.4346         0.4984       -42.2664     -0.5081596              1      0.9927406
     12299.5000         8.3326        135.082        55.6051       89.23404         0.4293         0.4315         0.5009       -42.0826     -0.3243599              1      0.9953663
     12300.0000         8.3263       135.9534        54.6927       87.49614           0.43         0.4292         0.5387       -42.0375     -0.2792587              1      0.9960106
     12300.5000         8.3187       136.2095        54.5375       87.20052         0.4317         0.4294          0.517       -42.1664     -0.4081612              1      0.9941691
     12301.0000         8.3239       136.1555        55.4854       89.00606         0.4343         0.4321         0.5127       -42.3813     -0.6230621              1      0.9910991
     12301.5000         8.3581       135.9363         56.181         90.331         0.4373         0.4354         0.5289       -42.4594     -0.7011604              1      0.9899834
     12302.0000          8.379       135.2134        55.4014       88.84606         0.4393         0.4407         0.5463       -42.4105     -0.6522598              1       0.990682
     12302.5000         8.3762        134.248        52.7832       83.85899         0.4434         0.4462         0.5492       -42.3285     -0.5702591              1      0.9918534
     12303.0000          8.379        133.333        51.2245       80.89004         0.4451         0.4525         0.5442       -42.1968     -0.4385605              1      0.9937348
     12303.5000         8.3936       132.5913          51.15       80.74814         0.4488         0.4604         0.5325       -42.1294     -0.3711586              1      0.9946977
     12304.0000         8.4222       132.5571        51.6167       81.63709         0.4538          0.467         0.5245       -42.0794     -0.3211594              1       0.995412
     12304.5000          8.432       133.2598        52.2903       82.92014         0.4582         0.4717         0.5237       -42.0604     -0.3021584              1      0.9956834
     12305.0000         8.4373       134.1594        53.3409       84.92129         0.4622         0.4765         0.5232        -42.304     -0.5457611              1      0.9922034
     12305.5000         8.4434       134.6965        54.3931       86.92549         0.4662         0.4809         0.5152       -42.3861      -0.627861              1      0.9910306
     12306.0000         8.4502       135.0491        54.2387       86.63139         0.4694          0.482          0.536         -42.53      -0.771759              1      0.9889749
     12306.5000         8.4854       135.1931        53.7979       85.79177         0.4712         0.4791         0.5296       -43.2253       -1.46706              1       0.979042
     12307.0000         8.5197       135.2942         54.403       86.94434         0.4692         0.4722         0.5263       -44.0632      -2.304962              1       0.967072
     12307.5000         8.5435       135.4226        55.5643       89.15633         0.4627         0.4603         0.5282       -44.8999      -3.141659              1      0.9551191
     12308.0000         8.5513       135.5095        56.0034       89.99271         0.4547         0.4484         0.5337       -45.3488      -3.590561              1      0.9487063
     12308.5000         8.5251       135.5217        55.4739       88.98415         0.4461         0.4361         0.5506         -45.62      -3.861759              1       0.944832
