#------------------------------------------------------------------------------
# Created by    : vladimir.rabinovich
# Created on    : 09/19/2023 17:20:39
#------------------------------------------------------------------------------
~Version Information Section
VERS.           2.0     :   CWLS log ASCII Standard - VERSION 2.0
WRAP.           NO      :   One line per depth step
~Well Information Section
#MNEM       .UNIT                                         VALUE :DESCRIPTION
#------------------------------------------------------------------------------
STRT        .FT                                             502 :START DEPTH
STOP        .FT                                           11475 :STOP DEPTH
STEP        .FT                                             0.5 :STEP      
NULL        .                                           -999.25 :NULL      
COMP        .                                      SHELL OIL CO :COMPANY   
WELL        .                                OCS 00730 ST00BP00 :WELL      
FLD         .                                           WILDCAT :FIELD     
LOC         .                                                   :LOCATION  
CNTY        .                             GALVESTON LARGE BLOCK :LOCATION  
STAT        .                                             TEXAS :STATE     
CTRY        .                                     UNITED STATES :COUNTRY   
SRVC        .                                                   :SERVICE COMPANY
DATE        .                             9/13/2023 11:19:42 AM :LOG DATE  
API         .                                    42706000250000 :API NUMBER
UWI         .                                    42706000250000 :UNIQUE WELL ID
XCOORD      .                                  958538.282477158 :SURFACE X 
YCOORD      .                                   10357465.718335 :SURFACE Y 
LAT         .                                         28.524406 :LATITUDE  
LON         .                                        -95.123893 :LONGITUDE 
ELEV        .FT                                              80 :ELEVATION VALUE
ELEV_TYPE   .                                                KB :ELEVATION REFERENCE TYPE
~Curve Information Section
#MNEM       .UNIT                                      API CODE :CURVE DESCRIPTION
#------------------------------------------------------------------------------
DEPT        .FT                                                 :DEPTH     
ASN         .OHMM                                               :          
CILD        .MMHO                                               :          
ILD         .OHMM                                               :          
LAT         .OHMM                                               :          
LN          .OHMM                                               :          
SP          .MV                                                 :          
SP_NORM     .MV                                                 :SP Normalized
VSH_SP      .V/V                                                :Volume of Shale from SP
~A        DEPTH            ASN           CILD            ILD            LAT             LN             SP        SP_NORM         VSH_SP
# ...
      9263.5000         0.8436        1827.48         0.6766        -999.25        -999.25        -44.892      0.3401833              1
      9264.0000         0.8465       1823.828         0.6784        -999.25        -999.25       -44.9261      0.3042946              1
      9264.5000         0.8495       1820.168         0.6798        -999.25        -999.25       -44.9603      0.2683144              1
      9265.0000         0.8524       1816.516         0.6804        -999.25        -999.25       -44.9883      0.2385292              1
      9265.5000         0.8553       1811.295          0.681        -999.25        -999.25       -44.9951      0.2299461              1
      9266.0000         0.8583       1804.598         0.6816        -999.25        -999.25       -45.0019      0.2213631              1
      9266.5000         0.8612       1797.902         0.6822        -999.25        -999.25       -45.0087      0.2127762              1
      9267.0000         0.8641       1791.205         0.6828        -999.25        -999.25       -45.0154      0.2042923              1
      9267.5000          0.867       1784.508         0.6852        -999.25        -999.25       -45.0222      0.1957054              1
      9268.0000         0.8711       1767.051         0.6916        -999.25        -999.25        -45.029      0.1871262              1
      9268.5000         0.8752       1725.473          0.698        -999.25        -999.25       -45.0358      0.1785393              1
      9269.0000         0.8793       1691.223         0.7044        -999.25        -999.25       -45.0425      0.1700554              1
      9269.5000         0.8834       1662.305         0.7107        -999.25        -999.25       -45.0281      0.1826706              1
      9270.0000         0.8875       1633.385         0.7171        -999.25        -999.25       -44.9446       0.264389              1
      9270.5000         0.8916       1620.414         0.7235        -999.25        -999.25       -44.8614      0.3458023              1
      9271.0000         0.8973       1618.682          0.729        -999.25        -999.25        -44.916      0.2894173              1
      9271.5000         0.9031       1640.938         0.7275        -999.25        -999.25       -45.4077     -0.2040672              1
      9272.0000         0.9015       1663.236          0.726        -999.25        -999.25       -45.8757      -0.673851              1
      9272.5000         0.8999       1685.492         0.7245        -999.25        -999.25       -46.2671      -1.067036      0.9984764
      9273.0000         0.8967       1701.885          0.723        -999.25        -999.25        -46.658      -1.459721      0.9895518
      9273.5000         0.8934        1712.99         0.7214        -999.25        -999.25       -47.0494      -1.852905      0.9806158
      9274.0000         0.8902       1724.096         0.7199        -999.25        -999.25       -47.4404      -2.245686       0.971689
      9274.5000         0.8869       1735.201          0.718        -999.25        -999.25       -48.0184       -2.82547      0.9585121
      9275.0000         0.8836       1746.307          0.713        -999.25        -999.25       -47.8577      -2.666557      0.9621237
      9275.5000         0.8803       1757.412          0.708        -999.25        -999.25       -47.2631      -2.073742      0.9755968
      9276.0000         0.8771       1768.518          0.703        -999.25        -999.25       -46.7026      -1.515022       0.988295
      9276.5000         0.8738         1779.6          0.698        -999.25        -999.25       -46.1411     -0.9553108              1
      9277.0000         0.8669       1790.096         0.6929        -999.25        -999.25       -45.5806      -0.396595              1
      9277.5000         0.8587        1797.08         0.6879        -999.25        -999.25       -45.3406     -0.1583786              1
      9278.0000         0.8505       1804.055         0.6829        -999.25        -999.25       -45.2746    -0.09416199              1
      9278.5000         0.8423       1811.039         0.6779        -999.25        -999.25       -45.2087    -0.03004456              1
      9279.0000         0.8341       1818.025         0.6729        -999.25        -999.25       -45.1426     0.03426743              1
      9279.5000         0.8287        1825.01         0.6679        -999.25        -999.25       -45.0765     0.09858322              1
      9280.0000         0.8244       1845.277         0.6645        -999.25        -999.25       -45.0104      0.1629028              1
      9280.5000         0.8201       1867.711         0.6627        -999.25        -999.25       -44.9444      0.2271156              1
      9281.0000          0.817       1873.252         0.6609        -999.25        -999.25       -44.8824      0.2873306              1
      9281.5000         0.8223       1878.617         0.6591        -999.25        -999.25       -44.8843      0.2836456              1
      9282.0000         0.8276        1883.98         0.6573        -999.25        -999.25       -44.8863      0.2798653              1
      9282.5000         0.8329        1876.34         0.6555        -999.25        -999.25       -44.8882      0.2761803              1
      9283.0000         0.8382       1867.955         0.6536        -999.25        -999.25       -44.8901      0.2724953              1
      9283.5000         0.8436        1859.57         0.6518        -999.25        -999.25       -44.8921      0.2687073              1
      9284.0000         0.8489       1851.174         0.6573        -999.25        -999.25        -44.894      0.2650261              1
      9284.5000         0.8542       1842.791         0.6656        -999.25        -999.25       -44.8959      0.2613411              1
      9285.0000         0.8595       1834.406         0.6739        -999.25        -999.25       -44.8979      0.2575569              1
      9285.5000         0.8648       1826.021         0.6822        -999.25        -999.25       -44.8998      0.2538719              1
      9286.0000          0.869       1817.625         0.6905        -999.25        -999.25       -44.9017      0.2501907              1
      9286.5000         0.8722        1809.24         0.6988        -999.25        -999.25       -44.9037      0.2464027              1
      9287.0000         0.8707       1782.953         0.7036        -999.25        -999.25       -44.9236        0.22472              1
      9287.5000         0.8652       1755.945         0.7011        -999.25        -999.25       -44.9921      0.1544342              1
      9288.0000         0.8598       1728.893         0.6985        -999.25        -999.25       -45.0607     0.08405304              1
      9288.5000         0.8544        1701.84          0.696        -999.25        -999.25       -45.1292     0.01376724              1
      9289.0000          0.849       1708.969         0.6935        -999.25        -999.25       -45.1978    -0.05661774              1
      9289.5000         0.8436        1721.74         0.6909        -999.25        -999.25       -45.2664     -0.1270027              1
      9290.0000         0.8382       1734.512         0.6884        -999.25        -999.25       -45.3349     -0.1972847              1
      9290.5000         0.8419       1747.283         0.6859        -999.25        -999.25       -45.4034     -0.2675705              1
      9291.0000         0.8488       1758.955         0.6834        -999.25        -999.25       -45.4466     -0.3125572              1
      9291.5000         0.8557       1768.639         0.6843        -999.25        -999.25       -45.4776     -0.3453407              1
      9292.0000         0.8626       1778.322         0.6855        -999.25        -999.25       -45.5086     -0.3781204              1
      9292.5000         0.8694       1788.018         0.6868        -999.25        -999.25       -45.5396     -0.4109077              1
