#------------------------------------------------------------------------------
# Created by    : vladimir.rabinovich
# Created on    : 09/19/2023 17:22:38
#------------------------------------------------------------------------------
~Version Information Section
VERS.           2.0     :   CWLS log ASCII Standard - VERSION 2.0
WRAP.           NO      :   One line per depth step
~Well Information Section
#MNEM       .UNIT                                         VALUE :DESCRIPTION
#------------------------------------------------------------------------------
STRT        .FT                                             890 :START DEPTH
STOP        .FT                                            9058 :STOP DEPTH
STEP        .FT                                             0.5 :STEP      
NULL        .                                           -999.25 :NULL      
COMP        .                            COASTAL OIL & GAS CORP :COMPANY   
WELL        .                               OCS G01773 ST00BP00 :WELL      
FLD         .                                           WILDCAT :FIELD     
LOC         .                                                   :LOCATION  
CNTY        .                             GALVESTON LARGE BLOCK :LOCATION  
STAT        .                                             TEXAS :STATE     
CTRY        .                                     UNITED STATES :COUNTRY   
SRVC        .                                                   :SERVICE COMPANY
DATE        .                             9/13/2023 11:19:54 AM :LOG DATE  
API         .                                    42706403500000 :API NUMBER
UWI         .                                    42706403500000 :UNIQUE WELL ID
XCOORD      .                                  1074939.13305719 :SURFACE X 
YCOORD      .                                   10531967.363633 :SURFACE Y 
LAT         .                                         29.009472 :LATITUDE  
LON         .                                        -94.769566 :LONGITUDE 
ELEV        .FT                                              83 :ELEVATION VALUE
ELEV_TYPE   .                                                KB :ELEVATION REFERENCE TYPE
~Curve Information Section
#MNEM       .UNIT                                      API CODE :CURVE DESCRIPTION
#------------------------------------------------------------------------------
DEPT        .FT                                                 :DEPTH     
DCAL        .IN                                                 :          
DPSS        .V/V                                                :          
DRHO        .G/CM3                                              :          
DTLF        .US/FT                                              :          
DTLN        .US/FT                                              :          
GR          .GAPI                                               :          
GRS         .GAPI                                               :          
NPSS        .V/V                                                :Neutron Porosity Sandstone
SFL         .OHMM                                               :          
SP          .MV                                                 :          
SP_NORM     .MV                                                 :SP Normalized
SPHI_SAN    .V/V                                                :          
TENS        .LB                                                 :          
VSH_SP      .V/V                                                :Volume of Shale from SP
~A        DEPTH           DCAL           DPSS           DRHO           DTLF           DTLN             GR            GRS           NPSS            SFL             SP        SP_NORM       SPHI_SAN           TENS         VSH_SP
# ...
      9008.0000         0.3922         0.1935        -0.0116        -999.25        -999.25        -999.25        -999.25         0.4668         0.4908         3.8438      0.5982025        -999.25           3560              1
      9008.5000         0.3922         0.1849        -0.0117        -999.25        -999.25        -999.25        -999.25          0.468         0.5477         2.8343     -0.4281306        -999.25           3520      0.9942916
      9009.0000         0.3137          0.168        -0.0098        -999.25        -999.25        -999.25        -999.25         0.4704          0.772         1.0248      -2.254464        -999.25           3440      0.9699405
      9009.5000         0.2353           0.15        -0.0039        -999.25        -999.25        -999.25        -999.25         0.4704         1.1677        -1.3887      -4.684797        -999.25           3400      0.9375361
      9010.0000         0.1961           0.15              0        -999.25        -999.25        -999.25        -999.25         0.4704         1.2447        -2.3974       -5.71033        -999.25           3420      0.9238623
      9010.5000         0.1961         0.1668         -0.004        -999.25        -999.25        -999.25        -999.25         0.4692         0.8919           -2.2      -5.529763        -999.25           3420      0.9262698
      9011.0000         0.2745         0.1764         -0.004        -999.25        -999.25        -999.25        -999.25          0.468         0.6451           -0.8      -4.146596        -999.25           3440       0.944712
      9011.5000         0.3137         0.1849              0        -999.25        -999.25        -999.25        -999.25        -999.25         0.5378            0.4      -2.963429        -999.25           3440      0.9604876
      9012.0000         0.3137         0.1873          0.004        -999.25        -999.25        -999.25        -999.25        -999.25         0.5092            1.8      -1.580262        -999.25           3440      0.9789298
      9012.5000         0.3137         0.1898          0.004        -999.25        -999.25        -999.25        -999.25        -999.25         0.4954            2.2      -1.189831        -999.25           3460      0.9841356
      9013.0000         0.3137         0.1922          0.004        -999.25        -999.25        -999.25        -999.25        -999.25            0.5            2.6     -0.7898307        -999.25           3460      0.9894689
      9013.5000         0.3137          0.191          0.002        -999.25        -999.25        -999.25        -999.25        -999.25         0.5092              3     -0.3898306        -999.25           3460      0.9948022
      9014.0000         0.3529         0.1922          0.002        -999.25        -999.25        -999.25        -999.25        -999.25         0.5139            3.2     -0.1898305        -999.25           3460      0.9974689
      9014.5000         0.3137         0.1971          0.002        -999.25        -999.25        -999.25        -999.25        -999.25            0.5            3.6      0.2101693        -999.25           3440              1
      9015.0000         0.2353         0.2045              0        -999.25        -999.25        -999.25        -999.25        -999.25         0.4862            3.8      0.4101694        -999.25           3440              1
      9015.5000         0.1176         0.2094         -0.008        -999.25        -999.25        -999.25        -999.25        -999.25         0.4862            3.8      0.4101694        -999.25           3500              1
      9016.0000         0.0784         0.2118         -0.014        -999.25        -999.25        -999.25        -999.25        -999.25         0.4954            4.4        1.01017        -999.25           3500              1
      9016.5000         0.0392         0.2118          -0.02        -999.25        -999.25        -999.25        -999.25        -999.25         0.5092            4.2      0.8101692        -999.25           3500              1
      9017.0000              0         0.2118         -0.022        -999.25        -999.25        -999.25        -999.25        -999.25         0.5046            4.2      0.8101692        -999.25           3500              1
      9017.5000        -0.2745         0.2118         -0.024        -999.25        -999.25        -999.25        -999.25        -999.25         0.4908            4.2      0.8101692        -999.25           3520              1
      9018.0000         -1.098         0.2118         -0.022        -999.25        -999.25        -999.25        -999.25        -999.25         0.4773            4.4        1.01017        -999.25           3520              1
      9018.5000        -999.25        -999.25         -0.018        -999.25        -999.25        -999.25        -999.25        -999.25         0.4954            4.4        1.01017        -999.25           3520              1
      9019.0000        -999.25        -999.25         -0.016        -999.25        -999.25        -999.25        -999.25        -999.25         0.5139            4.8        1.41017        -999.25           3500              1
      9019.5000        -999.25        -999.25         -0.016        -999.25        -999.25        -999.25        -999.25        -999.25         0.5233            5.2       1.810169        -999.25           3480              1
      9020.0000        -999.25        -999.25         -0.016        -999.25        -999.25        -999.25        -999.25        -999.25         0.5378            5.4        2.01017        -999.25           3460              1
      9020.5000        -999.25        -999.25          -0.02        -999.25        -999.25        -999.25        -999.25        -999.25         0.5578            5.6       2.210169        -999.25           3460              1
      9021.0000        -999.25        -999.25         -0.024        -999.25        -999.25        -999.25        -999.25        -999.25         0.5428            5.6       2.210169        -999.25           3440              1
      9021.5000        -999.25        -999.25          -0.03        -999.25        -999.25        -999.25        -999.25        -999.25         0.5428            5.6       2.210169        -999.25           3480              1
      9022.0000        -999.25        -999.25         -0.032        -999.25        -999.25        -999.25        -999.25        -999.25         0.5428            5.6       2.210169        -999.25           3520              1
      9022.5000        -999.25        -999.25         -0.032        -999.25        -999.25        -999.25        -999.25        -999.25         0.5428            5.2       1.810169        -999.25           3580              1
      9023.0000        -999.25        -999.25         -0.034        -999.25        -999.25        -999.25        -999.25        -999.25         0.5428            5.4        2.01017        -999.25           3580              1
      9023.5000        -999.25        -999.25         -0.036        -999.25        -999.25        -999.25        -999.25        -999.25         0.5428            5.6       2.210169        -999.25           3560              1
      9024.0000        -999.25        -999.25          -0.04        -999.25        -999.25        -999.25        -999.25        -999.25         0.5428            5.6       2.210169        -999.25           3500              1
      9024.5000        -999.25        -999.25          -0.04        -999.25        -999.25        -999.25        -999.25        -999.25         0.5428            5.2       1.810169        -999.25           3440              1
      9025.0000        -999.25        -999.25         -0.042        -999.25        -999.25        -999.25        -999.25        -999.25         0.5428              5       1.610169        -999.25           3460              1
      9025.5000        -999.25        -999.25         -0.042        -999.25        -999.25        -999.25        -999.25        -999.25         0.5477            4.6       1.210169        -999.25           3460              1
