#------------------------------------------------------------------------------
# Created by    : vladimir.rabinovich
# Created on    : 09/19/2023 17:19:45
#------------------------------------------------------------------------------
~Version Information Section
VERS.           2.0     :   CWLS log ASCII Standard - VERSION 2.0
WRAP.           NO      :   One line per depth step
~Well Information Section
#MNEM       .UNIT                                         VALUE :DESCRIPTION
#------------------------------------------------------------------------------
STRT        .FT                                            3127 :START DEPTH
STOP        .FT                                           13892 :STOP DEPTH
STEP        .FT                                             0.5 :STEP      
NULL        .                                           -999.25 :NULL      
COMP        .                                       MONSANTO CO :COMPANY   
WELL        .                                     ST TR 00010-L :WELL      
FLD         .                                           WILDCAT :FIELD     
LOC         .                                                   :LOCATION  
CNTY        .                           HIGH ISLAND LARGE BLOCK :LOCATION  
STAT        .                                             TEXAS :STATE     
CTRY        .                                     UNITED STATES :COUNTRY   
SRVC        .                                                   :SERVICE COMPANY
DATE        .                             9/13/2023 11:19:15 AM :LOG DATE  
API         .                                    42708300750000 :API NUMBER
UWI         .                                    42708300750000 :UNIQUE WELL ID
XCOORD      .                                  1327265.43976741 :SURFACE X 
YCOORD      .                                  10725214.5969587 :SURFACE Y 
LAT         .                                        29.5491158 :LATITUDE  
LON         .                                       -93.9851741 :LONGITUDE 
ELEV        .FT                                              54 :ELEVATION VALUE
ELEV_TYPE   .                                                KB :ELEVATION REFERENCE TYPE
~Curve Information Section
#MNEM       .UNIT                                      API CODE :CURVE DESCRIPTION
#------------------------------------------------------------------------------
DEPT        .FT                                                 :DEPTH     
ASFL        .OHMM                                               :          
CILD        .MMHO                                               :          
ILD         .OHMM                                               :          
SP          .MV                                                 :          
SP_NORM     .MV                                                 :SP Normalized
VSH_SP      .V/V                                                :Volume of Shale from SP
~A        DEPTH           ASFL           CILD            ILD             SP        SP_NORM         VSH_SP
# ...
      9549.0000         0.6747       2003.285        -999.25        -56.517      -1.954754      0.9838178
      9549.5000         0.6685       1981.316        -999.25       -56.3589      -1.792706      0.9865643
      9550.0000         0.6621       1954.152        -999.25       -55.8293      -1.259159      0.9956075
      9550.5000         0.6556       2008.133        -999.25       -55.5063     -0.9322166              1
      9551.0000          0.649        2083.98        -999.25       -55.4081     -0.8300667              1
      9551.5000         0.6425       2154.461        -999.25       -55.3323     -0.7503166              1
      9552.0000          0.636       2270.473        -999.25       -55.2289      -0.642971              1
      9552.5000         0.6294       2297.664        -999.25       -55.0613     -0.4714203              1
      9553.0000         0.6234       2359.691        -999.25       -54.8934      -0.299572              1
      9553.5000         0.6207       2389.711        -999.25       -54.7332     -0.1354256              1
      9554.0000         0.6179       2462.031        -999.25       -54.5806     0.02112198              1
      9554.5000         0.6184       2517.152        -999.25       -54.5526     0.05307007              1
      9555.0000         0.6197       2552.992        -999.25       -54.5733     0.03631592              1
      9555.5000          0.621       2552.395        -999.25        -54.626    -0.01243591              1
      9556.0000         0.6254        2537.93        -999.25       -54.6893    -0.07178879              1
      9556.5000         0.6305       2523.465        -999.25       -54.7527     -0.1312408              1
      9557.0000         0.6355       2493.148        -999.25       -54.8268     -0.2013931              1
      9557.5000         0.6406       2443.344        -999.25       -54.9078     -0.2784424              1
      9558.0000         0.6457       2392.148        -999.25       -55.0668     -0.4334946              1
      9558.5000         0.6508       2339.164        -999.25       -55.2704     -0.6331482              1
      9559.0000         0.6558       2281.605        -999.25       -55.4738     -0.8325996              1
      9559.5000         0.6608       2226.332        -999.25       -55.7727      -1.127556       0.997838
      9560.0000         0.6659       2184.633        -999.25       -55.8422      -1.193108       0.996727
      9560.5000         0.6702       2149.043        -999.25       -55.5186     -0.8655586              1
      9561.0000         0.6737       2119.742        -999.25       -54.9915     -0.3345108              1
      9561.5000         0.6772       2108.582        -999.25       -54.4312      0.2297401              1
      9562.0000         0.6808       2097.426        -999.25        -54.171       0.493885              1
      9562.5000          0.684       2086.266        -999.25       -53.9111      0.7577362              1
      9563.0000         0.6833       2078.328        -999.25       -54.2743      0.3984833              1
      9563.5000         0.6827       2071.316        -999.25       -54.7172    -0.04047012              1
      9564.0000          0.682       2074.848        -999.25       -55.1625      -0.481823              1
      9564.5000         0.6813       2081.645        -999.25       -55.5792      -0.894577              1
      9565.0000         0.6799       2088.441        -999.25        -55.605     -0.9164276              1
      9565.5000         0.6785       2098.691        -999.25       -55.6307      -0.938179              1
      9566.0000         0.6771       2113.207        -999.25       -55.6565     -0.9600334              1
      9566.5000         0.6757       2127.719        -999.25        -56.234      -1.533585      0.9909562
      9567.0000         0.6744       2142.258        -999.25       -56.9106      -2.206234      0.9795554
      9567.5000         0.6725       2156.773        -999.25       -56.3004      -1.592087      0.9899646
      9568.0000         0.6693       2171.285        -999.25       -55.6902     -0.9779396              1
      9568.5000          0.666        2182.48        -999.25        -55.517     -0.8007927              1
      9569.0000         0.6628       2190.273        -999.25       -55.4816     -0.7614479              1
      9569.5000           0.66       2198.078        -999.25       -55.6866     -0.9624977              1
      9570.0000         0.6577       2205.867        -999.25       -55.8228      -1.094749      0.9983941
      9570.5000         0.6554       2222.902        -999.25       -55.6423     -0.9103012              1
      9571.0000         0.6533       2240.078        -999.25       -55.4617     -0.7257538              1
      9571.5000         0.6517        2257.25        -999.25       -55.2797     -0.5398064              1
      9572.0000           0.65       2274.645        -999.25       -55.0979     -0.3540573              1
      9572.5000         0.6483       2293.113        -999.25       -54.9423     -0.1945076              1
      9573.0000         0.6467       2307.094        -999.25       -55.7936      -1.041862      0.9992905
      9573.5000         0.6456       2308.582        -999.25       -56.6437      -1.888016      0.9849489
      9574.0000         0.6451        2310.07        -999.25       -56.9681      -2.208469      0.9795175
      9574.5000         0.6446       2311.555        -999.25         -56.87      -2.106419      0.9812471
      9575.0000         0.6441       2313.043        -999.25       -56.7717      -2.004173      0.9829801
      9575.5000         0.6452       2322.262        -999.25       -56.6736      -1.902122      0.9847098
      9576.0000         0.6463       2334.516        -999.25       -56.5755      -1.800076      0.9864394
      9576.5000         0.6474       2346.742        -999.25       -56.4943      -1.714928      0.9878826
      9577.0000         0.6474       2358.406        -999.25       -56.4645      -1.681183      0.9884545
      9577.5000         0.6465       2359.957        -999.25       -56.4346      -1.647335      0.9890282
      9578.0000         0.6456       2361.508        -999.25       -56.2131      -1.421886      0.9928494
      9578.5000         0.6447       2363.191        -999.25       -55.8994      -1.104237      0.9982333
      9579.0000         0.6444       2364.891        -999.25       -55.6177     -0.8185883              1
      9579.5000         0.6441        2366.59        -999.25       -55.7868     -0.9837418              1
      9580.0000         0.6439       2368.289        -999.25       -55.4584     -0.6513939              1
      9580.5000         0.6436       2369.988        -999.25       -55.0727     -0.2617455              1
      9581.0000         0.6449       2325.941        -999.25       -54.6864      0.1285019              1
      9581.5000         0.6464       2302.582        -999.25       -54.3469      0.4719467              1
      9582.0000         0.6479       2293.547        -999.25       -54.1753      0.6474953              1
      9582.5000         0.6494       2284.512        -999.25       -54.0024      0.8243446              1
      9583.0000         0.6508       2275.492        -999.25       -53.8284       1.002293              1
      9583.5000         0.6525       2266.457        -999.25        -53.882      0.9526405              1
      9584.0000         0.6542       2254.441        -999.25       -53.9877      0.8508873              1
      9584.5000         0.6559       2240.027        -999.25       -54.0933      0.7492371              1
      9585.0000         0.6571       2225.637        -999.25        -54.199      0.6474838              1
      9585.5000         0.6579        2211.25        -999.25       -54.2875      0.5629349              1
      9586.0000         0.6587       2196.063        -999.25       -54.3384       0.515976              1
      9586.5000         0.6595       2167.434        -999.25       -53.9993      0.8590279              1
