#------------------------------------------------------------------------------
# Created by    : vladimir.rabinovich
# Created on    : 09/19/2023 17:19:22
#------------------------------------------------------------------------------
~Version Information Section
VERS.           2.0     :   CWLS log ASCII Standard - VERSION 2.0
WRAP.           NO      :   One line per depth step
~Well Information Section
#MNEM       .UNIT                                         VALUE :DESCRIPTION
#------------------------------------------------------------------------------
STRT        .FT                                            2350 :START DEPTH
STOP        .FT                                            7008 :STOP DEPTH
STEP        .FT                                             0.5 :STEP      
NULL        .                                           -999.25 :NULL      
COMP        .                                  W&T OFFSHORE INC :COMPANY   
WELL        .                               OCS G04565 ST00BP00 :WELL      
FLD         .                              GALVESTON BLOCK 0303 :FIELD     
LOC         .                                                   :LOCATION  
CNTY        .                             GALVESTON LARGE BLOCK :LOCATION  
STAT        .                                             TEXAS :STATE     
CTRY        .                                     UNITED STATES :COUNTRY   
SRVC        .                                                   :SERVICE COMPANY
DATE        .                             9/13/2023 11:19:03 AM :LOG DATE  
API         .                                    42706403950000 :API NUMBER
UWI         .                                    42706403950000 :UNIQUE WELL ID
XCOORD      .                                  979190.041446607 :SURFACE X 
YCOORD      .                                   10483081.623763 :SURFACE Y 
LAT         .                                        28.8707847 :LATITUDE  
LON         .                                       -95.0663777 :LONGITUDE 
ELEV        .FT                                              91 :ELEVATION VALUE
ELEV_TYPE   .                                                KB :ELEVATION REFERENCE TYPE
~Curve Information Section
#MNEM       .UNIT                                      API CODE :CURVE DESCRIPTION
#------------------------------------------------------------------------------
DEPT        .FT                                                 :DEPTH     
AF20        .OHMM                                               :          
AFCO        .MMHO                                               :          
AO90        .OHMM                                               :          
AT10        .OHMM                                               :          
AT20        .OHMM                                               :          
AT30        .OHMM                                               :          
AT60        .OHMM                                               :          
AT90        .OHMM                                               :          
DCAL        .IN                                                 :          
DPHI        .%                                                  :          
DRHO        .G/C3                                               :          
GR          .GAPI                                               :          
GR_NORM     .GAPI                                               :GammaRay Normalized
GRN         .GAPI                                               :          
NPOR        .%                                                  :          
RWA         .OHMM                                               :          
SP          .MV                                                 :          
SP_NORM     .MV                                                 :SP Normalized
TENR        .LBF                                                :          
TPHI        .%                                                  :          
VSH_GR      .V/V                                                :Volume of Shale from GR
VSH_SP      .V/V                                                :Volume of Shale from SP
~A        DEPTH           AF20           AFCO           AO90           AT10           AT20           AT30           AT60           AT90           DCAL           DPHI           DRHO             GR        GR_NORM            GRN           NPOR            RWA             SP        SP_NORM           TENR           TPHI         VSH_GR         VSH_SP
# ...
      6694.0000              1           1000              1           0.92           0.99           0.99           0.98           0.99          0.925           18.3          -0.01           91.1       81.19473          42.25           43.2           0.04           -7.1      -5.082452           2895        48.5999              1      0.9152924
      6694.5000           1.01        970.874           1.03           0.92           0.99           0.99           0.99              1          0.925           18.8          -0.01           89.7       79.76039         43.844        42.8008           0.05           -7.8      -5.797683           2895           49.6       0.994902      0.9033719
      6695.0000           1.02       1041.666           0.96           0.93              1              1              1           1.02          0.925           19.2          -0.01           93.5       83.62257         44.625        41.9284           0.04           -8.1      -6.112914           2895        50.0999              1      0.8981181
      6695.5000           1.04       990.0986           1.01           0.95           1.03           1.03           1.03           1.04          0.925           19.1          -0.01             92       82.08636         47.344        39.8916           0.05             -8      -6.028144           2895           48.4              1      0.8995309
      6696.0000           1.05       892.8564           1.12              1           1.09           1.09           1.06           1.08          0.925           18.4          -0.01           90.5       80.55016         46.719        37.2897           0.05           -7.9      -5.943375           2915           48.1              1      0.9009438
      6696.5000           1.06       813.0078           1.23           1.03           1.13           1.12           1.08           1.09          0.925             18          -0.01        88.2999       78.30087         45.125        35.5366           0.05           -7.8      -5.858605           2915        45.7999      0.9638482      0.9023566
      6697.0000           1.05       952.3809           1.05           1.03           1.12           1.11           1.06           1.08          0.925             17              0           96.7       86.84852         42.094         35.822           0.04           -8.1      -6.173836           2915        48.2999              1      0.8971027
      6697.5000           1.04       925.9258           1.08              1           1.07           1.07           1.04           1.05          1.025           17.1              0        93.8999       83.98811        43.0309        36.4441           0.04           -7.8      -5.889066           2915           46.4              1      0.9018489
      6698.0000           1.03       961.5381           1.04           0.96           1.03           1.02           1.01           1.02          1.025             16              0           91.1       81.12787         42.875        37.3927           0.03           -7.7      -5.804296           2945           49.7              1      0.9032617
      6698.5000           1.01       1030.928           0.97           0.93           0.98           0.98           0.98           0.99          1.025           16.7           0.01             88       77.96197         43.844        40.0573           0.03           -7.5      -5.619526           2945           48.8      0.9566376      0.9063413
      6699.0000              1       1086.957           0.92           0.91           0.95           0.96           0.96           0.97          1.025           17.5              0        93.8999       83.96301         42.562        41.0522           0.03           -7.6      -5.734757           2945           50.4              1      0.9044207
      6699.5000           0.99       1020.407           0.98            0.9           0.95           0.95           0.95           0.96          0.925           18.7              0           90.6       80.59352         42.875        40.3915           0.04           -7.8      -5.949987           2945        47.2999              1      0.9008335
      6700.0000              1       1052.631           0.95           0.91           0.97           0.97           0.96           0.97          0.825             19              0             91       80.99258             41        40.1519           0.04           -7.6      -5.765218           2920        47.2999              1       0.903913
      6700.5000           1.01       1052.631           0.95           0.93           0.99           0.99           0.97           0.99          0.725           18.3              0           89.5       79.45638         41.312        40.8005           0.04           -7.6      -5.780448           2920           44.8      0.9884335      0.9036592
      6701.0000           1.02       961.5381           1.04           0.96           1.03           1.02           0.99           1.01          0.825           17.9              0           90.7       80.67029           40.5        42.9727           0.04           -7.3      -5.495679           2920        46.4999              1      0.9084054
      6701.5000           1.03       934.5781           1.07           0.98           1.05           1.05           1.01           1.02          0.725           17.2              0           86.2       76.07841         41.938        43.4519           0.04           -7.8      -6.010909           2920           46.4      0.9165618      0.8998182
      6702.0000           1.04           1000              1           0.99           1.06           1.05           1.01           1.03          0.825           16.9              0        83.3999       73.21799          42.25        42.6595           0.04             -8       -6.22614           2935        47.9999      0.8557019       0.896231
      6702.5000           1.05       952.3809           1.05              1           1.08           1.06           1.01           1.03          0.925           16.9              0           85.1       74.94128         44.312        41.3515           0.04           -7.8       -6.04137           2935           46.1      0.8923677      0.8993105
      6703.0000           1.06       961.5381           1.04              1           1.08           1.05           1.01           1.02          0.925           17.1              0        84.3999       74.21983        44.7809        41.0881           0.04           -7.6        -5.8566           2935        46.2999      0.8770176        0.90239
      6703.5000           1.06       980.3916           1.02           0.99           1.06           1.04              1           1.02          0.925             18          -0.01        89.8999       79.81356        46.0309        42.7811           0.04           -7.1      -5.371831           2935           47.2      0.9960332      0.9104695
      6704.0000           1.06       1020.407           0.98           0.97           1.04           1.02           0.99              1          0.925           17.9              0        92.7999       82.75902        44.1559        45.5435           0.04           -7.4      -5.687061           2955        48.5999              1      0.9052156
      6704.5000           1.06       1020.407           0.98           0.97           1.04           1.02           0.99              1          0.925           18.8          -0.01           99.1        89.1677         43.219         45.339           0.04           -7.4      -5.702292           2955           50.9              1      0.9049618
      6705.0000           1.06       980.3916           1.02           0.98           1.06           1.03              1           1.01          0.825           19.3          -0.01        94.7999       84.77943          42.25        41.8199           0.05           -7.2      -5.517522           2955           50.2              1      0.9080413
      6705.5000           1.06       980.3916           1.02           0.99           1.07           1.05              1           1.02          0.825           19.9          -0.01        96.2999        86.2989         43.844         39.099           0.05           -7.1      -5.432753           2955        50.2999              1      0.9094541
