#------------------------------------------------------------------------------
# Created by    : vladimir.rabinovich
# Created on    : 09/19/2023 17:22:50
#------------------------------------------------------------------------------
~Version Information Section
VERS.           2.0     :   CWLS log ASCII Standard - VERSION 2.0
WRAP.           NO      :   One line per depth step
~Well Information Section
#MNEM       .UNIT                                         VALUE :DESCRIPTION
#------------------------------------------------------------------------------
STRT        .FT                                            2472 :START DEPTH
STOP        .FT                                            8382 :STOP DEPTH
STEP        .FT                                             0.5 :STEP      
NULL        .                                           -999.25 :NULL      
COMP        .                                 EPL OIL & GAS LLC :COMPANY   
WELL        .                               OCS G07215 ST00BP00 :WELL      
FLD         .                                 BRAZOS BLOCK 0376 :FIELD     
LOC         .                                                   :LOCATION  
CNTY        .                                BRAZOS LARGE BLOCK :LOCATION  
STAT        .                                             TEXAS :STATE     
CTRY        .                                     UNITED STATES :COUNTRY   
SRVC        .                                                   :SERVICE COMPANY
DATE        .                             9/13/2023 11:19:08 AM :LOG DATE  
API         .                                    42704402290000 :API NUMBER
UWI         .                                    42704402290000 :UNIQUE WELL ID
XCOORD      .                                  871225.230552878 :SURFACE X 
YCOORD      .                                  10399792.7272756 :SURFACE Y 
LAT         .                                         28.636239 :LATITUDE  
LON         .                                        -95.398308 :LONGITUDE 
ELEV        .FT                                              95 :ELEVATION VALUE
ELEV_TYPE   .                                                KB :ELEVATION REFERENCE TYPE
~Curve Information Section
#MNEM       .UNIT                                      API CODE :CURVE DESCRIPTION
#------------------------------------------------------------------------------
DEPT        .FT                                                 :DEPTH     
DT          .US/F                                               :          
GR          .GAPI                                               :          
GR_NORM     .GAPI                                               :GammaRay Normalized
ILD         .OHMM                                               :          
ILM         .OHMM                                               :          
SFL         .OHMM                                               :          
SP          .MV                                                 :          
SP_NORM     .MV                                                 :SP Normalized
VSH_GR      .V/V                                                :Volume of Shale from GR
VSH_SP      .V/V                                                :Volume of Shale from SP
~A        DEPTH             DT             GR        GR_NORM            ILD            ILM            SFL             SP        SP_NORM         VSH_GR         VSH_SP
# ...
      7176.0000       116.9094        79.0758       84.48436         0.8038         0.7744         0.8104       -32.8254     -0.8696136              1              1
      7176.5000        116.819        82.5934       88.39259         0.8038         0.7708         0.8123       -32.4865      -0.531292              1              1
      7177.0000       116.5964        85.9376       92.10816         0.8038         0.7661         0.8141       -32.2483     -0.2936726              1              1
      7177.5000       116.3776        86.4089       92.63161         0.8038         0.7602         0.8115       -32.0917     -0.1376553              1              1
      7178.0000       116.0815        84.2968       90.28463         0.7992         0.7564          0.805       -32.0064    -0.05293655              1              1
      7178.5000       115.5928        76.6555        81.7941         0.7928         0.7531         0.7985        -32.032    -0.07911682              1              1
      7179.0000       115.4318        73.2101       77.96565         0.7867         0.7508         0.7918       -32.1012     -0.1488972       0.956716              1
      7179.5000       115.5551        69.8129       74.19077         0.7808         0.7493         0.7851       -32.3259     -0.3741779      0.8763994              1
      7180.0000       115.9091        68.2601       72.46523         0.7753         0.7512         0.7809       -32.5406     -0.5894585      0.8396858              1
      7180.5000       116.5199        69.2692       73.58625         0.7731         0.7531         0.7769       -32.7385     -0.7879372      0.8635373              1
      7181.0000       117.1611        71.5597       76.13103         0.7709         0.7558         0.7763        -32.787      -0.837019      0.9176816              1
      7181.5000       117.4208        73.0839       77.82438         0.7746         0.7672         0.7787       -32.7262     -0.7768002      0.9537102              1
      7182.0000       117.2256        73.3876       78.16161         0.7823         0.7877         0.7869       -32.5201     -0.5712814      0.9608854              1
      7182.5000       116.4501        70.9244       75.42451         0.8029         0.8109         0.8108       -32.2766     -0.3283615      0.9026491              1
      7183.0000       115.1337        65.2175        69.0833         0.8313          0.835          0.845       -32.0212    -0.07354164      0.7677298              1
      7183.5000       113.2076        62.8597        66.4633          0.856         0.8587         0.8889        -31.762      0.1850777      0.7119852              1
      7184.0000        111.177        62.6997       66.28532         0.8803         0.8805         0.9404       -31.4913      0.4551945      0.7081982              1
      7184.5000       109.2146        65.0515       68.89822          0.902         0.9039         0.9737       -31.2101       0.735815      0.7637919              1
      7185.0000       107.6492        66.6708       70.69723         0.9224         0.9276         0.9778       -30.9852      0.9601326      0.8020687              1
      7185.5000        106.748        66.6852       70.71302          0.942         0.9448         0.9749       -30.8225       1.122253      0.8024047              1
      7186.0000       106.4545        63.2591       66.90603         0.9594         0.9615         0.9815       -30.7341       1.210072      0.7214049              1
      7186.5000       106.4437          60.55       63.89571         0.9764         0.9772         0.9919       -30.6906       1.252993      0.6573554              1
      7187.0000       106.4531        61.1226       64.53171          0.993         0.9909         1.0175       -30.5402       1.402813      0.6708874              1
      7187.5000       106.0042        63.7114       67.40796          1.012         1.0045         1.0547       -30.3479        1.59453      0.7320842              1
      7188.0000       105.2871         66.589       70.60507          1.032         1.0192         1.0942       -30.2363       1.705551      0.8001079              1
      7188.5000       104.3033        67.8214        71.9742         1.0542         1.0406         1.1359       -30.4405       1.500769      0.8292382              1
      7189.0000       103.4594        68.2612       72.46265         1.0648         1.0559         1.1781       -30.6133       1.327389      0.8396308              1
      7189.5000       102.6815        67.8713       72.02921         1.0406         1.0404         1.1924       -30.7244       1.215708      0.8304088              1
      7190.0000       102.1866        66.1005       70.06145         1.0025         1.0182         1.1325       -30.7692       1.170328      0.7885414              1
      7190.5000        101.922        64.1324       67.87446         0.9629         0.9825         1.0008       -31.0679      0.8710461      0.7420098              1
      7191.0000       104.3519        62.8604       66.46091         0.9352          0.931         0.9113       -31.5912      0.3471661      0.7119342              1
      7191.5000       108.0536        63.7692       67.47048         0.9128         0.8723         0.8616       -32.3135     -0.3757153      0.7334145              1
      7192.0000       110.0331        67.4984       71.61382         0.8924         0.8339         0.8348       -33.2495      -1.312296      0.8215707      0.9939943
      7192.5000       111.4612        70.2343        74.6535         0.8732         0.8154         0.8183       -34.1457      -2.209076      0.8862446      0.9767485
      7193.0000       112.7947         70.554       75.00851         0.8511         0.8074         0.8136       -34.3574      -2.421356      0.8937982      0.9726662
      7193.5000       113.7626        68.2924       72.49541         0.8377         0.8045         0.8161       -33.8329       -1.89744      0.8403278      0.9827415
      7194.0000       114.5314        64.8567       68.67775         0.8291         0.8019         0.8177       -32.9776      -1.042719       0.759101      0.9991785
      7194.5000        115.181         62.879        66.4801          0.823          0.799         0.8205       -31.9936    -0.05930138      0.7123426              1
      7195.0000       115.1956        62.0946       65.60834         0.8172         0.7983         0.8242       -31.0769      0.8568192      0.6937944              1
      7195.5000       114.1074        62.4026       65.95033         0.8133         0.7982         0.8538       -30.2625       1.670637      0.7010709              1
      7196.0000       112.8615        62.0405       65.54781         0.8101         0.7995         0.8747       -29.8763       2.056257      0.6925065              1
      7196.5000        111.899        61.2947       64.71893           0.81         0.8007         0.8545       -29.7763       2.155676      0.6748707              1
      7197.0000         111.76        60.9235       64.30627         0.8107         0.8014         0.8307       -30.1109       1.820496      0.6660908              1
      7197.5000       112.5132        61.1876        64.5995         0.8155         0.8019          0.821       -30.4712       1.459614      0.6723298              1
      7198.0000       112.7828        61.6721       65.13762         0.8201         0.8018         0.8169       -30.6694       1.260836      0.6837791              1
      7198.5000       112.5718         61.528       64.97729         0.8224         0.8016         0.8251       -30.8196       1.110054       0.680368              1
      7199.0000        112.165        62.5229       66.08253         0.8218         0.8002         0.8438       -30.8703       1.058773      0.7038835              1
      7199.5000       111.9045        64.6064       68.39732         0.8154         0.7988         0.8467       -30.8473       1.081192      0.7531344              1
      7200.0000       112.5615        67.7004       71.83488         0.8118         0.7998         0.8378       -30.7077       1.220211      0.8262742              1
