#------------------------------------------------------------------------------
# Created by    : vladimir.rabinovich
# Created on    : 09/19/2023 17:20:45
#------------------------------------------------------------------------------
~Version Information Section
VERS.           2.0     :   CWLS log ASCII Standard - VERSION 2.0
WRAP.           NO      :   One line per depth step
~Well Information Section
#MNEM       .UNIT                                         VALUE :DESCRIPTION
#------------------------------------------------------------------------------
STRT        .FT                                            2110 :START DEPTH
STOP        .FT                                            6746 :STOP DEPTH
STEP        .FT                                             0.5 :STEP      
NULL        .                                           -999.25 :NULL      
COMP        .                       HOUSTON OIL & MINERALS CORP :COMPANY   
WELL        .                                ST TR 00694-L NE/4 :WELL      
FLD         .                                           WILDCAT :FIELD     
LOC         .                                                   :LOCATION  
CNTY        .                      MATAGORDA ISLAND LARGE BLOCK :LOCATION  
STAT        .                                             TEXAS :STATE     
CTRY        .                                     UNITED STATES :COUNTRY   
SRVC        .                                                   :SERVICE COMPANY
DATE        .                             9/13/2023 11:12:01 AM :LOG DATE  
API         .                                    42703302070000 :API NUMBER
UWI         .                                    42703302070000 :UNIQUE WELL ID
XCOORD      .                                  400461.464340365 :SURFACE X 
YCOORD      .                                  10145980.2526086 :SURFACE Y 
LAT         .                                        27.9055609 :LATITUDE  
LON         .                                       -96.8388291 :LONGITUDE 
ELEV        .FT                                              25 :ELEVATION VALUE
ELEV_TYPE   .                                                KB :ELEVATION REFERENCE TYPE
~Curve Information Section
#MNEM       .UNIT                                      API CODE :CURVE DESCRIPTION
#------------------------------------------------------------------------------
DEPT        .FT                                                 :DEPTH     
ASN         .OHMM                                               :          
CILD        .MMHO                                               :          
ILD         .OHMM                                               :          
SP          .MV                                                 :          
SP_NORM     .MV                                                 :SP Normalized
VSH_SP      .V/V                                                :Volume of Shale from SP
~A        DEPTH            ASN           CILD            ILD             SP        SP_NORM         VSH_SP
# ...
      4580.0000         1.3463       978.5703         0.7041       -79.8951       -42.1593      0.2422773
      4580.5000         1.2563       1101.684         0.6206       -83.9066       -46.1707      0.1665906
      4581.0000         1.1663       1322.385         0.5372       -86.8287       -49.0928      0.1114566
      4581.5000         1.0523       1543.086         0.4591       -88.1796       -50.4438     0.08596601
      4582.0000         1.0143       1763.588         0.4106       -89.1008       -51.3649     0.06858682
      4582.5000         0.9934       1939.891         0.3621       -89.5039        -51.768      0.0609811
      4583.0000          0.984       2000.629         0.3136       -89.9073       -52.1715      0.0533679
      4583.5000         0.9796       2056.398         0.3196        -90.274       -52.5382     0.04644905
      4584.0000         0.9787       2112.219         0.3411       -90.5934       -52.8575     0.04042456
      4584.5000         0.9807       2180.902         0.3625       -90.9124       -53.1765     0.03440569
      4585.0000         0.9941       2255.348          0.384       -91.2211       -53.4852     0.02858115
      4585.5000         1.0082       2280.379         0.4054       -91.3546       -53.6187      0.0260623
      4586.0000          1.023       2038.918         0.4177       -91.1744       -53.4385     0.02946227
      4586.5000         1.0383       1784.049          0.427       -90.0869        -52.351      0.0499811
      4587.0000         1.0532       1647.477         0.4363       -89.2129        -51.477     0.06647167
      4587.5000         1.0676        1596.92         0.4456       -88.3955       -50.6596     0.08189435
      4588.0000          1.082       1556.035         0.4549       -87.6827       -49.9468     0.09534339
      4588.5000         1.0949       1535.389         0.4642       -87.2028       -49.4669      0.1043981
      4589.0000         1.1079       1515.139         0.4735       -86.7225       -48.9867      0.1134585
      4589.5000         1.1194       1500.848         0.4828       -86.2957       -48.5598      0.1215132
      4590.0000         1.1256       1487.141         0.4921       -86.0343       -48.2985      0.1264434
      4590.5000         1.1318       1482.084         0.4943       -85.7732       -48.0373      0.1313717
      4591.0000          1.138       1477.025         0.4938        -85.512       -47.7761         0.1363
      4591.5000         1.1413       1477.027         0.4933       -85.3823       -47.6465      0.1387453
      4592.0000         1.1446       1477.822         0.4928       -85.3434       -47.6075      0.1394812
      4592.5000         1.1479       1487.104         0.4923       -85.4067       -47.6708      0.1382868
      4593.0000         1.1479       1497.707         0.4918       -85.5446       -47.8088       0.135683
      4593.5000         1.1425       1508.311         0.4913       -85.6823       -47.9464      0.1330868
      4594.0000         1.1348       1539.883         0.4908       -85.9298        -48.194      0.1284151
      4594.5000         1.1174       1574.646         0.4863       -86.3556       -48.6197       0.120383
      4595.0000         1.0995       1610.875         0.4801        -86.781       -49.0451      0.1123566
      4595.5000         1.0797       1647.799          0.474       -87.2069       -49.4711      0.1043189
      4596.0000         1.0576       1690.584         0.4679        -87.793       -50.0571     0.09326229
      4596.5000         1.0343       1729.434         0.4618       -88.4148        -50.679     0.08152828
      4597.0000         1.0119       1742.369         0.4556       -89.0361       -51.3003     0.06980565
      4597.5000         0.9913       1755.828         0.4495       -89.5009        -51.765     0.06103775
      4598.0000         0.9745       1769.299         0.4434       -89.8893       -52.1534     0.05370943
      4598.5000         0.9625       1792.889         0.4372       -90.2777       -52.5419     0.04637923
      4599.0000         0.9532       1821.098         0.4311       -90.6613       -52.9254      0.0391434
      4599.5000         0.9462       1866.191         0.4232       -91.0441       -53.3082     0.03192074
      4600.0000         0.9397       1927.201         0.4118       -91.2742       -53.5383     0.02757925
      4600.5000          0.934       1972.197         0.4003       -91.5436       -53.8078     0.02249433
      4601.0000         0.9282       2015.279         0.3889       -91.9589        -54.223     0.01466039
      4601.5000         0.9225       2050.316         0.3774        -92.374       -54.6381    0.006828308
      4602.0000         0.9175       2077.543          0.366       -92.7106       -54.9748   0.0004754696
      4602.5000         0.9132        2087.84         0.3545       -93.0099       -55.2741              0
      4603.0000          0.909       2091.527          0.343       -93.3091       -55.5732              0
      4603.5000         0.9054       2095.215         0.3316       -93.3639        -55.628              0
      4604.0000         0.9034       2098.902          0.322       -93.3856       -55.6497              0
      4604.5000         0.9014       2102.543         0.3166       -93.4075       -55.6716              0
      4605.0000         0.8994        2106.18         0.3113       -93.4091       -55.6733              0
      4605.5000          0.898       2109.816          0.306       -93.3564       -55.6205              0
      4606.0000         0.8984       2113.453         0.3007        -93.304       -55.5681              0
      4606.5000         0.8997       2117.094         0.2966       -93.2515       -55.5157              0
      4607.0000         0.9036        2119.59         0.3072        -93.241       -55.5051              0
      4607.5000         0.9077       2119.563         0.3178       -93.2804       -55.5446              0
      4608.0000          0.916       2119.535         0.3288       -93.3198        -55.584              0
      4608.5000         0.9266       2103.059          0.347       -93.3594       -55.6235              0
      4609.0000         0.9406       2046.814         0.3652       -93.3514       -55.6156              0
      4609.5000         0.9607       1924.496         0.3834       -93.2849        -55.549              0
      4610.0000         0.9815       1651.221         0.4015       -90.3372       -52.6013      0.0452585
      4610.5000         1.0062       1641.723         0.4192       -89.1918        -51.456      0.0668679
      4611.0000         1.0258        1635.68         0.4351       -88.4933       -50.7575     0.08004718
      4611.5000         1.0243         1639.6         0.4509       -88.1575       -50.4216      0.0863849
      4612.0000         1.0149        1643.52         0.4668       -87.9314       -50.1955     0.09065095
      4612.5000         1.0054       1645.498         0.4827       -87.8011       -50.0653     0.09310754
      4613.0000         1.0025       1645.006         0.4986       -87.6708       -49.9349     0.09556796
      4613.5000         1.0031       1644.516         0.5144       -87.5404       -49.8045     0.09802829
      4614.0000         1.0109       1643.777         0.5303       -87.4102       -49.6744       0.100483
      4614.5000         1.0188       1629.549         0.5444       -87.2798       -49.5439      0.1029453
      4615.0000          1.025       1615.309         0.5484       -87.1281       -49.3922      0.1058075
      4615.5000         1.0312        1601.08         0.5524       -86.7795       -49.0437       0.112383
      4616.0000         1.0353       1578.248         0.5542       -86.4309        -48.695      0.1189623
      4616.5000         1.0314       1559.828          0.541       -86.0823       -48.3464      0.1255396
      4617.0000         1.0274       1560.676         0.5278       -85.7328        -47.997       0.132132
      4617.5000         1.0234       1569.457         0.5145       -85.3826       -47.6467      0.1387415
