#------------------------------------------------------------------------------
# Created by    : vladimir.rabinovich
# Created on    : 09/19/2023 17:20:03
#------------------------------------------------------------------------------
~Version Information Section
VERS.           2.0     :   CWLS log ASCII Standard - VERSION 2.0
WRAP.           NO      :   One line per depth step
~Well Information Section
#MNEM       .UNIT                                         VALUE :DESCRIPTION
#------------------------------------------------------------------------------
STRT        .FT                                            3149 :START DEPTH
STOP        .FT                                           10186 :STOP DEPTH
STEP        .FT                                             0.5 :STEP      
NULL        .                                           -999.25 :NULL      
COMP        .                                  SAMEDAN OIL CORP :COMPANY   
WELL        .                                     ST TR 00817-L :WELL      
FLD         .                                           WILDCAT :FIELD     
LOC         .                                                   :LOCATION  
CNTY        .                        MUSTANG ISLAND LARGE BLOCK :LOCATION  
STAT        .                                             TEXAS :STATE     
CTRY        .                                     UNITED STATES :COUNTRY   
SRVC        .                                                   :SERVICE COMPANY
DATE        .                             9/13/2023 11:18:55 AM :LOG DATE  
API         .                                    42702300080000 :API NUMBER
UWI         .                                    42702300080000 :UNIQUE WELL ID
XCOORD      .                                  304914.569303086 :SURFACE X 
YCOORD      .                                  10013906.4088957 :SURFACE Y 
LAT         .                                        27.5345201 :LATITUDE  
LON         .                                       -97.1203623 :LONGITUDE 
ELEV        .FT                                              65 :ELEVATION VALUE
ELEV_TYPE   .                                                KB :ELEVATION REFERENCE TYPE
~Curve Information Section
#MNEM       .UNIT                                      API CODE :CURVE DESCRIPTION
#------------------------------------------------------------------------------
DEPT        .FT                                                 :DEPTH     
ASFL        .OHMM                                               :          
CILD        .MMHO                                               :          
DT          .US/F                                               :          
GR          .GAPI                                               :          
ILD         .OHMM                                               :          
SP          .MV                                                 :          
SP_NORM     .MV                                                 :SP Normalized
VSH_SP      .V/V                                                :Volume of Shale from SP
~A        DEPTH           ASFL           CILD             DT             GR            ILD             SP        SP_NORM         VSH_SP
# ...
      5479.5000         1.7867       1993.064       100.2064        -999.25          0.517       -79.0607      -34.46769      0.5149611
      5480.0000         1.8026       2025.273         98.899        -999.25         0.5044       -92.4709      -47.87972      0.3205837
      5480.5000         1.8084       2043.195        98.2571        -999.25         0.4917       -92.3782      -47.78885      0.3219007
      5481.0000         1.8126       2055.758        98.6981        -999.25         0.4791       -92.0604       -47.4729      0.3264798
      5481.5000         1.6441       2071.254        99.5435        -999.25         0.4587       -91.7427      -47.15703      0.3310575
      5482.0000         1.5191       2112.473       100.6045        -999.25         0.4369       -91.4249      -46.84106      0.3356367
      5482.5000         1.4249       2306.355       101.5568        -999.25         0.4152       -91.0286      -46.44661      0.3413535
      5483.0000         1.3308       2611.098        102.287        -999.25         0.3934       -90.5601      -45.97993      0.3481169
      5483.5000         1.2366       2915.453       102.8854        -999.25         0.3696       -90.0913      -45.51298      0.3548844
      5484.0000           1.16       3220.199       103.5135        -999.25         0.3458       -97.2957      -52.71921      0.2504462
      5484.5000         1.1038       3524.551         104.24        -999.25         0.3221      -101.8562      -57.28155      0.1843253
      5485.0000         1.0616       3765.758       105.2234        -999.25         0.2983       -104.939      -60.36619      0.1396205
      5485.5000         1.0277        3999.25       106.2257        -999.25         0.2745       -109.082      -64.51102     0.07955048
      5486.0000         1.0067       4071.527       106.6073        -999.25         0.2609      -114.4124      -69.84326    0.002271569
      5486.5000         0.9957       4109.766       106.9246        -999.25         0.2491      -115.9109      -71.34359              0
      5487.0000         0.9893       4136.531       107.0872        -999.25         0.2373      -116.0977      -71.53223              0
      5487.5000         0.9869       4158.141       107.2499        -999.25         0.2254      -116.2844      -71.72076              0
      5488.0000         0.9899       4173.078       107.6982        -999.25         0.2136      -116.4712       -71.9094              0
      5488.5000         0.9997       4170.445       108.2991        -999.25         0.2026       -116.476      -71.91604              0
      5489.0000         1.0128       4147.055       108.8135        -999.25         0.2009      -116.4049      -71.84677              0
      5489.5000         1.0187       4075.633        109.321        -999.25         0.1991      -116.2089      -71.65261              0
      5490.0000         1.0237       3971.902        109.902        -999.25         0.2106      -115.7889      -71.23445              0
      5490.5000          1.029       3793.352       110.3654        -999.25         0.2435      -114.8545      -70.30188              0
      5491.0000         1.0343        3514.59        109.701        -999.25         0.2786      -113.5337      -68.98292     0.01474032
      5491.5000         1.0504        3236.02       107.7698        -999.25         0.3148      -111.7562      -67.20726     0.04047449
      5492.0000         1.0973       2957.453       104.7494        -999.25          0.347      -109.5214      -64.97429     0.07283639
      5492.5000         1.1585       2710.434       101.1792        -999.25         0.3681      -107.1031      -62.55783      0.1078575
      5493.0000         1.2052       2632.293        98.6764        -999.25         0.3892      -104.2745      -59.73106      0.1488252
      5493.5000          1.229       2420.828        97.4747        -999.25         0.4069       -98.6283       -54.0867      0.2306275
      5494.0000         1.2462       2315.633        97.4812        -999.25         0.4181       -93.8317      -49.29194      0.3001168
      5494.5000         1.2634       2295.316        98.0308        -999.25         0.4293       -91.3253      -46.78738      0.3364148
      5495.0000         1.2791       2273.707        99.4352        -999.25         0.4142        -90.364      -45.82791      0.3503201
      5495.5000         1.2943       2376.289       100.8322        -999.25         0.3851       -93.0764      -48.54215      0.3109834
      5496.0000          1.279       2556.742       101.9567        -999.25         0.3582       -98.7045      -54.17208      0.2293901
      5496.5000         1.2048       2740.227       103.0801        -999.25         0.3313      -103.3558      -58.82522      0.1619534
      5497.0000         1.1649       2924.828       103.5853        -999.25         0.3044      -107.1648      -62.63606      0.1067238
      5497.5000         1.1257       3109.238       103.8447        -999.25         0.2978      -110.7196      -66.19269     0.05517843
      5498.0000         1.1021       3264.543       103.8558        -999.25          0.302      -112.7784      -68.25333     0.02531411
      5498.5000         1.0785       3439.184       103.7338        -999.25         0.3062      -114.1809      -69.65767    0.004961318
      5499.0000         1.0549       3497.301       103.6117        -999.25         0.3126      -115.3192      -70.79781              0
      5499.5000         1.0382       3541.988       103.0787        -999.25         0.3303      -116.3241      -71.80453              0
      5500.0000         1.0454       3548.703       102.4214        -999.25         0.3479      -109.5758      -65.05807      0.0716221
      5500.5000         1.0642       3413.789       101.6351        -999.25         0.3656      -102.5607      -58.04481      0.1732636
      5501.0000         1.0829       3108.262       101.4427        -999.25         0.3832       -98.9224      -54.40835       0.225966
      5501.5000         1.1016       2856.262       101.5813        -999.25         0.4044       -96.1156      -51.60338      0.2666177
      5502.0000         1.1219       2604.066       101.8246        -999.25         0.4265       -92.0597      -47.54932      0.3253722
      5502.5000         1.1479       2351.871       102.2391        -999.25         0.4486        -86.606      -42.09746      0.4043847
      5503.0000         1.1738        2158.77       104.2518        -999.25         0.4706       -81.2646       -36.7579      0.4817696
      5503.5000         1.1993       1924.986       107.2349        -999.25         0.4923       -74.2604      -29.75553      0.5832532
      5504.0000         1.0931       1854.563       109.7452        -999.25         0.5056       -68.1312      -23.62817      0.6720555
      5504.5000         1.0359       1793.027       109.4939        -999.25          0.519       -63.5162        -19.015       0.738913
      5505.0000         0.9864        1762.48       106.9065        -999.25         0.5323       -60.3354      -15.83604      0.7849849
      5505.5000         0.9457       1739.588       104.7469        -999.25         0.5456       -57.7029      -13.20538      0.8231105
      5506.0000         0.9236       1724.582       103.5183        -999.25         0.5579       -55.5715      -11.07581      0.8539737
      5506.5000         0.9189       1735.705       103.7854        -999.25         0.5629       -53.8032      -9.309345      0.8795747
      5507.0000         0.9265       1824.332       105.1326        -999.25         0.5679       -54.3878      -9.895782      0.8710756
      5507.5000         0.9342       1965.275       106.6901        -999.25         0.5363       -56.3013      -11.81112      0.8433171
      5508.0000         0.9416       2062.266       108.2462        -999.25         0.4993       -58.2131      -13.72475      0.8155833
      5508.5000         0.9461       2206.629       108.9668        -999.25         0.4624       -62.1582      -17.67169      0.7583812
