#------------------------------------------------------------------------------
# Created by    : vladimir.rabinovich
# Created on    : 09/19/2023 17:20:31
#------------------------------------------------------------------------------
~Version Information Section
VERS.           2.0     :   CWLS log ASCII Standard - VERSION 2.0
WRAP.           NO      :   One line per depth step
~Well Information Section
#MNEM       .UNIT                                         VALUE :DESCRIPTION
#------------------------------------------------------------------------------
STRT        .FT                                            2377 :START DEPTH
STOP        .FT                                            9500 :STOP DEPTH
STEP        .FT                                             0.5 :STEP      
NULL        .                                           -999.25 :NULL      
COMP        .                                     SKELLY OIL CO :COMPANY   
WELL        .                                     ST TR 00146-L :WELL      
FLD         .                                           WILDCAT :FIELD     
LOC         .                                                   :LOCATION  
CNTY        .                             GALVESTON LARGE BLOCK :LOCATION  
STAT        .                                             TEXAS :STATE     
CTRY        .                                     UNITED STATES :COUNTRY   
SRVC        .                                                   :SERVICE COMPANY
DATE        .                             9/13/2023 11:19:24 AM :LOG DATE  
API         .                                    42706001330000 :API NUMBER
UWI         .                                    42706001330000 :UNIQUE WELL ID
XCOORD      .                                  1116482.89093459 :SURFACE X 
YCOORD      .                                  10631825.2810539 :SURFACE Y 
LAT         .                                         29.285733 :LATITUDE  
LON         .                                       -94.6439746 :LONGITUDE 
ELEV        .FT                                              61 :ELEVATION VALUE
ELEV_TYPE   .                                                KB :ELEVATION REFERENCE TYPE
~Curve Information Section
#MNEM       .UNIT                                      API CODE :CURVE DESCRIPTION
#------------------------------------------------------------------------------
DEPT        .FT                                                 :DEPTH     
ASN         .OHMM                                               :          
CALI        .IN                                                 :          
CILD        .MMHO                                               :          
DT          .US/F                                               :          
ILD         .OHMM                                               :          
SP          .MV                                                 :          
SP_NORM     .MV                                                 :SP Normalized
VSH_SP      .V/V                                                :Volume of Shale from SP
~A        DEPTH            ASN           CALI           CILD             DT            ILD             SP        SP_NORM         VSH_SP
# ...
      8513.0000         0.6079         6.8188       2092.266       125.6296          0.587       -48.3005      -2.696327      0.9691577
      8513.5000         0.6053         6.8278       2114.281       125.7633         0.5902        -48.749      -3.147339      0.9609575
      8514.0000         0.6027         6.8408       2107.652       125.7909         0.5933       -48.6932      -3.094048      0.9619264
      8514.5000          0.601          6.875       2090.602       125.0883         0.5964       -48.6373      -3.040657      0.9628971
      8515.0000         0.6076         6.9079       2068.008       124.9895         0.5996       -48.4723       -2.87817      0.9658514
      8515.5000         0.6142         6.9166       2045.412       124.6819         0.6027       -48.2886       -2.69698      0.9691458
      8516.0000         0.6207         6.8806       2023.221       124.0062         0.6105       -48.1226      -2.533489      0.9721184
      8516.5000         0.6273          6.817        1997.25       123.6124         0.6218       -47.9789        -2.3923      0.9746855
      8517.0000         0.6334         6.8135       1959.801       123.0657         0.6332       -47.8351      -2.251007      0.9772544
      8517.5000         0.6396          6.837       1936.549       122.9537         0.6446       -47.8463      -2.264717      0.9770051
      8518.0000         0.6458         6.8282       1918.557       123.1598          0.656       -48.0449      -2.465828      0.9733486
      8518.5000         0.6542         6.7352       1907.875       123.0365         0.6674       -48.2435      -2.666939      0.9696921
      8519.0000         0.6626         6.6779       1897.057       122.9175         0.6712       -48.4421       -2.86805      0.9660355
      8519.5000         0.6668         6.6881       1886.188       122.7888         0.6685        -48.577      -3.005459      0.9635371
      8520.0000         0.6689         6.7141       1885.053       122.4171         0.6658       -48.7029      -3.133869      0.9612024
      8520.5000         0.6669         6.7213       1887.871       122.0717         0.6631        -48.829      -3.262474      0.9588641
      8521.0000          0.665         6.7266       1889.678       122.0275         0.6543       -49.2682      -3.704185       0.950833
      8521.5000          0.663         6.7271       1891.404        122.136         0.6451       -49.6821      -4.120594      0.9432619
      8522.0000         0.6611         6.7355       1893.133       122.7344         0.6359       -49.6998      -4.140804      0.9428945
      8522.5000         0.6591         6.7574       1894.863       123.4979         0.6267       -49.7176      -4.161118      0.9425251
      8523.0000         0.6567         6.8127       1908.607       123.7123         0.6175         -49.62      -4.066025      0.9442541
      8523.5000         0.6522         6.8605       1923.436       123.4874         0.6083       -49.2991      -3.747635       0.950043
      8524.0000         0.6477         6.8742       1955.211       123.4222         0.6027       -48.9782      -3.429245      0.9558319
      8524.5000         0.6395         6.8262       1987.693       123.8102         0.5998       -48.6573      -3.110855      0.9616208
      8525.0000         0.6314          6.797       1998.617       124.7179         0.5969       -48.3995      -2.855568      0.9662624
      8525.5000         0.6216         6.7861       1995.953        125.915         0.5941       -48.1971      -2.655678      0.9698968
      8526.0000           0.61         6.7793       2011.568       126.6129         0.5912       -48.1896      -2.650688      0.9699875
      8526.5000         0.5984         6.7724       2075.723       126.9568         0.5883       -48.5886      -3.052197      0.9626873
      8527.0000         0.5871         6.7671       2140.688       127.1144         0.5854       -48.9877      -3.453808      0.9553853
      8527.5000         0.5779         6.7643       2176.699        127.738         0.5736       -49.3231      -3.791718      0.9492415
      8528.0000         0.5736         6.7615       2207.379        128.061         0.5617       -49.5443      -4.015427       0.945174
      8528.5000         0.5729         6.7633       2205.074       128.0325         0.5515       -49.7656      -4.239235      0.9411048
      8529.0000         0.5739         6.7657       2202.473       127.4105         0.5476         -49.91      -4.386147      0.9384337
      8529.5000         0.5828          6.768       2194.227       126.9729         0.5438       -49.7262      -4.204853        0.94173
      8530.0000         0.5917         6.7702        2185.98       126.6891         0.5399       -49.5657      -4.046864      0.9446025
      8530.5000         0.5948         6.7705       2177.734       126.5059         0.5361       -49.4221      -3.905773      0.9471678
      8531.0000          0.593         6.7693       2172.723       126.5421         0.5322       -49.2783      -3.764484      0.9497367
      8531.5000         0.5912         6.7683       2170.148       127.9302         0.5283       -49.1823      -3.670994      0.9514365
      8532.0000         0.5851         6.7688       2166.449       129.5039         0.5245        -49.119      -3.610203      0.9525418
      8532.5000         0.5776         6.7699       2156.727       129.7251         0.5206       -49.0559      -3.549614      0.9536434
      8533.0000          0.574         6.7751       2147.004       128.4636         0.5168       -48.9928      -3.489025       0.954745
      8533.5000         0.5868         6.7803       2133.375       126.9467         0.5198       -48.9296      -3.428333      0.9558485
      8534.0000         0.5995         6.7854       2137.156       126.3663         0.5243       -48.8665      -3.367744      0.9569501
      8534.5000         0.6055         6.7943       2151.254       126.7507         0.5288       -48.8235      -3.327255      0.9576862
      8535.0000         0.6089         6.8042       2154.984       127.4194         0.5333       -48.7936      -3.299862      0.9581843
      8535.5000         0.6042         6.8097       2155.137       127.7715         0.5377       -48.7638      -3.272575      0.9586805
      8536.0000         0.5987          6.811       2138.215       127.9163         0.5422       -48.7382      -3.249485      0.9591002
      8536.5000         0.5933         6.8078       2121.293       127.9347         0.5499        -48.728      -3.241795      0.9592401
      8537.0000         0.5873          6.806       2104.398       127.8334         0.5618       -48.7178      -3.234104      0.9593799
      8537.5000         0.5814         6.8081        2085.66       127.0781         0.5738       -48.7076      -3.226414      0.9595197
      8538.0000         0.5989         6.8102       2056.859       125.5326         0.5857       -48.6974      -3.218719      0.9596596
      8538.5000         0.6229         6.8162        2026.65       124.9777         0.5976       -48.6873      -3.211132      0.9597976
      8539.0000         0.6395         6.8231       1990.436       124.3792         0.6096        -48.564       -3.09034      0.9619938
      8539.5000         0.6524          6.818       1950.621       123.7821         0.6215       -48.2943      -2.823151      0.9668518
      8540.0000         0.6654         6.8221       1921.115       123.7037         0.6323       -48.0244      -2.555759      0.9717135
      8540.5000         0.6698         6.8417       1899.654       123.4764         0.6414       -47.7666      -2.300472      0.9763551
      8541.0000         0.6742         6.8647       1879.328       123.1371         0.6505       -47.5157      -2.052082      0.9808713
      8541.5000         0.6781          6.893       1856.732       123.7875         0.6595       -47.3615      -1.900391      0.9836293
      8542.0000         0.6795         6.9305       1834.111       124.0504         0.6686       -47.5422      -2.083599      0.9802982
