#------------------------------------------------------------------------------
# Created by    : vladimir.rabinovich
# Created on    : 09/19/2023 17:20:39
#------------------------------------------------------------------------------
~Version Information Section
VERS.           2.0     :   CWLS log ASCII Standard - VERSION 2.0
WRAP.           NO      :   One line per depth step
~Well Information Section
#MNEM       .UNIT                                         VALUE :DESCRIPTION
#------------------------------------------------------------------------------
STRT        .FT                                             520 :START DEPTH
STOP        .FT                                           11478 :STOP DEPTH
STEP        .FT                                             0.5 :STEP      
NULL        .                                           -999.25 :NULL      
COMP        .                                      SHELL OIL CO :COMPANY   
WELL        .                                OCS 00730 ST00BP00 :WELL      
FLD         .                                           WILDCAT :FIELD     
LOC         .                                                   :LOCATION  
CNTY        .                             GALVESTON LARGE BLOCK :LOCATION  
STAT        .                                             TEXAS :STATE     
CTRY        .                                     UNITED STATES :COUNTRY   
SRVC        .                                                   :SERVICE COMPANY
DATE        .                             9/13/2023 11:19:42 AM :LOG DATE  
API         .                                    42706000260000 :API NUMBER
UWI         .                                    42706000260000 :UNIQUE WELL ID
XCOORD      .                                  961416.888637646 :SURFACE X 
YCOORD      .                                  10353223.2377546 :SURFACE Y 
LAT         .                                         28.512881 :LATITUDE  
LON         .                                        -95.114699 :LONGITUDE 
ELEV        .FT                                              72 :ELEVATION VALUE
ELEV_TYPE   .                                                KB :ELEVATION REFERENCE TYPE
~Curve Information Section
#MNEM       .UNIT                                      API CODE :CURVE DESCRIPTION
#------------------------------------------------------------------------------
DEPT        .FT                                                 :DEPTH     
ASN         .OHMM                                               :          
CILD        .MMHO                                               :          
ILD         .OHMM                                               :          
LAT         .OHMM                                               :          
LN          .OHMM                                               :          
SP          .MV                                                 :          
SP_NORM     .MV                                                 :SP Normalized
VSH_SP      .V/V                                                :Volume of Shale from SP
~A        DEPTH            ASN           CILD            ILD            LAT             LN             SP        SP_NORM         VSH_SP
# ...
     11435.0000         1.6219        -999.25        -999.25         1.8843         2.3475       -41.2583      0.2459641              1
     11435.5000         1.6097        -999.25        -999.25         1.8953         2.3499       -40.9056      0.5960083              1
     11436.0000         1.5975        -999.25        -999.25         1.9082         2.3523        -40.553      0.9459534              1
     11436.5000         1.5853        -999.25        -999.25          1.921         2.3548       -40.2003       1.296001              1
     11437.0000         1.5731        -999.25        -999.25         1.9339         2.3572       -39.8476       1.646046              1
     11437.5000         1.5609        -999.25        -999.25         1.9468         2.3597       -39.4949        1.99609              1
     11438.0000         1.5487        -999.25        -999.25         1.9596         2.3621       -39.1423       2.346035              1
     11438.5000         1.5341        -999.25        -999.25         1.9725         2.3646       -38.7862       2.699478              1
     11439.0000         1.5189        -999.25        -999.25         1.9853         2.3768       -38.4285       3.054523              1
     11439.5000         1.5037        -999.25        -999.25         1.9982         2.4005       -38.0702       3.410168              1
     11440.0000         1.4885        -999.25        -999.25         2.0111         2.4243       -37.7585       3.719215              1
     11440.5000         1.4733        -999.25        -999.25         2.0239         2.4357       -37.9734       3.501659              1
     11441.0000         1.4581        -999.25        -999.25         2.0368         2.4109       -38.1888       3.283604              1
     11441.5000           1.45        -999.25        -999.25         2.0496         2.3861       -38.4043       3.065449              1
     11442.0000          1.454        -999.25        -999.25         2.0636         2.3613       -38.6197       2.847393              1
     11442.5000         1.4623        -999.25        -999.25         2.0811         2.3364       -38.7785        2.68594              1
     11443.0000         1.4782        -999.25        -999.25         2.0986         2.3117       -38.8621       2.829609              1
     11443.5000         1.4941        -999.25        -999.25         2.1161         2.2869       -38.9459       3.117516              1
     11444.0000           1.51        -999.25        -999.25         2.1336         2.2621       -39.0296       3.405525              1
     11444.5000         1.5259        -999.25        -999.25         2.1511         2.2461       -39.1134       3.693428              1
     11445.0000         1.5418        -999.25        -999.25         2.1686         2.2972       -39.1971       3.981434              1
     11445.5000         1.5577        -999.25        -999.25         2.1861         2.3625       -39.2809       4.269344              1
     11446.0000         1.5739        -999.25        -999.25         2.1999         2.5236       -39.3646        4.55735              1
     11446.5000         1.5938        -999.25        -999.25         2.1707         2.6862       -39.4102       4.883461              1
     11447.0000         1.6136        -999.25        -999.25         2.0999         2.9528       -39.3969       5.268467              1
     11447.5000         1.6334        -999.25        -999.25         2.0291         3.4114       -39.3835       5.653572              1
     11448.0000         1.6533        -999.25        -999.25         1.9582         3.8606        -39.833       5.575779              1
     11448.5000         1.6748        -999.25        -999.25         1.6471         4.3097       -40.9894       4.791088              1
     11449.0000         1.7038        -999.25        -999.25         1.2799         4.7589       -42.1459       4.006294              1
     11449.5000         1.7328        -999.25        -999.25         1.0927          5.208       -43.6083       2.915604              1
     11450.0000         1.8105        -999.25        -999.25         0.9707         5.6562       -45.2508        1.64481              1
     11450.5000          2.001        -999.25        -999.25          0.849         6.1054       -46.8955      0.3718185              1
     11451.0000         2.3252        -999.25        -999.25          0.727         6.5545       -47.7786      -0.139576              1
     11451.5000         2.6831        -999.25        -999.25         0.6237         7.0036       -48.4513     -0.4405708              1
     11452.0000         3.0409        -999.25        -999.25         0.5557         7.4528        -49.124     -0.7415619              1
     11452.5000         3.3997        -999.25        -999.25         0.4875         7.9019       -49.7957      -1.041553              1
     11453.0000         3.7576        -999.25        -999.25         0.4194          8.351       -50.4684      -1.342545              1
     11453.5000         4.1154        -999.25        -999.25         0.3398         8.8002       -51.0241      -1.526539              1
     11454.0000         4.4733        -999.25        -999.25         0.2462         9.2493       -51.5045      -1.635235              1
     11454.5000         4.8321        -999.25        -999.25         0.1526         9.6985       -51.9837      -1.742725              1
     11455.0000         5.1899        -999.25        -999.25         0.0762         9.8383       -52.4641      -1.851418              1
     11455.5000         5.5478        -999.25        -999.25         0.0315        10.0039       -52.9433      -1.958908              1
     11456.0000         5.9056        -999.25        -999.25              0        10.1851       -53.4236      -2.067501      0.9970652
     11456.5000         6.2644        -999.25        -999.25              0        10.3657       -53.9197      -2.191895      0.9916568
     11457.0000         6.6223        -999.25        -999.25              0        14.1519       -54.4642      -2.364689       0.984144
     11457.5000         6.9801        -999.25        -999.25              0        18.2637       -55.0087      -2.537483      0.9766312
     11458.0000         7.4049        -999.25        -999.25              0        22.3755       -55.5532      -2.710274      0.9691185
     11458.5000         8.1125        -999.25        -999.25              0        26.4964       -56.0966      -2.881966      0.9616536
     11459.0000         8.6881        -999.25        -999.25              0        30.6082       -56.6208      -3.034458      0.9550236
     11459.5000         9.1558        -999.25        -999.25              0          34.72       -56.9549      -2.996849      0.9566587
     11460.0000         9.4798        -999.25        -999.25              0        38.8318       -57.2885      -2.958748      0.9583153
     11460.5000        10.0117        -999.25        -999.25              0        42.9526        -57.622       -2.92054      0.9599766
     11461.0000        10.4199        -999.25        -999.25              0        47.0645       -57.9199      -2.846729      0.9631857
     11461.5000        10.8291        -999.25        -999.25              0        51.7999       -58.0967      -2.651821        0.97166
     11462.0000        11.2383        -999.25        -999.25              0        55.0622       -58.2739      -2.457314      0.9801168
     11462.5000        11.6475        -999.25        -999.25              0        56.1376       -58.2328      -2.044506      0.9980649
     11463.0000        12.1897        -999.25        -999.25              0        57.7868       -57.8701      -1.310097              1
     11463.5000        12.8957        -999.25        -999.25              0        60.0551       -57.5073     -0.5755959              1
     11464.0000        13.6029        -999.25        -999.25              0        62.5448       -57.1445      0.1589127              1
