#------------------------------------------------------------------------------
# Created by    : vladimir.rabinovich
# Created on    : 09/19/2023 17:20:04
#------------------------------------------------------------------------------
~Version Information Section
VERS.           2.0     :   CWLS log ASCII Standard - VERSION 2.0
WRAP.           NO      :   One line per depth step
~Well Information Section
#MNEM       .UNIT                                         VALUE :DESCRIPTION
#------------------------------------------------------------------------------
STRT        .FT                                             627 :START DEPTH
STOP        .FT                                            8077 :STOP DEPTH
STEP        .FT                                             0.5 :STEP      
NULL        .                                           -999.25 :NULL      
COMP        .                                    MOBIL OIL CORP :COMPANY   
WELL        .                               OCS G02338 ST00BP00 :WELL      
FLD         .                                           WILDCAT :FIELD     
LOC         .                                                   :LOCATION  
CNTY        .                             GALVESTON LARGE BLOCK :LOCATION  
STAT        .                                             TEXAS :STATE     
CTRY        .                                     UNITED STATES :COUNTRY   
SRVC        .                                                   :SERVICE COMPANY
DATE        .                             9/13/2023 11:18:53 AM :LOG DATE  
API         .                                    42706400220000 :API NUMBER
UWI         .                                    42706400220000 :UNIQUE WELL ID
XCOORD      .                                  948421.875172236 :SURFACE X 
YCOORD      .                                   10402667.405867 :SURFACE Y 
LAT         .                                         28.648189 :LATITUDE  
LON         .                                        -95.157922 :LONGITUDE 
ELEV        .FT                                              76 :ELEVATION VALUE
ELEV_TYPE   .                                                KB :ELEVATION REFERENCE TYPE
~Curve Information Section
#MNEM       .UNIT                                      API CODE :CURVE DESCRIPTION
#------------------------------------------------------------------------------
DEPT        .FT                                                 :DEPTH     
ASFL        .OHMM                                               :          
CALI        .IN                                                 :          
CILD        .MMHO                                               :          
DT          .US/F                                               :          
DT_1        .US/F                                               :          
GR          .GAPI                                               :          
GR_NORM     .GAPI                                               :GammaRay Normalized
ILD         .OHMM                                               :          
SFL         .OHMM                                               :          
SP          .MV                                                 :          
SP_NORM     .MV                                                 :SP Normalized
VSH_GR      .V/V                                                :Volume of Shale from GR
VSH_SP      .V/V                                                :Volume of Shale from SP
~A        DEPTH           ASFL           CALI           CILD             DT           DT_1             GR        GR_NORM            ILD            SFL             SP        SP_NORM         VSH_GR         VSH_SP
# ...
      4123.0000         0.8738        14.8802       3377.652       117.6281        -999.25        41.7512       40.05511         0.2769         0.7855       -123.439      -45.95146      0.1501087      0.1185988
      4123.5000         0.8608        15.0272       3428.816       118.2189        -999.25        41.8956       40.21554         0.2756         0.7968      -123.2678      -45.76695      0.1535221      0.1222166
      4124.0000         0.8478        15.2464        3467.52       118.2941        -999.25        41.8971       40.23307          0.277         0.8266       -123.161      -45.64686      0.1538952      0.1245714
      4124.5000         0.8349        15.3564       3488.133       116.8143        -999.25        40.6433       38.99531         0.2892         0.8287      -122.9956      -45.46815      0.1275598      0.1280754
      4125.0000         0.8235        15.3911       3427.742       117.7178        -999.25        39.4663       37.83434         0.3136         0.8029      -122.5223      -44.98155      0.1028584      0.1376166
      4125.5000         0.8187        15.4167        3272.73       118.4384        -999.25        38.4653       36.84938         0.3382         0.7945       -121.037      -43.48296     0.08190171      0.1670009
      4126.0000         0.8138        15.4598       3102.137       118.4949        -999.25        37.5039       35.90401         0.3667         0.7907      -118.7601      -41.19276     0.06178738      0.2119067
      4126.5000           0.81        15.5044        2680.25       117.4784        -999.25        36.5962       35.01234         0.3979         0.7925      -116.3984      -38.81775     0.04281584      0.2584755
      4127.0000         0.8292        15.5405       2485.535       109.2952        -999.25        35.9092       34.34138         0.4195         0.8587      -114.9673      -37.37335     0.02854002       0.286797
      4127.5000         1.1094        15.5684       2412.148       101.4314        -999.25        35.6714       34.11961         0.4245         1.0836      -115.6593      -38.05206     0.02382149      0.2734891
      4128.0000         1.2037        15.5205       2367.477        89.6284        -999.25        35.9508       34.41505         0.4204          2.345       -118.827      -41.20646     0.03010746      0.2116381
      4128.5000         1.2757        14.8049       2337.016        80.5437        -999.25        36.6787       35.15899         0.4054         2.3626      -122.1898      -44.55595     0.04593585      0.1459618
      4129.0000         1.3193        14.3391       2369.152        84.6545        -999.25        37.5792       36.07552         0.3816         1.7571      -124.5787      -46.93155      0.0654365     0.09938139
      4129.5000         1.3438        13.9601       2478.594         95.632        -999.25        38.7544       37.26675         0.3503         1.2823      -126.0126      -48.35216     0.09078192     0.07152632
      4130.0000         1.3533        13.8079       2634.203       115.8507        -999.25        40.1349       38.66329         0.3227         1.1479      -126.9166      -49.24285      0.1204955     0.05406174
      4130.5000          1.327        13.6898       3005.453       125.0449        -999.25         41.595       40.13942         0.2999         1.1047      -127.1718      -49.48475      0.1519025     0.04931865
      4131.0000         1.2667        13.7525       3480.227       125.9169        -999.25        43.2984       41.85886         0.2852         1.0694      -127.1844      -49.48405      0.1884863     0.04933226
      4131.5000         1.2408        13.8282       3551.637       126.4143        -999.25        45.1379       43.71439         0.2742         1.0292      -127.1007      -49.38705      0.2279657     0.05123438
      4132.0000          1.215        13.9035       3563.039       125.0349        -999.25        46.5932       45.18572         0.2685         0.9901      -126.8268      -49.09985      0.2592707     0.05686577
      4132.5000         1.1106        13.9552       3574.445       123.3015        -999.25        48.0111       46.61966         0.2661         1.0203      -126.2999      -48.55965        0.28978     0.06745791
      4133.0000         1.0669        13.9855       3585.844       122.0967        -999.25        49.2278       47.85239         0.2645         1.0432      -125.9421      -48.18855      0.3160082      0.0747344
      4133.5000         1.0475         14.008        3597.25       120.2389        -999.25          49.85       48.49062         0.2627          1.043      -125.4229      -47.65604      0.3295877     0.08517561
      4134.0000         1.0281         14.026       3608.648       118.7499        -999.25        50.0116       48.66826         0.2626         1.0187      -124.8855      -47.10535      0.3333673      0.0959736
      4134.5000         1.0136        14.0624       3620.051       118.0402        -999.25        49.2537       47.92639         0.2647          0.969      -124.4563      -46.66285      0.3175828        0.10465
      4135.0000         1.0057        14.1694       3618.273       118.0453        -999.25        48.3309       47.01963         0.2676         0.9228      -124.3469      -46.54015      0.2982899       0.107056
      4135.5000         0.9979        14.3152       3616.082       118.9941        -999.25        47.5208       46.22556          0.269         0.9252      -124.5448      -46.72475      0.2813949      0.1034363
      4136.0000           0.99        14.4138       3611.605       119.7614        -999.25        46.7468       45.46759         0.2701         0.9793      -124.7932      -46.95985       0.265268     0.09882654
      4136.5000         0.9821        14.4757       3597.098        120.222        -999.25        45.9975       44.73433          0.274         0.9968      -124.8695      -47.02284      0.2496667     0.09759133
      4137.0000          0.975        14.5033       3582.578       120.9037        -999.25        45.3051       44.05796         0.2778         0.9627      -125.1942      -47.33424      0.2352758     0.09148542
      4137.5000         0.9696        14.5377       3568.059       120.1257        -999.25        44.8666        43.6355         0.2785         0.9347       -125.417      -47.54375      0.2262872     0.08737751
      4138.0000         0.9641         14.606       3553.676        116.639        -999.25        45.0308       43.81573          0.278         0.9381      -125.5437      -47.65714       0.230122     0.08515406
      4138.5000         0.9587        14.7229        3539.57       114.5935        -999.25        45.9026       44.70356         0.2748         0.9407      -125.6359      -47.73605       0.249012     0.08360694
      4139.0000         0.9532        14.8833       3525.473       118.0044        -999.25        46.0682        44.8852         0.2752          0.919      -125.5955      -47.68234      0.2528766     0.08465995
      4139.5000         0.9478          14.95       3511.367       119.2659        -999.25        46.2632       45.09623          0.284         0.8805      -125.4933      -47.56684      0.2573666     0.08692469
      4140.0000         0.9407        14.9807        3490.34       119.6677        -999.25        46.5313       45.38037          0.295         0.8462       -124.708      -46.76824      0.2634121      0.1025835
      4140.5000         0.9337        15.0201       3463.301       119.9376        -999.25        46.8904        45.7555         0.3046         0.8157      -123.6292      -45.67615      0.2713937      0.1239971
      4141.0000         0.9266        15.0761       3436.281       120.4913        -999.25        47.3494       46.23053         0.3136         0.7936      -122.5675      -44.60114      0.2815007      0.1450756
      4141.5000         0.9069        15.1631       3350.234       121.3655        -999.25        47.4431       46.34027         0.3218         0.7817       -121.641      -43.66134      0.2838356      0.1635032
