#------------------------------------------------------------------------------
# Created by    : vladimir.rabinovich
# Created on    : 09/19/2023 17:20:37
#------------------------------------------------------------------------------
~Version Information Section
VERS.           2.0     :   CWLS log ASCII Standard - VERSION 2.0
WRAP.           NO      :   One line per depth step
~Well Information Section
#MNEM       .UNIT                                         VALUE :DESCRIPTION
#------------------------------------------------------------------------------
STRT        .FT                                             495 :START DEPTH
STOP        .FT                                            7007 :STOP DEPTH
STEP        .FT                                             0.5 :STEP      
NULL        .                                           -999.25 :NULL      
COMP        .                                      SHELL OIL CO :COMPANY   
WELL        .                                OCS 00718 ST00BP00 :WELL      
FLD         .                                           WILDCAT :FIELD     
LOC         .                                                   :LOCATION  
CNTY        .                             GALVESTON LARGE BLOCK :LOCATION  
STAT        .                                             TEXAS :STATE     
CTRY        .                                     UNITED STATES :COUNTRY   
SRVC        .                                                   :SERVICE COMPANY
DATE        .                             9/13/2023 11:19:25 AM :LOG DATE  
API         .                                    42706000330000 :API NUMBER
UWI         .                                    42706000330000 :UNIQUE WELL ID
XCOORD      .                                  1012682.17104467 :SURFACE X 
YCOORD      .                                  10442833.5651685 :SURFACE Y 
LAT         .                                         28.761679 :LATITUDE  
LON         .                                        -94.959691 :LONGITUDE 
ELEV        .FT                                              75 :ELEVATION VALUE
ELEV_TYPE   .                                                KB :ELEVATION REFERENCE TYPE
~Curve Information Section
#MNEM       .UNIT                                      API CODE :CURVE DESCRIPTION
#------------------------------------------------------------------------------
DEPT        .FT                                                 :DEPTH     
ASN         .OHMM                                               :          
CILD        .MMHO                                               :          
DT          .US/F                                               :          
ILD         .OHMM                                               :          
LAT         .OHMM                                               :          
LN          .OHMM                                               :          
SP          .MV                                                 :          
SP_NORM     .MV                                                 :SP Normalized
VSH_SP      .V/V                                                :Volume of Shale from SP
~A        DEPTH            ASN           CILD             DT            ILD            LAT             LN             SP        SP_NORM         VSH_SP
# ...
      6563.5000         0.4082       3626.953        69.3447         0.2453        -999.25        -999.25      -109.6681      -80.79851              0
      6564.0000         0.4128       3583.035        69.8201         0.2526        -999.25        -999.25      -108.9294      -79.94179              0
      6564.5000         0.4143       3531.398          70.33         0.2615        -999.25        -999.25      -108.0416      -78.91216              0
      6565.0000         0.4126        3397.27        70.4067         0.2721        -999.25        -999.25      -106.4987      -77.12276              0
      6565.5000         0.4059       3341.203        70.6671         0.2848        -999.25        -999.25      -104.5254      -74.83419              0
      6566.0000         0.3918       3240.293        71.1051         0.3007        -999.25        -999.25      -102.2046      -72.14261              0
      6566.5000         0.3754       3144.523        71.5154         0.3125        -999.25        -999.25        -98.433      -67.76845              0
      6567.0000           0.36       3133.293        71.2737         0.3225        -999.25        -999.25       -94.1003      -62.74355     0.03471468
      6567.5000         0.3456       3122.047        71.2893         0.3291        -999.25        -999.25       -90.4308      -58.48779      0.1001878
      6568.0000         0.3421       3110.813        71.3431         0.3334        -999.25        -999.25       -87.6764      -55.29334      0.1493333
      6568.5000         0.3489        3099.66         71.248         0.3278        -999.25        -999.25       -86.9883       -54.4953      0.1616108
      6569.0000         0.3545        3090.84        70.7384         0.3099        -999.25        -999.25       -88.0272      -55.70018      0.1430741
      6569.5000         0.3492       3102.723        70.1516         0.3014        -999.25        -999.25       -87.7758      -55.40862      0.1475596
      6570.0000         0.3473       3176.984        69.5332         0.2888        -999.25        -999.25        -87.879      -55.52831      0.1457184
      6570.5000         0.3449       3278.652        69.0076         0.2766        -999.25        -999.25       -90.0129      -58.00313      0.1076442
      6571.0000         0.3425       3371.023        68.6033         0.2665        -999.25        -999.25       -91.8864      -60.17594     0.07421628
      6571.5000         0.3508       3487.805        68.6727         0.2499        -999.25        -999.25       -93.4237      -61.95885     0.04678697
      6572.0000         0.3667        3538.73        68.8298         0.2397        -999.25        -999.25       -96.3507      -65.35348              0
      6572.5000         0.3819       3572.129        69.0381         0.2376        -999.25        -999.25       -98.1968      -67.49451              0
      6573.0000         0.3834        3596.07        69.3436         0.2383        -999.25        -999.25        -98.965      -68.38544              0
      6573.5000         0.3796       3615.473        69.7404          0.235        -999.25        -999.25       -98.6549       -68.0258              0
      6574.0000         0.3745        3632.07        70.1816         0.2344        -999.25        -999.25       -98.1276      -67.41426              0
      6574.5000         0.3704       3619.543        70.6168         0.2372        -999.25        -999.25       -97.6206      -66.82626              0
      6575.0000         0.3678       3606.566        71.0916         0.2426        -999.25        -999.25        -97.155      -66.28627              0
      6575.5000         0.3717        3593.59        71.4344         0.2498        -999.25        -999.25       -96.7637      -65.83246              0
      6576.0000         0.3811       3580.621        71.8153         0.2577        -999.25        -999.25       -97.2238      -66.36607              0
      6576.5000           0.39        3567.59        72.7998         0.2607        -999.25        -999.25       -98.2581      -67.56561              0
      6577.0000         0.4009       3554.566        75.3099         0.2601        -999.25        -999.25       -99.4219      -68.91534              0
      6577.5000         0.4135       3541.535        76.6261         0.2679        -999.25        -999.25       -99.8466       -69.4079              0
      6578.0000         0.4213       3528.512         77.252         0.2833        -999.25        -999.25       -98.6418       -68.0106              0
      6578.5000         0.4312       3327.746        77.0551         0.3002        -999.25        -999.25       -96.2666      -65.25594              0
      6579.0000         0.4374       3152.664        76.4406         0.3235        -999.25        -999.25       -91.8478      -60.13118     0.07490493
      6579.5000         0.4197       3076.656        75.5352         0.3406        -999.25        -999.25       -84.3452      -51.42994      0.2087702
      6580.0000         0.4049       3035.746        74.4363         0.3343        -999.25        -999.25       -74.7081      -40.25318      0.3807203
      6580.5000         0.4098       3014.934        73.6208         0.3215        -999.25        -999.25        -70.262      -35.09676      0.4600498
      6581.0000         0.4467       2994.102        73.6752         0.3209        -999.25        -999.25       -68.7769      -33.37439      0.4865478
      6581.5000          0.493       2973.266         74.674         0.3223        -999.25        -999.25       -72.8824       -38.1358      0.4132953
      6582.0000         0.5336        2971.07        75.7389         0.3296        -999.25        -999.25       -78.0597      -44.14024      0.3209193
      6582.5000          0.553       2968.875        76.4982         0.3431        -999.25        -999.25       -82.3878      -49.15982      0.2436951
      6583.0000         0.5587        2966.68        77.3441         0.3541        -999.25        -999.25       -82.6898      -49.51006      0.2383068
      6583.5000         0.5463       2964.488        77.8981         0.3685        -999.25        -999.25       -79.5493      -45.86783      0.2943411
      6584.0000         0.5388       2958.938        78.1174         0.4282        -999.25        -999.25       -74.4764      -39.98447      0.3848543
      6584.5000          0.552       2921.961        78.6937          0.481        -999.25        -999.25       -67.1056      -31.43608       0.516368
      6585.0000         0.5691       2751.348        79.9047         0.5162        -999.25        -999.25       -63.4543      -27.20144      0.5815164
      6585.5000         0.5829       2594.063        81.0092          0.556        -999.25        -999.25        -58.713      -21.70265       0.666113
      6586.0000         0.5821       2504.285        81.9202         0.5904        -999.25        -999.25        -55.434      -17.89979      0.7246187
      6586.5000         0.5767       2410.125        82.0398         0.6079        -999.25        -999.25        -52.264      -14.22334      0.7811794
      6587.0000         0.5738           1996        81.5507         0.6213        -999.25        -999.25       -48.7217      -10.11511       0.844383
      6587.5000         0.5786       1814.455        81.1118         0.6338        -999.25        -999.25       -46.3646      -7.381431      0.8864395
      6588.0000         0.5884        1775.58        80.7206         0.6458        -999.25        -999.25        -45.026      -5.828971      0.9103235
      6588.5000         0.5999       1757.137         79.998         0.6374        -999.25        -999.25       -44.7808      -5.544597      0.9146985
      6589.0000         0.6096       1778.955        79.2335         0.6233        -999.25        -999.25       -45.7617      -6.682208      0.8971968
      6589.5000         0.6173       1816.064        78.7498         0.6024        -999.25        -999.25       -47.5795      -8.790424      0.8647627
