#------------------------------------------------------------------------------
# Created by    : vladimir.rabinovich
# Created on    : 09/19/2023 17:20:38
#------------------------------------------------------------------------------
~Version Information Section
VERS.           2.0     :   CWLS log ASCII Standard - VERSION 2.0
WRAP.           NO      :   One line per depth step
~Well Information Section
#MNEM       .UNIT                                         VALUE :DESCRIPTION
#------------------------------------------------------------------------------
STRT        .FT                                             495 :START DEPTH
STOP        .FT                                            8683 :STOP DEPTH
STEP        .FT                                             0.5 :STEP      
NULL        .                                           -999.25 :NULL      
COMP        .                                      SHELL OIL CO :COMPANY   
WELL        .                                OCS 00706 ST00BP00 :WELL      
FLD         .                                           WILDCAT :FIELD     
LOC         .                                                   :LOCATION  
CNTY        .                             GALVESTON LARGE BLOCK :LOCATION  
STAT        .                                             TEXAS :STATE     
CTRY        .                                     UNITED STATES :COUNTRY   
SRVC        .                                                   :SERVICE COMPANY
DATE        .                             9/13/2023 11:19:25 AM :LOG DATE  
API         .                                    42706000290000 :API NUMBER
UWI         .                                    42706000290000 :UNIQUE WELL ID
XCOORD      .                                  1097630.70361638 :SURFACE X 
YCOORD      .                                  10500448.3193905 :SURFACE Y 
LAT         .                                          28.92371 :LATITUDE  
LON         .                                        -94.697168 :LONGITUDE 
ELEV        .FT                                              92 :ELEVATION VALUE
ELEV_TYPE   .                                                KB :ELEVATION REFERENCE TYPE
~Curve Information Section
#MNEM       .UNIT                                      API CODE :CURVE DESCRIPTION
#------------------------------------------------------------------------------
DEPT        .FT                                                 :DEPTH     
ASN         .OHMM                                               :          
CILD        .MMHO                                               :          
ILD         .OHMM                                               :          
SP          .MV                                                 :          
SP_NORM     .MV                                                 :SP Normalized
VSH_SP      .V/V                                                :Volume of Shale from SP
~A        DEPTH            ASN           CILD            ILD             SP        SP_NORM         VSH_SP
# ...
      1027.0000         1.3057       834.7344         1.2667       -40.4969       -1.92094              1
      1027.5000         1.2996        839.458         1.2591       -40.5258      -1.950737              1
      1028.0000         1.2936       835.9268         1.2515       -40.5547      -1.980534              1
      1028.5000         1.2926       832.3955         1.2439       -40.5836      -2.010334              1
      1029.0000         1.2919       831.6279         1.2363       -40.6124      -2.040031              1
      1029.5000         1.2911       833.4092         1.2286       -40.4348      -1.863327              1
      1030.0000         1.2904       840.2236         1.2209       -40.1054      -1.534824              1
      1030.5000         1.2818       851.3408          1.213        -39.776      -1.206326              1
      1031.0000         1.2703        862.457         1.2051       -39.4466     -0.8778229              1
      1031.5000         1.2566       873.5742         1.1972       -39.1172     -0.5493164              1
      1032.0000         1.2476       885.3506         1.1892       -38.8494     -0.2824135              1
      1032.5000         1.2424       897.2891         1.1813       -38.5898    -0.02371597              1
      1033.0000         1.2373       909.2305         1.1773       -38.8523     -0.2871094              1
      1033.5000         1.2321       921.3281         1.1742       -39.2041     -0.6398087              1
      1034.0000         1.2277        933.875         1.1711       -39.6087      -1.045303              1
      1034.5000         1.2253       940.4072         1.1681       -40.0321      -1.469604              1
      1035.0000         1.2229       932.9209          1.165       -40.4556      -1.894001              1
      1035.5000         1.2205       925.4336         1.1672        -40.879      -2.318298              1
      1036.0000         1.2222       917.9473         1.1702       -41.3024      -2.742592              1
      1036.5000         1.2344       910.4609         1.1733       -41.6666      -3.107693       0.991716
      1037.0000          1.252       902.8105         1.1763       -41.9365       -3.37849      0.9708853
      1037.5000         1.2673        894.999         1.1794       -42.2065      -3.649387      0.9500471
      1038.0000         1.2746       887.1895         1.1824       -42.4765      -3.920284      0.9292089
      1038.5000         1.2705       879.3779         1.1866       -42.5883      -4.032982      0.9205399
      1039.0000         1.2663       871.5684         1.1931       -42.6344      -4.079979      0.9169247
      1039.5000         1.2629       875.0088         1.1996       -42.5394      -3.985874      0.9241635
      1040.0000         1.2615       880.2734         1.2061       -42.1675      -3.614872      0.9527022
      1040.5000         1.2601       887.1357         1.2127       -41.7958      -3.244072      0.9812253
      1041.0000         1.2609            894         1.2192       -41.5226      -2.971767              1
      1041.5000         1.2772       889.0957         1.2257        -41.263      -2.713066              1
      1042.0000         1.2945       880.6855         1.2322       -41.0034      -2.454361              1
      1042.5000         1.3149       872.2754         1.2388       -40.8489      -2.300762              1
      1043.0000         1.3353       864.4092         1.2477       -40.7553      -2.208057              1
      1043.5000         1.3595       859.1162         1.2604       -40.6693      -2.122955              1
      1044.0000          1.387       853.8242         1.2731       -40.7907      -2.245251              1
      1044.5000         1.4023       838.2031         1.2859        -40.912      -2.367451              1
      1045.0000         1.4177       806.1172         1.2988       -41.0447      -2.501049              1
      1045.5000         1.4322       769.0508         1.3507       -41.2864      -2.743645              1
      1046.0000         1.4482       715.1934         1.4231        -41.528      -2.986141              1
      1046.5000         1.4828       689.1504          1.588       -41.7697      -3.228741      0.9824046
      1047.0000         1.5251       664.2832         1.7343       -42.0113      -3.471237       0.963751
      1047.5000         1.6272       639.9443         1.8673       -42.2529      -3.713734      0.9450974
      1048.0000         1.6605       576.4326         1.9802       -42.7053       -4.16703      0.9102284
      1048.5000         1.6864       530.7725         1.9994       -42.9484       -4.41103      0.8914592
      1049.0000         1.6894       508.8154         1.8238       -43.1069      -4.570427       0.879198
      1049.5000         1.6769       502.3516         1.7505       -43.2228      -4.687225      0.8702134
      1050.0000         1.6644       495.8887         1.7024       -43.1848       -4.65012      0.8730677
      1050.5000         1.6407       513.0693         1.6543       -42.8597       -4.32592      0.8980061
      1051.0000         1.6161       536.4688         1.6062       -42.3406      -3.807716       0.937868
      1051.5000          1.591       559.8623         1.5742       -41.8214      -3.289413      0.9777374
      1052.0000         1.5634       583.7002         1.5428       -41.3024      -2.771309              1
      1052.5000         1.5357        611.998         1.5115       -40.9478       -2.41761              1
      1053.0000         1.4722         640.29         1.4829       -40.6247      -2.095406              1
      1053.5000         1.4258       668.0488         1.4557       -40.3017      -1.773304              1
      1054.0000         1.4008       693.3838         1.4286       -40.0206      -1.493099              1
      1054.5000         1.3771       719.1797         1.4014       -39.7704      -1.243801              1
      1055.0000         1.3551       755.6914         1.3743       -39.9998      -1.474098              1
      1055.5000         1.3364       775.3213         1.3485       -40.3878      -1.862991              1
      1056.0000         1.3302        792.752         1.3248       -40.8779      -2.353989              1
      1056.5000          1.324       808.1514         1.3012       -41.3884      -2.865391              1
      1057.0000         1.3187       819.6123         1.2775       -41.8987      -3.376587      0.9710318
      1057.5000         1.3139       831.0723         1.2538       -42.3053      -3.784084      0.9396858
      1058.0000         1.3091       840.7393         1.2396       -42.3618       -3.84148      0.9352707
      1058.5000         1.3044       847.6211         1.2291       -42.4182      -3.898781       0.930863
      1059.0000         1.2996       854.5049         1.2186       -42.4077      -3.889175      0.9316019
      1059.5000         1.2962       854.5352          1.208       -42.3633      -3.845673      0.9349483
      1060.0000         1.2938       850.5176         1.2057        -42.319      -3.802269       0.938287
      1060.5000         1.2913          846.5         1.2092       -42.2747      -3.758869      0.9416255
      1061.0000         1.2905       842.4824         1.2127       -42.2303      -3.715366      0.9449718
      1061.5000         1.2904       838.4648         1.2162       -42.1859      -3.671864      0.9483182
      1062.0000         1.2904       834.4463         1.2197        -41.993      -3.479858      0.9630878
      1062.5000         1.2903       831.0332         1.2231        -41.649      -3.136757      0.9894803
      1063.0000         1.2857       827.7227         1.2249       -41.2034      -2.692055              1
      1063.5000         1.2806       824.4111         1.2263       -40.7047      -2.194252              1
      1064.0000         1.2711       828.3359         1.2277       -40.2059      -1.696346              1
      1064.5000         1.2615       835.7744         1.2291       -39.9024      -1.393749              1
