#------------------------------------------------------------------------------
# Created by    : vladimir.rabinovich
# Created on    : 09/19/2023 17:20:31
#------------------------------------------------------------------------------
~Version Information Section
VERS.           2.0     :   CWLS log ASCII Standard - VERSION 2.0
WRAP.           NO      :   One line per depth step
~Well Information Section
#MNEM       .UNIT                                         VALUE :DESCRIPTION
#------------------------------------------------------------------------------
STRT        .FT                                            2377 :START DEPTH
STOP        .FT                                            9500 :STOP DEPTH
STEP        .FT                                             0.5 :STEP      
NULL        .                                           -999.25 :NULL      
COMP        .                                     SKELLY OIL CO :COMPANY   
WELL        .                                     ST TR 00146-L :WELL      
FLD         .                                           WILDCAT :FIELD     
LOC         .                                                   :LOCATION  
CNTY        .                             GALVESTON LARGE BLOCK :LOCATION  
STAT        .                                             TEXAS :STATE     
CTRY        .                                     UNITED STATES :COUNTRY   
SRVC        .                                                   :SERVICE COMPANY
DATE        .                             9/13/2023 11:19:24 AM :LOG DATE  
API         .                                    42706001330000 :API NUMBER
UWI         .                                    42706001330000 :UNIQUE WELL ID
XCOORD      .                                  1116482.89093459 :SURFACE X 
YCOORD      .                                  10631825.2810539 :SURFACE Y 
LAT         .                                         29.285733 :LATITUDE  
LON         .                                       -94.6439746 :LONGITUDE 
ELEV        .FT                                              61 :ELEVATION VALUE
ELEV_TYPE   .                                                KB :ELEVATION REFERENCE TYPE
~Curve Information Section
#MNEM       .UNIT                                      API CODE :CURVE DESCRIPTION
#------------------------------------------------------------------------------
DEPT        .FT                                                 :DEPTH     
ASN         .OHMM                                               :          
CALI        .IN                                                 :          
CILD        .MMHO                                               :          
DT          .US/F                                               :          
ILD         .OHMM                                               :          
SP          .MV                                                 :          
SP_NORM     .MV                                                 :SP Normalized
VSH_SP      .V/V                                                :Volume of Shale from SP
~A        DEPTH            ASN           CALI           CILD             DT            ILD             SP        SP_NORM         VSH_SP
# ...
      6153.0000         0.8342         10.538       2304.965       107.4808         0.4419       -91.7401       -34.7704      0.5725266
      6153.5000         0.8242        10.5694       2286.707       110.8381         0.4289       -101.929       -44.9593      0.4435531
      6154.0000         0.8142        10.6194       2239.063       110.5558         0.4359      -106.6027        -49.633      0.3843924
      6154.5000         0.8044        10.6529       2069.289        99.0104         0.4935      -106.6466       -49.6769      0.3838367
      6155.0000         0.7952        10.8407       1982.438        89.7341         0.5579      -105.9257        -48.956       0.392962
      6155.5000          0.788        11.0198       1819.297         88.486         0.6202      -103.5693       -46.5996      0.4227898
      6156.0000         0.7808        10.9598       1588.637        89.7642          0.672       -98.4423       -41.4726      0.4876886
      6156.5000         0.7808        10.7622       1482.471       101.9792         0.7267       -84.1989       -27.2292      0.6679848
      6157.0000         0.7857        10.8923        1307.41       104.7069         0.7848        -81.634      -24.66431      0.7004518
      6157.5000         0.8282        11.1701       1086.217       103.9172          0.834       -79.1898       -22.2201      0.7313911
      6158.0000         0.8813        11.3049       1018.982       103.3364         0.8593       -75.6403       -18.6706      0.7763215
      6158.5000         0.9066        11.3467       970.0801       102.6864         0.8825       -73.3041       -16.3344      0.8058936
      6159.0000         0.9244        11.4494        955.501         95.157         0.8695       -72.6804       -15.7107      0.8137886
      6159.5000         0.9214        11.4772       950.6152        94.1149         0.8565       -71.8596       -14.8899      0.8241785
      6160.0000         0.9032        11.3345       960.1211       102.9338         0.8573       -70.6073       -13.6376      0.8400303
      6160.5000         0.8836        11.2973       1010.371       105.0105         0.9704        -68.074       -11.1043      0.8720974
      6161.0000         0.8662        11.3016       1307.008       111.2655         0.9267       -67.3856       -10.4159      0.8808114
      6161.5000         0.8498          11.36       1602.787       112.6475         0.8655       -68.2523       -11.2826      0.8698405
      6162.0000         0.8195        11.3891       1736.904       108.8015         0.7175       -69.2421      -12.27241      0.8573113
      6162.5000         0.7998        11.3707           2044        96.9962         0.4783       -80.4861       -23.5164      0.7149822
      6163.0000         0.7835         11.377        2502.41        92.2281         0.4038       -101.296       -44.3263      0.4515658
      6163.5000         0.7951        11.2836       2669.313        91.2986         0.3643      -116.9612       -59.9915      0.2532721
      6164.0000         0.8068         11.356        3038.07        96.3715           0.35      -123.6383       -66.6686      0.1687519
      6164.5000         0.8252        11.6628        3268.73       108.2717         0.3356      -126.8185       -69.8488      0.1284962
      6165.0000         0.8528        12.6763       3503.621       111.7993         0.3212        -130.03       -73.0603     0.08784427
      6165.5000         0.8838        15.3206       3525.859       114.0544         0.3085      -131.3955       -74.4258     0.07055954
      6166.0000         0.8889         16.021       3501.633        120.137         0.2962      -132.7268      -75.75711     0.05370746
      6166.5000         0.8664        15.9769       3445.402       120.6954         0.2839      -133.1575      -76.18781     0.04825563
      6167.0000         0.8516        13.5887       3393.832       116.9683         0.2716      -133.4482       -76.4785     0.04457594
      6167.5000         0.8463        13.7139       3351.352       112.8099         0.2735      -133.4995       -76.5298     0.04392658
      6168.0000         0.8427        14.3597       3320.402       112.3151         0.2758      -133.4307        -76.461     0.04479749
      6168.5000         0.8391        14.8136       3286.762        113.912         0.2781      -133.0874      -76.11771     0.04914296
      6169.0000          0.821        14.6252       3217.109       113.2073         0.2815      -131.9795      -75.00981     0.06316695
      6169.5000         0.7858        13.9256       3153.801       109.8611         0.2873      -130.5852      -73.61551     0.08081634
      6170.0000         0.7476        13.7659       3105.906       108.7653          0.293      -130.6494       -73.6797     0.08000376
      6170.5000         0.7116        13.2755       3109.066       109.2604         0.2993       -131.261      -74.29131     0.07226195
      6171.0000         0.6816        12.3878       3123.359       108.0493          0.306      -131.0139       -74.0442     0.07538982
      6171.5000         0.6739        12.0561       3136.125       105.8127         0.3127      -130.7668       -73.7971     0.07851768
      6172.0000         0.6727        12.6613       3161.859       108.0518         0.3194      -130.5198      -73.55011     0.08164418
      6172.5000         0.6694        13.9168       3201.496       111.5428         0.3261      -130.2725      -73.30281     0.08477455
      6173.0000         0.6539        14.3106       3218.641       112.7711          0.333       -129.863      -72.89331     0.08995809
      6173.5000          0.636         13.519       3221.277       114.4468         0.3401      -129.2954       -72.3257     0.09714305
      6174.0000         0.6292        13.8868       3215.121       116.7695         0.3472      -128.4602      -71.49051      0.1077151
      6174.5000         0.6219         14.751       3202.063       115.8987         0.3523      -127.3787        -70.409       0.121405
      6175.0000         0.6148        14.1483       3130.938       114.4292         0.3502      -125.9971       -69.0274      0.1388936
      6175.5000         0.6217        12.8437       3050.457       113.9094         0.3481      -125.3591       -68.3894      0.1469696
      6176.0000         0.6398        12.2063        1993.93       112.4438         0.3461      -125.4308      -68.46111       0.146062
      6176.5000         0.6679        12.3913       1973.207       110.7507         0.3651      -125.2743       -68.3046       0.148043
      6177.0000         0.6972        12.9364       1941.326       110.9106         0.3996      -124.6952       -67.7255      0.1553734
      6177.5000         0.7275        13.5421       1803.785       111.2926         0.4341      -121.9803       -65.0106      0.1897392
      6178.0000         0.7641        13.9238       1603.141       111.3679         0.4942       -118.594      -61.62431      0.2326037
      6178.5000          0.812        14.3692        1464.34       112.8749         0.5668      -114.9114       -57.9417      0.2792189
      6179.0000          0.846        14.5177       1216.002       117.6129         0.6016      -109.8922       -52.9225      0.3427531
      6179.5000         0.8731        13.9729       1148.162       113.7096         0.6364      -102.4615      -45.49181      0.4368126
      6180.0000         0.8917        11.4769       1082.238       111.0287         0.6713       -99.0352      -42.06551      0.4801835
      6180.5000         0.8947        11.0884       1084.227       110.9266         0.7081       -91.7501       -34.7804         0.5724
      6181.0000         0.8944         10.983        1156.02       105.9526         0.7451       -73.1709       -16.2012      0.8075797
      6181.5000          0.893        10.9743       1278.805       104.5782         0.7787       -67.9508       -10.9811      0.8736569
      6182.0000         0.8903        10.9935       1433.268        107.597          0.791        -64.851      -7.881302      0.9128949
