#------------------------------------------------------------------------------
# Created by    : vladimir.rabinovich
# Created on    : 09/19/2023 17:21:23
#------------------------------------------------------------------------------
~Version Information Section
VERS.           2.0     :   CWLS log ASCII Standard - VERSION 2.0
WRAP.           NO      :   One line per depth step
~Well Information Section
#MNEM       .UNIT                                         VALUE :DESCRIPTION
#------------------------------------------------------------------------------
STRT        .FT                                            1005 :START DEPTH
STOP        .FT                                            8973 :STOP DEPTH
STEP        .FT                                             0.5 :STEP      
NULL        .                                           -999.25 :NULL      
COMP        .                            MARITECH RESOURCES INC :COMPANY   
WELL        .                               OCS G06113 ST00BP00 :WELL      
FLD         .                              GALVESTON BLOCK 0343 :FIELD     
LOC         .                                                   :LOCATION  
CNTY        .                             GALVESTON LARGE BLOCK :LOCATION  
STAT        .                                             TEXAS :STATE     
CTRY        .                                     UNITED STATES :COUNTRY   
SRVC        .                                                   :SERVICE COMPANY
DATE        .                             9/13/2023 11:19:36 AM :LOG DATE  
API         .                                    42706402140000 :API NUMBER
UWI         .                                    42706402140000 :UNIQUE WELL ID
XCOORD      .                                  914498.553138379 :SURFACE X 
YCOORD      .                                  10427492.1426863 :SURFACE Y 
LAT         .                                         28.714711 :LATITUDE  
LON         .                                        -95.265111 :LONGITUDE 
ELEV        .FT                                              84 :ELEVATION VALUE
ELEV_TYPE   .                                                KB :ELEVATION REFERENCE TYPE
~Curve Information Section
#MNEM       .UNIT                                      API CODE :CURVE DESCRIPTION
#------------------------------------------------------------------------------
DEPT        .FT                                                 :DEPTH     
CALI        .IN                                                 :          
DPHI        .%                                                  :          
DRHO        .G/C3                                               :          
DT          .US/F                                               :          
GR          .GAPI                                               :          
ILD         .OHMM                                               :          
ILM         .OHMM                                               :          
NPHI        .%                                                  :          
SGRD        .OHMM                                               :          
SP          .MV                                                 :          
SP_NORM     .MV                                                 :SP Normalized
VSH_SP      .V/V                                                :Volume of Shale from SP
~A        DEPTH           CALI           DPHI           DRHO             DT             GR            ILD            ILM           NPHI           SGRD             SP        SP_NORM         VSH_SP
# ...
      6847.5000        -999.25        -999.25        -999.25        -999.25        -999.25         0.6784         0.7116        -999.25         0.6993       -91.5991     -0.6397934              1
      6848.0000        -999.25        -999.25        -999.25        -999.25        -999.25         0.6729         0.6981        -999.25         0.6912       -91.5691     -0.6127243              1
      6848.5000        -999.25        -999.25        -999.25        -999.25        -999.25         0.6646         0.6847        -999.25         0.6844       -91.5616     -0.6081543              1
      6849.0000        -999.25        -999.25        -999.25        -999.25        -999.25         0.6556         0.6713        -999.25         0.6785       -91.5637     -0.6131821              1
      6849.5000        -999.25        -999.25        -999.25        -999.25        -999.25         0.6467         0.6572        -999.25         0.6752       -91.5571     -0.6095123              1
      6850.0000        -999.25        -999.25        -999.25        -999.25        -999.25         0.6371         0.6434        -999.25         0.6756       -91.5172     -0.5725479              1
      6850.5000        -999.25        -999.25        -999.25        -999.25        -999.25         0.6275         0.6341        -999.25         0.6728       -91.4773     -0.5355835              1
      6851.0000        -999.25        -999.25        -999.25        -999.25        -999.25           0.62         0.6249        -999.25         0.6607       -91.4132      -0.474411              1
      6851.5000        -999.25        -999.25        -999.25        -999.25        -999.25         0.6156         0.6281        -999.25         0.6413       -91.3081     -0.3722382              1
      6852.0000        -999.25        -999.25        -999.25        -999.25        -999.25         0.6168         0.6321        -999.25         0.6167        -91.203     -0.2700729              1
      6852.5000        -999.25        -999.25        -999.25        -999.25        -999.25         0.6226         0.6361        -999.25         0.6475       -91.1177     -0.1876984              1
      6853.0000        -999.25        -999.25        -999.25        -999.25        -999.25         0.6305         0.6414        -999.25         0.6825       -91.0599     -0.1328278              1
      6853.5000        -999.25        -999.25        -999.25        -999.25        -999.25         0.6384          0.648        -999.25         0.7071       -91.0022    -0.07806396              1
      6854.0000        -999.25        -999.25        -999.25        -999.25        -999.25         0.6463         0.6556        -999.25         0.7027       -90.9509     -0.0296936              1
      6854.5000        -999.25        -999.25        -999.25        -999.25        -999.25         0.6542         0.6633        -999.25          0.694       -90.9401     -0.0218277              1
      6855.0000        -999.25        -999.25        -999.25        -999.25        -999.25         0.6616         0.6719        -999.25         0.6883       -90.9291     -0.0137558              1
      6855.5000        -999.25        -999.25        -999.25        -999.25        -999.25         0.6686         0.6807        -999.25         0.6863       -90.9391    -0.02668762              1
      6856.0000        -999.25        -999.25        -999.25        -999.25        -999.25         0.6757         0.6839        -999.25         0.6869       -90.9943    -0.08481598              1
      6856.5000        -999.25        -999.25        -999.25        -999.25        -999.25         0.6791         0.6859        -999.25         0.6901       -91.0496     -0.1615982              1
      6857.0000        -999.25        -999.25        -999.25        -999.25        -999.25         0.6816         0.6838        -999.25         0.6943       -91.0973     -0.2335892              1
      6857.5000        -999.25        -999.25        -999.25        -999.25        -999.25         0.6841         0.6776        -999.25         0.6869       -91.1217       -0.28228              1
      6858.0000        -999.25        -999.25        -999.25        -999.25        -999.25         0.6808         0.6714        -999.25         0.6788       -91.1461     -0.3309784              1
      6858.5000        -999.25        -999.25        -999.25        -999.25        -999.25         0.6774         0.6654        -999.25          0.669       -91.1705     -0.3796692              1
      6859.0000        -999.25        -999.25        -999.25        -999.25        -999.25         0.6754         0.6643        -999.25         0.6655       -91.1687     -0.4021606              1
      6859.5000        -999.25        -999.25        -999.25        -999.25        -999.25         0.6766         0.6722        -999.25         0.6736       -91.1387     -0.3964539              1
      6860.0000        -999.25        -999.25        -999.25        -999.25        -999.25           0.68         0.6803        -999.25          0.682       -91.1085     -0.3905411              1
      6860.5000        -999.25        -999.25        -999.25        -999.25        -999.25         0.6874         0.6889        -999.25         0.6908       -91.0785     -0.3848343              1
      6861.0000        -999.25        -999.25        -999.25        -999.25        -999.25         0.6948         0.6976        -999.25         0.6993       -91.0313     -0.3619308              1
      6861.5000        -999.25        -999.25        -999.25        -999.25        -999.25         0.7033         0.7065        -999.25         0.7059       -90.9817     -0.3366165              1
      6862.0000        -999.25        -999.25        -999.25        -999.25        -999.25         0.7129         0.7155        -999.25         0.7125       -90.9323     -0.3115082              1
      6862.5000        -999.25        -999.25        -999.25        -999.25        -999.25         0.7227         0.7247        -999.25         0.7193       -90.9427     -0.3462067              1
      6863.0000        -999.25        -999.25        -999.25        -999.25        -999.25         0.7326          0.736        -999.25         0.7268        -90.964     -0.3917923              1
      6863.5000        -999.25        -999.25        -999.25        -999.25        -999.25         0.7418         0.7497        -999.25         0.7344       -90.9596     -0.4116898              1
      6864.0000        -999.25        -999.25        -999.25        -999.25        -999.25         0.7508         0.7637        -999.25         0.7442       -90.9406     -0.4169769              1
      6864.5000        -999.25        -999.25        -999.25        -999.25        -999.25         0.7599         0.7723        -999.25         0.7522       -90.9897     -0.4903717              1
      6865.0000        -999.25        -999.25        -999.25        -999.25        -999.25         0.7681          0.781        -999.25         0.7509        -91.052     -0.5769653              1
      6865.5000        -999.25        -999.25        -999.25        -999.25        -999.25         0.7713         0.7861        -999.25         0.7494       -91.1024     -0.6516571              1
      6866.0000        -999.25        -999.25        -999.25        -999.25        -999.25         0.7744          0.786        -999.25         0.7504       -91.0769      -0.650444              1
      6866.5000        -999.25        -999.25        -999.25        -999.25        -999.25         0.7768         0.7837        -999.25         0.7579       -91.0514     -0.6492386              1
      6867.0000        -999.25        -999.25        -999.25        -999.25        -999.25          0.774         0.7791        -999.25         0.7649       -91.0096     -0.6317291              1
      6867.5000        -999.25        -999.25        -999.25        -999.25        -999.25         0.7712         0.7749        -999.25         0.7711       -90.9377     -0.5841217              1
