#------------------------------------------------------------------------------
# Created by    : vladimir.rabinovich
# Created on    : 09/19/2023 17:20:58
#------------------------------------------------------------------------------
~Version Information Section
VERS.           2.0     :   CWLS log ASCII Standard - VERSION 2.0
WRAP.           NO      :   One line per depth step
~Well Information Section
#MNEM       .UNIT                                         VALUE :DESCRIPTION
#------------------------------------------------------------------------------
STRT        .FT                                             521 :START DEPTH
STOP        .FT                                           11050 :STOP DEPTH
STEP        .FT                                             0.5 :STEP      
NULL        .                                           -999.25 :NULL      
COMP        .                                      SHELL OIL CO :COMPANY   
WELL        .                                     ST TR 00335-L :WELL      
FLD         .                                           WILDCAT :FIELD     
LOC         .                                                   :LOCATION  
CNTY        .                                BRAZOS LARGE BLOCK :LOCATION  
STAT        .                                             TEXAS :STATE     
CTRY        .                                     UNITED STATES :COUNTRY   
SRVC        .                                                   :SERVICE COMPANY
DATE        .                             9/13/2023 11:18:52 AM :LOG DATE  
API         .                                    42704000130000 :API NUMBER
UWI         .                                    42704000130000 :UNIQUE WELL ID
XCOORD      .                                  903482.990868916 :SURFACE X 
YCOORD      .                                   10450808.276789 :SURFACE Y 
LAT         .                                        28.7782296 :LATITUDE  
LON         .                                       -95.3008656 :LONGITUDE 
ELEV        .FT                                              81 :ELEVATION VALUE
ELEV_TYPE   .                                                DF :ELEVATION REFERENCE TYPE
~Curve Information Section
#MNEM       .UNIT                                      API CODE :CURVE DESCRIPTION
#------------------------------------------------------------------------------
DEPT        .FT                                                 :DEPTH     
ASN         .OHMM                                               :          
CILD        .MMHO                                               :          
ILD         .OHMM                                               :          
SP          .MV                                                 :          
SP_NORM     .MV                                                 :SP Normalized
VSH_SP      .V/V                                                :Volume of Shale from SP
~A        DEPTH            ASN           CILD            ILD             SP        SP_NORM         VSH_SP
# ...
      1927.0000         0.8187       1385.654         0.7266       -46.0679      -4.604488      0.9405745
      1927.5000         0.8144       1391.746         0.7226         -46.31      -4.846588      0.9316078
      1928.0000         0.8102       1390.383          0.721       -46.5521      -5.088688      0.9226412
      1928.5000         0.8059       1385.129         0.7194       -46.7942      -5.330788      0.9136745
      1929.0000         0.8018       1379.877         0.7178       -47.0363      -5.572887      0.9047078
      1929.5000         0.7986       1374.621         0.7162        -47.294      -5.830585      0.8951635
      1930.0000         0.7955       1369.369         0.7146       -47.5866      -6.123188      0.8843264
      1930.5000         0.7924       1364.115          0.713       -47.8431      -6.379688      0.8748264
      1931.0000         0.7893       1358.863         0.7114       -47.9314      -6.467987       0.871556
      1931.5000         0.7889       1362.156         0.7098       -47.8835      -6.420086      0.8733302
      1932.0000         0.7896       1365.619         0.7082       -47.6419      -6.178486      0.8822783
      1932.5000         0.7904       1369.084          0.709       -47.4001      -5.936687      0.8912338
      1933.0000         0.7912       1372.547         0.7106       -47.1584      -5.694988      0.9001856
      1933.5000         0.7919       1375.574         0.7122       -46.9167      -5.453285      0.9091376
      1934.0000         0.7927       1377.389         0.7138       -46.6874      -5.223988      0.9176301
      1934.5000         0.7931       1379.201         0.7153       -46.4759      -5.012486      0.9254635
      1935.0000         0.7934       1381.014         0.7169       -46.2643      -4.800888      0.9333004
      1935.5000         0.7936       1382.826         0.7185       -46.0527      -4.589287      0.9411376
      1936.0000         0.7938       1378.172         0.7201       -45.8411      -4.377686      0.9489746
      1936.5000         0.7941        1368.18         0.7217       -45.7698      -4.306385      0.9516154
      1937.0000         0.7943       1358.186         0.7232       -45.7822      -4.318787      0.9511561
      1937.5000         0.7945       1348.193           0.73       -45.7946      -4.331188      0.9506967
      1938.0000         0.7957       1338.203         0.7379       -45.8179      -4.354488      0.9498338
      1938.5000         0.7971       1328.209         0.7457       -45.8533      -4.389885      0.9485228
      1939.0000         0.7985       1313.432         0.7536       -45.8886      -4.425186      0.9472153
      1939.5000         0.7999       1297.854         0.7615        -45.924      -4.460587      0.9459042
      1940.0000         0.8068       1282.271         0.7693       -45.9594      -4.495987      0.9445931
      1940.5000         0.8143       1266.688         0.7772       -45.9948      -4.531387      0.9432819
      1941.0000         0.8218       1251.111         0.7851       -46.4175      -4.954086      0.9276264
      1941.5000         0.8294       1217.967         0.7948       -46.5804      -5.116985      0.9215931
      1942.0000         0.8384       1179.158         0.8071       -46.5804      -5.116985      0.9215931
      1942.5000         0.8501       1143.453         0.8194       -46.5804      -5.116985      0.9215931
      1943.0000         0.8618        1112.25         0.8318       -46.4456      -4.982185      0.9265857
      1943.5000         0.8736       1081.047         0.8441       -46.2442      -4.780788      0.9340449
      1944.0000         0.8853       1075.346         0.8565       -46.0429      -4.579487      0.9415005
      1944.5000          0.895       1073.758         0.8688       -45.8415      -4.378086      0.9489598
      1945.0000         0.9014       1071.326           0.88       -45.6402      -4.176788      0.9564152
      1945.5000         0.9079       1068.799         0.8854       -45.4388      -3.975388      0.9638745
      1946.0000         0.9143       1066.271         0.8909        -45.231      -3.767586      0.9715709
      1946.5000         0.9208       1063.744         0.9004       -44.9559      -3.492485      0.9817598
      1947.0000         0.9272       1052.332         0.9099       -44.6809      -3.217487      0.9919449
      1947.5000         0.9337       1034.369         0.9193       -44.4059      -2.942486              1
      1948.0000         0.9409       1016.407         0.9288       -44.1308      -2.667385              1
      1948.5000         0.9482       998.4453         0.9387       -43.8558      -2.392387              1
      1949.0000         0.9555       980.2764         0.9486       -43.7258      -2.262386              1
      1949.5000         0.9628       959.1436         0.9586       -43.9694      -2.505985              1
      1950.0000         0.9701       938.0176         0.9692       -44.2131      -2.749687              1
      1950.5000         0.9773       916.8848         0.9809       -44.4526      -2.989185              1
      1951.0000         0.9846        895.752         0.9927        -44.689      -3.225586       0.991645
      1951.5000         0.9919        894.875         1.0044       -44.9254      -3.461987      0.9828894
      1952.0000         1.0226       900.6826         1.0151       -45.1617      -3.698288      0.9741375
      1952.5000         1.0263       906.4902         1.0128        -45.398      -3.934586      0.9653857
      1953.0000         1.0213       910.5244         1.0105       -45.6208      -4.157387      0.9571338
      1953.5000         1.0173       914.1221         1.0083       -45.7434      -4.279987      0.9525931
      1954.0000         1.0201       917.7217          1.006        -45.866      -4.402588      0.9480523
      1954.5000         1.0215       921.3203         1.0037       -45.8569      -4.393486      0.9483894
      1955.0000         1.0201       923.3818         0.9971       -45.7511      -4.287685      0.9523079
      1955.5000         1.0187       923.7744         0.9904       -45.6453      -4.181889      0.9562263
      1956.0000         1.0169        924.167         0.9838       -45.5394      -4.075985      0.9601487
      1956.5000          1.015       924.5596         0.9772       -45.4336      -3.970188      0.9640671
      1957.0000         1.0131       927.0801         0.9682        -45.331      -3.867588      0.9678671
      1957.5000         1.0112       931.3437         0.9543       -45.2327      -3.769287      0.9715079
      1958.0000         1.0089       935.6064         0.9404       -45.1344      -3.670986      0.9751487
      1958.5000         1.0065       955.3047         0.9265       -45.0361      -3.572685      0.9787894
      1959.0000         1.0041       975.0859         0.9126       -45.1323      -3.668888      0.9752263
      1959.5000         1.0018       999.3281         0.8974         -45.46      -3.996586      0.9630894
      1960.0000         0.9994       1024.488          0.882        -45.683      -4.219585      0.9548302
      1960.5000         0.9935       1045.523         0.8666       -45.8959      -4.432487      0.9469449
      1961.0000         0.9868       1064.453         0.8511       -46.1086      -4.645187      0.9390671
      1961.5000         0.9801       1083.389          0.833       -46.1767      -4.713287      0.9365449
      1962.0000         0.9719       1097.354          0.813       -46.2079      -4.744488      0.9353893
      1962.5000         0.9606       1110.813          0.793       -46.2393      -4.775887      0.9342265
      1963.0000         0.9494       1124.268         0.7819       -46.2681      -4.804688      0.9331597
      1963.5000         0.9386       1131.291         0.7803       -46.2592      -4.795788      0.9334893
      1964.0000         0.9306       1138.025         0.7807       -46.2501      -4.786686      0.9338264
      1964.5000         0.9251        1105.42         0.7926       -46.2411      -4.777687      0.9341598
