#------------------------------------------------------------------------------
# Created by    : vladimir.rabinovich
# Created on    : 09/19/2023 17:21:20
#------------------------------------------------------------------------------
~Version Information Section
VERS.           2.0     :   CWLS log ASCII Standard - VERSION 2.0
WRAP.           NO      :   One line per depth step
~Well Information Section
#MNEM       .UNIT                                         VALUE :DESCRIPTION
#------------------------------------------------------------------------------
STRT        .FT                                            6712 :START DEPTH
STOP        .FT                                           10254 :STOP DEPTH
STEP        .FT                                             0.5 :STEP      
NULL        .                                           -999.25 :NULL      
COMP        .                                SHELL OFFSHORE INC :COMPANY   
WELL        .                               OCS G17145 ST00BP00 :WELL      
FLD         .                                           WILDCAT :FIELD     
LOC         .                                                   :LOCATION  
CNTY        .                           HIGH ISLAND LARGE BLOCK :LOCATION  
STAT        .                                             TEXAS :STATE     
CTRY        .                                     UNITED STATES :COUNTRY   
SRVC        .                                                   :SERVICE COMPANY
DATE        .                             9/13/2023 11:19:48 AM :LOG DATE  
API         .                                    42708404610000 :API NUMBER
UWI         .                                    42708404610000 :UNIQUE WELL ID
XCOORD      .                                  1236256.25309123 :SURFACE X 
YCOORD      .                                  10648843.7308139 :SURFACE Y 
LAT         .                                         29.336637 :LATITUDE  
LON         .                                        -94.268822 :LONGITUDE 
ELEV        .FT                                             110 :ELEVATION VALUE
ELEV_TYPE   .                                                KB :ELEVATION REFERENCE TYPE
~Curve Information Section
#MNEM       .UNIT                                      API CODE :CURVE DESCRIPTION
#------------------------------------------------------------------------------
DEPT        .FT                                                 :DEPTH     
CALI        .IN                                                 :          
CPCHM       .MMHO                                               :          
CPCM        .MMHO                                               :          
DFL         .OHMM                                               :          
DPHI        .%                                                  :          
DRHO        .G/C3                                               :          
DT          .US/F                                               :          
GR          .GAPI                                               :          
GR_NORM     .GAPI                                               :GammaRay Normalized
GRAM        .GAPI                                               :          
HDCN        .MMHO                                               :          
HDRS        .OHMM                                               :          
HMRS        .OHMM                                               :          
NPHI        .%                                                  :          
PE          .G/C3                                               :          
RACHM       .OHMM                                               :          
RACM        .OHMM                                               :          
RHOB        .G/C3                                               :          
ROPS        .F/HR                                               :          
RPCHM       .OHMM                                               :          
RPCM        .OHMM                                               :          
RPTHM       .MINS                                               :          
RPTM        .MINS                                               :          
SP01        .MV                                                 :          
TENS        .LBS                                                :          
VSH_GR      .V/V                                                :Volume of Shale from GR
~A        DEPTH           CALI          CPCHM           CPCM            DFL           DPHI           DRHO             DT             GR        GR_NORM           GRAM           HDCN           HDRS           HMRS           NPHI             PE          RACHM           RACM           RHOB           ROPS          RPCHM           RPCM          RPTHM           RPTM           SP01           TENS         VSH_GR
# ...
      9062.0000        14.1841       2216.141        -999.25         0.5897        21.5322        -0.2124       123.3906        40.5375       82.89326         89.079       1917.699         0.5215         0.5365        41.8383        13.5515          0.456        -999.25         2.2947          38.52          0.451        -999.25        111.222        -999.25       485.9277        4292.25              1
      9062.5000        14.2736       2258.004        -999.25            0.6        23.7007        -0.2426       120.6577        37.8226        81.6417         88.189         1966.9         0.5084         0.5231        42.5286        13.9333          0.455        -999.25         2.2589         40.243          0.443        -999.25       111.7727        -999.25       486.4995       4285.641              1
      9063.0000        14.4932        2288.34        -999.25         0.5521        22.4504         -0.235       121.8906        36.2778       83.38405         89.428       2039.889         0.4902         0.5039        44.0579        14.1528          0.452        -999.25         2.2796         40.243          0.437        -999.25       112.5125        -999.25       486.6816       4276.172              1
      9063.5000        14.5095       2297.734        -999.25         0.5461        20.7842        -0.2435       120.8781        35.9033       84.02248         89.882       2119.137         0.4719         0.4842        44.6818        14.1063          0.451        -999.25         2.3071         41.693          0.435        -999.25       112.8795        -999.25       486.6563        4257.57              1
      9064.0000        14.2166       2283.078        -999.25         0.5063        17.9343        -0.2191       123.5656        35.1075        85.3978          90.86       2146.727         0.4658         0.4769        44.7487        13.6096          0.458        -999.25         2.3541         41.693          0.438        -999.25       112.8633        -999.25       486.7104       4262.859              1
      9064.5000        13.6146       2174.348        -999.25         0.5381        16.5161        -0.1975       125.4796        38.8992       83.59906        89.5809       2109.891          0.474         0.4843        46.4018        12.5274          0.467        -999.25         2.3775         24.233           0.46        -999.25       112.5583        -999.25       486.5957       4269.328              1
      9065.0000        13.6472       2131.637        -999.25         0.5622        16.1452        -0.1731       129.7217        40.6312       80.28313        87.2229       2063.816         0.4845          0.495         45.059        12.5735          0.477        -999.25         2.3836         24.233          0.469        -999.25       112.0387        -999.25       486.5854       4266.305              1
      9065.5000        14.0214       2119.164        -999.25         0.5611        15.9875        -0.1707        131.228        41.1929        80.7614         87.563       2053.875         0.4869         0.4991        46.9153        12.8919          0.481        -999.25         2.3862         27.472          0.472        -999.25       111.7834        -999.25        486.627        4262.93              1
      9066.0000        13.8831        2124.18        -999.25         0.5721        16.7509        -0.1827       125.7593        43.7206       83.00435         89.158       2070.098         0.4831         0.4985         47.478        13.0537          0.483        -999.25         2.3736         27.472          0.471        -999.25       111.6005        -999.25       486.6187       4255.578              1
      9066.5000        13.4519       2105.934        -999.25          0.559        18.1509        -0.2162       123.8437        43.8611       82.75545         88.981       2094.516         0.4774         0.4967        46.7075        13.6508          0.493        -999.25         2.3505         26.158          0.475        -999.25       111.0179        -999.25       486.3437       4265.117              1
      9067.0000        13.4112       1987.111        -999.25         0.5052        16.9042        -0.2495       121.9609        43.1589       81.99593        88.4409       2113.922         0.4731         0.4941         44.665        14.4491          0.508        -999.25         2.3711         26.158          0.503        -999.25       110.4093        -999.25       485.9478       4291.977              1
      9067.5000        13.7529       1948.896        -999.25          0.524        17.4892        -0.2891       123.1625        43.5802       82.55013         88.835       2115.914         0.4726         0.4914        44.2358         14.677          0.516        -999.25         2.3614         20.367          0.513        -999.25       109.3867        -999.25       485.7168       4307.422              1
      9068.0000        14.3061       1962.777        -999.25         0.5576        19.3537        -0.3236       123.0938        41.9886       83.93516        89.8199       2110.488         0.4738         0.4887         44.864        14.8307          0.521        -999.25         2.3307         20.367          0.509        -999.25       108.6498        -999.25       485.5269       4310.141              1
      9068.5000        14.8186       1957.316        -999.25         0.5258        21.2234        -0.3401        119.814        37.7758         87.365        92.2589       2109.164         0.4741         0.4855        45.3138        14.3676          0.523        -999.25         2.2998          29.75          0.511        -999.25       108.1451        -999.25       485.3608       4292.008              1
      9069.0000        15.3881       1952.771        -999.25         0.5469        17.3709        -0.3002       126.1108        36.6991       87.47328        92.3359       2108.766         0.4742         0.4838         45.047        14.4515          0.525        -999.25         2.3634          29.75          0.512        -999.25       107.5588        -999.25       485.3569       4266.102              1
      9069.5000        15.5915       2011.551        -999.25         0.5337        17.4269        -0.2639       131.2234        34.8735       88.69405         93.204       2093.238         0.4777          0.488        45.9282        14.2229          0.519        -999.25         2.3625         29.288          0.497        -999.25       107.0458        -999.25       485.3496       4241.133              1
      9070.0000         15.559       2057.836        -999.25         0.5664        19.6573         -0.251       129.4546         31.316       87.85438        92.6069       2057.785          0.486         0.4977         45.637        13.4877          0.516        -999.25         2.3257         29.288          0.486        -999.25        94.3444        -999.25       485.2769       4224.367              1
      9070.5000        15.4776       2029.533        -999.25         0.5713        19.0089        -0.2253       124.6375        28.9286       85.25421        90.7579       2032.447          0.492         0.5059         45.588        13.0129          0.519        -999.25         2.3363         23.574          0.493        -999.25        84.2125        -999.25       485.1274       4220.633              1
      9071.0000        15.2173       1925.432        -999.25         0.5727        18.1939        -0.1828       122.4187        28.8818       81.93124        88.3949         2032.4          0.492         0.5082        47.0031        12.6522          0.534        -999.25         2.3498         23.574          0.519        -999.25        84.2799        -999.25       485.0952           4222              1
      9071.5000        14.8349       1876.602        -999.25         0.5633        18.3261        -0.1539       122.0453        29.3031       79.11467         86.392       2041.439         0.4898         0.5067        46.1326        12.0706          0.574        -999.25         2.3476         21.609          0.533        -999.25        83.8998        -999.25       485.2524       4224.938      0.9811632
