#------------------------------------------------------------------------------
# Created by    : vladimir.rabinovich
# Created on    : 09/19/2023 17:20:06
#------------------------------------------------------------------------------
~Version Information Section
VERS.           2.0     :   CWLS log ASCII Standard - VERSION 2.0
WRAP.           NO      :   One line per depth step
~Well Information Section
#MNEM       .UNIT                                         VALUE :DESCRIPTION
#------------------------------------------------------------------------------
STRT        .FT                                             325 :START DEPTH
STOP        .FT                                           10896 :STOP DEPTH
STEP        .FT                                             0.5 :STEP      
NULL        .                                           -999.25 :NULL      
COMP        .                                      GETTY OIL CO :COMPANY   
WELL        .                               OCS G03737 ST00BP00 :WELL      
FLD         .                                           WILDCAT :FIELD     
LOC         .                                                   :LOCATION  
CNTY        .                             GALVESTON LARGE BLOCK :LOCATION  
STAT        .                                             TEXAS :STATE     
CTRY        .                                     UNITED STATES :COUNTRY   
SRVC        .                                                   :SERVICE COMPANY
DATE        .                             9/13/2023 11:10:15 AM :LOG DATE  
API         .                                    42706400540000 :API NUMBER
UWI         .                                    42706400540000 :UNIQUE WELL ID
XCOORD      .                                  1098214.74516992 :SURFACE X 
YCOORD      .                                   10573216.961531 :SURFACE Y 
LAT         .                                         29.123847 :LATITUDE  
LON         .                                        -94.698615 :LONGITUDE 
ELEV        .FT                                              99 :ELEVATION VALUE
ELEV_TYPE   .                                                KB :ELEVATION REFERENCE TYPE
~Curve Information Section
#MNEM       .UNIT                                      API CODE :CURVE DESCRIPTION
#------------------------------------------------------------------------------
DEPT        .FT                                                 :DEPTH     
ASFL        .OHMM                                               :          
DT          .US/F                                               :          
DTL         .US/F                                               :          
GR          .GAPI                                               :          
GR_1        .GAPI                                               :          
GR_NORM     .GAPI                                               :GammaRay Normalized
ILD         .OHMM                                               :          
RHOB        .G/CC                                               :          
SP          .MV                                                 :          
SP_NORM     .MV                                                 :SP Normalized
VSH_GR      .V/V                                                :Volume of Shale from GR
VSH_SP      .V/V                                                :Volume of Shale from SP
~A        DEPTH           ASFL             DT            DTL             GR           GR_1        GR_NORM            ILD           RHOB             SP        SP_NORM         VSH_GR         VSH_SP
# ...
      1022.0000         2.1675        -999.25        -999.25        -999.25         41.082         55.784         2.6438         1.8848       -64.1361        -1.4058         0.4848         0.9262
      1022.5000          2.146        -999.25        -999.25        -999.25        37.8326        52.5391         2.6528         1.8499       -64.0972        -1.3776         0.4157         0.9313
      1023.0000         2.1247        -999.25        -999.25        -999.25        35.3076        50.0186         2.6614         1.8369       -64.0581        -1.3493         0.3621         0.9365
      1023.5000          2.113        -999.25        -999.25        -999.25        33.7549        48.4704           2.67         1.8728       -64.0192        -1.3211         0.3292         0.9416
      1024.0000         2.1014        -999.25        -999.25        -999.25        32.6639        47.3839         2.6786         1.9237       -63.9803        -1.2929          0.306         0.9467
      1024.5000         2.0953        -999.25        -999.25        -999.25        32.2561        46.9806         2.6872         1.9619       -63.9469        -1.2703         0.2975         0.9509
      1025.0000         2.0934        -999.25        -999.25        -999.25        32.4645        47.1935         2.6958         2.0034         -63.92        -1.2541          0.302         0.9538
      1025.5000         2.0916        -999.25        -999.25        -999.25        32.6729        47.4064         2.6994         2.0205       -63.8932        -1.2381         0.3065         0.9567
      1026.0000         2.0908        -999.25        -999.25        -999.25         33.027         47.765         2.7025         2.0252       -63.8663        -1.2219         0.3141         0.9597
      1026.5000         2.0903        -999.25        -999.25        -999.25        33.5884         48.331         2.7056         2.0209       -63.8395        -1.2058         0.3262         0.9626
      1027.0000         2.0898        -999.25        -999.25        -999.25        34.1499         48.897         2.7087         2.0117       -63.8212        -1.1983         0.3382         0.9639
      1027.5000         2.0894        -999.25        -999.25        -999.25        34.9752        49.7268         2.7118         1.9966        -63.813        -1.2008         0.3559         0.9635
      1028.0000         2.0917        -999.25        -999.25        -999.25        35.9713        50.7274         2.7149         1.9745       -63.8049        -1.2035         0.3772          0.963
      1028.5000         2.0964        -999.25        -999.25        -999.25        36.9676        51.7282          2.718          1.937       -63.7968        -1.2061         0.3985         0.9625
      1029.0000         2.1031        -999.25        -999.25        -999.25        38.4248        53.1899         2.7211         1.9015       -63.7886        -1.2086         0.4296         0.9621
      1029.5000         2.1152        -999.25        -999.25        -999.25        40.0736        54.8432         2.7214         1.8758       -63.7805        -1.2113         0.4647         0.9616
      1030.0000         2.1272        -999.25        -999.25        -999.25        41.4897        56.2638         2.7081         1.8752       -63.7751        -1.2166          0.495         0.9606
      1030.5000         2.1401        -999.25        -999.25        -999.25        42.8235        57.6022         2.6948         1.8897       -63.7917        -1.2439         0.5235         0.9556
      1031.0000         2.1519        -999.25        -999.25        -999.25        44.4809        59.2641         2.6815         1.9296       -63.8084        -1.2714         0.5588         0.9507
      1031.5000         2.1429        -999.25        -999.25        -999.25        46.6275        61.4152         2.6683         1.9805       -63.8251        -1.2988         0.6046         0.9457
      1032.0000         2.1339        -999.25        -999.25        -999.25        48.8234        63.6156         2.6518         2.0203       -63.8417        -1.3262         0.6514         0.9407
      1032.5000         2.1249        -999.25        -999.25        -999.25        51.1116        65.9083          2.628         2.0464       -63.8584        -1.3536         0.7002         0.9357
      1033.0000         2.1173        -999.25        -999.25        -999.25        53.1711        67.9723         2.6042         2.0559       -63.8751         -1.381         0.7441         0.9307
      1033.5000         2.1099        -999.25        -999.25        -999.25        55.0914        69.8971         2.5804         2.0603       -63.8865        -1.4032          0.785         0.9267
      1034.0000         2.1026        -999.25        -999.25        -999.25        56.7992        71.6094         2.5663         2.0626       -63.8978        -1.4252         0.8215         0.9227
      1034.5000         2.1032        -999.25        -999.25        -999.25        57.6369        72.4517         2.5527          2.069        -63.909        -1.4472         0.8394         0.9187
      1035.0000         2.1129        -999.25        -999.25        -999.25         58.294        73.1133         2.5391         2.0802       -63.9203        -1.4692         0.8535         0.9147
      1035.5000         2.1272        -999.25        -999.25        -999.25        58.1817        73.0055         2.5279         2.0917       -63.9315        -1.4911         0.8512         0.9107
      1036.0000         2.1451        -999.25        -999.25        -999.25        58.0693        72.8976         2.5206         2.1051       -63.9529        -1.5233         0.8489         0.9049
      1036.5000          2.166        -999.25        -999.25        -999.25        57.9515        72.7843         2.5132         2.1119       -63.9811        -1.5622         0.8465         0.8978
      1037.0000         2.1908        -999.25        -999.25        -999.25        57.8058        72.6431         2.5058         2.1128       -64.0094        -1.6012         0.8435         0.8907
      1037.5000         2.2155        -999.25        -999.25        -999.25        57.6603        72.5021         2.4985         2.1078       -64.0377        -1.6403         0.8405         0.8836
      1038.0000         2.2351        -999.25        -999.25        -999.25        57.5146        72.3609         2.4928         2.0923       -64.0659        -1.6792         0.8375         0.8765
      1038.5000         2.2449        -999.25        -999.25        -999.25         57.369        72.2198         2.4874         2.0662       -64.0685        -1.6926         0.8345         0.8741
      1039.0000         2.2546        -999.25        -999.25        -999.25         58.051        72.9064          2.482         2.0447       -64.0645        -1.6993         0.8491         0.8729
      1039.5000         2.2508        -999.25        -999.25        -999.25        58.9502        73.8101         2.4766          2.031       -64.0604        -1.7059         0.8683         0.8716
      1040.0000         2.2399        -999.25        -999.25        -999.25         60.377        75.2414         2.4587         2.0212       -64.0565        -1.7128         0.8988         0.8704
      1040.5000         2.2082        -999.25        -999.25        -999.25        61.9932        76.8621         2.4365         2.0187       -64.0525        -1.7195         0.9332         0.8692
      1041.0000         2.1705        -999.25        -999.25        -999.25         63.568        78.4414         2.3445         2.0163       -64.0132         -1.691         0.9668         0.8744
      1041.5000         2.1329        -999.25        -999.25        -999.25        65.0006        79.8785         2.0724         2.0149       -63.9736        -1.6621         0.9974         0.8796
      1042.0000         2.0844        -999.25        -999.25        -999.25        66.2747        81.1571         1.9938         2.0148        -63.934        -1.6332              1         0.8849
