#------------------------------------------------------------------------------
# Created by    : vladimir.rabinovich
# Created on    : 09/19/2023 17:21:46
#------------------------------------------------------------------------------
~Version Information Section
VERS.           2.0     :   CWLS log ASCII Standard - VERSION 2.0
WRAP.           NO      :   One line per depth step
~Well Information Section
#MNEM       .UNIT                                         VALUE :DESCRIPTION
#------------------------------------------------------------------------------
STRT        .FT                                            2869 :START DEPTH
STOP        .FT                                           10002 :STOP DEPTH
STEP        .FT                                             0.5 :STEP      
NULL        .                                           -999.25 :NULL      
COMP        .                          SEAGULL ENERGY E & P INC :COMPANY   
WELL        .                               OCS G06145 ST00BP00 :WELL      
FLD         .                                           WILDCAT :FIELD     
LOC         .                                                   :LOCATION  
CNTY        .                           HIGH ISLAND LARGE BLOCK :LOCATION  
STAT        .                                             TEXAS :STATE     
CTRY        .                                     UNITED STATES :COUNTRY   
SRVC        .                                                   :SERVICE COMPANY
DATE        .                             9/13/2023 11:19:59 AM :LOG DATE  
API         .                                    42708402850000 :API NUMBER
UWI         .                                    42708402850000 :UNIQUE WELL ID
XCOORD      .                                  1277324.30822617 :SURFACE X 
YCOORD      .                                   10672684.104362 :SURFACE Y 
LAT         .                                         29.403374 :LATITUDE  
LON         .                                        -94.140646 :LONGITUDE 
ELEV        .FT                                              88 :ELEVATION VALUE
ELEV_TYPE   .                                                KB :ELEVATION REFERENCE TYPE
~Curve Information Section
#MNEM       .UNIT                                      API CODE :CURVE DESCRIPTION
#------------------------------------------------------------------------------
DEPT        .FT                                                 :DEPTH     
CALI        .IN                                                 :          
DPHI        .%                                                  :          
DRHO        .G/C3                                               :          
GR          .GAPI                                               :          
GR_NORM     .GAPI                                               :GammaRay Normalized
ILD         .OHMM                                               :          
ILM         .OHMM                                               :          
NPHI        .%                                                  :          
SFL         .OHMM                                               :          
SP          .MV                                                 :          
SP_NORM     .MV                                                 :SP Normalized
VSH_GR      .V/V                                                :Volume of Shale from GR
VSH_SP      .V/V                                                :Volume of Shale from SP
~A        DEPTH           CALI           DPHI           DRHO             GR        GR_NORM            ILD            ILM           NPHI            SFL             SP        SP_NORM         VSH_GR         VSH_SP
# ...
      4864.0000        13.3551        25.0402         0.0089        69.0503       75.26188         0.6408         0.6382        43.6663         0.7092        19.4488      0.7164339      0.8991889              1
      4864.5000        13.3727        24.9064          0.008        70.2272       76.56955         0.5939         0.6081        41.9397         0.6089        17.4506      -1.149065      0.9270117      0.9835848
      4865.0000        13.3642        24.6046         0.0065        71.4939       77.97698         0.5592         0.5936         39.328         0.5657        14.0206      -4.368155       0.956957      0.9375978
      4865.5000        13.3782        24.0707         0.0052        71.5997       78.09454         0.5311         0.5882        36.0274         0.5682         10.368      -7.797689      0.9594584      0.8886045
      4866.0000         13.261        23.3994         0.0043        70.4265       76.79099         0.5128         0.5867        33.3932         0.6379         7.4177      -10.56328      0.9317231      0.8490959
      4866.5000        13.0278         22.593          0.004        70.9867       77.41344         0.5057         0.5842        31.5977         0.7414         6.8081      -11.11603      0.9449667      0.8411996
      4867.0000        12.8733        21.6091         0.0049        72.5336        79.1322         0.5065         0.5782         30.716         0.7952         7.6897      -10.25903      0.9815362      0.8534424
      4867.5000        13.0444        20.5414         0.0065        72.8992       79.53843         0.5106         0.5697        31.1604         0.7375         8.1077      -9.840306      0.9901794      0.8594242
      4868.0000        13.3545        20.0028         0.0071        72.1152       78.80058         0.5174         0.5634         31.585         0.7094         6.3271      -11.50009      0.9744805       0.835713
      4868.5000        13.4792        21.2018         0.0057         70.931       77.61639         0.5241         0.5581        30.0163         0.7622         2.3555       -15.2312      0.9492848      0.7824115
      4869.0000        13.2831        22.4133          0.004        70.0302       76.71558         0.5305         0.5549         28.095         0.8588         0.7882      -16.68934      0.9301188      0.7615809
      4869.5000        13.1472          23.11          0.003        70.4515       77.13689          0.538         0.5517        27.5199         0.9226         2.2689      -15.26596      0.9390827      0.7819149
      4870.0000        13.4945        23.2137         0.0027        72.0216       78.70699         0.5437         0.5484        31.5408         0.8804         8.7482      -9.117014      0.9724891      0.8697569
      4870.5000        13.7206        23.3807         0.0038        73.6714       80.35679         0.5515         0.5459        37.1446         0.7645         14.483      -3.671905              1      0.9475442
      4871.0000        13.7338        23.6362         0.0057         74.402       81.08739         0.5614         0.5426        40.8315         0.6658        17.7313     -0.5774783              1      0.9917503
      4871.5000        13.4784        23.8502          0.008        73.4878       80.17319         0.5699         0.5367        43.1542         0.5987        18.4908      0.1640935              1              1
      4872.0000        13.3014        23.8548         0.0108        72.6017       79.28709         0.5712         0.5291        44.6891         0.5302        17.9916     -0.2842853      0.9848318      0.9959388
      4872.5000        13.2294        23.7403         0.0138        72.5352       79.22059         0.5651           0.52        45.0128         0.4906        16.2908       -1.86863      0.9834168      0.9733053
      4873.0000        13.1657        23.8644         0.0168        72.8126       79.49799         0.5474         0.5081        44.9748         0.4706        12.5071      -5.422101      0.9893188      0.9225414
      4873.5000        12.9272        25.2077         0.0182        73.2355       79.92088         0.5069         0.4956        45.4432         0.4496         7.4276      -10.20059      0.9983166      0.8542773
      4874.0000        12.7224        27.6637         0.0139        70.5322       77.21759         0.4642         0.4789         45.649         0.4122        -0.9312      -18.07927      0.9407998      0.7417248
      4874.5000         12.745        30.0103         0.0077        59.8416       66.52699         0.4077         0.4566        42.6136         0.3794       -10.0268      -26.65449      0.7133401      0.6192216
      4875.0000        13.0637        31.6157         0.0018        46.6654       53.35079         0.3573         0.4307        38.8577         0.3829       -22.5204      -38.44211      0.4329956       0.450827
      4875.5000        13.6355        32.8257        -0.0033        33.9418       40.62718         0.2948         0.3958        34.7784         0.4825       -33.6093      -48.90176      0.1622805      0.3014035
      4876.0000        14.0494        33.3422        -0.0049        23.9856       30.67098         0.2483         0.3438        31.5663         0.6219       -41.3399      -56.18655              0       0.197335
      4876.5000        14.2389        33.4419        -0.0045        19.9496       26.63498         0.2035         0.2969        30.4745          0.741       -45.2349      -59.84524              0       0.145068
      4877.0000        14.2563        33.1368        -0.0041        19.5168       26.20219         0.1716         0.2616        29.4749         0.8088       -48.0529      -62.48576              0      0.1073463
      4877.5000        14.2594        32.6523        -0.0033        20.2751       26.96049         0.1505         0.2429        28.2657         0.8353       -49.7357      -64.05308              0     0.08495604
      4878.0000        14.2933        32.0754        -0.0028        21.8202       28.50559         0.1376         0.2343        27.5188         0.8459       -50.9623      -65.18913              0     0.06872679
      4878.5000        14.3935        31.3911        -0.0026        23.2715       29.95689         0.1327         0.2292        27.0111         0.8491         -51.43      -65.60773              0     0.06274664
      4879.0000        14.4896        30.7774        -0.0028        24.1279       30.81329         0.1323         0.2289        26.5222         0.8439       -51.7222      -65.86041              0     0.05913696
      4879.5000        14.5757        30.3639        -0.0034         23.673       30.35839         0.1343          0.231        25.9408         0.8302       -52.0594      -66.15564              0     0.05491943
      4880.0000        14.6314        30.4027        -0.0043        22.4879       29.17329         0.1406         0.2361        25.6995         0.8282       -52.3627      -66.41882              0     0.05115978
      4880.5000        14.5736        30.6677        -0.0049        21.7599       28.44529         0.1499         0.2435        26.4791         0.8427       -52.5552      -66.57725              0     0.04889646
      4881.0000         14.483        30.8408        -0.0054        21.0991       27.78449         0.1628         0.2497        27.7835         0.8639       -52.7138      -66.70363              0     0.04709102
      4881.5000        14.4381        30.7787        -0.0056        20.9475       27.63288         0.1777         0.2564        29.0691         0.8814       -52.9193      -66.87435              0     0.04465212
      4882.0000        14.5576         30.654        -0.0055        21.7552       28.44059         0.1931         0.2665        29.2462         0.8702       -53.1658      -67.08383              0     0.04165955
      4882.5000        14.8358        30.5374        -0.0053        22.6771       29.36249          0.208         0.2783        28.7299         0.8531       -53.4786      -67.35599              0      0.0377716
