#------------------------------------------------------------------------------
# Created by    : vladimir.rabinovich
# Created on    : 09/19/2023 17:21:46
#------------------------------------------------------------------------------
~Version Information Section
VERS.           2.0     :   CWLS log ASCII Standard - VERSION 2.0
WRAP.           NO      :   One line per depth step
~Well Information Section
#MNEM       .UNIT                                         VALUE :DESCRIPTION
#------------------------------------------------------------------------------
STRT        .FT                                            2869 :START DEPTH
STOP        .FT                                           10002 :STOP DEPTH
STEP        .FT                                             0.5 :STEP      
NULL        .                                           -999.25 :NULL      
COMP        .                          SEAGULL ENERGY E & P INC :COMPANY   
WELL        .                               OCS G06145 ST00BP00 :WELL      
FLD         .                                           WILDCAT :FIELD     
LOC         .                                                   :LOCATION  
CNTY        .                           HIGH ISLAND LARGE BLOCK :LOCATION  
STAT        .                                             TEXAS :STATE     
CTRY        .                                     UNITED STATES :COUNTRY   
SRVC        .                                                   :SERVICE COMPANY
DATE        .                             9/13/2023 11:19:59 AM :LOG DATE  
API         .                                    42708402850000 :API NUMBER
UWI         .                                    42708402850000 :UNIQUE WELL ID
XCOORD      .                                  1277324.30822617 :SURFACE X 
YCOORD      .                                   10672684.104362 :SURFACE Y 
LAT         .                                         29.403374 :LATITUDE  
LON         .                                        -94.140646 :LONGITUDE 
ELEV        .FT                                              88 :ELEVATION VALUE
ELEV_TYPE   .                                                KB :ELEVATION REFERENCE TYPE
~Curve Information Section
#MNEM       .UNIT                                      API CODE :CURVE DESCRIPTION
#------------------------------------------------------------------------------
DEPT        .FT                                                 :DEPTH     
CALI        .IN                                                 :          
DPHI        .%                                                  :          
DRHO        .G/C3                                               :          
GR          .GAPI                                               :          
GR_NORM     .GAPI                                               :GammaRay Normalized
ILD         .OHMM                                               :          
ILM         .OHMM                                               :          
NPHI        .%                                                  :          
SFL         .OHMM                                               :          
SP          .MV                                                 :          
SP_NORM     .MV                                                 :SP Normalized
VSH_GR      .V/V                                                :Volume of Shale from GR
VSH_SP      .V/V                                                :Volume of Shale from SP
~A        DEPTH           CALI           DPHI           DRHO             GR        GR_NORM            ILD            ILM           NPHI            SFL             SP        SP_NORM         VSH_GR         VSH_SP
# ...
      4389.0000        12.4064        28.0322         0.0035        63.0986       68.64887         0.4105         0.4572        42.9326         0.4086       -38.7784      -4.632405      0.7584866      0.9338228
      4389.5000        12.2202        26.0195         0.0037        57.7591        62.7161         0.4249         0.4752        38.8728         0.4357       -44.3639      -11.02606      0.6322574      0.8424849
      4390.0000        12.1711        24.4306         0.0018        54.0904       58.63976         0.4353         0.4952        34.3757         0.5864       -50.7919      -18.38688      0.5455269      0.7373303
      4390.5000        12.3548        23.7497        -0.0013        53.9538       58.48799         0.4429         0.5143        32.9211         0.7743       -57.4429      -26.00369      0.5422976      0.6285187
      4391.0000        12.5715        25.3831        -0.0067        54.5169       59.11365         0.4522         0.5267        33.3994         0.8924       -63.3307      -32.74437      0.5556096      0.5322232
      4391.5000        12.7429        30.5585        -0.0153        53.8822       58.40843         0.4639         0.5368         35.433         0.9046       -68.4999      -38.66014      0.5406048      0.4477123
      4392.0000        12.9256        35.8598        -0.0251        49.8604       53.93976         0.4732         0.5467         38.768         0.9168       -71.8192      -42.45229      0.4455269      0.3935387
      4392.5000        13.0424        44.7731        -0.0314        46.4835       50.18765         0.4762          0.554        41.5354         1.0144       -73.4875      -44.34917      0.3656947      0.3664404
      4393.0000        13.2978        47.7532        -0.0309        45.8028       49.43132         0.4472         0.5531        42.1442         1.1016       -73.4708      -44.31173      0.3496026      0.3669752
      4393.5000        13.6737        44.1561         -0.021        46.5811        50.2961         0.3972         0.5217        40.9169         1.1038       -72.4065      -43.07169      0.3680021      0.3846901
      4394.0000        13.1721        38.3127        -0.0137         47.951       51.81821         0.3513         0.4635        38.4535         0.9302         -71.13      -41.58805      0.4003874       0.405885
      4394.5000        12.1442        37.4771        -0.0102        46.2325       49.90876         0.3121         0.4038        37.4973         0.6775       -70.7772      -41.16478      0.3597609      0.4119317
      4395.0000        12.4203        38.4999        -0.0101        43.6018       46.98576         0.2853         0.3543        38.5119         0.5886       -70.3981      -40.71133      0.2975694      0.4184096
      4395.5000        13.2207        36.7253        -0.0051        42.7655       46.05654         0.2724         0.3334        38.8832         0.5516         -66.79      -36.55111      0.2777987      0.4778412
      4396.0000        13.3711        30.1812         0.0098        46.2251       49.90054         0.2637         0.3253        37.0818         0.5167       -60.9469      -29.82521       0.359586      0.5739256
      4396.5000        12.7816        25.1854         0.0194        52.4289       56.79365          0.259         0.3288        34.7995         0.4963       -56.1767      -24.33094      0.5062479      0.6524151
      4397.0000        12.4077          24.47         0.0196        56.7778       61.62577         0.2593         0.3452         33.797         0.5012       -53.4942      -21.23328      0.6090589      0.6966674
      4397.5000        12.4949        26.7638         0.0144        57.4097       62.32787         0.2706         0.3625        35.3566         0.5427       -52.8066      -20.42567      0.6239973      0.7082047
      4398.0000        12.7541        28.9951         0.0083        54.5178       59.11465         0.2931         0.3836        37.4202          0.572       -54.4916      -22.34172      0.5556309      0.6808326
      4398.5000        12.9553        31.2534          0.002        51.6761       55.95721         0.3207         0.4043        39.1768         0.5819       -57.2992      -25.54646      0.4884512      0.6350506
      4399.0000        12.9561        34.0957        -0.0053        49.6987       53.76009         0.3452         0.4254         39.556         0.6029        -60.367      -29.04991      0.4417041      0.5850013
      4399.5000        12.9315         38.735        -0.0148         48.446       52.36821         0.3582         0.4396        39.6448         0.6554       -63.0297      -32.08831      0.4120895      0.5415956
      4400.0000        13.0482        43.9105        -0.0282        47.3644       51.16643         0.3674         0.4443        42.0446         0.6877       -64.6571      -33.93822      0.3865197      0.5151682
      4400.5000        13.4088        46.7588        -0.0355        47.1481        50.9261         0.3758         0.4499        44.8569         0.7101       -64.2166      -33.41428      0.3814063      0.5226531
      4401.0000        13.5364        44.5125        -0.0354        49.5389       53.58254         0.3826         0.4568        46.5746          0.721       -61.2616       -30.0038      0.4379264      0.5713742
      4401.5000        12.8663        39.6036        -0.0296        52.4512       56.81843         0.3882         0.4631        46.2201         0.7165       -57.4578      -25.61893      0.5067751      0.6340153
      4402.0000        12.4651        35.6037        -0.0215        53.6648       58.16687         0.3927         0.4689        44.9887          0.702       -52.9998      -20.48306      0.5354653      0.7073848
      4402.5000         12.479        36.0604         -0.017        51.4773       55.73632          0.396         0.4742          46.35          0.649       -48.9433      -15.80809      0.4837514      0.7741701
      4403.0000        12.8991        38.6124        -0.0191        49.5825       53.63099          0.399         0.4779        48.2534         0.6283       -45.8334      -12.21979      0.4389571      0.8254315
      4403.5000        13.3159        38.0709        -0.0139        51.3249       55.56699         0.4051         0.4808        48.6833         0.5922        -43.369      -9.372493      0.4801486      0.8661072
      4404.0000        12.9823        34.8505        -0.0053        54.7223       59.34187         0.4147         0.4855        48.8173         0.5279       -41.3283      -7.011588      0.5604654      0.8998345
      4404.5000         12.394        32.7599         0.0025        58.1862       63.19065         0.4316         0.4963        48.5865         0.4868       -40.9445      -6.552735      0.6423542      0.9063895
      4405.0000        11.8508        30.6169         0.0102        57.2183       62.11521         0.4584         0.5175        46.2496         0.4709        -43.898      -9.924961      0.6194725      0.8582149
      4405.5000        11.5213        26.5092           0.02        54.4844       59.07755         0.4888         0.5727        36.0155         0.5332       -49.1069       -15.8863      0.5548414      0.7730529
      4406.0000        11.0658        22.4329         0.0288        50.1317        54.2412         0.5042         0.6427        27.2999         0.8724       -55.2623      -22.93418      0.4519405      0.6723688
      4406.5000        10.8698        19.2192         0.0298        46.3236       50.00999         0.4933         0.6948        24.2974         1.8254       -60.0374      -28.39754      0.3619146      0.5943209
      4407.0000        10.8966         19.375         0.0229        45.1281       48.68166         0.4752         0.6904        23.2858           2.77       -61.1823      -29.69357      0.3336523      0.5758062
      4407.5000        11.2155        23.5201         0.0155        47.4257       51.23454         0.4541         0.6202         26.635          3.016       -60.7722      -29.20453       0.387969      0.5827925
