#------------------------------------------------------------------------------
# Created by    : vladimir.rabinovich
# Created on    : 09/19/2023 17:21:31
#------------------------------------------------------------------------------
~Version Information Section
VERS.           2.0     :   CWLS log ASCII Standard - VERSION 2.0
WRAP.           NO      :   One line per depth step
~Well Information Section
#MNEM       .UNIT                                         VALUE :DESCRIPTION
#------------------------------------------------------------------------------
STRT        .FT                                              40 :START DEPTH
STOP        .FT                                           13401 :STOP DEPTH
STEP        .FT                                             0.5 :STEP      
NULL        .                                           -999.25 :NULL      
COMP        .                                        TEXACO USA :COMPANY   
WELL        .                               OCS G01759 ST00BP00 :WELL      
FLD         .                                           WILDCAT :FIELD     
LOC         .                                                   :LOCATION  
CNTY        .                             GALVESTON LARGE BLOCK :LOCATION  
STAT        .                                             TEXAS :STATE     
CTRY        .                                     UNITED STATES :COUNTRY   
SRVC        .                                                   :SERVICE COMPANY
DATE        .                             9/13/2023 11:19:24 AM :LOG DATE  
API         .                                    42706001440000 :API NUMBER
UWI         .                                    42706001440000 :UNIQUE WELL ID
XCOORD      .                                   1131482.4965331 :SURFACE X 
YCOORD      .                                  10562344.6824913 :SURFACE Y 
LAT         .                                         29.095227 :LATITUDE  
LON         .                                        -94.593967 :LONGITUDE 
ELEV        .FT                                              83 :ELEVATION VALUE
ELEV_TYPE   .                                                KB :ELEVATION REFERENCE TYPE
~Curve Information Section
#MNEM       .UNIT                                      API CODE :CURVE DESCRIPTION
#------------------------------------------------------------------------------
DEPT        .FT                                                 :DEPTH     
CALI        .IN                                                 :          
DT          .US/F                                               :          
GR          .GAPI                                               :          
GR_NORM     .GAPI                                               :GammaRay Normalized
RHOB        .G/C3                                               :          
SP          .MV                                                 :          
SP_NORM     .MV                                                 :SP Normalized
VSH_GR      .V/V                                                :Volume of Shale from GR
VSH_SP      .V/V                                                :Volume of Shale from SP
~A        DEPTH           CALI             DT             GR        GR_NORM           RHOB             SP        SP_NORM         VSH_GR         VSH_SP
# ...
      5711.0000         12.116         109.26        48.4655       72.69839         2.2842       -26.3217      -1.425009      0.8446467      0.9429997
      5711.5000        12.6305        113.114        46.9761       70.17201         2.2773       -27.1568      -2.258354      0.7908939      0.9096658
      5712.0000         13.075       122.5913        46.2501       68.93847         2.2911       -26.7365      -1.836298      0.7646483      0.9265481
      5712.5000         13.288       126.2561        45.6413       67.90339         2.3136       -25.8806     -0.9786415      0.7426253      0.9608544
      5713.0000        13.1073       123.7523        48.2408       72.30157         2.3246       -25.5405     -0.6367855      0.8362037      0.9745286
      5713.5000        12.7328       119.8281        49.3812        74.2288         2.3319        -26.366      -1.460529      0.8772085      0.9415788
      5714.0000        12.5203       115.6251        48.5917       72.88771         2.3434       -27.2135      -2.306273      0.8486747      0.9077491
      5714.5000        12.3648       116.5304        48.2311       72.27295         2.3269       -28.1341      -3.225117      0.8355947      0.8709953
      5715.0000        12.3972       116.2922        48.1364       72.10851         2.3225        -28.531      -3.620262       0.832096      0.8551895
      5715.5000        12.5143       118.5337        48.7288        73.1077          2.297       -28.0091      -3.096605      0.8533552      0.8761358
      5716.0000        12.3744       121.0885        48.4305       72.59844         2.3052       -27.3134      -2.399149      0.8425201       0.904034
      5716.5000        12.5626       119.6008        48.4869        72.6899         2.3222       -26.5644      -1.648392       0.844466      0.9340643
      5717.0000        12.0194       119.5626         48.197       72.19487          2.333       -27.8675      -2.949738      0.8339334      0.8820105
      5717.5000         11.743       117.4526        48.2131       72.21805          2.332       -29.5913       -4.67178      0.8344266      0.8131288
      5718.0000        11.7615       115.9814        50.4152       75.94327         2.3262       -30.3454      -5.424124      0.9136866       0.783035
      5718.5000        11.8403       115.5403         50.333           75.8         2.3052        -29.467      -4.543966      0.9106384      0.8182414
      5719.0000        11.9328       116.7332        48.4384       72.58742         2.2933       -28.9254      -4.000612      0.8422855      0.8399755
      5719.5000        11.8794       118.8998        47.9461       71.74963         2.2863       -29.9691      -5.042557      0.8244601      0.7982977
      5720.0000        11.8162       120.7516        47.2298        70.5325         2.2858       -30.6929      -5.764599      0.7985638       0.769416
      5720.5000        11.9187       117.1327        44.5251         65.948         2.3093       -29.1873      -4.257242      0.7010213      0.8297103
      5721.0000        11.9371        118.301        40.7733       59.59021         2.3452       -28.0468      -3.114988      0.5657492      0.8754005
      5721.5000        11.9999       118.1599        38.0409       54.95881         2.3132       -27.5501      -2.616531      0.4672086      0.8953388
      5722.0000        12.0749       117.3181        35.2239       50.18413         2.2389       -27.7336      -2.798275      0.3656197       0.888069
      5722.5000        11.7737       118.2659         32.634       45.79403         2.1884       -29.2733      -4.336218      0.2722135      0.8265513
      5723.0000        11.8248       119.2343        30.5202       42.21023         2.1701       -31.6332      -6.694363      0.1959623      0.7322255
      5723.5000        11.9981       115.5669        32.3828        45.3605         2.1863       -34.0982      -9.157608      0.2629893      0.6336957
      5724.0000        11.7483        109.769        36.3787       52.12352         2.2048       -35.6129      -10.67055      0.4068833      0.5731781
      5724.5000         11.856       106.8362         39.674       57.70007         2.2152       -36.3828       -11.4387      0.5255334      0.5424522
      5725.0000        11.9828       105.7739         42.189       61.95517         2.2251       -37.7014      -12.75554      0.6160675      0.4897784
      5725.5000        11.7076       106.3151        43.5286       64.21971         2.2459       -40.6804      -15.73278      0.6642492      0.3706887
      5726.0000        11.5668       112.6389        41.8677       61.40291         2.2616       -43.6978      -18.74842      0.6043172       0.250063
      5726.5000        11.4916       114.1344        40.9747       59.88654         2.2614       -46.9996      -22.04847      0.5720541      0.1180612
      5727.0000        11.4966       112.2959        42.7712       62.92485         2.2727       -45.9859      -21.03301      0.6366988      0.1586794
      5727.5000        11.5021       111.9578        46.1462       68.63638         2.2853       -44.0851      -19.13046      0.7582207      0.2347818
      5728.0000        11.5067       113.9114        47.4098       70.77224         2.3072       -41.8735       -16.9171      0.8036647       0.323316
      5728.5000        11.5023       115.7609        48.1068       71.94854         2.2938       -39.7719      -14.81375      0.8286923      0.4074502
      5729.0000        11.5001       117.6321        48.8055       73.12772         2.2883       -38.0145      -13.05459      0.8537812      0.4778165
      5729.5000        11.5094       118.0415        49.7158       74.66525         2.2853       -37.0911      -12.12943      0.8864948      0.5148228
      5730.0000        11.5188       118.4059        50.9672       76.78046         2.2872       -37.7994      -12.83598      0.9314991       0.486561
      5730.5000         11.532        118.478        50.4248       75.85783         2.2682       -38.2952      -13.33002      0.9118686      0.4667992
      5731.0000        11.5575       117.4878        46.1559       68.62432         2.2681       -37.3762      -12.40927      0.7579643      0.5036294
      5731.5000        11.5742       118.9507        44.1135       65.16143          2.281       -35.8268      -10.85811      0.6842858      0.5656757
      5732.0000        11.5767       119.0718        43.5612       64.22204         2.2711       -34.2393      -9.268852      0.6642987      0.6292459
      5732.5000        11.5966       119.5469        41.5862       60.87329         2.2522       -32.7031      -7.730894      0.5930487      0.6907642
      5733.0000        11.6217       121.3079        40.5588       59.12933         2.2436       -31.4455      -6.471539      0.5559431      0.7411385
      5733.5000        11.6487       121.5321        39.7368       57.73319         2.2403       -30.4855      -5.509783      0.5262381      0.7796087
      5734.0000        11.6743       119.6912        40.3492       58.76622         2.2325       -29.8391      -4.861628      0.5482175      0.8055349
      5734.5000        11.6416       118.4756        42.0754       61.68549         2.2471       -31.5854      -6.606171      0.6103295      0.7357532
      5735.0000        11.6186        117.326        43.0212       63.28314         2.2923       -33.0913      -8.110315      0.6443222      0.6755874
      5735.5000        11.6425       116.7291        43.8391       64.66418         2.3158       -33.2192      -8.236458      0.6737061      0.6705417
      5736.0000        11.6528       116.0511         45.709       67.82681         2.3175       -33.8645      -8.880001       0.740996      0.6447999
      5736.5000         11.643       115.5587        48.9705       73.34612         2.2898        -35.094      -10.10775      0.8584281      0.5956901
      5737.0000        11.6391       115.2112        45.3079       67.13941         2.2328       -36.1544      -11.16639      0.7263705      0.5533444
