#------------------------------------------------------------------------------
# Created by    : vladimir.rabinovich
# Created on    : 09/19/2023 17:20:04
#------------------------------------------------------------------------------
~Version Information Section
VERS.           2.0     :   CWLS log ASCII Standard - VERSION 2.0
WRAP.           NO      :   One line per depth step
~Well Information Section
#MNEM       .UNIT                                         VALUE :DESCRIPTION
#------------------------------------------------------------------------------
STRT        .FT                                             627 :START DEPTH
STOP        .FT                                            8077 :STOP DEPTH
STEP        .FT                                             0.5 :STEP      
NULL        .                                           -999.25 :NULL      
COMP        .                                    MOBIL OIL CORP :COMPANY   
WELL        .                               OCS G02338 ST00BP00 :WELL      
FLD         .                                           WILDCAT :FIELD     
LOC         .                                                   :LOCATION  
CNTY        .                             GALVESTON LARGE BLOCK :LOCATION  
STAT        .                                             TEXAS :STATE     
CTRY        .                                     UNITED STATES :COUNTRY   
SRVC        .                                                   :SERVICE COMPANY
DATE        .                             9/13/2023 11:18:53 AM :LOG DATE  
API         .                                    42706400220000 :API NUMBER
UWI         .                                    42706400220000 :UNIQUE WELL ID
XCOORD      .                                  948421.875172236 :SURFACE X 
YCOORD      .                                   10402667.405867 :SURFACE Y 
LAT         .                                         28.648189 :LATITUDE  
LON         .                                        -95.157922 :LONGITUDE 
ELEV        .FT                                              76 :ELEVATION VALUE
ELEV_TYPE   .                                                KB :ELEVATION REFERENCE TYPE
~Curve Information Section
#MNEM       .UNIT                                      API CODE :CURVE DESCRIPTION
#------------------------------------------------------------------------------
DEPT        .FT                                                 :DEPTH     
ASFL        .OHMM                                               :          
CALI        .IN                                                 :          
CILD        .MMHO                                               :          
DT          .US/F                                               :          
DT_1        .US/F                                               :          
GR          .GAPI                                               :          
GR_NORM     .GAPI                                               :GammaRay Normalized
ILD         .OHMM                                               :          
SFL         .OHMM                                               :          
SP          .MV                                                 :          
SP_NORM     .MV                                                 :SP Normalized
VSH_GR      .V/V                                                :Volume of Shale from GR
VSH_SP      .V/V                                                :Volume of Shale from SP
~A        DEPTH           ASFL           CALI           CILD             DT           DT_1             GR        GR_NORM            ILD            SFL             SP        SP_NORM         VSH_GR         VSH_SP
# ...
      2147.0000         1.0404        -999.25       930.9541        -999.25       154.7158        60.7391       80.19317         0.9738         0.9871       -75.1876      -6.096687              1      0.8634437
      2147.5000         1.0303        -999.25       940.1816        -999.25       153.1821         59.871       79.06908         0.9659         1.0353        -73.272      -4.181091      0.9801931      0.9272969
      2148.0000         1.0254        -999.25       949.4082        -999.25       152.3428        58.9597       77.88966          0.965          1.051       -70.8496       -1.75869       0.955099              1
      2148.5000         1.0209        -999.25       958.6357        -999.25       151.1184        59.7236       78.85588         0.9641         1.0251       -71.6368      -2.545891       0.975657      0.9818037
      2149.0000         1.0216        -999.25       965.3672        -999.25       149.9465        61.1088       80.61787         0.9632         1.0058       -72.0306       -2.93969              1       0.968677
      2149.5000         1.0265        -999.25       968.5391        -999.25       151.0867         61.085       80.57517         0.9705         0.9972       -71.7402      -2.649284              1      0.9783572
      2150.0000         1.0314        -999.25        971.709        -999.25       151.9634        60.0627       79.25358         0.9784         1.0018       -71.8771      -2.786186      0.9841187      0.9737938
      2150.5000         1.0363        -999.25       973.0225        -999.25          152.7        59.2501       78.20058         0.9864          1.012       -72.2964       -3.20549      0.9617146       0.959817
      2151.0000         1.0432        -999.25       973.9463        -999.25       152.9268        59.0315        77.9084         0.9897         1.0249       -71.8373      -2.746391      0.9554979      0.9751203
      2151.5000          1.051        -999.25       974.8701        -999.25       152.6978        59.1486       78.04617         0.9921         0.9739       -72.4889      -3.397987       0.958429      0.9534004
      2152.0000         1.0588        -999.25       975.7939        -999.25       151.8523          58.96        77.7924         0.9945         1.0142       -73.9393      -4.848389      0.9530299      0.9050537
      2152.5000         1.0666        -999.25       976.7178        -999.25       151.0071        58.2806          76.91         0.9931         1.0926       -75.4917      -6.400787      0.9342554      0.8533071
      2153.0000         1.0743        -999.25       977.6416        -999.25        151.665        57.6119       76.04131         0.9879         1.0886       -74.3468       -5.25589      0.9157726      0.8914703
      2153.5000         1.0821        -999.25       978.5654        -999.25       152.7427        57.9052       76.40477         0.9829         1.0431       -72.7096       -3.61869      0.9235057      0.9460437
      2154.0000         1.0893        -999.25       979.0713        -999.25       153.8713         58.848       77.60012         0.9781         1.0512       -72.0779      -2.986992      0.9489387      0.9671003
      2154.5000         1.0932        -999.25       978.3311        -999.25       154.9441        59.5457       78.48154         0.9737         1.0561       -71.0713      -1.980385      0.9676923              1
      2155.0000          1.095        -999.25       977.5908        -999.25       155.9905        59.3682         78.242         0.9692         0.9881       -70.8445      -1.753586      0.9625958              1
      2155.5000         1.0845        -999.25       976.8496        -999.25       155.6843        59.4829        78.3767         0.9642         0.9483       -71.7813      -2.690392      0.9654617      0.9769869
      2156.0000         1.0739        -999.25       976.1094        -999.25       155.8079        59.8712       78.86184         0.9587         0.9267       -73.0371       -3.94619      0.9757838       0.935127
      2156.5000          1.065        -999.25       975.3682        -999.25       156.2261        60.2592        79.3466         0.9624         0.9355       -73.4999      -4.408989      0.9860978      0.9197004
      2157.0000          1.056        -999.25       974.6279        -999.25       155.5566        60.8356       80.07265         0.9694         0.9515        -73.101      -4.010086              1      0.9329971
      2157.5000          1.047        -999.25       973.8877        -999.25       155.6179        61.0302       80.30968         0.9858         0.9623       -72.5281      -3.437187              1      0.9520938
      2158.0000         1.0381        -999.25       971.6973        -999.25       155.4673        60.6807       79.84984         1.0026          0.956        -71.949      -2.858086      0.9968051      0.9713972
      2158.5000         1.0389        -999.25        967.793        -999.25       154.5083        60.0211        78.9928         1.0211         0.9743       -71.1749      -2.083984      0.9785702      0.9972005
      2159.0000         1.0489        -999.25       963.8896        -999.25       153.7229        59.8933       78.81691         1.0411          0.997       -71.5923      -2.501389      0.9748279       0.983287
      2159.5000         1.0589        -999.25       959.9854        -999.25       152.9888        60.1024       79.07253         1.0609         1.0153       -72.8513      -3.760391      0.9802666      0.9413203
      2160.0000         1.0689        -999.25       955.8418        -999.25       152.3877         60.457        79.5145         1.0779         1.0226       -73.8171      -4.726189      0.9896701      0.9091271
      2160.5000         1.0789        -999.25       946.6426        -999.25       152.3977        60.3081       79.31157         1.0952         1.0169       -72.9525      -3.861588      0.9853525      0.9379471
      2161.0000         1.0889        -999.25       937.4434        -999.25        153.501        60.0403       78.95637         1.1053         1.0094       -72.1021      -3.011185      0.9777951      0.9662939
      2161.5000         1.0982        -999.25       928.2471        -999.25       154.4836        59.7248       78.54006          1.115         0.9963       -72.8406      -3.749687      0.9689375      0.9416771
      2162.0000          1.104        -999.25       919.0488        -999.25       154.2178        59.0834       77.70634         1.1134         0.9823       -72.9491      -3.858185      0.9511988      0.9380605
      2162.5000         1.1097        -999.25       909.8496        -999.25        153.207        58.0493       76.36963         1.1114         0.9682       -72.9946      -3.903687       0.922758      0.9365438
      2163.0000         1.1155        -999.25       900.6191        -999.25       151.9167        56.1827       73.96664         1.1129         1.0245       -73.2294      -4.138489      0.8716307       0.928717
      2163.5000         1.1212        -999.25       891.2578        -999.25       150.2444        53.9521       71.09743         1.1336         1.1143       -73.3641      -4.273186      0.8105837      0.9242271
      2164.0000         1.1308        -999.25       881.8955        -999.25        147.886        51.3512       67.75394         1.1635         1.1128       -73.7224      -4.631485      0.7394454      0.9122838
      2164.5000         1.1444        -999.25       872.5342        -999.25       143.4695        49.0367       64.77729          1.212         1.0957       -75.2581      -6.167191      0.6761125      0.8610936
      2165.0000           1.16        -999.25       863.1729        -999.25       138.4988        46.5736       61.61028         1.2699         1.1312       -77.8182      -8.727287      0.6087294      0.7757571
      2165.5000         1.1837        -999.25       853.8115        -999.25       133.5281        42.8793       56.86633         1.2828         1.1955       -80.9984      -11.90749      0.5077943      0.6697505
