#------------------------------------------------------------------------------
# Created by    : vladimir.rabinovich
# Created on    : 09/19/2023 17:22:10
#------------------------------------------------------------------------------
~Version Information Section
VERS.           2.0     :   CWLS log ASCII Standard - VERSION 2.0
WRAP.           NO      :   One line per depth step
~Well Information Section
#MNEM       .UNIT                                         VALUE :DESCRIPTION
#------------------------------------------------------------------------------
STRT        .FT                                            1000 :START DEPTH
STOP        .FT                                            7796 :STOP DEPTH
STEP        .FT                                             0.5 :STEP      
NULL        .                                           -999.25 :NULL      
COMP        .                                SHELL OFFSHORE INC :COMPANY   
WELL        .                               OCS G06060 ST00BP00 :WELL      
FLD         .                                           WILDCAT :FIELD     
LOC         .                                                   :LOCATION  
CNTY        .                                BRAZOS LARGE BLOCK :LOCATION  
STAT        .                                             TEXAS :STATE     
CTRY        .                                     UNITED STATES :COUNTRY   
SRVC        .                                                   :SERVICE COMPANY
DATE        .                             9/13/2023 11:19:08 AM :LOG DATE  
API         .                                    42704401260000 :API NUMBER
UWI         .                                    42704401260000 :UNIQUE WELL ID
XCOORD      .                                   881020.58603234 :SURFACE X 
YCOORD      .                                   10392321.681828 :SURFACE Y 
LAT         .                                         28.616238 :LATITUDE  
LON         .                                        -95.367327 :LONGITUDE 
ELEV        .FT                                              90 :ELEVATION VALUE
ELEV_TYPE   .                                                KB :ELEVATION REFERENCE TYPE
~Curve Information Section
#MNEM       .UNIT                                      API CODE :CURVE DESCRIPTION
#------------------------------------------------------------------------------
DEPT        .FT                                                 :DEPTH     
CALI        .IN                                                 :          
CILD        .MMHO                                               :          
DPHI        .%                                                  :          
DT          .US/F                                               :          
GR          .GAPI                                               :          
GR_NORM     .GAPI                                               :GammaRay Normalized
ILD         .OHMM                                               :          
ILM         .OHMM                                               :          
SFL         .OHMM                                               :          
SP          .MV                                                 :          
SP_NORM     .MV                                                 :SP Normalized
VSH_GR      .V/V                                                :Volume of Shale from GR
VSH_SP      .V/V                                                :Volume of Shale from SP
~A        DEPTH           CALI           CILD           DPHI             DT             GR        GR_NORM            ILD            ILM            SFL             SP        SP_NORM         VSH_GR         VSH_SP
# ...
      4173.0000        13.8684       3485.207        32.0728       103.9484        41.8875       51.77943         0.3055         0.4137         1.2433       -138.439      -50.69432      0.3995623              0
      4173.5000        13.9509       3655.004        31.9705        106.098        41.3551       50.50527         0.2865         0.3858         1.1192       -137.929      -50.18148      0.3724526              0
      4174.0000        13.9496       3791.871        31.7701       109.2748        41.4854       50.80701          0.269         0.3636         0.9736      -137.0081      -49.25773      0.3788726              0
      4174.5000        13.9226       3959.887        31.5739       112.1427        42.1799       52.45039         0.2586         0.3454         0.8645       -135.908      -48.15479      0.4138381     0.01760864
      4175.0000        13.8969       4140.164        30.4179       114.5077        43.0873       54.60004         0.2493         0.3321         0.8219      -134.4253      -46.66922      0.4595753     0.04855792
      4175.5000        13.9853       4115.047        28.2827       115.2043        43.8372       56.37516         0.2414         0.3247         0.7886      -130.7668      -43.00788      0.4973439      0.1248358
      4176.0000         14.159       3803.441        23.8348       115.3171        43.9636       56.66764         0.2433          0.326         0.7371       -125.322      -37.56023      0.5035669      0.2383286
      4176.5000        14.2404       3326.391        18.9426        115.894        43.1805       54.79731         0.2853         0.3412         0.6652      -118.0747      -30.31008      0.4637725      0.3893733
      4177.0000        14.2822       2940.316        13.3082       116.7976        42.7213       53.69722         0.3515         0.3772         0.6516      -109.9885      -22.22103      0.4403664      0.5578952
      4177.5000         14.311       2454.168          9.179       116.1857        42.9109       54.13995         0.4313         0.4748         0.6918      -102.7338      -14.96349      0.4497862       0.709094
      4178.0000        14.3279        2004.41         6.6055       109.1896        42.4178       52.95927         0.5579         0.6002         1.0333       -97.9292      -10.15603      0.4246652      0.8092494
      4178.5000        14.3398       1556.826         7.7867       101.1283        40.6385       48.71998         0.6989         0.7625         1.5319       -96.3269       -8.55088      0.3344676        0.84269
      4179.0000        14.3507       1236.418        10.4137        91.3718        38.4704       43.55611         0.8813         0.9907         2.1932       -96.3147      -8.535835      0.2245981      0.8430035
      4179.5000        14.3602       990.3779        15.6246        83.1227        37.6302       41.55001         1.0405         1.1755          2.973       -96.3026      -8.520882      0.1819152      0.8433149
      4180.0000        14.3414        898.334        19.8846        79.9138        40.3589       48.03069         1.1297         1.2582          3.265       -96.4728       -8.68824       0.319802      0.8398283
      4180.5000        14.3106       881.9434        21.9945        81.0925        44.3983       57.62824         1.1471         1.2443         2.8882       -96.8046      -9.017189      0.5240051      0.8329752
      4181.0000         14.381       914.0332        23.0984        88.5249        48.6559       67.74464         1.1164         1.1042         1.8535       -96.1891      -8.398842      0.7392477      0.8458574
      4181.5000        14.3636       1004.815          22.97       103.6687        51.9375       75.54013         1.0507         0.9455         1.1664       -94.9437      -7.150589      0.9051092      0.8718627
      4182.0000         14.344       1120.914        23.9737       115.9459        53.5894       79.46024          0.935         0.8585         0.8808       -92.9332      -5.137238      0.9885157      0.9138076
      4182.5000        14.4707       1255.307         28.302       125.4603        54.6752       82.03411         0.7923         0.8095         0.7813       -91.3164      -3.517586              1      0.9475503
      4183.0000         15.335       1415.709         30.597       125.5221        54.4808       81.56371          0.697         0.7691         0.8249       -91.3955      -3.593842              1      0.9459617
      4183.5000        15.9358       1604.889        28.6512       119.9667        52.2588       76.27168          0.633          0.739         0.9314       -92.5635      -4.758987      0.9206741      0.9216878
      4184.0000        15.3988       1773.895        25.7998       120.9478        49.6971       70.17185         0.5838         0.7033         1.0118       -93.4534      -5.646042      0.7908905      0.9032075
      4184.5000        14.1718        1882.18         24.499       132.4045        48.4135       67.11137         0.5432         0.6662          0.947       -93.0308      -5.220589      0.7257738       0.912071
      4185.0000        14.0222       1957.461        24.0063       141.2676        49.6909       70.14086         0.5182         0.6303         0.7788       -91.0367       -3.22364      0.7902311      0.9536741
      4185.5000        13.9476       2009.701        24.3626       142.9729        52.6954       77.27738         0.5013         0.6037         0.6713       -89.2094      -1.393486       0.942072      0.9918024
      4186.0000        13.9759       2103.895        26.2174       135.8743        55.0486       82.86517         0.4804         0.5823          0.603       -89.1536      -1.334846              1      0.9930241
      4186.5000        14.1389       2210.695         27.698       123.3301        55.3147       83.28046         0.4596         0.5642          0.574        -91.344      -3.522392              1      0.9474502
      4187.0000        14.3889       2271.414        28.9729       118.6075        52.4893       76.95715         0.4491          0.554         0.5743       -97.1492      -9.324745      0.9352584      0.8265678
      4187.5000        14.7178       2290.352        29.8666       119.7073        49.6812       70.67253         0.4461         0.5452         0.6004      -104.4333        -16.606      0.8015432      0.6748751
      4188.0000          14.61       2270.156          30.25       121.9869          47.35       65.45393          0.451         0.5495         0.7385      -110.1614      -22.33125      0.6905091       0.555599
      4188.5000        14.3098        2234.48        30.5639       123.2386        45.4418       61.18091         0.4556         0.5586         0.9842      -115.8931       -28.0601      0.5995938       0.436248
      4189.0000        14.1753       2206.086        30.7892       118.8275        43.5693       56.98765         0.4587         0.5747         1.1696       -119.526      -31.69015      0.5103755      0.3606219
      4189.5000        13.8815       2194.801        31.0058        114.436        41.1412       51.55247         0.4616           0.59         1.2968      -123.8947        -36.056      0.3947333      0.2696667
      4190.0000        13.3113       2199.512        31.1028       116.0522        39.5066         47.891         0.4608         0.6044         1.3787      -127.4043      -39.56274      0.3168297      0.1966095
      4190.5000        13.1308       2206.766        31.0033       118.7484        38.5749       45.80069         0.4599         0.6081         1.3514      -130.3179       -42.4735      0.2723551      0.1359687
      4191.0000        13.2334       2216.469        30.9038        120.178        38.2909       45.15823         0.4575         0.6022         1.2274      -132.2327      -44.38544      0.2586858     0.09613657
      4191.5000        13.3303       2222.883        30.6538       122.1359        38.1285       44.78759         0.4551         0.5868         1.0897       -133.645      -45.79491      0.2507997     0.06677278
