#------------------------------------------------------------------------------
# Created by    : vladimir.rabinovich
# Created on    : 09/19/2023 17:20:38
#------------------------------------------------------------------------------
~Version Information Section
VERS.           2.0     :   CWLS log ASCII Standard - VERSION 2.0
WRAP.           NO      :   One line per depth step
~Well Information Section
#MNEM       .UNIT                                         VALUE :DESCRIPTION
#------------------------------------------------------------------------------
STRT        .FT                                             540 :START DEPTH
STOP        .FT                                            8409 :STOP DEPTH
STEP        .FT                                             0.5 :STEP      
NULL        .                                           -999.25 :NULL      
COMP        .                                      SHELL OIL CO :COMPANY   
WELL        .                                OCS 00706 ST00BP00 :WELL      
FLD         .                                           WILDCAT :FIELD     
LOC         .                                                   :LOCATION  
CNTY        .                             GALVESTON LARGE BLOCK :LOCATION  
STAT        .                                             TEXAS :STATE     
CTRY        .                                     UNITED STATES :COUNTRY   
SRVC        .                                                   :SERVICE COMPANY
DATE        .                             9/13/2023 11:19:25 AM :LOG DATE  
API         .                                    42706000280000 :API NUMBER
UWI         .                                    42706000280000 :UNIQUE WELL ID
XCOORD      .                                  1100625.96198943 :SURFACE X 
YCOORD      .                                  10499283.7203345 :SURFACE Y 
LAT         .                                         28.920625 :LATITUDE  
LON         .                                        -94.687754 :LONGITUDE 
ELEV        .FT                                              78 :ELEVATION VALUE
ELEV_TYPE   .                                                KB :ELEVATION REFERENCE TYPE
~Curve Information Section
#MNEM       .UNIT                                      API CODE :CURVE DESCRIPTION
#------------------------------------------------------------------------------
DEPT        .FT                                                 :DEPTH     
ASN         .OHMM                                               :          
DT          .US/F                                               :          
ILD         .OHMM                                               :          
LAT         .OHMM                                               :          
LN          .OHMM                                               :          
SP          .MV                                                 :          
SP_NORM     .MV                                                 :SP Normalized
VSH_SP      .V/V                                                :Volume of Shale from SP
~A        DEPTH            ASN             DT            ILD            LAT             LN             SP        SP_NORM         VSH_SP
# ...
      2103.5000         0.9243        -999.25        -999.25         0.7323         0.7661       -43.9906       6.140728              1
      2104.0000          0.933        -999.25        -999.25         0.7404         0.7843       -43.0709        7.05904              1
      2104.5000         0.9416        -999.25        -999.25         0.7485         0.8025       -42.3604        7.76815              1
      2105.0000         0.9503        -999.25        -999.25         0.7566         0.8052       -42.4459       7.681263              1
      2105.5000         0.9586        -999.25        -999.25         0.7646         0.7982       -42.5314       7.594376              1
      2106.0000         0.9596        -999.25        -999.25         0.7727         0.7911       -42.6083       7.516087              1
      2106.5000         0.9605        -999.25        -999.25         0.7724         0.7841       -42.6476       7.475403              1
      2107.0000         0.9614        -999.25        -999.25         0.7697         0.7679        -42.687       7.434612              1
      2107.5000         0.9613        -999.25        -999.25         0.7669         0.7455       -42.7264       7.393826              1
      2108.0000         0.9404        -999.25        -999.25         0.7641         0.7231       -42.7658       7.353035              1
      2108.5000         0.9196        -999.25        -999.25         0.7613         0.7007       -42.8052       7.312248              1
      2109.0000         0.8987        -999.25        -999.25         0.7585         0.6828       -43.1907       6.925358              1
      2109.5000         0.8733        -999.25        -999.25         0.7557         0.6652       -44.1571       5.957573              1
      2110.0000         0.8467        -999.25        -999.25         0.7529         0.6476       -45.6898       4.423485              1
      2110.5000         0.8202        -999.25        -999.25         0.7501           0.63        -47.505       2.606895              1
      2111.0000         0.7972        -999.25        -999.25         0.7473         0.6229       -48.0968       2.013706              1
      2111.5000         0.7787        -999.25        -999.25          0.731         0.6173       -47.7776        2.33152              1
      2112.0000         0.7602        -999.25        -999.25         0.7141         0.6117       -46.8683       3.239429              1
      2112.5000         0.7448        -999.25        -999.25         0.6972         0.6061        -45.959       4.147346              1
      2113.0000         0.7335        -999.25        -999.25         0.6803          0.604       -45.1412       4.963757              1
      2113.5000         0.7221        -999.25        -999.25         0.6633         0.6059       -45.5587       4.544868              1
      2114.0000         0.7108        -999.25        -999.25          0.641         0.6078       -63.8387      -13.73652      0.6734226
      2114.5000         0.7002        -999.25        -999.25         0.6132         0.6098       -66.1783      -16.07751      0.6133972
      2115.0000         0.6905        -999.25        -999.25         0.5853         0.6117       -69.3259      -19.22649       0.532654
      2115.5000         0.6809        -999.25        -999.25         0.5574         0.6136       -76.2777      -26.17969       0.354367
      2116.0000         0.6712        -999.25        -999.25         0.5296         0.6113       -77.3524      -27.25577      0.3267751
      2116.5000         0.6623        -999.25        -999.25         0.5017         0.6069       -78.4274      -28.33216      0.2991755
      2117.0000         0.6597        -999.25        -999.25         0.4739         0.6026       -79.4995      -29.40564      0.2716502
      2117.5000          0.657        -999.25        -999.25         0.4608         0.5982       -80.1342      -30.04174      0.2553401
      2118.0000         0.6553        -999.25        -999.25         0.4481         0.5938       -80.7692      -30.67813      0.2390224
      2118.5000          0.654        -999.25        -999.25         0.4355         0.5894       -81.4039      -31.31421      0.2227125
      2119.0000         0.6528        -999.25        -999.25         0.4228         0.5853       -82.0386      -31.95029      0.2064027
      2119.5000         0.6515        -999.25        -999.25         0.4102         0.5823       -82.7754      -32.68848      0.1874748
      2120.0000         0.6502        -999.25        -999.25         0.4271         0.5792       -83.5322      -33.44668      0.1680339
      2120.5000         0.6489        -999.25        -999.25         0.4462         0.5761        -80.235      -30.15086       0.252542
      2121.0000         0.6477        -999.25        -999.25         0.4652          0.573       -74.8591      -24.77635        0.39035
      2121.5000         0.6472        -999.25        -999.25         0.4843         0.5699       -71.8793      -21.79794      0.4667194
      2122.0000         0.6476        -999.25        -999.25          0.513         0.5669       -69.9037      -19.82373      0.5173404
      2122.5000          0.648        -999.25        -999.25         0.5562          0.566       -67.9288      -17.85022      0.5679432
      2123.0000         0.6485        -999.25        -999.25         0.5994         0.5682       -65.4379       -15.3607      0.6317769
      2123.5000         0.6489        -999.25        -999.25         0.6426         0.5703       -62.6009      -12.52509      0.7044849
      2124.0000         0.6524        -999.25        -999.25         0.6858         0.5725       -59.5152      -9.440781      0.7835698
      2124.5000         0.6648        -999.25        -999.25          0.729         0.5746       -57.1492      -7.076168      0.8442008
      2125.0000         0.6772        -999.25        -999.25         0.7719         0.5768       -55.3357      -5.264053      0.8906653
      2125.5000         0.6896        -999.25        -999.25         0.8148          0.579        -56.479      -6.408741      0.8613144
      2126.0000          0.702        -999.25        -999.25         0.8578         0.5811       -57.7349      -7.666031      0.8290761
      2126.5000         0.7062        -999.25        -999.25         0.9007         0.5833       -58.8918      -8.824318      0.7993765
      2127.0000         0.7091        -999.25        -999.25         0.9214         0.5803       -59.4028      -9.336708      0.7862383
      2127.5000          0.712        -999.25        -999.25         0.9397         0.5764       -59.9137      -9.848995      0.7731027
      2128.0000         0.7149        -999.25        -999.25         0.9223         0.5725       -60.4247      -10.36138      0.7599646
      2128.5000         0.7107        -999.25        -999.25         0.8918         0.5686       -60.9357      -10.87377      0.7468265
      2129.0000         0.7057        -999.25        -999.25         0.8612         0.5648       -61.5332      -11.47266      0.7314703
      2129.5000         0.7007        -999.25        -999.25         0.8307         0.5609        -62.559      -12.49984      0.7051322
      2130.0000         0.6958        -999.25        -999.25         0.7928          0.557       -63.5844      -13.52663      0.6788043
      2130.5000         0.6906        -999.25        -999.25         0.7508         0.5512       -64.6101      -14.55372      0.6524687
      2131.0000         0.6728        -999.25        -999.25         0.7088         0.5442       -73.8638      -23.80881      0.4151588
      2131.5000         0.6549        -999.25        -999.25         0.6669         0.5373       -74.4526      -24.39899      0.4000258
      2132.0000         0.6371        -999.25        -999.25         0.6249         0.5304       -73.7372      -23.68498      0.4183338
      2132.5000         0.6221        -999.25        -999.25         0.5968         0.5234        -72.402      -22.35117       0.452534
