#------------------------------------------------------------------------------
# Created by    : vladimir.rabinovich
# Created on    : 09/19/2023 17:20:24
#------------------------------------------------------------------------------
~Version Information Section
VERS.           2.0     :   CWLS log ASCII Standard - VERSION 2.0
WRAP.           NO      :   One line per depth step
~Well Information Section
#MNEM       .UNIT                                         VALUE :DESCRIPTION
#------------------------------------------------------------------------------
STRT        .FT                                            3071 :START DEPTH
STOP        .FT                                           14991 :STOP DEPTH
STEP        .FT                                             0.5 :STEP      
NULL        .                                           -999.25 :NULL      
COMP        .                                        TEXACO USA :COMPANY   
WELL        .                                     ST TR 00012-L :WELL      
FLD         .                                           WILDCAT :FIELD     
LOC         .                                                   :LOCATION  
CNTY        .                           HIGH ISLAND LARGE BLOCK :LOCATION  
STAT        .                                             TEXAS :STATE     
CTRY        .                                     UNITED STATES :COUNTRY   
SRVC        .                                                   :SERVICE COMPANY
DATE        .                             9/13/2023 11:19:15 AM :LOG DATE  
API         .                                    42708000680000 :API NUMBER
UWI         .                                    42708000680000 :UNIQUE WELL ID
XCOORD      .                                  1354682.00685938 :SURFACE X 
YCOORD      .                                  10733491.7088446 :SURFACE Y 
LAT         .                                        29.5724948 :LATITUDE  
LON         .                                       -93.8991324 :LONGITUDE 
ELEV        .FT                                              44 :ELEVATION VALUE
ELEV_TYPE   .                                                KB :ELEVATION REFERENCE TYPE
~Curve Information Section
#MNEM       .UNIT                                      API CODE :CURVE DESCRIPTION
#------------------------------------------------------------------------------
DEPT        .FT                                                 :DEPTH     
ASN         .OHMM                                               :          
CILD        .MMHO                                               :          
ILD         .OHMM                                               :          
SP          .MV                                                 :          
SP_NORM     .MV                                                 :SP Normalized
VSH_SP      .V/V                                                :Volume of Shale from SP
~A        DEPTH            ASN           CILD            ILD             SP        SP_NORM         VSH_SP
# ...
      6225.0000         0.6506       1830.846          0.493       -46.1058      -1.766136      0.9872311
      6225.5000         0.6471       1846.434         0.4919       -45.9899      -1.642246      0.9892959
      6226.0000          0.644       1862.035         0.4908        -45.874       -1.51836      0.9913607
      6226.5000         0.6409       1877.625         0.4897       -45.7581       -1.39447      0.9934255
      6227.0000         0.6377       1893.225         0.4886       -45.6422      -1.270584      0.9954903
      6227.5000         0.6346       1908.814         0.4875       -45.5262      -1.146595      0.9975567
      6228.0000         0.6314       1928.742         0.4864       -45.4104      -1.022812      0.9996198
      6228.5000         0.6283       1950.574         0.4853       -45.2944     -0.8988228              1
      6229.0000         0.6293       1972.432          0.484       -45.1786     -0.7750359              1
      6229.5000         0.6305       1975.676         0.4827       -45.0627     -0.6511459              1
      6230.0000         0.6285       1968.537         0.4815       -44.9468     -0.5272598              1
      6230.5000         0.6306       1961.398         0.4802       -44.8309     -0.4033699              1
      6231.0000         0.6327       1954.258          0.479        -44.692      -0.256485              1
      6231.5000         0.6339         1940.4         0.4777       -44.5401    -0.09659958              1
      6232.0000         0.6339       1924.588         0.4765       -44.3884     0.06308746              1
      6232.5000          0.634       1908.766         0.4752       -44.2365      0.2229767              1
      6233.0000         0.6341       1892.953         0.4739       -44.0845      0.3829651              1
      6233.5000         0.6341       1877.143         0.4727       -43.9326      0.5428543              1
      6234.0000         0.6342        1861.33         0.4714       -43.7809      0.7025414              1
      6234.5000         0.6398        1845.52         0.4702        -43.629      0.8624268              1
      6235.0000         0.6447       1829.707         0.4689       -43.4771       1.022312              1
      6235.5000         0.6469       1815.453         0.4677       -43.3252       1.182201              1
      6236.0000         0.6491       1818.191         0.4664       -43.1734       1.341988              1
      6236.5000         0.6512       1820.934         0.4788       -43.0215       1.501877              1
      6237.0000         0.6534       1847.447         0.4917       -43.1105       1.420864              1
      6237.5000         0.6555       1881.814         0.5047        -43.254       1.285351              1
      6238.0000         0.6571       1916.232         0.5177       -43.3975       1.149841              1
      6238.5000         0.6585       1966.867         0.5307        -43.541       1.014324              1
      6239.0000          0.663       1942.934         0.5437       -43.6845      0.8788109              1
      6239.5000         0.6753       1919.025         0.5567       -44.8097     -0.2383995              1
      6240.0000         0.7034       1895.092         0.5734       -46.3222      -1.742912      0.9876181
      6240.5000          0.729       1871.184         0.6092       -47.8347      -3.247425      0.9625429
      6241.0000         0.7619        1847.25          0.645       -49.3472      -4.751934      0.9374678
      6241.5000         0.8267       1734.555         0.6808       -51.0052      -6.401951      0.9099675
      6242.0000         0.8657       1602.822         0.7166       -52.8088      -8.197563      0.8800406
      6242.5000         0.8918       1518.363         0.7524       -54.6124      -9.993176      0.8501137
      6243.0000         1.0292       1433.805         0.7882        -56.416      -11.78879      0.8201869
      6243.5000         1.0723       1349.344          0.824       -57.4372        -12.802         0.8033
      6244.0000         1.0787       1264.885         0.8097       -57.1822      -12.53901      0.8076831
      6244.5000         1.0634       1180.326         0.7827        -56.805      -12.15382      0.8141029
      6245.0000         1.0311       1095.867         0.7557       -56.4281      -11.76894      0.8205177
      6245.5000         1.0042       1020.111         0.7286       -56.8339      -12.16675      0.8138875
      6246.0000         0.9744       1006.908         0.7016        -58.737      -14.06186      0.7823023
      6246.5000         0.9379        1073.27         0.6746       -60.9585      -16.27538      0.7454104
      6247.0000          0.906       1204.063         0.6475       -64.1477      -19.45658      0.6923903
      6247.5000         0.8984       1429.205         0.6211       -67.3344       -22.6353      0.6394117
      6248.0000         0.9307       1483.303         0.5949       -70.5236      -25.81651      0.5863915
      6248.5000         0.9755       1531.516         0.5686       -73.7128      -28.99773      0.5333712
      6249.0000         1.0213       1568.355         0.5424        -76.902      -32.17894       0.480351
      6249.5000         1.0459       1603.465         0.5162       -80.0887      -35.35765      0.4273725
      6250.0000          1.068       1628.041         0.5194        -83.278      -38.53896      0.3743506
      6250.5000         1.1529       1628.932         0.5506       -86.4672      -41.72018      0.3213304
      6251.0000          1.173       1589.371         0.5818       -88.4436      -43.68859      0.2885235
      6251.5000         1.1914        1551.84          0.613       -88.9617       -44.1987      0.2800217
      6252.0000         1.2098       1514.506         0.6442       -88.4927      -43.72171      0.2879714
      6252.5000         1.2298       1477.172         0.6754       -88.0238      -43.24483      0.2959195
      6253.0000         1.2509       1440.752         0.7066       -87.5555      -42.76854      0.3038577
      6253.5000         1.2719       1410.117         0.7378       -87.0865      -42.29155      0.3118075
      6254.0000          1.293       1379.484         0.7528       -84.8153      -40.01236      0.3497939
      6254.5000         1.3123        1348.85         0.7555       -81.1187      -36.30777      0.4115371
      6255.0000         1.3233        1269.93         0.7583       -77.4269      -32.60799      0.4732001
      6255.5000         1.2592        1186.26         0.7611       -73.8197      -28.99281      0.5334532
      6256.0000         1.1955       1144.971         0.7355        -70.327      -25.49212       0.591798
      6256.5000         1.1513       1127.736         0.6923       -66.8394      -21.99653      0.6500579
      6257.0000         1.1071       1153.697         0.6491       -64.1401      -19.28924      0.6951793
      6257.5000          1.063       1179.658          0.606       -61.7794      -16.92055      0.7346575
      6258.0000         1.0187       1205.619         0.5628       -59.7147      -14.84786      0.7692023
      6258.5000         0.9746       1253.115         0.5196       -64.2969      -19.42208      0.6929654
      6259.0000         0.9304        1351.52         0.4765       -68.8743      -23.99149      0.6168085
      6259.5000         0.8862       1954.506         0.4333       -72.3918        -27.501      0.5583166
      6260.0000         0.8587       1988.014         0.4036       -74.7825      -29.88372      0.5186047
      6260.5000         0.8618       2054.535         0.4041       -77.1731      -32.26633      0.4788945
      6261.0000         0.8754        2281.93         0.4045        -79.631      -34.71624      0.4380627
      6261.5000         0.8888       2348.563         0.4049        -82.855      -37.93225      0.3844624
      6262.0000         0.9024       2342.176         0.4054       -85.9945      -41.06377      0.3322706
      6262.5000          0.916       2335.793         0.4058        -86.627      -41.68828       0.321862
