#------------------------------------------------------------------------------
# Created by    : vladimir.rabinovich
# Created on    : 09/19/2023 17:19:48
#------------------------------------------------------------------------------
~Version Information Section
VERS.           2.0     :   CWLS log ASCII Standard - VERSION 2.0
WRAP.           NO      :   One line per depth step
~Well Information Section
#MNEM       .UNIT                                         VALUE :DESCRIPTION
#------------------------------------------------------------------------------
STRT        .FT                                            3926 :START DEPTH
STOP        .FT                                            8446 :STOP DEPTH
STEP        .FT                                             0.5 :STEP      
NULL        .                                           -999.25 :NULL      
COMP        .                             WALTER OIL & GAS CORP :COMPANY   
WELL        .                               OCS G06101 ST00BP00 :WELL      
FLD         .                                           WILDCAT :FIELD     
LOC         .                                                   :LOCATION  
CNTY        .                             GALVESTON LARGE BLOCK :LOCATION  
STAT        .                                             TEXAS :STATE     
CTRY        .                                     UNITED STATES :COUNTRY   
SRVC        .                                                   :SERVICE COMPANY
DATE        .                             9/13/2023 11:19:36 AM :LOG DATE  
API         .                                    42706402050000 :API NUMBER
UWI         .                                    42706402050000 :UNIQUE WELL ID
XCOORD      .                                  1036351.71170487 :SURFACE X 
YCOORD      .                                  10440832.2127806 :SURFACE Y 
LAT         .                                         28.757227 :LATITUDE  
LON         .                                        -94.885733 :LONGITUDE 
ELEV        .FT                                              88 :ELEVATION VALUE
ELEV_TYPE   .                                                KB :ELEVATION REFERENCE TYPE
~Curve Information Section
#MNEM       .UNIT                                      API CODE :CURVE DESCRIPTION
#------------------------------------------------------------------------------
DEPT        .FT                                                 :DEPTH     
ASFL        .OHMM                                               :          
CALI        .IN                                                 :          
CILD        .MMHO                                               :          
GR          .GAPI                                               :          
GR_1        .GAPI                                               :          
GR_NORM     .GAPI                                               :GammaRay Normalized
ILD         .OHMM                                               :          
ILM         .OHMM                                               :          
NPHI        .%                                                  :          
RFOC        .OHMM                                               :          
RHOB        .G/C3                                               :          
SP          .MV                                                 :          
SP_NORM     .MV                                                 :SP Normalized
VSH_GR      .V/V                                                :Volume of Shale from GR
VSH_SP      .V/V                                                :Volume of Shale from SP
~A        DEPTH           ASFL           CALI           CILD             GR           GR_1        GR_NORM            ILD            ILM           NPHI           RFOC           RHOB             SP        SP_NORM         VSH_GR         VSH_SP
# ...
      5456.0000          0.959         9.1665       3544.523        40.8708        42.2859       32.55022         0.3003         0.3406         33.206         1.0698         2.1409      -122.2833      -77.62311              0              0
      5456.5000          0.945         9.1895       3612.547        40.8401        44.3181       32.50883         0.2876         0.3278         32.766         1.0473         2.1397      -124.0189       -79.3587              0              0
      5457.0000         0.9312         9.2451       3674.125        40.8094        46.1828       32.46744          0.278         0.3166        32.3411         1.0289         2.1377      -124.8424      -80.18221              0              0
      5457.5000         0.9173         9.2692       3715.793        40.7788        48.0361       32.42619         0.2718         0.3077        31.9409         1.0136         2.1339      -125.4011      -80.74091              0              0
      5458.0000         0.9066         9.2992       3673.059        40.7305        49.5615        32.3617         0.2693         0.3016        31.7893         0.9916         2.1294      -125.9459      -81.28571              0              0
      5458.5000         0.8972         9.3286       3619.477        40.6519         49.022       32.25745         0.2682         0.2993        31.7823         0.9656         2.1269       -126.184       -81.5238              0              0
      5459.0000         0.9025          9.348       3539.629        40.5732        46.1463       32.15307         0.2685         0.3011        31.8875          0.934         2.1244      -125.2472      -80.58701              0              0
      5459.5000         0.9099         9.3605       3459.688        40.4946        43.7125       32.04881         0.2708         0.3074         32.338         0.8953         2.1214      -123.6683       -79.0081              0              0
      5460.0000         0.9179         9.3645       3388.711        40.3914        42.5372       31.91227         0.2751         0.3145        32.7506         0.8499         2.1186      -122.2789      -77.61871              0              0
      5460.5000         0.9081         9.3605       3324.902        40.2044        41.9278       31.66574         0.2812         0.3227        33.0148         0.8179         2.1167      -122.3658       -77.7056              0              0
      5461.0000         0.8983         9.3478       3264.438        40.0173        41.3732       31.41908         0.2875         0.3302        32.9095          0.843         2.1202      -122.5654       -77.9052              0              0
      5461.5000         0.8885          9.342       3243.652        39.8154        40.3608       31.15299         0.2918         0.3349        32.5579           0.93         2.1236      -121.4674      -76.80721              0              0
      5462.0000         0.8787         9.3418       3222.844        39.5616         39.268       30.81879         0.2961         0.3355        32.5718         0.9916         2.1247      -120.6522        -75.992              0              0
      5462.5000         0.8716           9.34       3261.383        39.3081        38.4528       30.48498         0.2989         0.3317        33.0737         0.9606         2.1216      -121.4825       -76.8223              0              0
      5463.0000         0.8648          9.336       3305.277        38.9957         38.402       30.07386         0.3006         0.3263        33.6344         0.9162         2.1179      -121.7501       -77.0899              0              0
      5463.5000          0.858         9.3333       3380.035        38.4886        38.8632        29.4072         0.2991         0.3207        33.9346         0.8799         2.1166      -120.8807       -76.2205              0              0
      5464.0000         0.8513         9.3331       3458.234        37.9066         39.348       28.64223         0.2948          0.316        33.9227         0.8576         2.1166      -120.9563       -76.2961              0              0
      5464.5000         0.8452          9.333       3592.148        36.9161        38.2192        27.3411         0.2882         0.3114        33.8645         0.8624         2.1173      -122.4294       -77.7692              0              0
      5465.0000         0.8398         9.3328       3690.016          36.83        36.7618       27.22701         0.2816         0.3057        33.7775         0.8691         2.1155      -123.3309      -78.67071              0              0
      5465.5000         0.8343          9.337       3779.551        37.4058        36.2418       27.98165         0.2741         0.2999        33.7343         0.8771         2.1167       -122.996      -78.33581              0              0
      5466.0000         0.8288         9.3555       3844.766        37.9816        36.5767        28.7363         0.2669         0.2949        33.7192         0.8878         2.1231      -122.6512        -77.991              0              0
      5466.5000         0.8181         9.3815       3763.078        38.5575        37.2201       29.49108         0.2608         0.2909        33.7743         0.8856         2.1307      -122.3718      -77.71161              0              0
      5467.0000         0.8063         9.4145       3674.805        39.6843        37.8981       30.96891         0.2592           0.29        33.9299         0.8433         2.1346       -122.338       -77.6778              0              0
      5467.5000         0.8139         9.4469       3584.012        40.8806        38.4515       32.53796         0.2634         0.2914        34.1984         0.7927         2.1351       -122.002       -77.3418              0              0
      5468.0000         0.8226         9.4816       3493.117        42.5901         38.694       34.78059         0.2671         0.2978        34.6328         0.7485         2.1332      -120.9009      -76.24071     0.03788481              0
      5468.5000         0.8313         9.5222       3342.633        49.8472         38.616       44.30444         0.2802         0.3127        34.8095          0.715         2.1346      -117.3729      -72.71271      0.2405199              0
      5469.0000         0.8405          9.569       2757.555        52.3588        39.1597       47.59983         0.2955         0.3331        34.3615         0.7129         2.1482       -110.171       -65.5108      0.3106346     0.06413138
      5469.5000         0.8498         9.6134       2526.547        54.8431         40.687       50.85938          0.314          0.357        34.1243         0.7389         2.1717       -99.6503       -54.9901      0.3799868      0.2144271
      5470.0000         0.8591         9.6557       2336.336        55.4704        43.4091       51.68162         0.3376         0.3824          34.52         0.7873         2.1974       -94.5233      -49.86311      0.3974812      0.2876699
      5470.5000         0.8685         9.6959       2279.941        52.9886        47.7881       48.42316         0.3648         0.4091        35.1547         0.8419         2.2182       -88.2885       -43.6283      0.3281524      0.3767385
      5471.0000         0.8778         9.7333        2234.52        52.6036        51.7995       47.91676         0.3905         0.4349        35.6833         0.8722         2.2323       -82.8744       -38.2142      0.3173779      0.4540828
      5471.5000         0.8871         9.7529       2265.867        52.2184        54.3088       47.41009         0.4141         0.4565         35.716         0.8378          2.236       -78.6112        -33.951      0.3065977      0.5149857
      5472.0000         0.8964         9.7723       2289.605         51.912         54.499       47.00685         0.4315          0.465        35.7747         0.8251         2.2275       -76.4186      -31.75841      0.2980181      0.5463085
      5472.5000         0.9011         9.7914       2309.105        51.6984        52.6456       46.72541         0.4424         0.4614        36.4044         0.8616         2.2192       -75.5837      -30.92351      0.2920299      0.5582356
