#------------------------------------------------------------------------------
# Created by    : vladimir.rabinovich
# Created on    : 09/19/2023 17:20:10
#------------------------------------------------------------------------------
~Version Information Section
VERS.           2.0     :   CWLS log ASCII Standard - VERSION 2.0
WRAP.           NO      :   One line per depth step
~Well Information Section
#MNEM       .UNIT                                         VALUE :DESCRIPTION
#------------------------------------------------------------------------------
STRT        .FT                                            1664 :START DEPTH
STOP        .FT                                            5300 :STOP DEPTH
STEP        .FT                                             0.5 :STEP      
NULL        .                                           -999.25 :NULL      
COMP        .                       CORPUS CHRISTI OIL & GAS CO :COMPANY   
WELL        .                                ST TR 00597-L NE/4 :WELL      
FLD         .                                           WILDCAT :FIELD     
LOC         .                                                   :LOCATION  
CNTY        .                      MATAGORDA ISLAND LARGE BLOCK :LOCATION  
STAT        .                                             TEXAS :STATE     
CTRY        .                                     UNITED STATES :COUNTRY   
SRVC        .                                                   :SERVICE COMPANY
DATE        .                             9/13/2023 11:12:01 AM :LOG DATE  
API         .                                    42703301570000 :API NUMBER
UWI         .                                    42703301570000 :UNIQUE WELL ID
XCOORD      .                                   499677.54355151 :SURFACE X 
YCOORD      .                                  10240770.6634848 :SURFACE Y 
LAT         .                                        28.1741034 :LATITUDE  
LON         .                                       -96.5406837 :LONGITUDE 
ELEV        .FT                                              79 :ELEVATION VALUE
ELEV_TYPE   .                                                KB :ELEVATION REFERENCE TYPE
~Curve Information Section
#MNEM       .UNIT                                      API CODE :CURVE DESCRIPTION
#------------------------------------------------------------------------------
DEPT        .FT                                                 :DEPTH     
ASFL        .OHMM                                               :          
CILD        .MMHO                                               :          
ILD         .OHMM                                               :          
SP          .MV                                                 :          
SP_NORM     .MV                                                 :SP Normalized
VSH_SP      .V/V                                                :Volume of Shale from SP
~A        DEPTH           ASFL           CILD            ILD             SP        SP_NORM         VSH_SP
# ...
      4780.0000         0.6246        2468.64         0.4051      -123.4387      -25.85923      0.4813211
      4780.5000         0.5835       2516.564         0.3974      -124.1968      -26.74949      0.4619676
      4781.0000         0.5467       2585.317         0.3868      -124.9213      -27.60614      0.4433448
      4781.5000         0.5506        2654.07         0.3768       -124.023      -26.83999      0.4600002
      4782.0000         0.5546       2722.823         0.3673      -122.1285      -25.07764      0.4983121
      4782.5000         0.5969       2791.576         0.3582      -120.1288      -23.21009       0.538911
      4783.0000         0.6391       2852.008         0.3506      -123.2673      -26.48075      0.4678098
      4783.5000         0.6813       2852.028         0.3506      -126.4059       -29.7515      0.3967066
      4784.0000         0.7235       2692.628         0.3714      -129.5444      -33.02216      0.3256053
      4784.5000         0.7667       2533.228         0.3948       -132.683       -36.2929      0.2545022
      4785.0000         0.7707       2373.829         0.4213      -135.8215      -39.56356      0.1834009
      4785.5000         0.8434       2214.429         0.4516      -138.9601       -42.8343      0.1122977
      4786.0000          0.916       2055.029         0.4866      -142.3078      -46.31416     0.03664879
      4786.5000         1.0028       1895.629         0.5275      -141.7085      -45.84701     0.04680418
      4787.0000         0.9168       1710.459         0.5846      -134.2183      -38.48897      0.2067616
      4787.5000         0.8309       1710.476         0.5846      -133.0203      -37.42311      0.2299324
      4788.0000          0.745       1710.479         0.5846      -133.3206      -37.85557      0.2205311
      4788.5000         0.6591       1710.498         0.5846      -133.3213      -37.98843      0.2176429
      4789.0000         0.5731       1985.641         0.5036      -127.3286      -32.12787      0.3450463
      4789.5000         0.5145       2260.784         0.4423      -124.6322      -29.56362      0.4007908
      4790.0000         0.5105       2535.927         0.3943      -117.7403      -22.80388      0.5477418
      4790.5000         0.5144       2811.071         0.3557      -116.5422      -21.73792      0.5709147
      4791.0000         0.5224       3086.214          0.324      -115.6438      -20.97168      0.5875722
      4791.5000         0.5344       3427.207         0.2918      -115.6443      -21.10433      0.5846884
      4792.0000         0.5424       3443.175         0.2904      -115.6449      -21.23708      0.5818025
      4792.5000         0.5544       3467.166         0.2884      -115.6455      -21.36983      0.5789166
      4793.0000         0.5544       3460.433          0.289      -121.4619      -27.31838      0.4496004
      4793.5000         0.5464       3459.202         0.2891      -127.2783      -33.26694       0.320284
      4794.0000         0.5384       3323.494         0.3009      -133.0948      -39.21559      0.1909654
      4794.5000         0.5384        3275.61         0.3053      -138.9112      -45.16414     0.06164915
      4795.0000         0.5625       3219.742         0.3106       -144.718       -51.1031              0
      4795.5000         0.5865       3171.858         0.3153      -145.6171      -52.13435              0
      4796.0000         0.6106        3155.91         0.3169      -146.8166        -53.466              0
      4796.5000         0.6347       3092.077         0.3234       -148.016      -54.79755              0
      4797.0000         0.6588       3124.013         0.3201       -144.151       -51.0647              0
      4797.5000         0.6744       3195.889         0.3129      -140.2859      -47.33176     0.01452703
      4798.0000         0.6532        3259.78         0.3068      -136.4209      -43.59891     0.09567592
      4798.5000          0.632       3323.671         0.3009      -132.5559      -39.86605       0.176825
      4799.0000         0.6108       3411.515         0.2931      -129.4391      -36.88142      0.2417083
      4799.5000         0.5897       3531.314         0.2832      -119.1367      -26.71117      0.4628007
      4800.0000         0.5583       3635.125         0.2751      -112.6571      -20.36371       0.600789
      4800.5000         0.5583       3659.096         0.2733      -112.6577      -20.49647      0.5979029
      4801.0000         0.5583       3691.052         0.2709      -112.9579      -20.92882       0.588504
      4801.5000         0.5623       3691.072         0.2709      -112.9585      -21.06158      0.5856179
      4802.0000         0.5702       3707.059         0.2698      -112.9591      -21.19432      0.5827321
      4802.5000         0.5742       3691.111         0.2709      -113.2593      -21.62668      0.5733331
      4803.0000         0.5782       3683.146         0.2715       -114.159      -22.65852      0.5509017
      4803.5000         0.5862       3675.182         0.2721      -118.0558      -26.68748      0.4633157
      4804.0000         0.5902       3635.282         0.2751      -122.2524      -31.01624      0.3692123
      4804.5000         0.5942       3659.254         0.2733      -121.6536      -30.54958      0.3793569
      4805.0000         0.5982       3707.177         0.2697      -119.5562      -28.58434      0.4220797
      4805.5000         0.5807       3731.149          0.268      -119.5568      -28.71709      0.4191938
      4806.0000         0.5633       3747.136         0.2669      -123.2977      -32.59014      0.3349969
      4806.5000         0.5458        3715.22         0.2692      -127.0387      -36.46329      0.2507981
      4807.0000         0.5284       3683.304         0.2715      -129.7491      -39.30585      0.1890033
      4807.5000         0.5061       3651.388         0.2739      -119.2995       -28.9884      0.4132957
      4808.0000         0.5061       3627.456         0.2757      -114.1647      -23.98575       0.522049
      4808.5000         0.5141       3587.556         0.2787      -114.7647       -24.7179      0.5061325
      4809.0000         0.5338       3547.656         0.2819      -115.3647      -25.45005      0.4902163
      4809.5000         0.5535       3475.819         0.2877      -115.9648       -26.1823      0.4742977
      4810.0000         0.5733       3340.112         0.2994      -113.5675      -23.91715      0.5235401
      4810.5000          0.593       3268.276          0.306      -112.7706      -23.25241       0.537991
      4811.0000         0.6127        3156.52         0.3168      -107.8737      -18.48766      0.6415725
      4811.5000         0.6324       3020.812          0.331      -107.2747      -18.02081      0.6517216
      4812.0000         0.6581       2845.184         0.3515      -107.2753      -18.15356      0.6488355
      4812.5000         0.6621       2605.685         0.3838      -107.8753      -18.88571      0.6329193
      4813.0000         0.7183       2589.737         0.3861      -108.1756      -19.31817       0.623518
      4813.5000         0.7745        2214.51         0.4516      -108.4758      -19.75052      0.6141192
      4814.0000         0.8541       2198.542         0.4548      -108.1766      -19.58347      0.6177506
      4814.5000         0.8822       1993.197         0.5017      -103.6145      -15.15353      0.7140538
      4815.0000         1.0471       1787.852         0.5593       -97.6871      -9.358276      0.8400375
      4815.5000          1.212       1582.507          0.727      -101.2633      -13.06663      0.7594212
      4816.0000         1.3769       1377.162         0.8667      -104.8395      -16.77498      0.6788048
      4816.5000         1.5419       1171.818         1.0662      -108.4157      -20.48334      0.5981883
      4817.0000         1.7145       966.4728         1.2458       -113.576      -25.77578      0.4831352
      4817.5000         1.7105       761.1279         1.3655      -113.5763      -25.90824      0.4802556
