#------------------------------------------------------------------------------
# Created by    : vladimir.rabinovich
# Created on    : 09/19/2023 17:22:51
#------------------------------------------------------------------------------
~Version Information Section
VERS.           2.0     :   CWLS log ASCII Standard - VERSION 2.0
WRAP.           NO      :   One line per depth step
~Well Information Section
#MNEM       .UNIT                                         VALUE :DESCRIPTION
#------------------------------------------------------------------------------
STRT        .FT                                            3080 :START DEPTH
STOP        .FT                                           13004 :STOP DEPTH
STEP        .FT                                             0.5 :STEP      
NULL        .                                           -999.25 :NULL      
COMP        .                                     INEXCO OIL CO :COMPANY   
WELL        .                                     ST TR 00006-L :WELL      
FLD         .                                           WILDCAT :FIELD     
LOC         .                                                   :LOCATION  
CNTY        .                           HIGH ISLAND LARGE BLOCK :LOCATION  
STAT        .                                             TEXAS :STATE     
CTRY        .                                     UNITED STATES :COUNTRY   
SRVC        .                                                   :SERVICE COMPANY
DATE        .                             9/13/2023 11:19:15 AM :LOG DATE  
API         .                                    42708302350000 :API NUMBER
UWI         .                                    42708302350000 :UNIQUE WELL ID
XCOORD      .                                  1306008.37969423 :SURFACE X 
YCOORD      .                                  10751503.0860356 :SURFACE Y 
LAT         .                                          29.62091 :LATITUDE  
LON         .                                         -94.05279 :LONGITUDE 
ELEV        .FT                                              84 :ELEVATION VALUE
ELEV_TYPE   .                                                KB :ELEVATION REFERENCE TYPE
~Curve Information Section
#MNEM       .UNIT                                      API CODE :CURVE DESCRIPTION
#------------------------------------------------------------------------------
DEPT        .FT                                                 :DEPTH     
DT          .US/F                                               :          
GR          .GAPI                                               :          
GR_NORM     .GAPI                                               :GammaRay Normalized
ILD         .OHMM                                               :          
SFL         .OHMM                                               :          
SP          .MV                                                 :          
SP_NORM     .MV                                                 :SP Normalized
VSH_GR      .V/V                                                :Volume of Shale from GR
VSH_SP      .V/V                                                :Volume of Shale from SP
~A        DEPTH             DT             GR        GR_NORM            ILD            SFL             SP        SP_NORM         VSH_GR         VSH_SP
# ...
     12302.0000        -999.25        42.3798       72.45174          0.492         0.5944       -39.4044      0.5956001      0.8393986              1
     12302.5000        -999.25        41.5735       70.76035         0.5039         0.6435       -39.4097      0.5903015      0.8034118              1
     12303.0000        -999.25         41.007       69.57034         0.5126         0.6877       -39.5114      0.4886017      0.7780924              1
     12303.5000        -999.25        40.9438       69.43261          0.516         0.7096       -40.0243    -0.02429962      0.7751619              1
     12304.0000        -999.25        41.4887       70.56625         0.5142         0.7077       -40.6683     -0.6683006      0.7992818              1
     12304.5000        -999.25        42.4446        72.5592         0.5126         0.6854       -40.9023     -0.9023018      0.8416852              1
     12305.0000        -999.25        43.6077       74.98534         0.5089          0.668        -40.837     -0.8370018       0.893305              1
     12305.5000        -999.25        45.0579       78.01173         0.5053         0.6542       -40.4025     -0.4025002      0.9576963              1
     12306.0000        -999.25        45.8953       79.75695         0.5034         0.6448       -40.0717    -0.07170105      0.9948288              1
     12306.5000        -999.25        45.6678       79.27568         0.5014         0.6379       -40.3937     -0.3936996      0.9845889              1
     12307.0000        -999.25        45.5237        78.9688         0.4989         0.6309        -40.682     -0.6819992      0.9780595              1
     12307.5000        -999.25        45.3792       78.66106          0.496         0.6202       -40.4299     -0.4299011      0.9715118              1
     12308.0000        -999.25        45.4061        78.7117         0.4931         0.6191       -40.4396     -0.4396019      0.9725894              1
     12308.5000        -999.25        45.5927       79.09624         0.4899         0.6229       -40.5922     -0.5922012       0.980771              1
     12309.0000        -999.25        45.9202       79.77534         0.4907         0.6339       -40.6313     -0.6313019      0.9952199              1
     12309.5000        -999.25        46.2672       80.49523         0.4948         0.6382       -40.7244     -0.7243996              1              1
     12310.0000        -999.25        46.6852       81.36355            0.5         0.6418       -40.9722     -0.9721985              1              1
     12310.5000        -999.25        47.2393       82.51642         0.5031         0.6486       -41.2374        -1.2374              1      0.9967919
     12311.0000        -999.25        47.8683        83.8259         0.5003         0.6543       -41.5668      -1.566799              1      0.9923406
     12311.5000        -999.25        48.0115       84.11971         0.4972         0.6537       -41.6096        -1.6096              1      0.9917622
     12312.0000        -999.25        47.3092       82.64577         0.4895         0.6319       -41.6232      -1.623199              1      0.9915784
     12312.5000        -999.25        46.3732        80.6832         0.4828         0.6102       -41.6089      -1.608898              1      0.9917716
     12313.0000        -999.25        46.1686       80.24982         0.4776         0.5892       -41.6559      -1.655899              1      0.9911365
     12313.5000        -999.25        46.7689       81.49932         0.4799         0.5822       -41.5306      -1.530602              1      0.9928297
     12314.0000        -999.25        47.4777       82.97562         0.4855         0.5903       -41.2361      -1.236099              1      0.9968095
     12314.5000        -999.25        48.2015       84.48329         0.4942         0.6131       -40.7906     -0.7905998              1              1
     12315.0000        -999.25        48.9278       85.99622         0.5077         0.6367       -40.3812     -0.3811989              1              1
     12315.5000        -999.25        49.3833       86.94293         0.5151         0.6533       -40.1238     -0.1237984              1              1
     12316.0000        -999.25        49.8326       87.87669           0.52         0.6451        -39.958     0.04199982              1              1
     12316.5000        -999.25        50.0829        88.3944         0.5215         0.6139       -40.0293    -0.02930069              1              1
     12317.0000        -999.25        49.8426       87.88638         0.5221         0.5935       -40.2484     -0.2484016              1              1
     12317.5000        -999.25        49.9462        88.0974         0.5056         0.6186        -40.222     -0.2220001              1              1
     12318.0000        -999.25        50.5988        89.4562         0.4895         0.6337       -40.1342      -0.134201              1              1
     12318.5000        -999.25        51.3539       91.02931          0.472         0.6313       -40.0053   -0.005298615              1              1
     12319.0000        -999.25        51.9816       92.33609         0.4585         0.6161       -40.1556     -0.1556015              1              1
     12319.5000        -999.25        52.3822       93.16802         0.4472         0.5922       -40.3332     -0.3331985              1              1
     12320.0000        -999.25        52.2767       92.94184           0.44          0.579       -40.5554     -0.5554008              1              1
     12320.5000        -999.25        51.8643       92.07402         0.4339         0.5672       -40.6714     -0.6713982              1              1
     12321.0000        -999.25        51.5772       91.46817         0.4323          0.561       -40.7177      -0.717701              1              1
     12321.5000        -999.25        51.7477       91.81901         0.4301         0.5486       -40.6321     -0.6320992              1              1
     12322.0000        -999.25        51.7865       91.89454         0.4285         0.5443         -40.35     -0.3499985              1              1
     12322.5000        -999.25        51.6883       91.68363         0.4294          0.559       -40.0493    -0.04930115              1              1
     12323.0000        -999.25        51.4761       91.23434         0.4305         0.5677       -39.9291     0.07089996              1              1
     12323.5000        -999.25        51.2971       90.85449         0.4355         0.5587       -39.7017      0.2983017              1              1
     12324.0000        -999.25        51.0699       90.37386         0.4412         0.5391       -39.3916      0.6083984              1              1
     12324.5000        -999.25        50.4091       88.98669         0.4497         0.5211       -39.1432      0.8568001              1              1
     12325.0000        -999.25        49.0464       86.13202         0.4599         0.5142       -39.0782      0.9217987              1              1
     12325.5000        -999.25        48.6794       85.35912         0.4707         0.5128       -39.1495      0.8504982              1              1
     12326.0000        -999.25        49.8051       87.70706         0.4783          0.514       -39.2534      0.7466011              1              1
     12326.5000        -999.25        51.1654       90.54552         0.4854         0.5284       -39.3776      0.6223984              1              1
     12327.0000        -999.25        52.2462       92.79959         0.4886         0.5815       -39.5488      0.4511986              1              1
     12327.5000        -999.25         52.867        94.0919         0.4883          0.659       -39.7997      0.2002983              1              1
     12328.0000        -999.25        52.0889       92.45948         0.4681         0.6905       -40.0693    -0.06930161              1              1
