#------------------------------------------------------------------------------
# Created by    : vladimir.rabinovich
# Created on    : 09/19/2023 17:22:38
#------------------------------------------------------------------------------
~Version Information Section
VERS.           2.0     :   CWLS log ASCII Standard - VERSION 2.0
WRAP.           NO      :   One line per depth step
~Well Information Section
#MNEM       .UNIT                                         VALUE :DESCRIPTION
#------------------------------------------------------------------------------
STRT        .FT                                             890 :START DEPTH
STOP        .FT                                            9058 :STOP DEPTH
STEP        .FT                                             0.5 :STEP      
NULL        .                                           -999.25 :NULL      
COMP        .                            COASTAL OIL & GAS CORP :COMPANY   
WELL        .                               OCS G01773 ST00BP00 :WELL      
FLD         .                                           WILDCAT :FIELD     
LOC         .                                                   :LOCATION  
CNTY        .                             GALVESTON LARGE BLOCK :LOCATION  
STAT        .                                             TEXAS :STATE     
CTRY        .                                     UNITED STATES :COUNTRY   
SRVC        .                                                   :SERVICE COMPANY
DATE        .                             9/13/2023 11:19:54 AM :LOG DATE  
API         .                                    42706403500000 :API NUMBER
UWI         .                                    42706403500000 :UNIQUE WELL ID
XCOORD      .                                  1074939.13305719 :SURFACE X 
YCOORD      .                                   10531967.363633 :SURFACE Y 
LAT         .                                         29.009472 :LATITUDE  
LON         .                                        -94.769566 :LONGITUDE 
ELEV        .FT                                              83 :ELEVATION VALUE
ELEV_TYPE   .                                                KB :ELEVATION REFERENCE TYPE
~Curve Information Section
#MNEM       .UNIT                                      API CODE :CURVE DESCRIPTION
#------------------------------------------------------------------------------
DEPT        .FT                                                 :DEPTH     
DCAL        .IN                                                 :          
DPSS        .V/V                                                :          
DRHO        .G/CM3                                              :          
DTLF        .US/FT                                              :          
DTLN        .US/FT                                              :          
GR          .GAPI                                               :          
GRS         .GAPI                                               :          
NPSS        .V/V                                                :Neutron Porosity Sandstone
SFL         .OHMM                                               :          
SP          .MV                                                 :          
SP_NORM     .MV                                                 :SP Normalized
SPHI_SAN    .V/V                                                :          
TENS        .LB                                                 :          
VSH_SP      .V/V                                                :Volume of Shale from SP
~A        DEPTH           DCAL           DPSS           DRHO           DTLF           DTLN             GR            GRS           NPSS            SFL             SP        SP_NORM       SPHI_SAN           TENS         VSH_SP
# ...
      6614.0000         0.0769        -999.25        -999.25        -999.25        -999.25        53.0612        -999.25        -999.25         0.6451       -33.8235      -38.37744         0.3024           2760      0.4883008
      6614.5000         0.0769        -999.25        -999.25        -999.25        -999.25        53.0612        -999.25        -999.25         0.6393       -32.3529       -36.9135         0.3048           2780        0.50782
      6615.0000         0.1154        -999.25        -999.25        -999.25        -999.25        51.2245        -999.25        -999.25         0.6451       -32.0588      -36.62606         0.3084           2780      0.5116526
      6615.5000         0.2308        -999.25        -999.25        -999.25        -999.25           48.6        -999.25        -999.25            0.7       -33.2353      -37.80922         0.3108           2760      0.4958771
      6616.0000         0.3077        -999.25        -999.25        -999.25        -999.25           46.2        -999.25        -999.25         0.7203       -35.8824      -40.46297         0.3108           2780      0.4604937
      6616.5000         0.3846        -999.25        -999.25        -999.25        -999.25           44.4        -999.25        -999.25         0.6629       -38.8235      -43.41074         0.3132           2780      0.4211902
      6617.0000            0.5        -999.25        -999.25        -999.25        -999.25           43.2        -999.25        -999.25         0.6165       -41.4706      -46.06449          0.318           2780      0.3858068
      6617.5000         0.5385        -999.25        -999.25        -999.25        -999.25           42.8        -999.25        -999.25         0.5785       -41.7647      -46.36525         0.3216           2780      0.3817966
      6618.0000         0.6154        -999.25        -999.25        -999.25        -999.25           43.6        -999.25        -999.25         0.6055            -40      -44.60721          0.324           2780      0.4052372
      6618.5000         0.6154        -999.25        -999.25        -999.25        -999.25           45.8        -999.25        -999.25         0.6569       -37.6471      -42.26097         0.3168           2800      0.4365204
      6619.0000         0.6154        -999.25        -999.25        -999.25        -999.25             49        -999.25        -999.25         0.6874       -35.5882      -40.20873         0.3036           2780      0.4638836
      6619.5000         0.6154        -999.25        -999.25        -999.25        -999.25        52.0408        -999.25        -999.25         0.7067       -33.8235      -38.45069         0.2916           2780      0.4873242
      6620.0000         0.6154        -999.25        -999.25        -999.25        -999.25        53.6735        -999.25        -999.25         0.7412       -32.9412      -37.57505         0.2796           2780      0.4989994
      6620.5000         0.6154        -999.25        -999.25        -999.25        -999.25        54.2857        -999.25        -999.25         0.7774       -32.3529       -36.9934         0.2724           2780      0.5067546
      6621.0000         0.6154        -999.25        -999.25        -999.25        -999.25        53.0612        -999.25        -999.25         0.7627       -33.2353      -37.88246          0.276           2780      0.4949005
      6621.5000         0.6154        -999.25        -999.25        -999.25        -999.25        51.0204        -999.25        -999.25            0.7       -35.8824      -40.53622         0.2868           2780      0.4595171
      6622.0000         0.6154        -999.25        -999.25        -999.25        -999.25             50        -999.25        -999.25         0.6874       -37.9412      -42.60168         0.2952           2760      0.4319776
      6622.5000         0.6154        -999.25        -999.25        -999.25        -999.25           49.2        -999.25        -999.25         0.7203            -40      -44.66714            0.3           2800      0.4044382
      6623.0000         0.6154        -999.25        -999.25        -999.25        -999.25           48.4        -999.25        -999.25            0.8       -40.8824       -45.5562         0.3048           2800       0.392584
      6623.5000         0.6154        -999.25        -999.25        -999.25        -999.25           47.4        -999.25        -999.25         0.8759       -41.7647      -46.44516         0.3096           2800      0.3807312
      6624.0000         0.6154        -999.25        -999.25        -999.25        -999.25             45        -999.25        -999.25         0.8601       -43.2353      -47.92241         0.3096           2800      0.3610345
      6624.5000         0.6154        -999.25        -999.25        -999.25        -999.25           45.8        -999.25        -999.25         0.7627       -45.6122      -50.30598         0.3096           2780      0.3292536
      6625.0000         0.6154        -999.25        -999.25        -999.25        -999.25           47.2        -999.25        -999.25         0.6222       -46.5306      -51.23103         0.3108           2780      0.3169196
      6625.5000         0.6154        -999.25        -999.25        -999.25        -999.25        51.2245        -999.25        -999.25         0.5186       -44.1176      -48.82469          0.312           2780      0.3490041
      6626.0000         0.6154        -999.25        -999.25        -999.25        -999.25        54.4898        -999.25        -999.25         0.4729       -39.7059      -44.41965         0.3144           2780       0.407738
      6626.5000         0.5385        -999.25        -999.25        -999.25        -999.25         57.551        -999.25        -999.25         0.4729       -30.5882      -35.30861         0.3144           2780      0.5292186
      6627.0000         0.5385        -999.25        -999.25        -999.25        -999.25        59.3878        -999.25        -999.25         0.5186       -25.8824      -30.60947          0.312           2780      0.5918738
      6627.5000         0.4231        -999.25        -999.25        -999.25        -999.25             60        -999.25        -999.25         0.5681       -22.6471      -27.38083          0.306           2780      0.6349223
      6628.0000         0.3846        -999.25        -999.25        -999.25        -999.25        59.7959        -999.25        -999.25         0.6335       -23.5294      -28.26978         0.2976           2800      0.6230695
      6628.5000         0.3846        -999.25        -999.25        -999.25        -999.25             60        -999.25        -999.25         0.6751       -25.8824      -30.62944         0.2952           2780      0.5916074
      6629.0000         0.3077        -999.25        -999.25        -999.25        -999.25        60.1961        -999.25        -999.25         0.6937       -28.2353        -32.989          0.294           2780      0.5601466
      6629.5000         0.1923        -999.25        -999.25        -999.25        -999.25         57.551        -999.25        -999.25         0.7701            -30      -34.76036         0.2988           2760      0.5365285
      6630.0000         0.3462        -999.25        -999.25        -999.25        -999.25        51.8367        -999.25        -999.25         0.8447       -35.8824      -40.64942         0.3048           2760      0.4580077
      6630.5000         0.5769        -999.25        -999.25        -999.25        -999.25           48.2        -999.25        -999.25         0.8601       -41.7647      -46.53838          0.312           2780      0.3794883
      6631.0000         0.7692        -999.25        -999.25        -999.25        -999.25           46.2        -999.25        -999.25            0.8        -47.449      -52.22934         0.3132           2760      0.3036088
      6631.5000         0.9615        -999.25        -999.25        -999.25        -999.25           47.8        -999.25        -999.25         0.5892       -48.0612      -52.84819         0.3108           2760      0.2953574
