#------------------------------------------------------------------------------
# Created by    : vladimir.rabinovich
# Created on    : 09/19/2023 17:22:39
#------------------------------------------------------------------------------
~Version Information Section
VERS.           2.0     :   CWLS log ASCII Standard - VERSION 2.0
WRAP.           NO      :   One line per depth step
~Well Information Section
#MNEM       .UNIT                                         VALUE :DESCRIPTION
#------------------------------------------------------------------------------
STRT        .FT                                            3493 :START DEPTH
STOP        .FT                                            8566 :STOP DEPTH
STEP        .FT                                             0.5 :STEP      
NULL        .                                           -999.25 :NULL      
COMP        .                          SEAGULL ENERGY E & P INC :COMPANY   
WELL        .                               OCS G09038 ST00BP00 :WELL      
FLD         .                                           WILDCAT :FIELD     
LOC         .                                                   :LOCATION  
CNTY        .                             GALVESTON LARGE BLOCK :LOCATION  
STAT        .                                             TEXAS :STATE     
CTRY        .                                     UNITED STATES :COUNTRY   
SRVC        .                                                   :SERVICE COMPANY
DATE        .                             9/13/2023 11:19:36 AM :LOG DATE  
API         .                                    42706402070000 :API NUMBER
UWI         .                                    42706402070000 :UNIQUE WELL ID
XCOORD      .                                  986976.405819811 :SURFACE X 
YCOORD      .                                  10491452.3738699 :SURFACE Y 
LAT         .                                         28.894171 :LATITUDE  
LON         .                                        -95.042508 :LONGITUDE 
ELEV        .FT                                              93 :ELEVATION VALUE
ELEV_TYPE   .                                                KB :ELEVATION REFERENCE TYPE
~Curve Information Section
#MNEM       .UNIT                                      API CODE :CURVE DESCRIPTION
#------------------------------------------------------------------------------
DEPT        .FT                                                 :DEPTH     
DCAL        .IN                                                 :          
DPHI        .%                                                  :          
DRHO        .G/C3                                               :          
GR          .GAPI                                               :          
GR_NORM     .GAPI                                               :GammaRay Normalized
ILD         .OHMM                                               :          
ILM         .OHMM                                               :          
NPHI        .%                                                  :          
SGRD        .OHMM                                               :          
SP          .MV                                                 :          
SP_NORM     .MV                                                 :SP Normalized
VSH_GR      .V/V                                                :Volume of Shale from GR
VSH_SP      .V/V                                                :Volume of Shale from SP
~A        DEPTH           DCAL           DPHI           DRHO             GR        GR_NORM            ILD            ILM           NPHI           SGRD             SP        SP_NORM         VSH_GR         VSH_SP
# ...
      5507.0000         2.5163        47.1753         0.0968        45.1876       43.67132         0.2707         0.3092        54.6503         0.9853      -138.4077      -85.82224      0.2270493              0
      5507.5000         2.7413        46.3998         0.0992        45.6779       44.33585         0.2749         0.3281        54.9017         1.0068      -138.4395       -85.8559      0.2411883              0
      5508.0000         2.9645        45.2633         0.0995        45.4534       44.02249         0.2694         0.3188         54.256          1.009        -138.47      -85.88826       0.234521              0
      5508.5000         2.9943        43.2899         0.1032        43.3904       41.19387         0.2567         0.3039         53.688         0.9782      -138.2168       -85.6369      0.1743376              0
      5509.0000         2.7629         41.647         0.1161        43.3978       41.19776         0.2423         0.2903        53.7792         0.9347      -138.0132      -85.43517      0.1744205              0
      5509.5000          2.652        43.9259         0.1246        43.7926       41.73165         0.2239         0.2774        54.7275         0.8916      -137.5664      -84.99023      0.1857797              0
      5510.0000         2.8319        46.1159         0.1123        43.6656       41.55166         0.2059         0.2635        55.7972         0.8638      -136.7942      -84.21988      0.1819502              0
      5510.5000         3.0465        47.7521          0.096        43.1652       40.86083        -999.25         0.2514        56.6335         0.8511      -135.3608      -82.78833      0.1672517              0
      5511.0000         3.1715        47.5508         0.1073        42.3707       39.76764        -999.25         0.2405        56.8989         0.8397      -132.9617       -80.3911      0.1439922              0
      5511.5000          3.237        46.2672         0.1122        44.5019       42.67708        -999.25         0.2307        55.9136         0.8221      -129.5303      -76.96155      0.2058954     0.03798065
      5512.0000         3.2597        42.9162         0.1006        46.8589       45.89544        -999.25         0.2236        54.1077         0.8005      -126.0419      -73.47501      0.2743711     0.08156242
      5512.5000          3.276        40.2384         0.0898          48.69       48.39433        -999.25         0.2299        50.8813         0.7745      -121.6355      -69.07047      0.3275388      0.1366192
      5513.0000         3.2813        37.6288         0.0794        50.5955       50.99499         0.2059         0.2431        47.6075          0.768      -118.2538      -65.69061      0.3828722      0.1788673
      5513.5000         2.9804        34.9837         0.0692        53.3147       54.70888         0.2303         0.2684        44.5531         0.7826      -116.0505      -63.48917       0.461891      0.2063853
      5514.0000         2.4428        32.6306         0.0591        56.4731       59.02362         0.2703          0.303        40.2028         0.9206      -114.5458      -61.98633      0.5536941      0.2251709
      5514.5000         1.8968        31.2058         0.0504        59.1627         62.697         0.3088         0.3345        37.2152         1.0342      -113.7258      -61.16819       0.631851      0.2353977
      5515.0000          1.427        29.4799         0.0335        61.4825       65.86448         0.3226         0.3634        36.2106         1.1245      -113.6105      -61.05474      0.6992443      0.2368157
      5515.5000          1.205        27.6666         0.0435        63.7043       68.89787         0.3213         0.3813        35.6646         1.1882      -117.5516       -64.9977      0.7637843      0.1875288
      5516.0000         1.2957        26.4641         0.0403        62.4526       67.17919         0.3015         0.3737        35.4341          1.146       -124.067      -71.51495      0.7272168      0.1060631
      5516.5000         1.4437        28.0802         0.0315        59.2073       62.73308         0.2795         0.3503        36.5109         1.0778      -129.8628      -77.31261      0.6326187     0.03359241
      5517.0000         1.6293        30.2746          0.029        56.2846       58.72832         0.2584         0.3238        38.3954         0.9913      -133.1062      -80.55788       0.547411              0
      5517.5000         1.8193        32.9198          0.028        54.8195       56.71768         0.2383         0.3048        39.8811         0.8932      -131.3364      -78.78992      0.5046315     0.01512604
      5518.0000         1.9331        35.3499         0.0285        55.5998       57.77896         0.2213         0.2881        41.0079         0.7802      -125.3969      -72.85228       0.527212     0.08934651
      5518.5000         1.7221        35.0801         0.0314        58.9567        62.3653         0.2101         0.2763        42.2341         0.7406      -119.0204      -66.47765      0.6247935      0.1690294
      5519.0000         1.4419        33.7886         0.0388        59.9607        63.7326         0.2028         0.2731        43.2491         0.7701      -115.1984       -62.6575      0.6538852      0.2167813
      5519.5000         1.2142        33.4187         0.0556          59.35       62.89088            0.2         0.2695         43.986         0.8052      -118.0428      -65.50375      0.6359762      0.1812031
      5520.0000         1.1017        36.4101         0.0767        54.0466       55.62909         0.2004         0.2659        45.1989         0.8467      -122.0226      -69.48541      0.4814701      0.1314323
      5520.5000         1.0867        39.7225         0.0883        51.6152       52.29648         0.2046         0.2626        46.1389         0.8618      -122.6565      -70.12117      0.4105634      0.1234854
      5521.0000         1.2129        41.2385         0.0843        51.3199       51.88624         0.2106         0.2601        46.8587         0.8496      -117.5367      -65.00322      0.4018349      0.1874598
      5521.5000         1.3501        40.3392         0.0958        53.7092        55.1488         0.2198          0.262        47.2342         0.8304      -108.4659      -55.93428       0.471251      0.3008215
      5522.0000         1.3134        36.7926         0.0904           58.2       61.28638         0.2335         0.2779        46.6266         0.8034       -96.5566      -44.02684       0.601838      0.4496645
      5522.5000           1.06        32.7271         0.0777        61.5457       65.85738         0.2537         0.3053        45.6888         0.8415       -90.3441      -37.81619      0.6990933      0.5272976
      5523.0000         0.9371        30.3087          0.065        62.8632       67.65361         0.2829         0.3402        44.4093         0.9119       -93.5372      -41.01115      0.7373108      0.4873606
      5523.5000         0.9114        29.5177         0.0529        64.1545       69.41399         0.3362         0.3818         42.891         0.9965       -94.7988       -42.2746      0.7747657      0.4715675
      5524.0000         0.9225        28.9194         0.0337        66.4794       72.58845         0.3896         0.4226        41.6685         1.0673       -86.9995      -34.47716      0.8423074      0.5690355
      5524.5000         0.9548        28.1381         0.0372        69.5211       76.74353         0.4406         0.4694        41.0617          0.996       -74.2865      -21.76602      0.9307134      0.7279248
      5525.0000         0.9969        26.7043         0.0483        73.2651       81.85944         0.4948         0.5133        42.4595         0.9019        -65.434      -12.91537              1      0.8385578
      5525.5000         1.0466         25.117          0.056        76.3739       86.10633         0.5362          0.554        44.0519         0.8192       -59.4893       -6.97253              1      0.9128433
