#------------------------------------------------------------------------------
# Created by    : vladimir.rabinovich
# Created on    : 09/19/2023 17:19:47
#------------------------------------------------------------------------------
~Version Information Section
VERS.           2.0     :   CWLS log ASCII Standard - VERSION 2.0
WRAP.           NO      :   One line per depth step
~Well Information Section
#MNEM       .UNIT                                         VALUE :DESCRIPTION
#------------------------------------------------------------------------------
STRT        .FT                                            2960 :START DEPTH
STOP        .FT                                           11758 :STOP DEPTH
STEP        .FT                                             0.5 :STEP      
NULL        .                                           -999.25 :NULL      
COMP        .                             CHAMPLIN PETROLEUM CO :COMPANY   
WELL        .                               OCS G06095 ST00BP00 :WELL      
FLD         .                                           WILDCAT :FIELD     
LOC         .                                                   :LOCATION  
CNTY        .                             GALVESTON LARGE BLOCK :LOCATION  
STAT        .                                             TEXAS :STATE     
CTRY        .                                     UNITED STATES :COUNTRY   
SRVC        .                                                   :SERVICE COMPANY
DATE        .                             9/13/2023 11:19:27 AM :LOG DATE  
API         .                                    42706401150000 :API NUMBER
UWI         .                                    42706401150000 :UNIQUE WELL ID
XCOORD      .                                  1057213.14222316 :SURFACE X 
YCOORD      .                                  10507856.7651171 :SURFACE Y 
LAT         .                                        28.9424301 :LATITUDE  
LON         .                                       -94.8238502 :LONGITUDE 
ELEV        .FT                                              89 :ELEVATION VALUE
ELEV_TYPE   .                                                KB :ELEVATION REFERENCE TYPE
~Curve Information Section
#MNEM       .UNIT                                      API CODE :CURVE DESCRIPTION
#------------------------------------------------------------------------------
DEPT        .FT                                                 :DEPTH     
ASFL        .OHMM                                               :          
CILD        .MMHO                                               :          
GR          .GAPI                                               :          
GR_NORM     .GAPI                                               :GammaRay Normalized
ILD         .OHMM                                               :          
SP          .MV                                                 :          
SP_NORM     .MV                                                 :SP Normalized
VSH_GR      .V/V                                                :Volume of Shale from GR
VSH_SP      .V/V                                                :Volume of Shale from SP
~A        DEPTH           ASFL           CILD             GR        GR_NORM            ILD             SP        SP_NORM         VSH_GR         VSH_SP
# ...
      8816.5000         0.8308       1319.918        52.8214       78.49454         0.7334        22.0252      -1.106451      0.9679691              1
      8817.0000         0.8437       1273.871        53.2537       79.33086         0.7409        22.1241      -1.207508      0.9857629              1
      8817.5000         0.8564       1237.564        53.7249       80.24229         0.7484        22.2231      -1.308666              1              1
      8818.0000          0.869       1238.654        54.2103       81.18115         0.7584        22.3221      -1.409822              1              1
      8818.5000         0.8815       1239.744        54.6976        82.1237         0.7693        22.2481      -1.337982              1              1
      8819.0000         0.8888       1240.836        55.8975       84.44271         0.7803         22.043      -1.135038              1              1
      8819.5000         0.8962       1241.924         57.095       86.75706         0.7912        21.8378     -0.9319954              1              1
      8820.0000         0.9035       1247.143        58.3903       89.26037         0.8022        21.6324      -0.728754              1              1
      8820.5000         0.9039       1257.256         60.034       92.43662         0.8131        21.4272     -0.5257111              1              1
      8821.0000         0.9022       1267.357        59.1871       90.80199         0.8241        21.2221     -0.3227692              1              1
      8821.5000         0.9006       1277.473        58.3403       89.16756         0.8301        21.0166     -0.1194267              1              1
      8822.0000          0.899       1287.586        57.2787        87.1182         0.8245        20.8115     0.08351517              1              1
      8822.5000         0.8966       1297.688        55.2534       83.20736         0.8189         20.779      0.1138592              1              1
      8823.0000         0.8934       1307.803        53.2281       79.29651         0.8133        20.7704      0.1203003      0.9850321              1
      8823.5000         0.8902       1320.084        49.1667       71.45267         0.8076        20.7619      0.1266422       0.818142              1
      8824.0000         0.8876       1334.508         48.822        70.7881          0.802        20.8929   -0.006515503      0.8040022              1
      8824.5000         0.8919       1348.934        48.4767        70.1224         0.7964        21.0995     -0.2152729      0.7898383              1
      8825.0000         0.8962       1363.357        48.1377       69.46882         0.7866        21.3062     -0.4241314      0.7759323              1
      8825.5000         0.9004       1376.859        47.8622        68.9379         0.7762        21.5128     -0.6328888      0.7646363              1
      8826.0000         0.9033       1388.773        47.5869       68.40743         0.7658        21.7195     -0.8417454      0.7533496              1
      8826.5000         0.8857       1400.711        47.3114        67.8765         0.7554        21.8566     -0.9810028      0.7420533              1
      8827.0000         0.8701       1404.373        47.0359        67.3456         0.7451         21.944      -1.070562      0.7307575              1
      8827.5000         0.8601       1401.473        46.7603       66.81451         0.7347        22.0313      -1.160019      0.7194577              1
      8828.0000         0.8502       1398.576        46.6513       66.60523         0.7341        22.1189      -1.249777      0.7150049              1
      8828.5000          0.843       1392.979        46.7231       66.74519         0.7349         22.198      -1.331034      0.7179826              1
      8829.0000         0.8596       1384.807        46.7949       66.88513         0.7358        22.1014      -1.236593      0.7209603              1
      8829.5000         0.8762       1376.635        47.5625       68.36909         0.7367        22.0048      -1.142151      0.7525339              1
      8830.0000         0.8928       1368.463        49.2681       71.66492         0.7376        21.9082      -1.047707      0.8226579              1
      8830.5000         0.9054       1360.291        50.9738       74.96092         0.7384        21.8116     -0.9532642      0.8927856              1
      8831.0000         0.9112       1366.924        52.6866       78.27068         0.7393         21.715     -0.8588238      0.9632061              1
      8831.5000         0.9058       1374.727        54.5449       81.86146         0.7402        21.6883       -0.83428              1              1
      8832.0000         0.8871       1382.543        56.8517        86.3186         0.7411        21.8161     -0.9642372              1              1
      8832.5000         0.8693       1390.348        57.4934       87.55939          0.742         21.944      -1.094296              1              1
      8833.0000         0.8591       1393.984        56.7109       86.04916         0.7429        22.0717      -1.224152              1              1
      8833.5000          0.849       1382.213        55.8283       84.34554         0.7439        22.1995      -1.354111              1              1
      8834.0000         0.8513       1370.439        55.0316       82.80788         0.7448         22.365      -1.521769              1              1
      8834.5000         0.8589       1358.668        56.0788       84.83193         0.7458        22.5848      -1.743727              1              1
      8835.0000         0.8665        1339.98        57.4558       87.49305         0.7467        22.8043      -1.965384              1              1
      8835.5000         0.8765       1319.137        57.7382       88.03979         0.7477        22.9379      -2.101143              1      0.9980916
      8836.0000         0.8941       1298.316        57.9052       88.36362         0.7486        22.9483      -2.113699              1      0.9978547
      8836.5000         0.9116       1281.926        58.0477       88.64014         0.7496        22.9587      -2.126257              1      0.9976178
      8837.0000         0.9268       1303.668        58.1899       88.91607         0.7498        22.9691      -2.138815              1      0.9973809
      8837.5000         0.9275       1329.344        58.3325       89.19278         0.7461        22.9796      -2.151474              1       0.997142
      8838.0000         0.9127       1355.305        58.4747       89.46873         0.7423        22.9822      -2.156231              1      0.9970523
      8838.5000         0.8916       1383.682        58.9241       90.33805         0.7386        22.9084      -2.084587              1       0.998404
      8839.0000         0.8766       1410.316        59.4316       91.31963         0.7349        22.8347      -2.013044              1      0.9997539
      8839.5000           0.87       1417.777        59.9391       92.30116         0.7311         22.761      -1.941504              1              1
      8840.0000         0.8633       1425.238         60.446       93.28156         0.7274        22.6873      -1.869961              1              1
      8840.5000         0.8567       1423.006        59.9385       92.30254         0.7237        22.6136      -1.798418              1              1
      8841.0000         0.8527       1418.582        59.0547       90.59662         0.7201        22.5398      -1.726776              1              1
      8841.5000         0.8513       1414.164        57.7629       88.10262         0.7168        22.4662      -1.655334              1              1
      8842.0000         0.8499       1409.748        56.1527       84.99357         0.7135        22.3924      -1.583693              1              1
      8842.5000         0.8496        1405.33        54.6313       82.05608         0.7102        22.3187       -1.51215              1              1
