#------------------------------------------------------------------------------
# Created by    : vladimir.rabinovich
# Created on    : 09/19/2023 17:20:23
#------------------------------------------------------------------------------
~Version Information Section
VERS.           2.0     :   CWLS log ASCII Standard - VERSION 2.0
WRAP.           NO      :   One line per depth step
~Well Information Section
#MNEM       .UNIT                                         VALUE :DESCRIPTION
#------------------------------------------------------------------------------
STRT        .FT                                            3532 :START DEPTH
STOP        .FT                                           13690 :STOP DEPTH
STEP        .FT                                             0.5 :STEP      
NULL        .                                           -999.25 :NULL      
COMP        .                              VASTAR RESOURCES INC :COMPANY   
WELL        .                                     ST TR 00023-L :WELL      
FLD         .                          HIGH ISLAND BLOCK 0024-L :FIELD     
LOC         .                                                   :LOCATION  
CNTY        .                           HIGH ISLAND LARGE BLOCK :LOCATION  
STAT        .                                             TEXAS :STATE     
CTRY        .                                     UNITED STATES :COUNTRY   
SRVC        .                                                   :SERVICE COMPANY
DATE        .                             9/13/2023 11:19:15 AM :LOG DATE  
API         .                                    42708300330000 :API NUMBER
UWI         .                                    42708300330000 :UNIQUE WELL ID
XCOORD      .                                  1290562.53578251 :SURFACE X 
YCOORD      .                                  10712997.1214806 :SURFACE Y 
LAT         .                                        29.5146054 :LATITUDE  
LON         .                                       -94.1002609 :LONGITUDE 
ELEV        .FT                                              79 :ELEVATION VALUE
ELEV_TYPE   .                                                KB :ELEVATION REFERENCE TYPE
~Curve Information Section
#MNEM       .UNIT                                      API CODE :CURVE DESCRIPTION
#------------------------------------------------------------------------------
DEPT        .FT                                                 :DEPTH     
ASN         .OHMM                                               :          
CILD        .MMHO                                               :          
ILD         .OHMM                                               :          
SP          .MV                                                 :          
SP_NORM     .MV                                                 :SP Normalized
VSH_SP      .V/V                                                :Volume of Shale from SP
~A        DEPTH            ASN           CILD            ILD             SP        SP_NORM         VSH_SP
# ...
     11626.0000         0.6447       1871.615         0.5452        -52.459      -3.994774      0.9492411
     11626.5000         0.6255       1905.861         0.5393       -52.8403      -4.377819      0.9427488
     11627.0000         0.6134       1934.721         0.5335        -53.221      -4.760258      0.9362668
     11627.5000         0.6047       1960.268         0.5277       -53.6477      -5.188702      0.9290051
     11628.0000          0.596       1982.111         0.5219       -54.0942       -5.63694      0.9214078
     11628.5000         0.5935       1992.143          0.516       -54.5407      -6.085182      0.9138105
     11629.0000         0.5929       2002.174         0.5102       -54.9866      -6.532822      0.9062234
     11629.5000         0.5924       2009.191         0.5044       -55.1633      -6.711266      0.9031989
     11630.0000         0.5918       1999.307         0.4986       -54.9435      -6.493206      0.9068948
     11630.5000         0.5911       1989.398         0.4927       -54.7233       -6.27475      0.9105974
     11631.0000         0.5895       1979.047         0.4869       -54.5035       -6.05669      0.9142934
     11631.5000          0.588        1960.17         0.4811       -54.2833       -5.83823      0.9179961
     11632.0000         0.5906       1941.342         0.4753       -54.0632      -5.619873      0.9216971
     11632.5000         0.5962       1922.465         0.4731       -53.8433      -5.401714      0.9253947
     11633.0000         0.6018       1903.637          0.474       -53.6232      -5.183353      0.9290957
     11633.5000         0.6074        1884.76         0.4748        -53.403      -4.964893      0.9327984
     11634.0000          0.613       1865.934         0.4756       -53.1832      -4.746838      0.9364943
     11634.5000         0.6186       1850.367         0.4764        -52.963      -4.528378       0.940197
     11635.0000         0.6242        1836.58         0.4772       -52.6292       -4.19632      0.9458251
     11635.5000         0.6188       1822.768         0.4781        -52.264      -3.832859      0.9519854
     11636.0000         0.6117       1832.479         0.4789       -51.8983      -3.468903      0.9581542
     11636.5000         0.6047       1864.945         0.4797       -51.5331      -3.105442      0.9643145
     11637.0000         0.5976       1897.361         0.4805       -51.1679      -2.741985      0.9704748
     11637.5000         0.5917       1929.828         0.4813       -50.8021      -2.377926      0.9766454
     11638.0000         0.5877       1956.711         0.4822        -50.437      -2.014568      0.9828039
     11638.5000         0.5837       1979.244          0.483       -50.0718      -1.651108      0.9889643
     11639.0000         0.5797       2001.777         0.4838        -49.849       -1.43005       0.992711
     11639.5000         0.5756       1992.834         0.4846       -49.9325      -1.515289      0.9912663
     11640.0000          0.576       1974.697         0.4854       -50.0161      -1.600632      0.9898198
     11640.5000         0.5819       1956.563         0.4879       -50.0995      -1.685772      0.9883767
     11641.0000         0.5879       1938.426         0.4908       -49.9811      -1.569111      0.9903541
     11641.5000         0.5938       1926.566         0.4938       -49.8535      -1.443256      0.9924872
     11642.0000         0.5998       1917.029         0.4967       -49.7259      -1.317394      0.9946204
     11642.5000         0.6057       1913.941         0.4997       -49.5983       -1.19154      0.9967536
     11643.0000         0.6116       1929.631         0.5026       -49.4706      -1.065578      0.9988885
     11643.5000         0.6112       1945.346         0.5056        -49.343     -0.9397202              1
     11644.0000         0.6082       1961.035         0.5085       -49.2157     -0.8141594              1
     11644.5000         0.6053       1976.725         0.5114       -49.0881     -0.6883049              1
     11645.0000         0.6024       1992.438         0.5144       -48.9604     -0.5623436              1
     11645.5000         0.5995       2006.918         0.5173       -48.7303     -0.3339882              1
     11646.0000         0.5965       2021.297         0.5203       -48.4974     -0.1028252              1
     11646.5000         0.5958        1994.91         0.5231       -48.2652      0.1276321              1
     11647.0000         0.6045       1961.801         0.5254       -48.2478      0.1432915              1
     11647.5000         0.6131       1928.643         0.5278       -48.3919   -0.002548218              1
     11648.0000         0.6218       1895.533         0.5301       -48.5359     -0.1482925              1
     11648.5000         0.6305       1856.691         0.5324       -48.6801     -0.2942314              1
     11649.0000         0.6391       1816.467         0.5347       -48.8238     -0.4396744              1
     11649.5000         0.6478       1776.242          0.537       -48.9679     -0.5855141              1
     11650.0000         0.6553       1736.117         0.5394        -49.112     -0.7313576              1
     11650.5000         0.6611       1635.109         0.5417        -49.238     -0.8590965              1
     11651.0000         0.6638       1673.063          0.544       -49.1533     -0.7761421              1
     11651.5000         0.6614       1710.123         0.5463       -49.0685     -0.6930809              1
     11652.0000         0.6591       1747.186         0.5486       -48.9837     -0.6100235              1
     11652.5000         0.6567       1763.072          0.551        -48.899     -0.5270615              1
     11653.0000         0.6543       1772.512         0.5509       -48.8142     -0.4440079              1
     11653.5000         0.6519       1781.926         0.5489       -48.7294     -0.3609467              1
     11654.0000         0.6495        1791.34         0.5468       -48.6447     -0.2779846              1
     11654.5000         0.6472       1800.951         0.5448       -48.5601     -0.1951294              1
     11655.0000         0.6448       1812.119         0.5427       -48.4868     -0.1235695              1
     11655.5000         0.6415       1823.262         0.5407        -48.418    -0.05651093              1
     11656.0000         0.6378       1834.406         0.5386       -48.3494     0.01034927              1
     11656.5000          0.634       1847.006         0.5366       -48.2807     0.07730484              1
     11657.0000         0.6303       1863.314         0.5346        -48.212      0.1442642              1
     11657.5000         0.6265       1879.621         0.5325       -48.1433      0.2112236              1
     11658.0000         0.6227       1895.928         0.5305       -48.0747      0.2780838              1
     11658.5000          0.619       1913.027         0.5284       -48.0059      0.3451385              1
     11659.0000         0.6152       1930.248         0.5264       -47.9373      0.4119987              1
     11659.5000         0.6115       1921.031         0.5243       -47.8687      0.4788589              1
     11660.0000         0.6145       1905.244         0.5223          -47.8      0.5458183              1
     11660.5000         0.6177        1889.48         0.5209       -47.7313      0.6127777              1
     11661.0000          0.621       1873.691         0.5197       -47.6627      0.6796341              1
     11661.5000         0.6243       1857.902         0.5185        -47.594      0.7465935              1
     11662.0000         0.6275       1842.139         0.5174       -47.5347      0.8041534              1
     11662.5000         0.6272        1826.35         0.5162       -47.4756      0.8615112              1
     11663.0000         0.6255       1814.658          0.515       -47.4164      0.9189682              1
     11663.5000         0.6238       1819.137         0.5138       -47.3572       0.976429              1
