#------------------------------------------------------------------------------
# Created by    : vladimir.rabinovich
# Created on    : 09/19/2023 17:20:35
#------------------------------------------------------------------------------
~Version Information Section
VERS.           2.0     :   CWLS log ASCII Standard - VERSION 2.0
WRAP.           NO      :   One line per depth step
~Well Information Section
#MNEM       .UNIT                                         VALUE :DESCRIPTION
#------------------------------------------------------------------------------
STRT        .FT                                             501 :START DEPTH
STOP        .FT                                            8659 :STOP DEPTH
STEP        .FT                                             0.5 :STEP      
NULL        .                                           -999.25 :NULL      
COMP        .                                      SHELL OIL CO :COMPANY   
WELL        .                                OCS 00705 ST00BP00 :WELL      
FLD         .                                           WILDCAT :FIELD     
LOC         .                                                   :LOCATION  
CNTY        .                             GALVESTON LARGE BLOCK :LOCATION  
STAT        .                                             TEXAS :STATE     
CTRY        .                                     UNITED STATES :COUNTRY   
SRVC        .                                                   :SERVICE COMPANY
DATE        .                             9/13/2023 11:19:25 AM :LOG DATE  
API         .                                    42706000440000 :API NUMBER
UWI         .                                    42706000440000 :UNIQUE WELL ID
XCOORD      .                                  1104214.94625617 :SURFACE X 
YCOORD      .                                  10500066.5450575 :SURFACE Y 
LAT         .                                         28.922918 :LATITUDE  
LON         .                                        -94.676571 :LONGITUDE 
ELEV        .FT                                              41 :ELEVATION VALUE
ELEV_TYPE   .                                                KB :ELEVATION REFERENCE TYPE
~Curve Information Section
#MNEM       .UNIT                                      API CODE :CURVE DESCRIPTION
#------------------------------------------------------------------------------
DEPT        .FT                                                 :DEPTH     
ASN         .OHMM                                               :          
CILD        .MMHO                                               :          
DT          .US/F                                               :          
ILD         .OHMM                                               :          
LAT         .OHMM                                               :          
SP          .MV                                                 :          
SP_NORM     .MV                                                 :SP Normalized
VSH_SP      .V/V                                                :Volume of Shale from SP
~A        DEPTH            ASN           CILD             DT            ILD            LAT             SP        SP_NORM         VSH_SP
# ...
      7551.5000         1.2324       874.2705        96.3462         1.2719        -999.25       -47.1529     -0.1185646              1
      7552.0000          1.249       864.8896        97.2178         1.2739        -999.25       -47.3137     -0.2871628              1
      7552.5000         1.2657       855.5078        96.5652         1.2922        -999.25       -47.2774     -0.2586594              1
      7553.0000         1.2823       846.4502        95.7985         1.3118        -999.25       -47.2411     -0.2301598              1
      7553.5000          1.299        838.623        94.6005         1.3314        -999.25       -47.2047     -0.2015572              1
      7554.0000         1.3157       830.7949        93.2969         1.3511        -999.25       -47.1683     -0.1729546              1
      7554.5000         1.3158       822.9678        92.6575         1.3707        -999.25       -47.1333      -0.145752              1
      7555.0000         1.3015       815.6436         92.262         1.3641        -999.25       -47.1129     -0.1331482              1
      7555.5000          1.287       823.7725        92.9762         1.3565        -999.25       -47.0925     -0.1205482              1
      7556.0000         1.2726       831.8906        95.5327          1.349        -999.25       -47.0721     -0.1079483              1
      7556.5000         1.2582       845.4551        96.9315         1.3414        -999.25       -47.2693     -0.3129425              1
      7557.0000         1.2437       863.5469        99.9222         1.3339        -999.25       -47.6848     -0.7362404              1
      7557.5000         1.2315       881.6396       101.9771         1.3237        -999.25       -48.0998      -1.159039      0.9959221
      7558.0000          1.221         899.71       102.0854         1.3134        -999.25       -48.5148      -1.581841       0.985081
      7558.5000         1.2105       908.9688       101.7338          1.303        -999.25       -48.9298      -2.004635      0.9742401
      7559.0000            1.2       901.3877        99.1409         1.2955        -999.25        -49.186      -2.268635      0.9674709
      7559.5000         1.1924       893.7949        95.1869         1.2881        -999.25       -49.3059      -2.396332      0.9641966
      7560.0000         1.2068       886.2129        94.3882         1.2817        -999.25       -49.4258      -2.524033      0.9609222
      7560.5000         1.2248       878.6318        95.6151          1.283        -999.25       -49.5457       -2.65173       0.957648
      7561.0000         1.2427       871.0391        97.2934         1.2843        -999.25       -49.6334      -2.747227      0.9551993
      7561.5000         1.2534        863.458        99.5448         1.2856        -999.25       -49.4565      -2.578125      0.9595352
      7562.0000          1.259       855.8877          98.23         1.2869        -999.25       -49.2792      -2.408623      0.9638815
      7562.5000         1.2646       848.3281        96.9256         1.2882        -999.25       -49.1023      -2.239521      0.9682174
      7563.0000         1.2702       840.7695        96.2773         1.2895        -999.25       -48.9254      -2.070419      0.9725534
      7563.5000         1.2759       833.1992        95.7691         1.2908        -999.25       -48.7482      -1.901016       0.976897
      7564.0000         1.2815       825.6406         95.624         1.2921        -999.25       -48.5712      -1.731815      0.9812355
      7564.5000         1.2848       818.0811        96.7654         1.2934        -999.25       -48.3943       -1.56271      0.9855716
      7565.0000         1.2854       810.7627        97.6987         1.2947        -999.25       -48.1487      -1.324913      0.9916689
      7565.5000          1.286         810.46        98.0937          1.296        -999.25       -47.8673      -1.051308      0.9986844
      7566.0000         1.2867       810.1572        98.1665         1.2973        -999.25       -47.5856     -0.7774086              1
      7566.5000         1.2873       809.8555        98.0214         1.2986        -999.25       -47.3043     -0.5039024              1
      7567.0000          1.288       809.5527        97.7768         1.3019        -999.25       -47.0226     -0.2300034              1
      7567.5000         1.2886        809.251         97.005         1.3073        -999.25       -46.8474      -0.062603              1
      7568.0000         1.2893            809        97.2231         1.3127        -999.25       -47.0634     -0.2863998              1
      7568.5000           1.29       810.3184        97.9909          1.318        -999.25       -47.2795     -0.5102959              1
      7569.0000         1.2922       811.6377        99.1247         1.3234        -999.25       -47.4959     -0.7344933              1
      7569.5000         1.2944        812.957        99.6927         1.3288        -999.25        -47.712     -0.9583969              1
      7570.0000         1.2966       814.2764        99.7079         1.3342        -999.25       -47.8194      -1.073593       0.998113
      7570.5000         1.2987       815.5947        99.2573         1.3396        -999.25       -47.9209      -1.182888      0.9953105
      7571.0000         1.3009       816.9141         97.805         1.3449        -999.25       -48.0225      -1.292286      0.9925055
      7571.5000         1.3031       818.2334        97.5147         1.3503        -999.25        -48.124      -1.401585      0.9897029
      7572.0000         1.3053       819.2871        97.4422         1.3557        -999.25       -48.2255      -1.510883      0.9869004
      7572.5000         1.3074       817.9746        97.8126         1.3611        -999.25       -48.0204      -1.313583      0.9919594
      7573.0000         1.3096       816.6611        98.2414         1.3606        -999.25        -47.697     -0.9979782              1
      7573.5000         1.3135       815.3486        97.6955         1.3579        -999.25       -47.3743      -0.683075              1
      7574.0000         1.3181       814.0361        96.4099         1.3552        -999.25       -47.0509     -0.3674774              1
      7574.5000         1.3227       812.7236        95.5549         1.3525        -999.25       -46.7281    -0.05247498              1
      7575.0000         1.3273       811.4102        96.4509         1.3498        -999.25       -46.4048      0.2630272              1
      7575.5000         1.3319       810.0977        99.2322         1.3348        -999.25       -46.0815      0.5785294              1
      7576.0000         1.3365       811.3271       101.7307         1.3186        -999.25       -45.8646       0.787632              1
      7576.5000         1.3411       820.0381       102.5998         1.3024        -999.25       -45.7314      0.9130325              1
      7577.0000         1.3252       828.7598       102.7452         1.2861        -999.25        -45.598       1.038635              1
      7577.5000         1.3068       837.4707       101.5109         1.2699        -999.25       -45.4647       1.164139              1
      7578.0000         1.2834       846.1924       103.4718         1.2537        -999.25       -45.3314       1.289639              1
      7578.5000         1.2601       907.5596       104.1256         1.2375        -999.25        -45.198       1.415241              1
      7579.0000         1.2367       956.1934       103.8697         1.2213        -999.25       -45.0647       1.540741              1
      7579.5000         1.2266       953.7246       101.9472          1.205        -999.25       -45.1754       1.422245              1
      7580.0000         1.2222       951.2568       101.1019         1.1991        -999.25       -45.3248       1.265049              1
      7580.5000         1.2178       948.7852        100.713         1.1994        -999.25       -45.4744       1.107651              1
