#------------------------------------------------------------------------------
# Created by    : vladimir.rabinovich
# Created on    : 09/19/2023 17:22:50
#------------------------------------------------------------------------------
~Version Information Section
VERS.           2.0     :   CWLS log ASCII Standard - VERSION 2.0
WRAP.           NO      :   One line per depth step
~Well Information Section
#MNEM       .UNIT                                         VALUE :DESCRIPTION
#------------------------------------------------------------------------------
STRT        .FT                                            1142 :START DEPTH
STOP        .FT                                           15630 :STOP DEPTH
STEP        .FT                                             0.5 :STEP      
NULL        .                                           -999.25 :NULL      
COMP        .                                     PRIMARY FUELS :COMPANY   
WELL        .                                ST TR 00520-L SE/4 :WELL      
FLD         .                                          EL GORDO :FIELD     
LOC         .                                                   :LOCATION  
CNTY        .                      MATAGORDA ISLAND LARGE BLOCK :LOCATION  
STAT        .                                             TEXAS :STATE     
CTRY        .                                     UNITED STATES :COUNTRY   
SRVC        .                                                   :SERVICE COMPANY
DATE        .                             9/13/2023 11:19:05 AM :LOG DATE  
API         .                                    42703303520000 :API NUMBER
UWI         .                                    42703303520000 :UNIQUE WELL ID
XCOORD      .                                  629148.716839967 :SURFACE X 
YCOORD      .                                   10306131.761235 :SURFACE Y 
LAT         .                                        28.3634759 :LATITUDE  
LON         .                                       -96.1446235 :LONGITUDE 
ELEV        .FT                                             101 :ELEVATION VALUE
ELEV_TYPE   .                                                KB :ELEVATION REFERENCE TYPE
~Curve Information Section
#MNEM       .UNIT                                      API CODE :CURVE DESCRIPTION
#------------------------------------------------------------------------------
DEPT        .FT                                                 :DEPTH     
DT          .US/F                                               :          
ILD         .OHMM                                               :          
SP          .MV                                                 :          
SP_NORM     .MV                                                 :SP Normalized
VSH_SP      .V/V                                                :Volume of Shale from SP
~A        DEPTH             DT            ILD             SP        SP_NORM         VSH_SP
# ...
     11746.0000       112.4425         1.0711       105.5742      0.6842346              1
     11746.5000       112.1553         1.0611       105.4434      0.5562057              1
     11747.0000       111.2395         1.0662       104.8623    -0.02212524              1
     11747.5000       110.0703         1.0888       104.1514     -0.7302475              1
     11748.0000       108.8784         1.1157       103.5266      -1.352272      0.9940293
     11748.5000       108.8241         1.1459       102.9631      -1.913002      0.9845254
     11749.0000       108.8053         1.1745       102.7301      -2.143227      0.9806233
     11749.5000       107.1422         1.1997       102.5653       -2.30526       0.977877
     11750.0000       104.1515         1.2242       102.6678      -2.199982      0.9796613
     11750.5000       101.1456         1.2435       102.7705      -2.094513      0.9814489
     11751.0000        100.674         1.2549       102.9475      -1.914734      0.9844961
     11751.5000       104.1364         1.2539       103.1449      -1.714569      0.9878886
     11752.0000       106.9164          1.244       103.3423      -1.514389      0.9912816
     11752.5000       110.8506         1.2192       103.6404      -1.213516      0.9963811
     11753.0000       112.1615         1.1949       103.9464     -0.9047394              1
     11753.5000       111.6396         1.1585       104.2219     -0.6264725              1
     11754.0000       109.4204         1.1386       104.4213     -0.4242935              1
     11754.5000       107.1172         1.1518       104.6154     -0.2274246              1
     11755.0000       106.0608         1.1766       104.7291     -0.1109543              1
     11755.5000       108.4921          1.204       104.7565    -0.08078003              1
     11756.0000       110.7703         1.2314       104.5459     -0.2886124              1
     11756.5000       109.8369          1.254       104.3219     -0.5098343              1
     11757.0000       107.2777         1.2748       104.0414     -0.7875671              1
     11757.5000       105.3658         1.2845       103.7609      -1.065285      0.9988935
     11758.0000        105.156         1.2824       103.5675       -1.25592      0.9956624
     11758.5000       104.7599         1.2635       103.4208      -1.399841       0.993223
     11759.0000       103.9156         1.2392       103.4467       -1.37117       0.993709
     11759.5000       102.2345         1.2078       103.6412      -1.173897      0.9970526
     11760.0000       102.8468         1.1772       103.9121     -0.9002228              1
     11760.5000        106.545         1.1494       104.2257     -0.5838547              1
     11761.0000       110.1079          1.123       104.5399     -0.2668762              1
     11761.5000       112.1345         1.1023       104.8092    0.005187988              1
     11762.0000       111.5907         1.0878       105.0585      0.2572708              1
     11762.5000       110.3563          1.085        105.292      0.4935379              1
     11763.0000       109.1194         1.0851       105.3768      0.5811157              1
     11763.5000       108.2926         1.0857       105.4617      0.6687851              1
     11764.0000       107.5499         1.0936       105.5229      0.7327652              1
     11764.5000       107.9852         1.1016       105.4871      0.6997299              1
     11765.0000       108.7856         1.1096       105.4512      0.6666107              1
     11765.5000       109.6312         1.1187       105.4097      0.6278763              1
     11766.0000        110.478         1.1278       105.2684      0.4893494              1
     11766.5000       110.7756          1.137        105.127      0.3507233              1
     11767.0000       109.6011          1.142       104.9855      0.2119904              1
     11767.5000       107.3379         1.1428       104.8668     0.09606934              1
     11768.0000       104.9292         1.1435       104.7777    0.009742737              1
     11768.5000       102.8568         1.1448       104.6885    -0.07668304              1
     11769.0000       104.5178         1.1484       104.5994     -0.1630096              1
     11769.5000       106.9716         1.1521       104.6241     -0.1355362              1
     11770.0000       109.2523         1.1541       104.6577    -0.09916687              1
     11770.5000       110.5546         1.1484       104.6404     -0.1136856              1
     11771.0000       108.7681         1.1427       104.5408     -0.2105179              1
     11771.5000       107.5273         1.1314       104.4413      -0.307251              1
     11772.0000        107.151         1.1173       104.3167     -0.4290695              1
     11772.5000       107.5367         1.1028       104.1117     -0.6313019              1
     11773.0000       107.1698         1.0881       103.9071     -0.8331299              1
     11773.5000       106.3719         1.0703       103.7021      -1.035355      0.9994008
     11774.0000       107.9351         1.0445       103.5205       -1.21418      0.9963698
     11774.5000       109.9222         1.0192       103.4431      -1.288811      0.9951049
     11775.0000       111.7789         0.9992       103.3657      -1.363434      0.9938401
     11775.5000       113.3948         0.9833       103.2883      -1.438065      0.9925752
     11776.0000       114.6217         0.9891        103.233      -1.490585       0.991685
     11776.5000       115.2778         0.9949       103.2881      -1.432716      0.9926658
     11777.0000       114.7346         1.0007       103.3431      -1.374947       0.993645
     11777.5000       112.4564         1.0065       103.3982       -1.31707      0.9946259
     11778.0000       109.8018         1.0123       103.4532        -1.2593      0.9956051
     11778.5000       107.0594         1.0193       103.5345      -1.175224      0.9970301
     11779.0000       106.5338         1.0291       103.6316      -1.075356      0.9987228
     11779.5000       109.1394          1.039       103.7284     -0.9757767              1
     11780.0000       111.9244         1.0354       103.8254     -0.8760071              1
     11780.5000       114.6141         1.0275       103.9045     -0.7941284              1
     11781.0000       114.6643         1.0163        103.958     -0.7378616              1
     11781.5000       113.2115          1.003       104.0115     -0.6815872              1
     11782.0000       111.7338         0.9899       104.0649      -0.625412              1
     11782.5000       110.1757          0.977        104.153     -0.5345459              1
     11783.0000       108.6702         0.9652       104.2738      -0.410965              1
     11783.5000       110.4692         0.9535       104.3947     -0.2873001              1
     11784.0000       112.2256         0.9417       104.5156       -0.16362              1
     11784.5000       113.7109         0.9273       104.6412    -0.03525543              1
     11785.0000        115.106         0.9126       104.7998      0.1261215              1
     11785.5000       116.0819         0.8963       104.9589      0.2879944              1
     11786.0000       115.1385         0.8863       105.1176      0.4494705              1
     11786.5000       113.4449         0.8943       105.2765      0.6111374              1
     11787.0000       111.4276         0.9007       105.4452      0.7826157              1
     11787.5000       110.0627         0.9044       105.6167      0.9568863              1
     11788.0000       108.9651         0.9078       105.7882       1.131157              1
     11788.5000       110.5546         0.9038       105.9647       1.310432              1
     11789.0000       112.0298         0.8998       106.1569       1.505402              1
     11789.5000       113.2769         0.8935       106.3489        1.70018              1
