#------------------------------------------------------------------------------
# Created by    : vladimir.rabinovich
# Created on    : 09/19/2023 17:21:34
#------------------------------------------------------------------------------
~Version Information Section
VERS.           2.0     :   CWLS log ASCII Standard - VERSION 2.0
WRAP.           NO      :   One line per depth step
~Well Information Section
#MNEM       .UNIT                                         VALUE :DESCRIPTION
#------------------------------------------------------------------------------
STRT        .FT                                            4500 :START DEPTH
STOP        .FT                                            8225 :STOP DEPTH
STEP        .FT                                             0.5 :STEP      
NULL        .                                           -999.25 :NULL      
COMP        .                             WALTER OIL & GAS CORP :COMPANY   
WELL        .                               OCS G08132 ST00BP00 :WELL      
FLD         .                              GALVESTON BLOCK 0385 :FIELD     
LOC         .                                                   :LOCATION  
CNTY        .                             GALVESTON LARGE BLOCK :LOCATION  
STAT        .                                             TEXAS :STATE     
CTRY        .                                     UNITED STATES :COUNTRY   
SRVC        .                                                   :SERVICE COMPANY
DATE        .                             9/13/2023 11:19:34 AM :LOG DATE  
API         .                                    42706402490000 :API NUMBER
UWI         .                                    42706402490000 :UNIQUE WELL ID
XCOORD      .                                  1009947.10754335 :SURFACE X 
YCOORD      .                                  10405011.8756564 :SURFACE Y 
LAT         .                                         28.657556 :LATITUDE  
LON         .                                        -94.966279 :LONGITUDE 
ELEV        .FT                                             101 :ELEVATION VALUE
ELEV_TYPE   .                                                KB :ELEVATION REFERENCE TYPE
~Curve Information Section
#MNEM       .UNIT                                      API CODE :CURVE DESCRIPTION
#------------------------------------------------------------------------------
DEPT        .FT                                                 :DEPTH     
CALI        .IN                                                 :          
DPHI        .%                                                  :          
DRHO        .G/C3                                               :          
GR          .GAPI                                               :          
GR_NORM     .GAPI                                               :GammaRay Normalized
ILD         .OHMM                                               :          
ILM         .OHMM                                               :          
NPHI        .%                                                  :          
SFL         .OHMM                                               :          
SP          .MV                                                 :          
SP_NORM     .MV                                                 :SP Normalized
VSH_GR      .V/V                                                :Volume of Shale from GR
VSH_SP      .V/V                                                :Volume of Shale from SP
~A        DEPTH           CALI           DPHI           DRHO             GR        GR_NORM            ILD            ILM           NPHI            SFL             SP        SP_NORM         VSH_GR         VSH_SP
# ...
      4614.0000        -999.25        -999.25        -999.25        34.9641         70.414        -999.25        -999.25        58.1807        -999.25        -999.25        -999.25      0.7960426        -999.25
      4614.5000        -999.25        -999.25        -999.25        34.6057       70.04066        -999.25        -999.25        57.7234        -999.25        -999.25        -999.25      0.7880992        -999.25
      4615.0000        -999.25        -999.25        -999.25        34.3901       69.81608        -999.25        -999.25        56.9584        -999.25        -999.25        -999.25      0.7833208        -999.25
      4615.5000        -999.25        -999.25        -999.25        34.9741       70.42441        -999.25        -999.25         56.594        -999.25        -999.25        -999.25       0.796264        -999.25
      4616.0000        -999.25        -999.25        -999.25        35.7099       71.19087        -999.25        -999.25        57.0971        -999.25        -999.25        -999.25      0.8125718        -999.25
      4616.5000        -999.25        -999.25        -999.25         36.344       71.85139        -999.25        -999.25        57.6559        -999.25        -999.25        -999.25      0.8266254        -999.25
      4617.0000        -999.25        -999.25        -999.25        36.6012       72.11931        -999.25        -999.25        57.6047        -999.25        -999.25        -999.25      0.8323257        -999.25
      4617.5000        -999.25        -999.25        -999.25        36.5969       72.11483        -999.25        -999.25        57.0436        -999.25        -999.25        -999.25      0.8322304        -999.25
      4618.0000        -999.25        -999.25        -999.25        36.8182       72.34535        -999.25        -999.25        56.2806        -999.25        -999.25        -999.25      0.8371351        -999.25
      4618.5000        -999.25        -999.25        -999.25        37.3213       72.86941        -999.25        -999.25        55.3381        -999.25        -999.25        -999.25      0.8482853        -999.25
      4619.0000        -999.25        -999.25        -999.25        38.0364       73.61431        -999.25        -999.25        55.6358        -999.25        -999.25        -999.25      0.8641343        -999.25
      4619.5000        -999.25        -999.25        -999.25        38.0995       73.68003        -999.25        -999.25        56.8529        -999.25        -999.25        -999.25      0.8655326        -999.25
      4620.0000        -999.25        -999.25        -999.25        37.1314        72.6716        -999.25        -999.25        57.7423        -999.25        -999.25        -999.25      0.8440766        -999.25
      4620.5000        -999.25        -999.25        -999.25        35.5025       70.97482        -999.25        -999.25        57.8688        -999.25        -999.25        -999.25      0.8079749        -999.25
      4621.0000        -999.25        -999.25        -999.25         34.116       69.53056        -999.25        -999.25        57.6821        -999.25        -999.25        -999.25      0.7772461        -999.25
      4621.5000        -999.25        -999.25        -999.25        32.7181       68.07442        -999.25        -999.25        57.6376        -999.25        -999.25        -999.25      0.7462642        -999.25
      4622.0000        -999.25        -999.25        -999.25         31.439       66.74202        -999.25        -999.25        58.4664        -999.25        -999.25        -999.25      0.7179153        -999.25
      4622.5000        -999.25        -999.25        -999.25        37.5349       73.09192        -999.25        -999.25        59.4079        -999.25        -999.25        -999.25      0.8530195        -999.25
      4623.0000        -999.25        -999.25        -999.25        43.5809       74.41338        -999.25        -999.25        59.3806        -999.25        -999.25        -999.25      0.8811356        -999.25
      4623.5000        -999.25        -999.25        -999.25        56.0625       81.01614        -999.25        -999.25        56.2447        -999.25        -999.25        -999.25              1        -999.25
      4624.0000        10.8361         42.072         -0.132        69.1637       88.26432         2.7236        1664.92        50.9455         0.8486       -94.8315      -12.11822              1      0.7980297
      4624.5000        10.9431        41.3483        -0.0593        72.9836       85.84447         2.0507       443.6797          48.15         1.0018       -93.1652      -10.17421              1      0.8304299
      4625.0000         10.765        41.3209        -0.0271        74.7256       85.54169         0.8866         5.2569        49.2519         0.9742       -91.9741      -8.784589              1      0.8535902
      4625.5000        10.6712         42.176         -0.017         74.735       84.22757         0.5239         0.7532        48.7312         0.9011       -91.0404      -7.695272              1      0.8717455
      4626.0000        11.5556        43.3729        -0.0233        71.0774       79.09366         0.3085          0.522        46.8835         0.9125       -90.4008      -6.949078      0.9807161       0.884182
      4626.5000         12.408        44.7081        -0.0321        65.5961       72.06006         0.2978         0.4758        45.4764         0.9757       -89.8596       -6.31767      0.8310651      0.8947055
      4627.0000        13.5643        46.1653        -0.0414        62.7642       67.78625         0.3939         0.5219        45.4113         1.0674       -89.4274       -5.81344      0.7401329      0.9031093
      4627.5000        14.4161        47.3802        -0.0501        62.1025        66.5651         0.5265         0.5977         47.464         1.1532       -89.2522      -5.609038      0.7141511       0.906516
      4628.0000        13.6932        47.9891        -0.0555        62.1033       66.56594          0.669         0.6604        49.1396         1.1571       -89.2295      -5.582558       0.714169      0.9069574
      4628.5000        11.8034        46.7743        -0.0546        62.7024          67.19         0.7912         0.7032        50.0029         1.0893       -89.2069      -5.556193      0.7274469      0.9073968
      4629.0000        11.5716        45.4779        -0.0488        63.7748       68.30708         0.8357         0.7321        49.6536         1.0125       -89.2651       -5.62409      0.7512144      0.9062652
      4629.5000        11.3056        44.5436        -0.0413        66.6428       71.29459         0.8282         0.7497        48.6923         0.9283       -89.3287      -5.698288      0.8147784      0.9050285
      4630.0000        11.1837        43.7843        -0.0342        70.9674       75.79938         0.8154         0.7566        48.4566         0.8596       -89.3881      -5.767591       0.910625      0.9038735
      4630.5000        11.0993        43.1514        -0.0286        74.3901       79.36469         0.8041         0.7529        48.8741         0.8171       -89.3723      -5.749157      0.9864827      0.9041807
      4631.0000        11.0293        42.6649        -0.0232        76.0378       81.08105          0.794         0.7466        49.3152         0.8075       -89.3566      -5.730839              1       0.904486
      4631.5000        10.9656        42.3015        -0.0202         75.507       80.52813         0.7859         0.7417        49.4415         0.8209       -89.3407      -5.712289              1      0.9047952
      4632.0000        10.9746        42.0043        -0.0171        74.5038       79.48312         0.7778         0.7384        49.3677         0.8339       -89.0526      -5.376171      0.9890026      0.9103972
      4632.5000        11.0458        41.6916        -0.0158         73.927       78.88229         0.7761         0.7359        49.4621         0.8445       -88.7263      -4.995495       0.976219      0.9167417
