#------------------------------------------------------------------------------
# Created by    : vladimir.rabinovich
# Created on    : 09/19/2023 17:20:25
#------------------------------------------------------------------------------
~Version Information Section
VERS.           2.0     :   CWLS log ASCII Standard - VERSION 2.0
WRAP.           NO      :   One line per depth step
~Well Information Section
#MNEM       .UNIT                                         VALUE :DESCRIPTION
#------------------------------------------------------------------------------
STRT        .FT                                             293 :START DEPTH
STOP        .FT                                            8505 :STOP DEPTH
STEP        .FT                                             0.5 :STEP      
NULL        .                                           -999.25 :NULL      
COMP        .                                        TEXACO USA :COMPANY   
WELL        .                                     ST TR 00058-L :WELL      
FLD         .                                           WILDCAT :FIELD     
LOC         .                                                   :LOCATION  
CNTY        .                           HIGH ISLAND LARGE BLOCK :LOCATION  
STAT        .                                             TEXAS :STATE     
CTRY        .                                     UNITED STATES :COUNTRY   
SRVC        .                                                   :SERVICE COMPANY
DATE        .                             9/13/2023 11:19:15 AM :LOG DATE  
API         .                                    42708000230000 :API NUMBER
UWI         .                                    42708000230000 :UNIQUE WELL ID
XCOORD      .                                  1179226.38702832 :SURFACE X 
YCOORD      .                                  10699123.4735792 :SURFACE Y 
LAT         .                                        29.4730929 :LATITUDE  
LON         .                                        -94.449778 :LONGITUDE 
ELEV        .FT                                              80 :ELEVATION VALUE
ELEV_TYPE   .                                                KB :ELEVATION REFERENCE TYPE
~Curve Information Section
#MNEM       .UNIT                                      API CODE :CURVE DESCRIPTION
#------------------------------------------------------------------------------
DEPT        .FT                                                 :DEPTH     
ASN         .OHMM                                               :          
CILD        .MMHO                                               :          
ILD         .OHMM                                               :          
LAT         .OHMM                                               :          
LN          .OHMM                                               :          
SP          .MV                                                 :          
SP_NORM     .MV                                                 :SP Normalized
VSH_SP      .V/V                                                :Volume of Shale from SP
~A        DEPTH            ASN           CILD            ILD            LAT             LN             SP        SP_NORM         VSH_SP
# ...
       824.0000         2.2313        -999.25        -999.25         2.3879         2.0934        -57.049      -1.627312              1
       824.5000         2.3406        -999.25        -999.25         2.3166         2.1498       -56.9102       -1.48851              1
       825.0000         2.4499        -999.25        -999.25         2.2453         2.2062       -56.7403      -1.318611              1
       825.5000         2.5592        -999.25        -999.25         2.1728         2.2626       -56.4124     -0.9907112              1
       826.0000         2.6621        -999.25        -999.25         2.0999         2.3225       -56.0846     -0.6629105              1
       826.5000         2.7629        -999.25        -999.25          2.027         2.3839       -55.7567     -0.3350105              1
       827.0000         2.8638        -999.25        -999.25         1.9542         2.4453       -55.4288   -0.007110596              1
       827.5000         2.9781        -999.25        -999.25         1.8967         2.4951        -55.101      0.3206863              1
       828.0000         3.0924        -999.25        -999.25         1.8493          2.534       -54.8412      0.5804863              1
       828.5000         3.1986        -999.25        -999.25         1.8018         2.4965       -54.5869      0.8347893              1
       829.0000         3.2841        -999.25        -999.25         1.7781         2.4288       -54.4514      0.9702873              1
       829.5000         3.1922        -999.25        -999.25         1.9728         2.3718       -55.3455     0.07618713              1
       830.0000         3.1003        -999.25        -999.25         2.2151         2.3269       -56.2393     -0.8176117              1
       830.5000         3.0084        -999.25        -999.25         2.3761         2.2821       -57.1403      -1.718613              1
       831.0000         2.8874        -999.25        -999.25         2.4052         2.2372       -58.1111      -2.689411              1
       831.5000         2.7145        -999.25        -999.25         2.4026         2.1924       -58.6154       -3.19371      0.9784766
       832.0000         2.5412        -999.25        -999.25         2.3754         2.1747       -58.6133      -3.191612      0.9787098
       832.5000         2.3668        -999.25        -999.25         2.3017            2.2       -58.6111      -3.189411      0.9789543
       833.0000         2.2541        -999.25        -999.25         2.2279         2.2252       -58.2981      -2.876411              1
       833.5000         2.1821        -999.25        -999.25         2.1542         2.2505       -57.6178      -2.196114              1
       834.0000         2.1235        -999.25        -999.25         2.0805         2.2757       -56.9376      -1.515911              1
       834.5000         2.1036        -999.25        -999.25          1.993         2.3053       -56.2573     -0.8356133              1
       835.0000         2.1162        -999.25        -999.25         1.9006         2.3419        -55.577     -0.1553116              1
       835.5000         2.1289        -999.25        -999.25         1.8083         2.3785       -54.8821      0.5395889              1
       836.0000         2.1415        -999.25        -999.25          1.718         2.4151       -54.1334       1.288288              1
       836.5000         2.1541        -999.25        -999.25         1.6409         2.4517       -53.3845       2.037189              1
       837.0000         2.1668        -999.25        -999.25         1.5638         2.4932       -52.6357       2.785988              1
       837.5000          2.176        -999.25        -999.25         1.5624         2.5348       -52.2777        3.14399              1
       838.0000         2.1849        -999.25        -999.25         1.6084         2.5764       -52.0264       3.395287              1
       838.5000         2.1938        -999.25        -999.25         1.7455         2.5946       -51.7751       3.646587              1
       839.0000         2.4337        -999.25        -999.25         1.9793         2.6064       -51.8679       3.553787              1
       839.5000         2.6432        -999.25        -999.25         2.1381         2.5645       -52.5728       2.848888              1
       840.0000         2.8109        -999.25        -999.25         2.2426         2.5213        -53.278       2.143688              1
       840.5000         2.9685        -999.25        -999.25         2.3471         2.5007        -53.983       1.438686              1
       841.0000         3.0909        -999.25        -999.25         2.4516         2.4914       -54.6882      0.7334862              1
       841.5000         3.2112        -999.25        -999.25         2.5561         2.5056       -56.3052     -0.8835106              1
       842.0000         3.2992        -999.25        -999.25         2.6322         2.5208        -58.253       -2.83131              1
       842.5000         3.3471        -999.25        -999.25         2.6887         2.5441       -60.2005      -4.778812      0.8023542
       843.0000         3.3512        -999.25        -999.25         2.6766         2.5675       -61.8029       -6.38121        0.62431
       843.5000         3.3399        -999.25        -999.25         2.6645         2.5909        -63.092      -7.670311      0.4810766
       844.0000         3.3208        -999.25        -999.25         2.6593         2.6143        -64.381      -8.959309      0.3378546
       844.5000         3.3018        -999.25        -999.25         2.6652         2.6412       -65.5604      -10.13871      0.2068096
       845.0000         3.2873        -999.25        -999.25         2.6711         2.6685       -65.8409      -10.41921      0.1756435
       845.5000          3.279        -999.25        -999.25         2.6771         2.6957       -66.0444      -10.62271      0.1530317
       846.0000         3.2707        -999.25        -999.25          2.683         2.7095       -65.5198      -10.09811      0.2113211
       846.5000         3.2623        -999.25        -999.25         2.6889         2.6922       -64.9951      -9.573414      0.2696207
       847.0000         3.2532        -999.25        -999.25         2.6948         2.6748       -64.4703      -9.048611      0.3279321
       847.5000         3.2429        -999.25        -999.25         2.7026         2.6574       -63.9456      -8.523911      0.3862322
       848.0000         3.2326        -999.25        -999.25         2.7645           2.64        -63.421      -7.999313      0.4445207
       848.5000         3.2223        -999.25        -999.25         2.8264         2.6226        -62.974      -7.552311      0.4941877
       849.0000          3.212        -999.25        -999.25         2.8883         2.6053       -62.5686      -7.146912       0.539232
       849.5000         3.2018        -999.25        -999.25         2.9502         2.5879       -62.1633      -6.741611      0.5842654
       850.0000         3.1922        -999.25        -999.25         3.0121         2.5506       -61.7579      -6.336212      0.6293098
       850.5000         3.1826        -999.25        -999.25         3.1005         2.5091       -61.3913      -5.969612      0.6700431
       851.0000         3.1797        -999.25        -999.25         3.2569         2.4676       -61.0787      -5.657013      0.7047763
       851.5000         3.1906        -999.25        -999.25         3.4133         2.4356        -60.766      -5.344311       0.739521
       852.0000         3.2015        -999.25        -999.25         3.5866         2.4512       -60.4533      -5.031612      0.7742653
       852.5000         3.2497        -999.25        -999.25         3.7731         2.4608       -60.1406       -4.71891        0.80901
       853.0000         3.3128        -999.25        -999.25         3.9595         2.4594       -59.8168      -4.395111      0.8449876
