#------------------------------------------------------------------------------
# Created by    : vladimir.rabinovich
# Created on    : 09/19/2023 17:22:25
#------------------------------------------------------------------------------
~Version Information Section
VERS.           2.0     :   CWLS log ASCII Standard - VERSION 2.0
WRAP.           NO      :   One line per depth step
~Well Information Section
#MNEM       .UNIT                                         VALUE :DESCRIPTION
#------------------------------------------------------------------------------
STRT        .FT                                            3984 :START DEPTH
STOP        .FT                                           14348 :STOP DEPTH
STEP        .FT                                             0.5 :STEP      
NULL        .                                           -999.25 :NULL      
COMP        .                                  CNG PRODUCING CO :COMPANY   
WELL        .                               OCS G07292 ST00BP00 :WELL      
FLD         .                                           WILDCAT :FIELD     
LOC         .                                                   :LOCATION  
CNTY        .                           HIGH ISLAND LARGE BLOCK :LOCATION  
STAT        .                                             TEXAS :STATE     
CTRY        .                                     UNITED STATES :COUNTRY   
SRVC        .                                                   :SERVICE COMPANY
DATE        .                             9/13/2023 11:19:59 AM :LOG DATE  
API         .                                    42708402890000 :API NUMBER
UWI         .                                    42708402890000 :UNIQUE WELL ID
XCOORD      .                                  1158246.84135722 :SURFACE X 
YCOORD      .                                  10525039.0147689 :SURFACE Y 
LAT         .                                         28.993597 :LATITUDE  
LON         .                                        -94.508673 :LONGITUDE 
ELEV        .FT                                             101 :ELEVATION VALUE
ELEV_TYPE   .                                                KB :ELEVATION REFERENCE TYPE
~Curve Information Section
#MNEM       .UNIT                                      API CODE :CURVE DESCRIPTION
#------------------------------------------------------------------------------
DEPT        .FT                                                 :DEPTH     
CALX        .IN                                                 :          
DTL         .US/F                                               :          
GR          .GAPI                                               :          
GR_NORM     .GAPI                                               :GammaRay Normalized
ILD         .OHMM                                               :          
ILM         .OHMM                                               :          
LL3         .OHMM                                               :          
SP          .MV                                                 :          
SP_NORM     .MV                                                 :SP Normalized
VSH_GR      .V/V                                                :Volume of Shale from GR
VSH_SP      .V/V                                                :Volume of Shale from SP
~A        DEPTH           CALX            DTL             GR        GR_NORM            ILD            ILM            LL3             SP        SP_NORM         VSH_GR         VSH_SP
# ...
      7404.0000         17.072       109.6364        41.6523       70.29559         1.2237         1.3318         1.2321          -40.5       -1.66341      0.7935231       0.976237
      7404.5000        17.0648       111.3625        43.2239       73.29047         1.2198          1.327         1.2039       -41.7927      -2.959797       0.857244      0.9577172
      7405.0000        17.0541       112.4733        45.9555       78.49486         1.2198         1.3214         1.1872       -45.0863      -6.257084      0.9679757      0.9106131
      7405.5000        17.0461       112.3826        48.7527       83.82422         1.2209         1.3037         1.2054       -43.0502      -4.224674              1      0.9396475
      7406.0000        17.0406       110.9771         50.263       86.70233         1.2216         1.2866         1.2178        -44.673      -5.851158              1      0.9164121
      7406.5000        17.0399       109.8606        49.9496       86.10674         1.2256         1.2759         1.1888       -43.8516      -5.033447              1      0.9280936
      7407.0000        17.0434        109.923        49.0494       84.39342         1.2284         1.2702         1.1829       -42.5134      -3.698933              1      0.9471581
      7407.5000        17.0461         112.61        48.3873       83.13365         1.2333         1.2672         1.2089       -42.5651      -3.754322              1      0.9463668
      7408.0000        17.0529       114.7823         46.835       80.17825         1.2393         1.2766         1.1898       -45.2627      -6.455608              1       0.907777
      7408.5000        17.0544       115.7885        44.3881       75.51884         1.2465         1.2987         1.1855       -43.4736      -4.670193      0.9046563       0.933283
      7409.0000        17.0499       115.8999        43.0513       72.97392         1.2536         1.3425         1.1973       -42.1373      -3.337582       0.850509      0.9523203
      7409.5000        17.0494       114.4976        42.9202       72.72557         1.2613         1.3647         1.2117       -42.6747      -3.878674      0.8452249      0.9445904
      7410.0000         17.049       112.8344        43.8281       74.45625          1.271         1.3835          1.229       -43.5164      -4.724056      0.8820478      0.9325135
      7410.5000        17.0486       111.1686        44.2136       75.19189         1.2806         1.3942          1.253       -41.4147      -2.626045      0.8976999      0.9624851
      7411.0000        17.0481        110.061         44.181       75.13115          1.304         1.4012         1.2342       -43.7155      -4.930534      0.8964074      0.9295638
      7411.5000        17.0477         109.66        44.5872       75.90622         1.3443          1.418          1.259       -44.9238      -6.142521      0.9128983      0.9122497
      7412.0000        17.0472       108.4041        44.9109       76.52416         1.4021         1.4572         1.2663       -43.3148      -4.537209       0.926046      0.9351828
      7412.5000        17.0468       105.4506         44.373       75.50095         1.4537         1.5381         1.2545       -40.4565      -1.682598      0.9042756      0.9759629
      7413.0000        17.0464       101.8066        42.9719       72.83353         1.4865          1.587          1.302        -40.941      -2.170784       0.847522      0.9689888
      7413.5000        17.0459       100.3248        42.4313       71.80519         1.5023         1.6205         1.3678       -42.0832      -3.316669      0.8256423       0.952619
      7414.0000        17.0455        99.8593        42.5146       71.96523         1.5132         1.6337         1.4318       -41.6743      -2.911461      0.8290473      0.9584077
      7414.5000         17.045        99.2853        42.4704       71.88239         1.5121          1.634          1.448       -40.6613      -1.902145      0.8272848      0.9728265
      7415.0000        17.0446         98.184         42.174       71.31917         1.5051         1.6256         1.4041        -45.201      -6.445534      0.8153015       0.907921
      7415.5000        17.0442        97.7329        42.1586       71.29118         1.5003         1.5948          1.393       -43.6953       -4.94352       0.814706      0.9293783
      7416.0000        17.0437        98.3553        42.3951       71.74301         1.4865          1.568         1.3747       -41.8406      -3.092506      0.8243194      0.9558213
      7416.5000        17.0433       101.3933        42.8421       72.59581           1.46         1.5203         1.2533       -41.9943      -3.249897       0.842464      0.9535729
      7417.0000        17.0428       105.3523        43.6271       74.09241         1.4214           1.46          1.258       -43.7923      -5.051582      0.8743066      0.9278345
      7417.5000        17.0424       107.3457        44.4977       75.75204          1.387         1.4082         1.2847       -42.5361      -3.799068       0.909618      0.9457276
      7418.0000         17.042       108.1609        45.2323       77.15265         1.3631         1.3824         1.2304       -40.9637      -2.230358      0.9394181      0.9681377
      7418.5000        17.0415       108.1111        45.6138       77.88066         1.3527         1.3679         1.2411       -42.1204      -3.390743      0.9549077      0.9515608
      7419.0000        17.0411       107.5862        45.3344       77.34983         1.3543         1.3874         1.2448       -43.1611      -4.435131      0.9436134       0.936641
      7419.5000        17.0406       107.7438        45.0781       76.86299         1.3601         1.4111          1.244       -40.3211       -1.59882      0.9332551      0.9771597
      7420.0000        17.0399       108.1115        45.5007       77.66933         1.3662          1.428         1.2574       -42.7705      -4.051907      0.9504114      0.9421156
      7420.5000        17.0297        108.016        46.5956        79.7562         1.3675         1.4355         1.2245        -41.925      -3.210094      0.9948128      0.9541415
      7421.0000        17.0247       107.3394        46.9583       80.44842         1.3635         1.4435         1.2371       -42.5487      -3.837482              1      0.9451788
      7421.5000        17.0206       106.3881        45.6481       77.95416         1.3533         1.4436         1.2734       -43.5441      -4.836571      0.9564716      0.9309061
      7422.0000        17.0213       105.5193        43.0223       72.95399         1.3317         1.4181         1.3097       -40.9189      -2.215057       0.850085      0.9683563
      7422.5000        17.0211       105.4456        41.7894       70.60696         1.3126         1.3784         1.2575        -40.752      -2.051846      0.8001482      0.9706879
      7423.0000        17.0207       108.1672         41.785       70.59995         1.3014           1.33         1.1937       -40.6487      -1.952232       0.799999       0.972111
      7423.5000        17.0203         112.14         43.268       73.42606         1.2923         1.2976         1.1691       -42.0851      -3.392319      0.8601288      0.9515383
      7424.0000        17.0198       111.7507        44.2161       75.23332         1.2799         1.3045         1.1912       -42.5663      -3.877209      0.8985813      0.9446113
      7424.5000        17.0194       109.2357        43.6926       74.23754         1.2624         1.3246         1.2146       -41.3392      -2.653793      0.8773945      0.9620886
      7425.0000         17.019       108.5773        42.1756       71.34937         1.2411         1.3268         1.1815       -41.9666      -3.284882      0.8159441      0.9530731
      7425.5000        17.0186       108.3638        43.0349        72.9875          1.217         1.3102         1.1843       -40.2001      -1.522068       0.850798      0.9782562
      7426.0000        17.0181        113.293        44.5998       75.96961         1.1876         1.2772         1.1729       -39.6331     -0.9587555      0.9142471      0.9863035
