#------------------------------------------------------------------------------
# Created by    : vladimir.rabinovich
# Created on    : 09/19/2023 17:22:39
#------------------------------------------------------------------------------
~Version Information Section
VERS.           2.0     :   CWLS log ASCII Standard - VERSION 2.0
WRAP.           NO      :   One line per depth step
~Well Information Section
#MNEM       .UNIT                                         VALUE :DESCRIPTION
#------------------------------------------------------------------------------
STRT        .FT                                            3496 :START DEPTH
STOP        .FT                                          7091.5 :STOP DEPTH
STEP        .FT                                             0.5 :STEP      
NULL        .                                           -999.25 :NULL      
COMP        .                          SEAGULL ENERGY E & P INC :COMPANY   
WELL        .                               OCS G07251 ST00BP00 :WELL      
FLD         .                              GALVESTON BLOCK 0349 :FIELD     
LOC         .                                                   :LOCATION  
CNTY        .                             GALVESTON LARGE BLOCK :LOCATION  
STAT        .                                             TEXAS :STATE     
CTRY        .                                     UNITED STATES :COUNTRY   
SRVC        .                                                   :SERVICE COMPANY
DATE        .                             9/13/2023 11:19:36 AM :LOG DATE  
API         .                                    42706402300000 :API NUMBER
UWI         .                                    42706402300000 :UNIQUE WELL ID
XCOORD      .                                  1015542.86720011 :SURFACE X 
YCOORD      .                                  10434819.2372955 :SURFACE Y 
LAT         .                                         28.739771 :LATITUDE  
LON         .                                        -94.950355 :LONGITUDE 
ELEV        .FT                                              93 :ELEVATION VALUE
ELEV_TYPE   .                                                KB :ELEVATION REFERENCE TYPE
~Curve Information Section
#MNEM       .UNIT                                      API CODE :CURVE DESCRIPTION
#------------------------------------------------------------------------------
DEPT        .FT                                                 :DEPTH     
DCAL        .IN                                                 :          
DPHI        .%                                                  :          
DRHO        .G/C3                                               :          
GR          .GAPI                                               :          
GR_NORM     .GAPI                                               :GammaRay Normalized
ILD         .OHMM                                               :          
ILM         .OHMM                                               :          
NPHI        .%                                                  :          
SGRD        .OHMM                                               :          
SP          .MV                                                 :          
SP_NORM     .MV                                                 :SP Normalized
VSH_GR      .V/V                                                :Volume of Shale from GR
VSH_SP      .V/V                                                :Volume of Shale from SP
~A        DEPTH           DCAL           DPHI           DRHO             GR        GR_NORM            ILD            ILM           NPHI           SGRD             SP        SP_NORM         VSH_GR         VSH_SP
# ...
      3515.0000        -999.25        -999.25        -999.25        38.9606       83.66478        -999.25        -999.25        61.2618        -999.25        -999.25        -999.25              1        -999.25
      3515.5000        -999.25        -999.25        -999.25        40.1116       83.66478        -999.25        -999.25        60.2128        -999.25        -999.25        -999.25              1        -999.25
      3516.0000        -999.25        -999.25        -999.25        40.2602       83.66478        -999.25        -999.25        59.8909        -999.25        -999.25        -999.25              1        -999.25
      3516.5000        -999.25        -999.25        -999.25        40.2316       83.66478        -999.25        -999.25        59.3344        -999.25        -999.25        -999.25              1        -999.25
      3517.0000        -999.25        -999.25        -999.25        40.3647       83.66478        -999.25        -999.25        59.0182        -999.25        -999.25        -999.25              1        -999.25
      3517.5000        -999.25        -999.25        -999.25        39.5693       83.66478        -999.25        -999.25        58.8912        -999.25        -999.25        -999.25              1        -999.25
      3518.0000        -999.25        -999.25        -999.25        38.7155       83.66478        -999.25        -999.25        58.7316        -999.25        -999.25        -999.25              1        -999.25
      3518.5000        -999.25        -999.25        -999.25        39.6318       83.66478        -999.25        -999.25        58.1735        -999.25        -999.25        -999.25              1        -999.25
      3519.0000        -999.25        -999.25        -999.25        40.3293       83.66478        -999.25        -999.25        57.4167        -999.25        -999.25        -999.25              1        -999.25
      3519.5000        -999.25        -999.25        -999.25        42.3192       83.66478        -999.25        -999.25        56.4169        -999.25        -999.25        -999.25              1        -999.25
      3520.0000         0.3144        30.0247        -0.2232        60.9352       83.66478         0.7607        19.3957        54.8124          0.723        -63.265      -14.28541              1      0.7802245
      3520.5000         0.3443        29.8347        -0.0678        78.7379       83.66478         0.8776         3.8014        52.4102         0.8464       -61.2809      -12.30131              1      0.8107491
      3521.0000         0.3993        30.8611         0.0069        79.1401       81.83238         0.7539         1.2776        49.9464         0.8969       -59.9974      -11.01781              1      0.8304953
      3521.5000         0.4719         31.177         0.0373        78.0273       80.61079         0.6255         0.7547        48.6078         0.9037       -59.5065      -10.52691              1      0.8380476
      3522.0000         0.4215        30.1831         0.0401        77.9417        79.3892         0.6255         0.7331        48.0502         0.9065       -59.0855      -10.10591      0.9870042      0.8445245
      3522.5000         0.3524        29.3036         0.0391        77.5168       78.16761         0.7395         0.7795        48.2766         0.9119       -58.4855      -9.505909       0.961013      0.8537552
      3523.0000         0.3443         29.241         0.0386        77.3014       79.08379         0.8326         0.8244        48.5201         0.9152       -57.6937      -8.714108      0.9805062      0.8659368
      3523.5000         0.3273        29.3393         0.0456         80.004             80         0.8728         0.8675         48.842          0.911       -56.9206       -7.94101              1      0.8778306
      3524.0000         0.3196        29.0608         0.0498        83.7898       85.45572         0.8849         0.8868         49.232         0.9096       -56.3708      -7.391209              1      0.8862891
      3524.5000         0.3198        28.9046         0.0481        84.1066       85.88142         0.8847         0.8911        49.6538         0.9122       -56.0694      -7.089809              1       0.890926
      3525.0000         0.3292        29.6417         0.0433        80.8047       81.44449         0.8748         0.8948        50.0579           0.92       -55.7724      -6.792809              1      0.8954952
      3525.5000         0.3303         30.667         0.0331        82.8002       84.12595         0.8591         0.9013        50.2593         0.9216       -55.7507      -6.771111              1      0.8958291
      3526.0000         0.3285        30.9016         0.0307        83.6056        85.2082         0.8446          0.902        50.1387          0.918       -55.7561      -6.776508              1      0.8957461
      3526.5000          0.318        30.8485          0.031        84.2833       86.11887         0.8467         0.8966        49.9092         0.9153       -55.4065       -6.42691              1      0.9011245
      3527.0000         0.3003        30.6797         0.0301        88.4501         91.718         0.8618         0.8915        49.7157         0.9133       -54.7462      -5.766609              1       0.911283
      3527.5000         0.2937          30.31         0.0285        87.5618       90.52435         0.8991         0.8886         49.878         0.9114        -54.856      -5.876408              1      0.9095937
      3528.0000         0.2927        30.3971         0.0273         84.115       85.89271         0.8782         0.8874        50.3937         0.9144       -54.9393      -5.959709              1      0.9083121
      3528.5000         0.2873        30.0503         0.0263        80.9999       81.70679           0.87          0.891        51.1039         0.9151       -54.6178       -5.63821              1      0.9132583
      3529.0000         0.3012        30.3483         0.0267        78.2162       77.96619         0.8661         0.8954        50.5848         0.9146       -54.3642      -5.384609      0.9567276      0.9171599
      3529.5000         0.3443        30.4575         0.0278        80.3969       80.89651         0.8617         0.8981        49.7537         0.9166       -54.3776       -5.39801              1      0.9169537
      3530.0000         0.3357        30.8723         0.0297        80.3324       80.80983         0.8633         0.9012        49.1445         0.9219       -54.3909      -5.411308              1      0.9167491
      3530.5000         0.3078          31.33         0.0336        78.9569       78.96152          0.876         0.9014        48.7614         0.9343       -54.4507      -5.471107      0.9779046      0.9158291
      3531.0000         0.3203        31.2151         0.0379        78.6917       78.60516         0.8836         0.8978        48.8024         0.9526       -54.7062      -5.726608      0.9703225      0.9118983
      3531.5000         0.3222        30.8326         0.0445        79.5085       79.70272         0.8675         0.8773        49.6725         0.9534       -55.3222      -6.342609      0.9936749      0.9024214
      3532.0000         0.3376        30.5014         0.0511        76.4641       75.61182         0.8471         0.8595        50.0277         0.9252       -55.7054      -6.725807      0.9066344       0.896526
      3532.5000         0.3446        30.2593         0.0524         77.149       76.53214         0.8348         0.8438        49.9993         0.9142       -55.1837      -6.204109      0.9262158      0.9045522
      3533.0000          0.338        30.1024         0.0521         78.818       78.77486         0.8179         0.8344        49.5084         0.9095       -54.2261       -5.24651      0.9739333      0.9192845
      3533.5000         0.3463        30.0375         0.0507        81.6235       82.54475         0.8045         0.8245         49.552         0.9056       -53.7998       -4.82021              1      0.9258429
