#------------------------------------------------------------------------------
# Created by    : vladimir.rabinovich
# Created on    : 09/19/2023 17:19:44
#------------------------------------------------------------------------------
~Version Information Section
VERS.           2.0     :   CWLS log ASCII Standard - VERSION 2.0
WRAP.           NO      :   One line per depth step
~Well Information Section
#MNEM       .UNIT                                         VALUE :DESCRIPTION
#------------------------------------------------------------------------------
STRT        .FT                                            2932 :START DEPTH
STOP        .FT                                           14530 :STOP DEPTH
STEP        .FT                                             0.5 :STEP      
NULL        .                                           -999.25 :NULL      
COMP        .                                 MESA PETROLEUM CO :COMPANY   
WELL        .                                 ST TR 00022-L W/2 :WELL      
FLD         .                                           WILDCAT :FIELD     
LOC         .                                                   :LOCATION  
CNTY        .                           HIGH ISLAND LARGE BLOCK :LOCATION  
STAT        .                                             TEXAS :STATE     
CTRY        .                                     UNITED STATES :COUNTRY   
SRVC        .                                                   :SERVICE COMPANY
DATE        .                             9/13/2023 11:19:15 AM :LOG DATE  
API         .                                    42708300770000 :API NUMBER
UWI         .                                    42708300770000 :UNIQUE WELL ID
XCOORD      .                                  1307803.37781852 :SURFACE X 
YCOORD      .                                  10713200.3443699 :SURFACE Y 
LAT         .                                         29.515602 :LATITUDE  
LON         .                                       -94.0460534 :LONGITUDE 
ELEV        .FT                                              85 :ELEVATION VALUE
ELEV_TYPE   .                                                KB :ELEVATION REFERENCE TYPE
~Curve Information Section
#MNEM       .UNIT                                      API CODE :CURVE DESCRIPTION
#------------------------------------------------------------------------------
DEPT        .FT                                                 :DEPTH     
ASFL        .OHMM                                               :          
CILD        .MMHO                                               :          
ILD         .OHMM                                               :          
SP          .MV                                                 :          
SP_NORM     .MV                                                 :SP Normalized
VSH_SP      .V/V                                                :Volume of Shale from SP
~A        DEPTH           ASFL           CILD            ILD             SP        SP_NORM         VSH_SP
# ...
      6010.0000         0.4558       2142.457         0.4323       -47.2744     -0.7153893              1
      6010.5000         0.4556       2144.344         0.4329        -47.576     -0.9850082              1
      6011.0000         0.4554       2146.227         0.4334       -47.6567      -1.033726      0.9995443
      6011.5000         0.4552       2152.625         0.4339       -47.7374      -1.082443      0.9988859
      6012.0000          0.455        2162.32         0.4345       -47.8181      -1.131161      0.9982275
      6012.5000         0.4548       2172.016         0.4347       -47.8988      -1.179882      0.9975691
      6013.0000         0.4546       2181.711         0.4347       -47.9663      -1.215401      0.9970892
      6013.5000         0.4544       2182.242         0.4346       -47.5107     -0.7278175              1
      6014.0000         0.4542       2176.523         0.4346       -47.0557     -0.2408333              1
      6014.5000          0.454       2170.805         0.4346       -46.6001      0.2467461              1
      6015.0000         0.4536       2160.875         0.4345       -46.1445      0.7343292              1
      6015.5000         0.4528       2137.344         0.4345       -45.2305       1.680313              1
      6016.0000         0.4521       2139.344         0.4344       -44.8652       2.077595              1
      6016.5000         0.4513       2154.109         0.4344       -46.1875      0.7872772              1
      6017.0000         0.4506       2170.438         0.4344       -47.3887     -0.3819389              1
      6017.5000         0.4498           2191         0.4343       -48.2041      -1.165363      0.9977654
      6018.0000         0.4491       2211.563         0.4343       -49.0195       -1.94878      0.9871786
      6018.5000         0.4484       2232.141         0.4342       -49.4139      -2.311195      0.9822811
      6019.0000         0.4476       2252.703         0.4324       -49.5061      -2.371414      0.9814674
      6019.5000         0.4469       2272.438         0.4306       -49.5983      -2.431633      0.9806536
      6020.0000         0.4452       2289.859         0.4288       -49.3804      -2.181751      0.9840304
      6020.5000          0.443       2307.281          0.427       -49.1538      -1.923168      0.9875247
      6021.0000         0.4409       2291.547         0.4252       -48.9275      -1.664886      0.9910151
      6021.5000         0.4387       2270.813         0.4234       -48.7009      -1.406303      0.9945094
      6022.0000         0.4366       2250.078         0.4215       -48.4746      -1.148022      0.9979997
      6022.5000         0.4346       2229.344         0.4197        -48.248     -0.8894424              1
      6023.0000         0.4357       2208.609         0.4179       -48.1879     -0.7973595              1
      6023.5000         0.4368       2186.313         0.4161       -48.2379     -0.8153763              1
      6024.0000         0.4379       2161.406         0.4143       -48.3823     -0.9277954              1
      6024.5000         0.4394         2136.5         0.4135       -48.9136      -1.427113      0.9942282
      6025.0000         0.4408       2111.594          0.413       -49.4448      -1.926331       0.987482
      6025.5000         0.4423       2086.688         0.4125       -49.9761      -2.425648      0.9807345
      6026.0000         0.4438       2060.938         0.4121       -50.5068      -2.924366       0.973995
      6026.5000         0.4453       2034.313         0.4116       -51.0459       -3.43148      0.9671422
      6027.0000         0.4468       2037.758         0.4112       -51.6016        -3.9552      0.9600649
      6027.5000         0.4482       2044.234         0.4107       -51.1885      -3.510117      0.9660795
      6028.0000         0.4497       2050.711         0.4102       -50.3721      -2.661739      0.9775441
      6028.5000         0.4512           2083         0.4098       -49.8789      -2.136555      0.9846411
      6029.0000         0.4559       2117.344         0.4123       -50.5234      -2.749073      0.9763639
      6029.5000         0.4646        2131.75          0.426       -51.1685       -3.36219      0.9680785
      6030.0000         0.4734       2100.906         0.4397       -51.7383      -3.900009      0.9608107
      6030.5000         0.4849       2039.063         0.4534       -52.3013      -4.431026      0.9536348
      6031.0000         0.5115       1966.625         0.4671       -53.3496      -5.447346      0.9399008
      6031.5000         0.5381       1894.188         0.4808         -54.46      -6.525761      0.9253275
      6032.0000         0.5553       1820.563         0.4945       -56.8613      -8.895081      0.8933097
      6032.5000         0.5653       1745.625         0.5082       -59.2051       -11.2069       0.862069
      6033.0000         0.5703        1670.75         0.5281       -61.2734      -13.24322      0.8345511
      6033.5000         0.5611       1610.813         0.5485       -64.7656      -16.70344      0.7877914
      6034.0000         0.5519        1560.25         0.5689       -65.3726      -17.27845       0.780021
      6034.5000         0.5407       1515.406         0.5892       -64.1387      -16.01257      0.7971274
      6035.0000         0.5289       1476.656         0.6096       -62.4395      -14.28139      0.8205218
      6035.5000         0.5172         1460.5         0.6327       -60.7402      -12.55011      0.8439175
      6036.0000         0.5051         1555.5         0.6348       -59.1543      -10.93222      0.8657808
      6036.5000          0.494       1642.063         0.6261       -57.6855      -9.431442      0.8860616
      6037.0000         0.4911       1688.063         0.6174       -56.0664      -7.780357      0.9083735
      6037.5000           0.49        1733.75         0.6086       -55.1709      -6.852875      0.9209071
      6038.0000         0.4897       1773.531         0.5999       -54.9358      -6.585796      0.9245163
      6038.5000         0.4893       1803.969         0.5911        -54.356      -5.974014      0.9327836
      6039.0000          0.489       1828.477         0.5819       -53.6953      -5.281334      0.9421442
      6039.5000         0.4887       1835.758         0.5724       -53.0342      -4.588249      0.9515101
      6040.0000         0.4883       1842.125         0.5629       -52.2764       -3.79847      0.9621828
      6040.5000          0.488       1826.484         0.5535       -51.2402      -2.730286      0.9766178
      6041.0000         0.4856       1810.859          0.544       -49.9531      -1.411201      0.9944432
      6041.5000         0.4817       1795.234         0.5345       -48.8804     -0.3065224              1
      6042.0000         0.4778       1779.594         0.5251       -49.7139       -1.10804        0.99854
      6042.5000         0.4739       1756.906         0.5156       -50.7061      -2.068256      0.9855641
      6043.0000         0.4701       1744.344         0.5061       -51.6982      -3.028378      0.9725895
      6043.5000         0.4662       1938.375         0.4967       -52.4473      -3.745495      0.9628987
      6044.0000         0.4623         2080.5         0.4895       -53.1611      -4.427311       0.953685
      6044.5000         0.4634        2222.75         0.4825       -54.4844      -5.718632      0.9362347
      6045.0000         0.4646       2364.875         0.4755       -57.8516      -9.053848      0.8911642
      6045.5000         0.4743       2507.125         0.4684       -63.2188      -14.38906      0.8190667
      6046.0000         0.4841       2586.188         0.4616       -66.0762      -17.21449      0.7808853
      6046.5000         0.4939       2650.813          0.455        -68.791       -19.8973      0.7446311
      6047.0000         0.5037        2721.25         0.4484       -70.6973      -21.77162      0.7193024
      6047.5000         0.5093       2778.125         0.4419       -72.3574      -23.39973      0.6973009
