#------------------------------------------------------------------------------
# Created by    : vladimir.rabinovich
# Created on    : 09/19/2023 17:20:06
#------------------------------------------------------------------------------
~Version Information Section
VERS.           2.0     :   CWLS log ASCII Standard - VERSION 2.0
WRAP.           NO      :   One line per depth step
~Well Information Section
#MNEM       .UNIT                                         VALUE :DESCRIPTION
#------------------------------------------------------------------------------
STRT        .FT                                             325 :START DEPTH
STOP        .FT                                           10896 :STOP DEPTH
STEP        .FT                                             0.5 :STEP      
NULL        .                                           -999.25 :NULL      
COMP        .                                      GETTY OIL CO :COMPANY   
WELL        .                               OCS G03737 ST00BP00 :WELL      
FLD         .                                           WILDCAT :FIELD     
LOC         .                                                   :LOCATION  
CNTY        .                             GALVESTON LARGE BLOCK :LOCATION  
STAT        .                                             TEXAS :STATE     
CTRY        .                                     UNITED STATES :COUNTRY   
SRVC        .                                                   :SERVICE COMPANY
DATE        .                             9/13/2023 11:10:15 AM :LOG DATE  
API         .                                    42706400540000 :API NUMBER
UWI         .                                    42706400540000 :UNIQUE WELL ID
XCOORD      .                                  1098214.74516992 :SURFACE X 
YCOORD      .                                   10573216.961531 :SURFACE Y 
LAT         .                                         29.123847 :LATITUDE  
LON         .                                        -94.698615 :LONGITUDE 
ELEV        .FT                                              99 :ELEVATION VALUE
ELEV_TYPE   .                                                KB :ELEVATION REFERENCE TYPE
~Curve Information Section
#MNEM       .UNIT                                      API CODE :CURVE DESCRIPTION
#------------------------------------------------------------------------------
DEPT        .FT                                                 :DEPTH     
ASFL        .OHMM                                               :          
DT          .US/F                                               :          
DTL         .US/F                                               :          
GR          .GAPI                                               :          
GR_1        .GAPI                                               :          
GR_NORM     .GAPI                                               :GammaRay Normalized
ILD         .OHMM                                               :          
RHOB        .G/CC                                               :          
SP          .MV                                                 :          
SP_NORM     .MV                                                 :SP Normalized
VSH_GR      .V/V                                                :Volume of Shale from GR
VSH_SP      .V/V                                                :Volume of Shale from SP
~A        DEPTH           ASFL             DT            DTL             GR           GR_1        GR_NORM            ILD           RHOB             SP        SP_NORM         VSH_GR         VSH_SP
# ...
      1739.5000         0.7535       157.9248       157.3788        44.2224        49.6123         62.147          0.345         2.0327       -62.6259        -4.3591         0.6201         0.7761
      1740.0000           0.77       156.1125       155.3238        48.6252        51.5879        69.8309         0.3588         2.0538       -61.9215        -3.6594         0.7836         0.8227
      1740.5000         0.7873       153.1616       152.0697        49.2685         53.931        70.9536         0.3734         2.0719       -61.2172        -2.9599         0.8075         0.8693
      1741.0000          0.802       150.4971       148.8917        49.8044        55.8184        71.8888         0.3881         2.0745        -60.869        -2.6164         0.8274         0.8922
      1741.5000         0.8142       149.0295       149.2883        50.8208        57.3199        73.6627         0.4027         2.0499       -60.5737        -2.3258         0.8652         0.9116
      1742.0000         0.8264       148.9888       151.8837         53.176        58.3087         77.773          0.417         2.0292       -60.2783        -2.0351         0.9526          0.931
      1742.5000         0.8362       151.5781       153.5494        55.7853        58.0759        82.3268          0.429         2.0244       -60.0677        -1.8292              1         0.9447
      1743.0000         0.8432       154.4119       155.2006        58.4924        57.8432        87.0513          0.441         2.0316       -60.0282        -1.7944              1          0.947
      1743.5000         0.8502       156.1389       156.6874        59.5728        57.6104        88.9368          0.453         2.0411       -59.9887        -1.7596              1         0.9494
      1744.0000         0.8562       157.0247       157.4819         57.852        57.3776        85.9336          0.465         2.0477       -59.9492        -1.7248              1         0.9517
      1744.5000         0.8591       157.3613       157.3142         55.569        57.1393        81.9493         0.4622         2.0492       -59.9808        -1.7612              1         0.9493
      1745.0000          0.862       157.2988       156.2771        54.8069        56.9003        80.6193         0.4586          2.046       -60.1212        -1.9063              1         0.9396
      1745.5000         0.8649       156.2712       153.5613        55.6787        56.6613        82.1408         0.4549         2.0414       -60.2617        -2.0515              1         0.9299
      1746.0000         0.8667       153.9875       151.6918        56.6278        56.4222        83.7972         0.4512         2.0348       -60.4021        -2.1966              1         0.9202
      1746.5000         0.8646        152.175       151.2124        56.8161        56.1832        84.1258         0.4458         2.0332        -60.744        -2.5432              1         0.8971
      1747.0000         0.8604       151.8162       151.7933        56.4125        55.8552        83.4214         0.4392         2.0331       -61.1309        -2.9348              1          0.871
      1747.5000         0.8516       152.8894       153.4197        55.4154         55.246        81.6813         0.4325         2.0358       -61.5177        -3.3263              1         0.8449
      1748.0000         0.8429       156.5469       155.3112        54.1747        54.6367         79.516         0.4259         2.0392       -62.2865        -4.0998         0.9897         0.7933
      1748.5000         0.8339       157.9666       156.9615        52.9821        54.0273        77.4346         0.4192         2.0378       -64.4132        -6.2313         0.9454         0.6512
      1749.0000         0.8227       158.6702       157.9199        53.6833        51.7457        78.6583         0.4126         2.0328       -66.4824        -8.3052         0.9715          0.513
      1749.5000         0.8116       158.2947       158.3043        55.4194        49.2653        81.6882         0.4059          2.025       -67.6144        -9.4419              1         0.4372
      1750.0000         0.8004       155.8494       157.3429        56.0227        47.1359        82.7411         0.3993         2.0153       -67.8188         -9.651              1         0.4233
      1750.5000         0.7942       151.4421       155.2127        54.4586        45.8471        80.0114         0.3937              2       -67.5952        -9.4321              1         0.4379
      1751.0000         0.7887       151.3879       152.5082        51.2641        44.4933        74.4363         0.3921         1.9749       -67.3718        -9.2134         0.8816         0.4524
      1751.5000         0.7832       151.7241       151.0844        47.2938        43.1084        67.5073         0.3905          1.925       -67.1483        -8.9946         0.7342          0.467
      1752.0000         0.7777       153.3145        151.284        42.4256        43.3319        59.0112         0.3966         1.8803       -66.9248        -8.7759         0.5534         0.4816
      1752.5000         0.7779       157.1917       152.8625         41.074        43.5554        56.6524          0.409         1.9129       -66.4937        -8.3495         0.5032           0.51
      1753.0000         0.7804       161.1462       156.9976        43.5273         44.113        60.9339         0.4214          1.955       -65.9528        -7.8133         0.5943         0.5458
      1753.5000         0.7896       162.0498       161.5535        45.3073         44.721        64.0404          0.434         1.9848       -65.4116        -7.2768         0.6604         0.5815
      1754.0000         0.7988       160.3398       161.0891        46.2802        45.3292        65.7383         0.4483         1.9881       -64.7327        -6.6026         0.6966         0.6265
      1754.5000          0.814       155.2273       158.5061        46.1317        45.9371        65.4792         0.4627         1.9661       -63.9196        -5.7942          0.691         0.6804
      1755.0000           0.83       152.5381       153.8717        45.7764        47.0316        64.8591          0.477          1.974       -63.1062        -4.9855         0.6779         0.7343
      1755.5000         0.8474       152.0073       151.1608        45.5167        48.1328        64.4059         0.4913         2.0067       -62.3451        -4.2292         0.6682         0.7847
      1756.0000         0.8657       151.8906        150.424        45.4706        49.3158        64.3254         0.5056         2.0324       -61.6022         -3.491         0.6665         0.8339
      1756.5000         0.8851       151.4131       150.5458        46.0972        50.7491         65.419         0.5168         2.0614       -61.0585         -2.952         0.6898         0.8699
      1757.0000         0.9051       147.1707       150.5888        47.6836        52.1821        68.1876          0.528         2.0753       -60.8831        -2.7813         0.7487         0.8812
      1757.5000         0.9184        143.323       149.6583        49.9877        53.7031        72.2087         0.5392         2.0894       -60.7076        -2.6105         0.8342         0.8926
      1758.0000         0.9297       141.0356       147.1841        51.9346        55.2598        75.6065         0.5504         2.0976       -60.6176        -2.5252         0.9065         0.8983
      1758.5000         0.9406       139.9971       143.0389        52.8349        57.1876        77.1777         0.5616         2.1018       -60.5347         -2.447           0.94         0.9035
      1759.0000         0.9474        140.032       138.9027        53.7016        58.9622        78.6903         0.5712         2.0994       -60.4367        -2.3537         0.9721         0.9098
      1759.5000         0.9542       142.9749       140.3215         54.946        60.3982         80.862         0.5789          2.086       -60.2206        -2.1424              1         0.9238
