#------------------------------------------------------------------------------
# Created by    : vladimir.rabinovich
# Created on    : 09/19/2023 17:20:04
#------------------------------------------------------------------------------
~Version Information Section
VERS.           2.0     :   CWLS log ASCII Standard - VERSION 2.0
WRAP.           NO      :   One line per depth step
~Well Information Section
#MNEM       .UNIT                                         VALUE :DESCRIPTION
#------------------------------------------------------------------------------
STRT        .FT                                             627 :START DEPTH
STOP        .FT                                            8077 :STOP DEPTH
STEP        .FT                                             0.5 :STEP      
NULL        .                                           -999.25 :NULL      
COMP        .                                    MOBIL OIL CORP :COMPANY   
WELL        .                               OCS G02338 ST00BP00 :WELL      
FLD         .                                           WILDCAT :FIELD     
LOC         .                                                   :LOCATION  
CNTY        .                             GALVESTON LARGE BLOCK :LOCATION  
STAT        .                                             TEXAS :STATE     
CTRY        .                                     UNITED STATES :COUNTRY   
SRVC        .                                                   :SERVICE COMPANY
DATE        .                             9/13/2023 11:18:53 AM :LOG DATE  
API         .                                    42706400220000 :API NUMBER
UWI         .                                    42706400220000 :UNIQUE WELL ID
XCOORD      .                                  948421.875172236 :SURFACE X 
YCOORD      .                                   10402667.405867 :SURFACE Y 
LAT         .                                         28.648189 :LATITUDE  
LON         .                                        -95.157922 :LONGITUDE 
ELEV        .FT                                              76 :ELEVATION VALUE
ELEV_TYPE   .                                                KB :ELEVATION REFERENCE TYPE
~Curve Information Section
#MNEM       .UNIT                                      API CODE :CURVE DESCRIPTION
#------------------------------------------------------------------------------
DEPT        .FT                                                 :DEPTH     
ASFL        .OHMM                                               :          
CALI        .IN                                                 :          
CILD        .MMHO                                               :          
DT          .US/F                                               :          
DT_1        .US/F                                               :          
GR          .GAPI                                               :          
GR_NORM     .GAPI                                               :GammaRay Normalized
ILD         .OHMM                                               :          
SFL         .OHMM                                               :          
SP          .MV                                                 :          
SP_NORM     .MV                                                 :SP Normalized
VSH_GR      .V/V                                                :Volume of Shale from GR
VSH_SP      .V/V                                                :Volume of Shale from SP
~A        DEPTH           ASFL           CALI           CILD             DT           DT_1             GR        GR_NORM            ILD            SFL             SP        SP_NORM         VSH_GR         VSH_SP
# ...
      8056.0000         0.9149         8.7762       1471.125       116.7642        -999.25        80.9358       78.44312         0.6558         0.7587       -41.8264      -1.826401       0.966875      0.9880232
      8056.5000         0.9345         8.8356       1455.662       116.9766        -999.25        80.9003       78.40038         0.6594          0.768       -41.8132      -1.813202      0.9659656      0.9882145
      8057.0000         0.9541         8.5682           1440       117.0497        -999.25        80.8584       78.34994         0.6413         0.7768       -41.8445      -1.844501      0.9648923      0.9877608
      8057.5000         0.9782         8.8317       1423.313       116.8523        -999.25        80.8938       78.39256         0.6152         0.7727       -41.8314      -1.831402      0.9657992      0.9879507
      8058.0000         1.0038         9.2611       1406.627        116.707        -999.25        80.9141       78.41701         0.6182         0.7953       -41.4294      -1.429401      0.9663193      0.9937768
      8058.5000         1.0054         9.1939       1389.939       116.8877        -999.25        80.9358       78.44312         0.6241         0.8003       -41.1595        -1.1595       0.966875      0.9976884
      8059.0000         0.9801         8.8804       1386.467        117.156        -999.25        80.8993       78.39919         0.6226          0.794       -41.3696      -1.369598      0.9659401      0.9946435
      8059.5000         0.9547         8.7473       1412.371       117.4517        -999.25        80.9596       78.47179         0.6188         0.7848       -41.5704        -1.5704       0.967485      0.9917333
      8060.0000         0.9361          8.969       1438.252        117.656        -999.25        81.0131       78.53619         0.6125          0.775        -41.869      -1.868999      0.9688552      0.9874058
      8060.5000         0.9199         9.0932       1473.723       117.8009        -999.25        81.0431       78.57231         0.6056         0.7626       -43.0064      -3.006401      0.9696236      0.9709217
      8061.0000         0.9045         8.9429       1504.475       116.9713        -999.25        81.1139       78.65755         0.5988         0.7484       -45.3755        -5.3755      0.9714373       0.936587
      8061.5000         0.8892         8.7561       1522.783       115.9528        -999.25        81.1716       78.72703         0.5924         0.7704       -48.2975      -8.297501      0.9729155      0.8942391
      8062.0000         0.8807         8.8521        1541.07       115.4448        -999.25        -999.25       78.45119        -999.25        -999.25        -999.25       -7.65138      0.9670466      0.9036032
      8062.5000         0.8724         8.8939       1548.951       115.2209        -999.25        -999.25       78.17536        -999.25        -999.25        -999.25       -7.00526      0.9611779      0.9129673
      8063.0000         0.8642          8.822        1556.77       116.3154        -999.25        -999.25       77.89953        -999.25        -999.25        -999.25      -6.359139      0.9553091      0.9223313
      8063.5000         0.8568         8.9989       1564.588       118.3202        -999.25        -999.25        77.6237        -999.25        -999.25        -999.25      -5.713019      0.9494405      0.9316954
      8064.0000          0.857         9.4129       1572.408       119.6392        -999.25        80.0261       77.34788         0.5954          0.831       -45.0669      -5.066898      0.9435719      0.9410595
      8064.5000         0.8571         9.6585       1575.721       120.4413        -999.25        80.0264       77.34824         0.5911         0.7534       -44.1915      -4.191502      0.9435795      0.9537464
      8065.0000         0.8572         9.7897       1578.719       120.2062        -999.25        80.0099       77.32837         0.5878         0.7097       -43.9423      -3.942299      0.9431568       0.957358
      8065.5000         0.8574         9.8225       1581.713       120.1326        -999.25        80.0105       77.32909          0.585         0.7303       -43.8751      -3.875099       0.943172      0.9583319
      8066.0000         0.8575         9.7776       1584.711       120.0757        -999.25        80.0449       77.37051         0.5828         0.7368       -43.8925      -3.892502      0.9440535      0.9580797
      8066.5000         0.8577         9.7275       1587.707       120.0188        -999.25        80.0873       77.42156          0.581         0.7302       -43.7771        -3.7771      0.9451396      0.9597522
      8067.0000         0.8569          9.695       1590.705       120.0334        -999.25        80.1632       77.51295         0.5793         0.7199       -43.5217      -3.521702       0.947084      0.9634536
      8067.5000         0.8551         9.8167       1594.266       120.0649        -999.25        80.1808       77.53413          0.579         0.7227       -43.2079      -3.207901      0.9475347      0.9680014
      8068.0000         0.8532          9.922       1598.148       120.0966        -999.25        80.2086        77.5676          0.579         0.7651       -42.9668      -2.966801      0.9482469      0.9714956
      8068.5000         0.8514        10.0177       1602.041       120.1279        -999.25        80.2477       77.61469         0.5789         0.7861        -42.782      -2.782001      0.9492486      0.9741739
      8069.0000         0.8495          9.915       1605.924       120.1595        -999.25        80.2852       77.65982         0.5788         0.7637       -42.6544        -2.6544       0.950209      0.9760232
      8069.5000         0.8477         9.8217       1609.809       120.1665        -999.25        80.3153       77.69606         0.5787         0.7233        -42.604         -2.604        0.95098      0.9767536
      8070.0000         0.8458         9.7949       1613.693       120.1731        -999.25        80.3248        77.7075         0.5785         0.7216       -42.6081      -2.608101      0.9512235      0.9766942
      8070.5000          0.844         9.8272       1617.578       120.1796        -999.25        80.3468       77.73399         0.5782         0.7349       -42.7473      -2.747299      0.9517871      0.9746768
      8071.0000         0.8425         9.5841       1621.469       120.1862        -999.25        80.3447       77.73147         0.5771         0.7392       -42.9351      -2.935101      0.9517334      0.9719551
      8071.5000         0.8409         9.5654       1625.129       120.1918        -999.25        80.3932       77.78986         0.5761         0.7386       -43.1484      -3.148399      0.9529758      0.9688638
      8072.0000         0.8393          9.677       1626.996       120.1683        -999.25        80.4435       77.85041         0.5757         0.7341        -43.431         -3.431       0.954264      0.9647681
      8072.5000         0.8378         9.7398       1628.863       120.1448        -999.25        80.5558       77.98562         0.5753           0.73       -43.4723      -3.472301      0.9571408      0.9641696
      8073.0000         0.8362         9.5766        1630.73       120.1213        -999.25        80.7642       78.23653         0.5753         0.7265       -43.1682      -3.168201      0.9624795      0.9685768
      8073.5000         0.8346          9.084       1632.598       120.0978        -999.25        81.7086       79.37356         0.5757         0.7235       -43.0404      -3.040401      0.9866714      0.9704289
      8074.0000         0.8331         9.6736       1634.465       120.0786        -999.25        82.2306       80.00203         0.5772         0.7208       -42.9131      -2.913101              1      0.9722739
      8074.5000         0.8316          9.984       1636.328       120.0623        -999.25        82.2952       80.07981         0.5785         0.7177       -42.9355      -2.935501              1      0.9719493
