#------------------------------------------------------------------------------
# Created by    : vladimir.rabinovich
# Created on    : 09/19/2023 17:20:38
#------------------------------------------------------------------------------
~Version Information Section
VERS.           2.0     :   CWLS log ASCII Standard - VERSION 2.0
WRAP.           NO      :   One line per depth step
~Well Information Section
#MNEM       .UNIT                                         VALUE :DESCRIPTION
#------------------------------------------------------------------------------
STRT        .FT                                             495 :START DEPTH
STOP        .FT                                            8683 :STOP DEPTH
STEP        .FT                                             0.5 :STEP      
NULL        .                                           -999.25 :NULL      
COMP        .                                      SHELL OIL CO :COMPANY   
WELL        .                                OCS 00706 ST00BP00 :WELL      
FLD         .                                           WILDCAT :FIELD     
LOC         .                                                   :LOCATION  
CNTY        .                             GALVESTON LARGE BLOCK :LOCATION  
STAT        .                                             TEXAS :STATE     
CTRY        .                                     UNITED STATES :COUNTRY   
SRVC        .                                                   :SERVICE COMPANY
DATE        .                             9/13/2023 11:19:25 AM :LOG DATE  
API         .                                    42706000290000 :API NUMBER
UWI         .                                    42706000290000 :UNIQUE WELL ID
XCOORD      .                                  1097630.70361638 :SURFACE X 
YCOORD      .                                  10500448.3193905 :SURFACE Y 
LAT         .                                          28.92371 :LATITUDE  
LON         .                                        -94.697168 :LONGITUDE 
ELEV        .FT                                              92 :ELEVATION VALUE
ELEV_TYPE   .                                                KB :ELEVATION REFERENCE TYPE
~Curve Information Section
#MNEM       .UNIT                                      API CODE :CURVE DESCRIPTION
#------------------------------------------------------------------------------
DEPT        .FT                                                 :DEPTH     
ASN         .OHMM                                               :          
CILD        .MMHO                                               :          
ILD         .OHMM                                               :          
SP          .MV                                                 :          
SP_NORM     .MV                                                 :SP Normalized
VSH_SP      .V/V                                                :Volume of Shale from SP
~A        DEPTH            ASN           CILD            ILD             SP        SP_NORM         VSH_SP
# ...
      5359.0000         1.0101       1078.088         1.0306       -39.8398      0.4106026              1
      5359.5000          1.021       1123.734         1.0259       -40.2739    -0.02643967              1
      5360.0000         1.0321       1169.424         1.0046       -43.1031      -2.858589      0.9684985
      5360.5000         1.0759        1249.83         0.9632       -52.8079      -12.56634      0.8039604
      5361.0000         1.1143       1327.516         0.8945       -53.7119      -13.47329      0.7885884
      5361.5000          1.107       1578.479         0.8232       -54.6147      -14.37903      0.7732368
      5362.0000         1.0712       1714.012         0.7796       -54.7177      -14.48498       0.771441
      5362.5000         1.0344       1836.641         0.7415       -53.8625      -13.63273      0.7858859
      5363.0000         0.9005        1997.75         0.7031       -53.0068      -12.77998      0.8003394
      5363.5000         0.8616       2101.125         0.6628       -51.9203      -11.69642      0.8187047
      5364.0000         0.8337       2288.988         0.6226        -52.712      -12.49107       0.805236
      5364.5000         0.8246       2560.754         0.5833       -54.4197      -14.20172       0.776242
      5365.0000         0.8222        2663.02         0.5611       -56.8873      -16.67226      0.7343684
      5365.5000         0.8234       2910.297         0.5389       -59.3548      -19.14272      0.6924964
      5366.0000          0.829       2873.781         0.5271       -61.6339      -21.42476      0.6538176
      5366.5000         0.8346       2837.262         0.5358       -80.2129      -40.00671      0.3388693
      5367.0000         0.8261       2762.648         0.5541       -83.5658      -43.36256      0.2819905
      5367.5000         0.8175           2445         0.5754       -82.5051       -42.3048      0.2999186
      5368.0000         0.8089           2005         0.5967       -74.5809      -34.38356       0.434177
      5368.5000         0.7956       1694.963         0.6323       -66.0343       -25.8399      0.5789847
      5369.0000         0.7798       1577.865         0.6683        -56.289      -16.09755      0.7441093
      5369.5000         0.7641       1521.992         0.7043       -53.8379      -13.64939      0.7856035
      5370.0000         0.7727       1503.404         0.7345       -52.3214      -12.13585      0.8112569
      5370.5000          0.799        1484.84         0.7629       -51.0438      -10.86119      0.8328612
      5371.0000         0.8335       1478.789         0.7913       -50.7953      -10.61564      0.8370231
      5371.5000         0.8713       1474.021         0.8196       -50.4217      -10.24499      0.8433053
      5372.0000         0.8987       1469.248         0.8344       -50.0138      -9.840038      0.8501688
      5372.5000         0.9046       1471.102         0.8387       -49.3323       -9.16148      0.8616698
      5373.0000          0.885       1478.816         0.8429       -48.4108      -8.242931      0.8772385
      5373.5000         0.8654       1486.529         0.8472       -47.4323       -7.26738      0.8937732
      5374.0000         0.8479       1496.361         0.8515       -42.9979      -2.835922      0.9688827
      5374.5000          0.835       1504.332         0.8556       -39.9398      0.2192268              1
      5375.0000         0.8259       1504.531         0.8554       -39.0484       1.107677              1
      5375.5000         0.8294        1504.73         0.8552       -38.4842        1.66893              1
      5376.0000         0.8317        1504.93          0.855       -38.2762       1.873985              1
      5376.5000         0.8334       1501.611         0.8548       -38.0681       2.079136              1
      5377.0000         0.8351       1494.578         0.8546         -37.86       2.284286              1
      5377.5000         0.8367       1487.873         0.8544        -37.652       2.489338              1
      5378.0000         0.8384       1484.346         0.8542        -37.444       2.694393              1
      5378.5000          0.837        1482.59          0.854       -37.2359       2.899544              1
      5379.0000         0.8342       1494.979         0.8507       -37.0279       3.104595              1
      5379.5000         0.8314       1507.365         0.8465       -36.8198        3.30975              1
      5380.0000         0.8273       1519.754         0.8423       -36.5729       3.553703              1
      5380.5000          0.821       1540.426         0.8381       -36.3244       3.799252              1
      5381.0000         0.8147       1572.379          0.834        -36.076       4.044704              1
      5381.5000         0.8084        1604.33         0.8286       -35.8278       4.289959              1
      5382.0000         0.8022       1630.664         0.8221       -35.6155        4.49931              1
      5382.5000         0.7968       1653.092         0.8155       -35.4146       4.697262              1
      5383.0000         0.8023       1678.834          0.809       -35.2753       4.833618              1
      5383.5000          0.811         1706.9         0.8022       -35.7026        4.40337              1
      5384.0000         0.8236       1738.459         0.7954       -37.2136        2.88942              1
      5384.5000         0.8431       1811.271         0.7886       -42.2791      -2.179028      0.9800165
      5385.0000         0.8626       1838.045         0.7818       -47.9725      -7.875374      0.8834682
      5385.5000         0.8764       1851.125          0.775       -53.1662      -13.07202      0.7953895
      5386.0000          0.887        1861.35         0.7695       -56.9968      -16.90557       0.730414
      5386.5000         0.8881       1855.402         0.7673       -59.9333      -19.84502      0.6805929
      5387.0000         0.8891       1829.947         0.7651       -62.0021      -21.91677      0.6454785
      5387.5000         0.8902       1804.514          0.763       -63.4556      -23.37321       0.620793
      5388.0000         0.8979       1742.342         0.7608       -64.1096      -24.03016      0.6096583
      5388.5000         0.9067       1717.873         0.7586       -64.7644       -24.6879      0.5985101
      5389.0000         0.9188       1700.801          0.765       -65.3013      -25.22776      0.5893601
      5389.5000         0.9351       1691.277         0.7717       -65.7855       -25.7149      0.5811033
      5390.0000         0.9514       1681.764          0.781       -66.1746      -26.10695      0.5744584
      5390.5000         1.0108       1663.143         0.7942       -60.3037        -20.239      0.6739153
      5391.0000         0.9941       1640.475         0.8076       -58.1583      -18.09655       0.710228
      5391.5000         0.9775       1611.045         0.8314       -55.2985       -15.2397      0.7586492
      5392.0000         0.9593       1560.879         0.8552       -51.2618      -11.20594      0.8270179
      5392.5000         0.9387       1476.566         0.8842       -49.4594       -9.40649      0.8575171
      5393.0000         0.9348       1381.063         0.9294        -47.772      -7.722038      0.8860672
      5393.5000          1.013       1315.445         0.9746       -48.5565      -8.509487      0.8727205
      5394.0000         1.0758       1226.568         1.0165       -50.8652      -10.82113      0.8335401
      5394.5000         1.1215       1070.672         1.0456       -50.2297      -10.18858      0.8442613
      5395.0000         1.2052        1032.75         1.0748       -48.7165      -8.678329      0.8698588
      5395.5000          1.374       1004.123         1.0934       -47.0389      -7.003677      0.8982428
      5396.0000         1.4064         988.29         1.0738       -45.2419      -5.209625      0.9286504
      5396.5000         1.3772       998.4287         1.0542       -43.7657      -3.736374      0.9536208
