#------------------------------------------------------------------------------
# Created by    : vladimir.rabinovich
# Created on    : 09/19/2023 17:20:37
#------------------------------------------------------------------------------
~Version Information Section
VERS.           2.0     :   CWLS log ASCII Standard - VERSION 2.0
WRAP.           NO      :   One line per depth step
~Well Information Section
#MNEM       .UNIT                                         VALUE :DESCRIPTION
#------------------------------------------------------------------------------
STRT        .FT                                             582 :START DEPTH
STOP        .FT                                            8015 :STOP DEPTH
STEP        .FT                                             0.5 :STEP      
NULL        .                                           -999.25 :NULL      
COMP        .                                CONTINENTAL OIL CO :COMPANY   
WELL        .                                OCS 00719 ST00BP00 :WELL      
FLD         .                                           WILDCAT :FIELD     
LOC         .                                                   :LOCATION  
CNTY        .                             GALVESTON LARGE BLOCK :LOCATION  
STAT        .                                             TEXAS :STATE     
CTRY        .                                     UNITED STATES :COUNTRY   
SRVC        .                                                   :SERVICE COMPANY
DATE        .                             9/13/2023 11:19:25 AM :LOG DATE  
API         .                                    42706000350000 :API NUMBER
UWI         .                                    42706000350000 :UNIQUE WELL ID
XCOORD      .                                  1010979.62119212 :SURFACE X 
YCOORD      .                                  10432235.4027546 :SURFACE Y 
LAT         .                                          28.73246 :LATITUDE  
LON         .                                        -94.964458 :LONGITUDE 
ELEV        .FT                                              63 :ELEVATION VALUE
ELEV_TYPE   .                                                KB :ELEVATION REFERENCE TYPE
~Curve Information Section
#MNEM       .UNIT                                      API CODE :CURVE DESCRIPTION
#------------------------------------------------------------------------------
DEPT        .FT                                                 :DEPTH     
ASN         .OHMM                                               :          
DT          .US/F                                               :          
LN          .OHMM                                               :          
SP          .MV                                                 :          
SP_NORM     .MV                                                 :SP Normalized
VSH_SP      .V/V                                                :Volume of Shale from SP
~A        DEPTH            ASN             DT             LN             SP        SP_NORM         VSH_SP
# ...
      7004.0000         0.3644        -999.25         0.3999       -81.6558      -55.68325       0.147885
      7004.5000         0.3573        -999.25         0.4007       -80.8634      -54.48975      0.1668293
      7005.0000         0.3501        -999.25         0.3993       -81.0804      -54.81812      0.1616172
      7005.5000          0.349        -999.25         0.3972       -81.8069      -55.91465      0.1442118
      7006.0000         0.3585        -999.25         0.3951       -82.3346      -56.71147       0.131564
      7006.5000         0.3792        -999.25          0.393       -82.8618      -57.50753      0.1189281
      7007.0000         0.4167        -999.25         0.3909       -82.9418      -57.62934      0.1169946
      7007.5000         0.4483        -999.25         0.3888       -84.4047      -59.83614     0.08196604
      7008.0000         0.4673        -999.25         0.3867       -86.3723      -62.80388     0.03485907
      7008.5000         0.4863        -999.25         0.3846       -82.1952      -56.50729      0.1348049
      7009.0000         0.5052        -999.25         0.3825        -78.157      -50.42013      0.2314265
      7009.5000         0.5242        -999.25         0.3804       -75.6387      -46.62452      0.2916743
      7010.0000         0.5448        -999.25         0.3783       -74.2015      -44.45885        0.32605
      7010.5000         0.5658        -999.25         0.3768       -73.4607      -43.34316      0.3437594
      7011.0000         0.5938        -999.25         0.3867       -78.0809       -50.3102      0.2331715
      7011.5000         0.5469        -999.25         0.3966       -82.6967       -57.2706      0.1226889
      7012.0000         0.5106        -999.25         0.4065       -80.4178      -53.83593      0.1772075
      7012.5000         0.4823        -999.25         0.4163        -75.444      -46.33816      0.2962197
      7013.0000         0.4636        -999.25         0.4262       -70.4656      -38.83347      0.4153418
      7013.5000         0.4449        -999.25         0.4361       -65.4916      -31.33541      0.5343586
      7014.0000         0.4724        -999.25          0.446       -60.2402      -23.41911      0.6600142
      7014.5000         0.5459        -999.25         0.4559       -59.1724       -21.8104      0.6855493
      7015.0000         0.5814        -999.25         0.4658       -58.0016      -20.04639      0.7135494
      7015.5000         0.5927        -999.25         0.4757       -56.8846       -18.3635       0.740262
      7016.0000          0.604        -999.25         0.4844       -59.7835      -22.73535      0.6708675
      7016.5000         0.6103        -999.25         0.4872       -61.2385      -24.93024      0.6360279
      7017.0000         0.6159        -999.25           0.49       -62.5212      -26.86535      0.6053119
      7017.5000         0.6215        -999.25         0.4928       -63.6483      -28.56588      0.5783194
      7018.0000         0.6271        -999.25         0.4957       -64.9119       -30.4722      0.5480604
      7018.5000         0.6203        -999.25         0.4985       -66.2483      -32.48827      0.5160592
      7019.0000         0.5668        -999.25         0.5013       -67.7972      -34.82475      0.4789723
      7019.5000         0.5427        -999.25         0.5041       -70.7341      -39.25388      0.4086686
      7020.0000         0.5186        -999.25         0.5017       -83.5966      -58.64778      0.1008289
      7020.5000         0.4999        -999.25         0.4921       -84.5132      -60.03092     0.07887425
      7021.0000          0.485        -999.25         0.4825       -74.6381      -45.14351      0.3151824
      7021.5000           0.47        -999.25          0.473       -71.8243      -40.90237       0.382502
      7022.0000         0.4627        -999.25         0.4634       -70.0425      -38.21717      0.4251243
      7022.5000         0.4698        -999.25         0.4538       -69.1705      -36.90365      0.4459738
      7023.0000         0.4769        -999.25         0.4442       -69.3195      -37.12951      0.4423888
      7023.5000          0.484        -999.25         0.4347       -70.8752      -39.47621      0.4051395
      7024.0000         0.4597        -999.25         0.4251       -72.4309      -41.82293        0.36789
      7024.5000         0.4274        -999.25         0.4155       -74.2039      -44.49728        0.32544
      7025.0000         0.3951        -999.25         0.4059       -77.7362      -49.82409      0.2408875
      7025.5000         0.3695        -999.25         0.3964       -83.4398      -58.42456      0.1043721
      7026.0000         0.3617        -999.25         0.3868       -87.2721       -64.2037     0.01263973
      7026.5000          0.354        -999.25         0.3772       -88.2952      -65.74741              0
      7027.0000         0.3463        -999.25          0.369        -89.317      -67.28918              0
      7027.5000         0.3385        -999.25         0.3642       -90.1442      -68.53754              0
      7028.0000         0.3342        -999.25         0.3594       -88.9678      -66.76508              0
      7028.5000         0.3315        -999.25         0.3546       -87.7915      -64.99279   0.0001144409
      7029.0000         0.3289        -999.25         0.3498       -86.6151      -63.22034     0.02824856
      7029.5000         0.3367        -999.25          0.345       -85.8877      -62.12485     0.04563734
      7030.0000         0.3497        -999.25         0.3402       -86.4596       -62.9883     0.03193174
      7030.5000         0.3626        -999.25         0.3354       -88.2638      -65.70967              0
      7031.0000         0.3731        -999.25         0.3306       -89.4138      -67.44473              0
      7031.5000         0.3827        -999.25         0.3258       -89.2678       -67.2258              0
      7032.0000         0.3923        -999.25          0.321       -88.4597      -66.00863              0
      7032.5000         0.4018        -999.25         0.3162       -87.6527      -64.79313    0.003283667
      7033.0000         0.4109        -999.25         0.3114       -86.7697      -63.46303     0.02439632
      7033.5000         0.4064        -999.25         0.3066       -85.7925      -61.99092     0.04776322
      7034.0000         0.4018        -999.25         0.3073       -84.8154      -60.51894     0.07112788
      7034.5000         0.3973        -999.25         0.3083       -83.8383      -59.04699     0.09449223
      7035.0000         0.3928        -999.25         0.3093       -83.0693      -57.88876      0.1128768
      7035.5000         0.3882        -999.25         0.3102       -82.3933      -56.87077      0.1290353
      7036.0000         0.3837        -999.25         0.3112       -81.7296      -55.87131      0.1448998
      7036.5000         0.3792        -999.25         0.3121       -80.3082      -53.72947      0.1788973
      7037.0000         0.3746        -999.25         0.3131       -78.8867       -51.5875      0.2128969
      7037.5000         0.3745        -999.25         0.3141       -77.5258      -49.53688      0.2454464
      7038.0000         0.3752        -999.25          0.315       -78.4703      -50.96209       0.222824
      7038.5000         0.3759        -999.25          0.316       -80.9104      -54.64221      0.1644093
      7039.0000         0.3766        -999.25          0.317       -84.4562      -59.98938     0.07953365
      7039.5000         0.3734        -999.25         0.3179       -86.3364      -62.82535     0.03451823
      7040.0000         0.3683        -999.25         0.3189        -87.571      -64.68795    0.004953173
      7040.5000         0.3633        -999.25         0.3199       -88.8066      -66.55205              0
      7041.0000         0.3582        -999.25         0.3208       -89.5923      -67.73785              0
      7041.5000         0.3532        -999.25         0.3218       -89.5509      -67.67663              0
