#------------------------------------------------------------------------------
# Created by    : vladimir.rabinovich
# Created on    : 09/19/2023 17:20:57
#------------------------------------------------------------------------------
~Version Information Section
VERS.           2.0     :   CWLS log ASCII Standard - VERSION 2.0
WRAP.           NO      :   One line per depth step
~Well Information Section
#MNEM       .UNIT                                         VALUE :DESCRIPTION
#------------------------------------------------------------------------------
STRT        .FT                                             598 :START DEPTH
STOP        .FT                                           10008 :STOP DEPTH
STEP        .FT                                             0.5 :STEP      
NULL        .                                           -999.25 :NULL      
COMP        .                                        SUN OIL CO :COMPANY   
WELL        .                               OCS G01712 ST00BP00 :WELL      
FLD         .                                           WILDCAT :FIELD     
LOC         .                                                   :LOCATION  
CNTY        .                                BRAZOS LARGE BLOCK :LOCATION  
STAT        .                                             TEXAS :STATE     
CTRY        .                                     UNITED STATES :COUNTRY   
SRVC        .                                                   :SERVICE COMPANY
DATE        .                             9/13/2023 11:18:52 AM :LOG DATE  
API         .                                    42704300120000 :API NUMBER
UWI         .                                    42704300120000 :UNIQUE WELL ID
XCOORD      .                                   818594.06951761 :SURFACE X 
YCOORD      .                                  10373365.4427938 :SURFACE Y 
LAT         .                                         28.560597 :LATITUDE  
LON         .                                        -95.560517 :LONGITUDE 
ELEV        .FT                                              89 :ELEVATION VALUE
ELEV_TYPE   .                                                KB :ELEVATION REFERENCE TYPE
~Curve Information Section
#MNEM       .UNIT                                      API CODE :CURVE DESCRIPTION
#------------------------------------------------------------------------------
DEPT        .FT                                                 :DEPTH     
ASN         .OHMM                                               :          
CALI        .IN                                                 :          
CILD        .MMHO                                               :          
ILD         .OHMM                                               :          
SP          .MV                                                 :          
SP_NORM     .MV                                                 :SP Normalized
VSH_SP      .V/V                                                :Volume of Shale from SP
~A        DEPTH            ASN           CALI           CILD            ILD             SP        SP_NORM         VSH_SP
# ...
      9341.5000         0.4612         8.8652       2751.066         0.3143       -53.7817      -4.680222      0.9042778
      9342.0000         0.4615          8.813        2748.48         0.3143       -53.8999      -4.805611      0.8997996
      9342.5000         0.4619         8.7609       2745.887         0.3143       -54.0181      -4.931004      0.8953213
      9343.0000         0.4623         8.7144        2743.75         0.3142       -54.1365      -5.056599      0.8908358
      9343.5000         0.4627         8.6854       2742.047         0.3142       -54.2182      -5.145489      0.8876611
      9344.0000         0.4631          8.682        2739.77         0.3142       -54.2886       -5.22308        0.88489
      9344.5000         0.4637         8.6807       2733.531         0.3142       -54.3322      -5.273869      0.8830761
      9345.0000         0.4644         8.6975       2727.281         0.3143       -54.3354      -5.284264      0.8827049
      9345.5000         0.4651         8.7142       2721.043         0.3144       -54.3311      -5.287155      0.8826016
      9346.0000         0.4658          8.731       2714.793         0.3145       -54.2998      -5.263046      0.8834626
      9346.5000         0.4665         8.7283       2708.555         0.3145       -54.2686      -5.239037      0.8843201
      9347.0000         0.4672         8.7256        2701.77         0.3146       -54.2373      -5.214931       0.885181
      9347.5000         0.4678         8.7243        2694.59         0.3147        -54.206      -5.190823      0.8860421
      9348.0000         0.4684         8.7352       2687.414         0.3148       -54.1747      -5.166714      0.8869031
      9348.5000         0.4689         8.7461       2679.699         0.3149       -54.1544      -5.153603      0.8873714
      9349.0000         0.4695         8.7574       2670.082         0.3153       -54.1478      -5.154198      0.8873501
      9349.5000           0.47          8.771       2660.438         0.3164       -54.1412      -5.154789       0.887329
      9350.0000         0.4705         8.6907       2656.953         0.3174       -54.1346       -5.15538      0.8873078
      9350.5000         0.4711         8.5885       2735.609         0.3185       -54.1281      -5.156071      0.8872832
      9351.0000         0.4713         8.4661       2787.387         0.3195       -54.1215      -5.156662       0.887262
      9351.5000         0.4694         8.4413       2808.078         0.3206       -54.1149      -5.157253      0.8872409
      9352.0000         0.4665         8.4787        2826.34         0.3216       -54.1083      -5.157845      0.8872198
      9352.5000         0.4617           8.51       2842.695         0.3227       -54.1083      -5.165035       0.886963
      9353.0000         0.4673         8.5414       2859.078         0.3238       -54.1237       -5.18763      0.8861561
      9353.5000         0.4729         8.5937       2871.879         0.3254        -54.139      -5.210121      0.8853528
      9354.0000         0.4785          8.667        2857.25         0.3271       -54.1544      -5.232712       0.884546
      9354.5000         0.4841         8.7659       2834.254         0.3288       -54.1697      -5.255203      0.8837427
      9355.0000         0.4928         8.8841       2811.258         0.3305       -54.1851      -5.277798      0.8829358
      9355.5000         0.5048         8.9298       2721.684         0.3321       -54.2004      -5.300289      0.8821325
      9356.0000         0.5171         8.9083       2627.496         0.3338       -54.2653      -5.372379      0.8795579
      9356.5000         0.5297         8.8581        2517.48         0.3355       -54.3456      -5.459873      0.8764331
      9357.0000         0.5454         8.8078       2418.586         0.3366       -54.4258      -5.547264       0.873312
      9357.5000         0.5601         8.7559       2223.801         0.3353       -54.5059      -5.634556      0.8701944
      9358.0000         0.5617         8.7028       2175.707          0.334       -54.6738      -5.809647      0.8639412
      9358.5000         0.5439         8.6334       2138.535         0.3328       -54.8932       -6.03624      0.8558486
      9359.0000         0.5259         8.5481        2111.73         0.3315       -55.1122      -6.262432      0.8477703
      9359.5000         0.5032         8.5349        2136.93         0.3303       -55.3313       -6.48872      0.8396886
      9360.0000         0.4782         8.5244       2213.082          0.329       -55.6407      -6.805313      0.8283817
      9360.5000         0.4688         8.5241       2300.051         0.3278       -55.9545      -7.126305      0.8169177
      9361.0000         0.5063         8.5281       2354.961         0.3265       -56.2684      -7.447395      0.8054501
      9361.5000         0.5105         8.5489       2451.352         0.3254       -56.3942      -7.580387      0.8007005
      9362.0000         0.5101         8.5793       2518.934         0.3258       -56.3263       -7.51968      0.8028685
      9362.5000         0.5093         8.6294       2561.066         0.3263       -56.2584      -7.458973      0.8050367
      9363.0000         0.5075         8.6771       2598.641         0.3267       -56.1484      -7.356163      0.8087085
      9363.5000         0.5056          8.722       2628.598         0.3272       -56.0198      -7.234753      0.8130445
      9364.0000         0.5038         8.7224       2652.973         0.3277       -55.8912      -7.113346      0.8173805
      9364.5000         0.5019         8.7196       2672.309         0.3281       -55.7625       -6.99184        0.82172
      9365.0000         0.5001         8.7169       2691.246         0.3286        -55.634      -6.870529      0.8260525
      9365.5000         0.4982         8.7141       2669.703          0.329       -55.5054      -6.749123      0.8303885
      9366.0000         0.4964         8.7062       2648.164         0.3295       -55.3787      -6.629612      0.8346567
      9366.5000         0.4945         8.6932       2629.398         0.3307       -55.2825      -6.540607      0.8378354
      9367.0000         0.4927         8.6332       2612.016         0.3328       -55.1865      -6.451797      0.8410072
      9367.5000         0.4915         8.5514       2596.836         0.3348       -55.0905      -6.362988       0.844179
      9368.0000         0.4906         8.4821        2586.43         0.3369       -54.9945      -6.274178      0.8473508
      9368.5000         0.4896         8.4379       2577.699         0.3389       -54.8985      -6.185371      0.8505225
      9369.0000         0.4887         8.4613       2575.918          0.341       -54.7995      -6.093563      0.8538013
      9369.5000         0.4877         8.5502       2578.578          0.343        -54.697      -5.998253      0.8572053
      9370.0000         0.4867         8.7028       2585.465          0.345       -54.5945      -5.902946      0.8606091
      9370.5000         0.4856         8.8207        2613.57         0.3471       -54.4918      -5.807438        0.86402
      9371.0000         0.4846          8.897       2636.992         0.3491       -54.3892      -5.712029      0.8674275
      9371.5000         0.4897         8.9279       2657.316         0.3512       -54.2867      -5.616722      0.8708314
      9372.0000          0.497         8.9323       2653.449         0.3532       -54.1857      -5.522911      0.8741817
      9372.5000         0.5062         8.9306       2620.281          0.353       -54.0868      -5.431206       0.877457
      9373.0000         0.5154         8.9167        2587.82         0.3526       -53.9877      -5.339298      0.8807393
      9373.5000         0.5276         8.8887       2555.555         0.3522       -53.8887      -5.247486      0.8840184
      9374.0000         0.5266           8.84       2510.566         0.3518       -53.7897      -5.155682      0.8872971
      9374.5000         0.5182         8.7532       2443.836         0.3514       -53.6908      -5.063972      0.8905724
