#------------------------------------------------------------------------------
# Created by    : vladimir.rabinovich
# Created on    : 09/19/2023 17:22:26
#------------------------------------------------------------------------------
~Version Information Section
VERS.           2.0     :   CWLS log ASCII Standard - VERSION 2.0
WRAP.           NO      :   One line per depth step
~Well Information Section
#MNEM       .UNIT                                         VALUE :DESCRIPTION
#------------------------------------------------------------------------------
STRT        .FT                                            3450 :START DEPTH
STOP        .FT                                            9344 :STOP DEPTH
STEP        .FT                                             0.5 :STEP      
NULL        .                                           -999.25 :NULL      
COMP        .                                  W&T OFFSHORE INC :COMPANY   
WELL        .                               OCS G04565 ST00BP00 :WELL      
FLD         .                              GALVESTON BLOCK 0303 :FIELD     
LOC         .                                                   :LOCATION  
CNTY        .                             GALVESTON LARGE BLOCK :LOCATION  
STAT        .                                             TEXAS :STATE     
CTRY        .                                     UNITED STATES :COUNTRY   
SRVC        .                                                   :SERVICE COMPANY
DATE        .                             9/13/2023 11:19:39 AM :LOG DATE  
API         .                                    42706403900000 :API NUMBER
UWI         .                                    42706403900000 :UNIQUE WELL ID
XCOORD      .                                  983096.827540607 :SURFACE X 
YCOORD      .                                  10485968.3003259 :SURFACE Y 
LAT         .                                        28.8789082 :LATITUDE  
LON         .                                       -95.0543314 :LONGITUDE 
ELEV        .FT                                              90 :ELEVATION VALUE
ELEV_TYPE   .                                                KB :ELEVATION REFERENCE TYPE
~Curve Information Section
#MNEM       .UNIT                                      API CODE :CURVE DESCRIPTION
#------------------------------------------------------------------------------
DEPT        .FT                                                 :DEPTH     
CDER        .MMHO                                               :          
DCAL        .IN                                                 :          
DPHI        .DEC                                                :          
DRHO        .G/CC                                               :          
DTLN        .US/F                                               :          
GR          .GAPI                                               :          
GR_NORM     .GAPI                                               :GammaRay Normalized
IDER        .OHMM                                               :          
IMER        .OHMM                                               :          
NPOR        .DEC                                                :          
RWA         .OHMM                                               :          
SFLA        .OHMM                                               :          
SP          .MV                                                 :          
SP_NORM     .MV                                                 :SP Normalized
TENS        .LB                                                 :          
VSH_GR      .V/V                                                :Volume of Shale from GR
VSH_SP      .V/V                                                :Volume of Shale from SP
~A        DEPTH           CDER           DCAL           DPHI           DRHO           DTLN             GR        GR_NORM           IDER           IMER           NPOR            RWA           SFLA             SP        SP_NORM           TENS         VSH_GR         VSH_SP
# ...
      4695.0000       2163.566          1.848          0.254         -0.028        112.757         58.775       65.66862          0.462          0.497          0.343          0.058           0.71        -14.131      -18.66237        -999.25      0.6950769      0.7333947
      4695.5000       1897.893          1.899          0.251         -0.027        112.456         57.879        64.7924          0.527           0.58          0.336          0.072          0.761        -11.037      -15.56671        -999.25      0.6764342      0.7776184
      4696.0000       1685.772           1.95          0.249         -0.028        112.132         58.469       65.36938          0.593          0.645           0.37          0.087          0.786         -9.646      -14.17406        -999.25      0.6887102      0.7975135
      4696.5000       1562.012           1.96          0.246          -0.03          111.8         60.098       66.96242           0.64          0.663          0.394          0.093          0.798         -9.345       -13.8714        -999.25      0.7226046      0.8018372
      4697.0000       1602.564           1.96          0.248         -0.035        111.717         62.265       69.08159          0.624          0.639          0.393          0.092          0.795        -10.022      -14.54674        -999.25      0.7676934      0.7921895
      4697.5000       1660.578           1.94          0.257          -0.04        113.195         63.417       70.20816          0.602          0.609          0.392          0.091          0.791         -12.28      -16.80308        -999.25       0.791663      0.7599561
      4698.0000       1717.033           1.95           0.27         -0.043        115.039         61.189       68.02934          0.582          0.592          0.399          0.091          0.794        -14.897      -19.41842        -999.25       0.745305       0.722594
      4698.5000       1707.067          2.021          0.287         -0.043        115.926         57.959       64.87064          0.586          0.595            0.4          0.091          0.802         -16.66      -21.17976        -999.25      0.6780986       0.697432
      4699.0000       1664.448          2.098          0.315         -0.042        115.307         56.185       63.13579          0.601          0.605          0.398          0.103          0.813        -16.083       -20.6011        -999.25      0.6411871      0.7056985
      4699.5000       1601.281          2.431          0.361         -0.048        113.599         53.542       60.55113          0.624          0.627          0.416          0.138          0.829        -13.883      -18.39944        -999.25      0.5861943      0.7371508
      4700.0000       1518.603          3.312          0.406          -0.05        111.531         51.077       58.14055          0.659          0.656          0.445          0.172          0.845         -11.18      -15.69478        -999.25      0.5349053      0.7757888
      4700.5000       1431.229          3.791          0.393         -0.048        109.362         50.983       58.04863          0.699          0.709          0.479          0.201          0.861         -8.058      -12.57112        -999.25      0.5329495      0.8204125
      4701.0000       1329.434          3.855          0.332         -0.042        107.594         53.516       60.52571          0.752          0.775           0.47          0.179          0.882         -6.503      -11.01446        -999.25      0.5856534      0.8426505
      4701.5000       1217.878          3.508          0.264         -0.038        106.406         57.226       64.15382          0.821          0.841          0.426          0.123          0.904         -6.238       -10.7478        -999.25      0.6628472      0.8464599
      4702.0000       1198.466          2.989          0.228         -0.037        104.851         58.543       65.44174          0.834          0.881          0.356          0.098          0.924         -6.534      -11.04215        -999.25      0.6902498      0.8422551
      4702.5000       1231.375           2.66          0.217         -0.036        104.524         58.658       65.55421          0.812          0.858          0.345          0.095          0.937           -7.3      -11.80649        -999.25      0.6926427      0.8313359
      4703.0000       1279.918           2.54          0.217          -0.03        106.725         58.346       65.24909          0.781          0.814          0.361          0.092          0.945         -8.064      -12.56883        -999.25      0.6861509      0.8204453
      4703.5000       1337.435           2.46           0.22         -0.025         109.78         56.977       63.91031          0.748          0.791          0.379          0.091          0.945           -9.2      -13.70317        -999.25      0.6576662      0.8042405
      4704.0000       1389.468           2.39          0.228         -0.018         112.33         54.676        61.6601           0.72          0.787          0.364          0.092          0.938         -10.63      -15.13151        -999.25      0.6097894      0.7838356
      4704.5000       1428.163            2.5          0.238         -0.015        113.141         52.234       59.27201            0.7          0.785          0.381          0.094          0.925        -12.142      -16.64185        -999.25      0.5589789      0.7622593
      4705.0000       1472.104           2.71           0.24         -0.013        110.461         51.629       58.68036          0.679          0.779          0.416          0.095          0.907        -13.193      -17.69119        -999.25      0.5463906      0.7472687
      4705.5000       1533.978           2.64          0.233         -0.012        108.637         51.809       58.85639          0.652          0.766          0.418          0.088          0.883        -13.547      -18.04353        -999.25      0.5501359      0.7422352
      4706.0000       1634.521           2.44          0.226         -0.013        108.762         53.077        60.0964          0.612           0.73          0.401          0.079          0.851        -14.542      -19.03687        -999.25      0.5765192      0.7280447
      4706.5000        1790.51            2.3          0.217         -0.013        111.574         54.714       61.69727          0.558          0.639          0.382          0.071          0.819         -16.86      -21.35321        -999.25      0.6105802      0.6949541
      4707.0000       2002.804           2.25          0.217         -0.015        115.922         55.454       62.42093          0.499          0.586          0.374          0.063          0.787        -20.183      -24.67455        -999.25      0.6259772      0.6475064
      4707.5000       2346.867           2.22          0.251         -0.026        119.784         53.524       60.53354          0.426          0.531          0.393          0.059          0.752        -24.679       -29.1689        -999.25      0.5858199      0.5833015
      4708.0000       2699.784            2.4          0.302         -0.047        121.197         50.426       57.50391           0.37           0.45          0.408          0.061          0.721        -30.132      -34.62024        -999.25      0.5213598      0.5054252
      4708.5000       2942.042            2.7           0.35         -0.062        120.355         47.108       54.25916           0.34          0.393          0.407          0.064          0.688        -37.492      -41.97858        -999.25      0.4523225       0.400306
      4709.0000       3177.629           3.73           0.36         -0.074        119.475          45.95       53.12672          0.315          0.373          0.399          0.062          0.658        -41.864      -46.34892        -999.25      0.4282281      0.3378727
      4709.5000       3343.363          4.176          0.347         -0.078         119.29         45.816       52.99568          0.299          0.366          0.393          0.058          0.629        -43.187      -47.67026        -999.25        0.42544      0.3189963
