#------------------------------------------------------------------------------
# Created by    : vladimir.rabinovich
# Created on    : 09/19/2023 17:20:36
#------------------------------------------------------------------------------
~Version Information Section
VERS.           2.0     :   CWLS log ASCII Standard - VERSION 2.0
WRAP.           NO      :   One line per depth step
~Well Information Section
#MNEM       .UNIT                                         VALUE :DESCRIPTION
#------------------------------------------------------------------------------
STRT        .FT                                             498 :START DEPTH
STOP        .FT                                            9565 :STOP DEPTH
STEP        .FT                                             0.5 :STEP      
NULL        .                                           -999.25 :NULL      
COMP        .                       BLUE DOLPHIN EXPLORATION CO :COMPANY   
WELL        .                                OCS 00714 ST00BP00 :WELL      
FLD         .                              GALVESTON BLOCK 0288 :FIELD     
LOC         .                                                   :LOCATION  
CNTY        .                             GALVESTON LARGE BLOCK :LOCATION  
STAT        .                                             TEXAS :STATE     
CTRY        .                                     UNITED STATES :COUNTRY   
SRVC        .                                                   :SERVICE COMPANY
DATE        .                             9/13/2023 11:19:25 AM :LOG DATE  
API         .                                    42706000390000 :API NUMBER
UWI         .                                    42706000390000 :UNIQUE WELL ID
XCOORD      .                                  1097340.72850425 :SURFACE X 
YCOORD      .                                  10481267.2561277 :SURFACE Y 
LAT         .                                        28.8709496 :LATITUDE  
LON         .                                       -94.6972159 :LONGITUDE 
ELEV        .FT                                              85 :ELEVATION VALUE
ELEV_TYPE   .                                                KB :ELEVATION REFERENCE TYPE
~Curve Information Section
#MNEM       .UNIT                                      API CODE :CURVE DESCRIPTION
#------------------------------------------------------------------------------
DEPT        .FT                                                 :DEPTH     
ASN         .OHMM                                               :          
CALI        .IN                                                 :          
DT          .US/F                                               :          
ILD         .OHMM                                               :          
SP          .MV                                                 :          
SP_1        .MV                                                 :          
SP_NORM     .MV                                                 :SP Normalized
VSH_SP      .V/V                                                :Volume of Shale from SP
~A        DEPTH            ASN           CALI             DT            ILD             SP           SP_1        SP_NORM         VSH_SP
# ...
      9525.0000          1.143         8.1369        92.5757         0.9958       -39.2286        -999.25      -2.324776      0.9729638
      9525.5000         1.1362         8.1984        87.9597          0.996       -39.0629        -999.25      -2.172844      0.9760644
      9526.0000         1.1304         8.2244        99.1261         0.9963       -39.0837        -999.25      -2.207409       0.975359
      9526.5000         1.1246         8.2225       108.1599         0.9864       -39.0577        -999.25      -2.195179      0.9756086
      9527.0000         1.1245          8.144         105.96         0.9709       -38.9354        -999.25      -2.086643      0.9778236
      9527.5000         1.1383         8.0864       103.8342         0.9555       -38.8165        -999.25      -1.981514      0.9799691
      9528.0000         1.1521         8.2223       108.5469         0.9456       -38.5381        -999.25      -1.716881      0.9853698
      9528.5000         1.1759         8.3115        108.115         0.9536       -38.2293        -999.25      -1.421848      0.9913908
      9529.0000         1.2007         8.3053        105.582         0.9616       -37.9543        -999.25       -1.16061      0.9967222
      9529.5000          1.217         8.2155       106.8688         0.9697       -38.1182        -999.25      -1.338276      0.9930964
      9530.0000         1.2261         8.2738       105.9734         0.9793       -38.2043        -999.25      -1.438145      0.9910583
      9530.5000         1.2353         8.4522        97.7224         0.9888       -38.1879        -999.25      -1.435513       0.991112
      9531.0000          1.247         8.5794        96.5931         0.9984       -38.1306        -999.25      -1.391979      0.9920004
      9531.5000         1.2589         8.4986       105.2356          1.008       -37.9869        -999.25      -1.262047      0.9946521
      9532.0000         1.2138         8.3584       113.4056          1.003       -38.1236        -999.25      -1.412514      0.9915814
      9532.5000         1.1696         8.2153       113.5126         0.9951       -38.2355        -999.25      -1.538181      0.9890167
      9533.0000         1.1476         8.0363       112.5598         0.9872       -38.2102        -999.25      -1.526649       0.989252
      9533.5000          1.128          8.135       112.6385         0.9793       -38.1486        -999.25      -1.478817      0.9902282
      9534.0000         1.1186         8.2835       112.6814         0.9713       -38.0447        -999.25      -1.388683      0.9920677
      9534.5000          1.111         8.1568        110.126         0.9634        -38.006        -999.25       -1.36375      0.9925765
      9535.0000         1.1062         8.2882       110.9313         0.9555       -38.0361        -999.25      -1.407612      0.9916814
      9535.5000         1.1014         8.2772       113.5001         0.9483       -38.0876        -999.25      -1.472881      0.9903494
      9536.0000         1.0937         8.1458       114.3145         0.9424       -38.2119        -999.25      -1.610947      0.9875317
      9536.5000         1.0742         8.1646       112.0043         0.9364       -38.1765        -999.25      -1.589314      0.9879732
      9537.0000         1.0331         8.2502       113.4011         0.9305       -38.1441        -999.25      -1.558735      0.9885973
      9537.5000         1.0219         8.3421       110.7783         0.9245       -38.0239        -999.25      -1.438534      0.9910503
      9538.0000          1.014         8.3961       108.7628         0.9185       -37.9244        -999.25      -1.339035      0.9930809
      9538.5000         1.0056         8.4066       115.4482         0.9126       -37.8577        -999.25      -1.272335      0.9944422
      9539.0000         0.9943         8.4168       118.5974         0.9066       -37.8539        -999.25      -1.268536      0.9945197
      9539.5000          0.983         8.2295       114.0985         0.9006       -37.9448        -999.25      -1.359436      0.9926646
      9540.0000         0.9717         8.2608       111.7186         0.8936       -38.1199        -999.25      -1.534534      0.9890912
      9540.5000         0.9608         8.3823       110.3914         0.8863       -38.3834        -999.25      -1.798035      0.9837136
      9541.0000         0.9505          8.359       113.1357          0.879       -38.7653        -999.25      -2.179935      0.9759197
      9541.5000         0.9401         8.2207       115.2278         0.8718       -39.3771        -999.25      -2.791737      0.9634339
      9542.0000         0.9313         8.1683        116.627         0.8645       -39.6389        -999.25      -3.053535      0.9580911
      9542.5000         0.9361          8.295       112.7399         0.8626        -39.626        -999.25      -3.040634      0.9583544
      9543.0000         0.9452         8.1529       108.5221         0.8648        -39.558        -999.25      -2.972633      0.9597422
      9543.5000         0.9543         8.1344        108.936         0.8669        -39.563        -999.25      -2.977634      0.9596401
      9544.0000         0.9634         8.2495       109.5366         0.8691       -39.6166        -999.25      -3.031235      0.9585462
      9544.5000         0.9725         8.3536       111.7208         0.8713       -39.6252        -999.25      -3.039833      0.9583707
      9545.0000         0.9773         8.2554       111.9435         0.8734       -39.6191        -999.25      -3.033733      0.9584953
      9545.5000         0.9787         8.1725        112.209         0.8756       -39.6083        -999.25      -3.022934      0.9587156
      9546.0000         0.9735         8.2237       113.9456         0.8777       -39.6474        -999.25      -3.062035      0.9579177
      9546.5000         0.9684         8.3445       109.3116         0.8799       -39.6727        -999.25      -3.087334      0.9574013
      9547.0000         0.9673         8.2743       105.1254         0.8821       -39.6135        -999.25      -3.028133      0.9586095
      9547.5000         0.9755         8.3859       110.5443         0.8842       -39.5003        -999.25      -2.914936      0.9609197
      9548.0000         0.9795          8.171       114.3932         0.8864       -39.3784        -999.25      -2.793034      0.9634075
      9548.5000         0.9819         8.0778         113.03         0.8886       -39.2704        -999.25      -2.685036      0.9656115
      9549.0000         0.9843         8.0046       113.7701         0.8907       -39.2251        -999.25      -2.639736       0.966536
      9549.5000         0.9808         8.0349        114.464         0.8929       -39.2914        -999.25      -2.706036       0.965183
      9550.0000          0.975         8.1668       115.4774         0.8949       -39.3486        -999.25      -2.763233      0.9640157
      9550.5000         0.9691         8.2761       119.3533         0.8968       -39.3638        -999.25      -2.778435      0.9637054
      9551.0000         0.9632         8.3453       125.8137         0.8988       -39.3796        -999.25      -2.794235       0.963383
      9551.5000         0.9552         8.3835       110.8232         0.9008       -39.4591        -999.25      -2.873734      0.9617605
      9552.0000         0.9451         8.3368       109.2802         0.9027       -39.5477        -999.25      -2.962334      0.9599524
      9552.5000         0.9349         8.2097       114.1479         0.9047        -39.581        -999.25      -2.995636      0.9592727
      9553.0000         0.9247         8.2561       112.4655         0.9057       -39.6759        -999.25      -3.090534       0.957336
      9553.5000         0.9164         8.2113       109.9235          0.906       -39.8552        -999.25      -3.269836      0.9536768
      9554.0000         0.9091         8.1527       115.3223         0.9062       -39.8704        -999.25      -3.285034      0.9533666
