#------------------------------------------------------------------------------
# Created by    : vladimir.rabinovich
# Created on    : 09/19/2023 17:22:45
#------------------------------------------------------------------------------
~Version Information Section
VERS.           2.0     :   CWLS log ASCII Standard - VERSION 2.0
WRAP.           NO      :   One line per depth step
~Well Information Section
#MNEM       .UNIT                                         VALUE :DESCRIPTION
#------------------------------------------------------------------------------
STRT        .FT                                            3370 :START DEPTH
STOP        .FT                                           10136 :STOP DEPTH
STEP        .FT                                             0.5 :STEP      
NULL        .                                           -999.25 :NULL      
COMP        .                                  W&T OFFSHORE INC :COMPANY   
WELL        .                               OCS G04565 ST00BP00 :WELL      
FLD         .                              GALVESTON BLOCK 0303 :FIELD     
LOC         .                                                   :LOCATION  
CNTY        .                             GALVESTON LARGE BLOCK :LOCATION  
STAT        .                                             TEXAS :STATE     
CTRY        .                                     UNITED STATES :COUNTRY   
SRVC        .                                                   :SERVICE COMPANY
DATE        .                             9/13/2023 11:19:27 AM :LOG DATE  
API         .                                    42706401000000 :API NUMBER
UWI         .                                    42706401000000 :UNIQUE WELL ID
XCOORD      .                                  988505.563749319 :SURFACE X 
YCOORD      .                                  10486369.8338556 :SURFACE Y 
LAT         .                                        28.8802688 :LATITUDE  
LON         .                                       -95.0374578 :LONGITUDE 
ELEV        .FT                                              93 :ELEVATION VALUE
ELEV_TYPE   .                                                KB :ELEVATION REFERENCE TYPE
~Curve Information Section
#MNEM       .UNIT                                      API CODE :CURVE DESCRIPTION
#------------------------------------------------------------------------------
DEPT        .FT                                                 :DEPTH     
DPHI        .DEC                                                :          
DRHO        .G/C3                                               :          
DT          .US/F                                               :          
GR          .GAPI                                               :          
GR_1        .GAPI                                               :          
GR_NORM     .GAPI                                               :GammaRay Normalized
ILD         .OHMM                                               :          
NPHI        .DEC                                                :          
RHOB        .G/C3                                               :          
SP          .MV                                                 :          
SP_NORM     .MV                                                 :SP Normalized
VSH_GR      .V/V                                                :Volume of Shale from GR
VSH_SP      .V/V                                                :Volume of Shale from SP
~A        DEPTH           DPHI           DRHO             DT             GR           GR_1        GR_NORM            ILD           NPHI           RHOB             SP        SP_NORM         VSH_GR         VSH_SP
# ...
      7892.0000          0.198        -0.0074       119.3676        82.6016        -999.25       83.72478         0.5962         0.4092         2.3169        -30.621      -4.076818              1      0.9417598
      7892.5000         0.2013        -0.0074       117.6628        83.6904        -999.25        85.0862         0.5964         0.4012         2.3107       -30.6085      -4.069641              1      0.9418623
      7893.0000         0.2022        -0.0054       117.2076        86.8043        -999.25         88.979         0.5966         0.4017         2.3078       -30.6984      -4.164867              1      0.9405019
      7893.5000         0.2009        -0.0024       118.4175        89.6951        -999.25       92.59291         0.5968         0.4064         2.3132       -30.7089      -4.180693              1      0.9402758
      7894.0000         0.1975        -0.0015       119.9935        91.8297        -999.25       95.26157         0.5974         0.4126         2.3201       -30.6901      -4.167217              1      0.9404683
      7894.5000         0.1934        -0.0024       120.2283        92.9193        -999.25       96.62399         0.5984         0.4187         2.3263       -30.6339      -4.116343              1      0.9411951
      7895.0000         0.1891        -0.0024        119.876         90.057        -999.25       93.04654         0.6021         0.4202         2.3328       -30.5621      -4.049866              1      0.9421448
      7895.5000         0.1851         -0.002       119.0398        83.4722        -999.25       84.81596         0.6071           0.41         2.3385       -30.5791      -4.072191              1      0.9418259
      7896.0000         0.1815        -0.0014       117.7977        77.9683        -999.25       77.93651         0.6132         0.3996         2.3447       -30.5144      -4.012817      0.9560959       0.942674
      7896.5000         0.1823        -0.0023       116.4542        78.2361        -999.25       78.27168         0.6214         0.3953         2.3486       -30.4164      -3.920143      0.9632272       0.943998
      7897.0000         0.1882        -0.0056       117.2175        82.5598        -999.25       83.67672         0.6308         0.4034         2.3399       -30.4393      -3.948368              1      0.9435948
      7897.5000          0.193        -0.0076       118.2245        86.4275        -999.25       88.51175         0.6443         0.4128         2.3313       -30.5086      -4.022991              1      0.9425287
      7898.0000         0.1957        -0.0075       119.3453        88.7753        -999.25       91.44692         0.6584         0.4186         2.3269        -30.445      -3.964716              1      0.9433612
      7898.5000         0.1924        -0.0057       120.5923        89.9368        -999.25       92.89922         0.6709         0.4221         2.3322       -30.4184      -3.943441              1      0.9436651
      7899.0000         0.1878        -0.0033       121.3368        90.5233        -999.25       93.63277         0.6836         0.4249         2.3344       -30.4329      -3.963266              1      0.9433819
      7899.5000         0.1882        -0.0015       121.2284         90.606        -999.25       93.73656         0.6961         0.4276         2.3311       -30.4479      -3.983593              1      0.9430915
      7900.0000         0.1938         -0.003       120.7383        90.0862        -999.25       93.08723         0.6893         0.4291         2.3267        -30.759      -4.300016              1      0.9385712
      7900.5000          0.197        -0.0048       119.9935        89.9451        -999.25       92.91127         0.6917         0.4237         2.3219       -29.9645      -3.510841              1      0.9498451
      7901.0000         0.1982        -0.0041       119.6116        89.3405        -999.25       92.15594         0.6903         0.4197         2.3232       -30.3226      -3.874266              1      0.9446533
      7901.5000         0.1953        -0.0032       119.8203        89.1761        -999.25       91.95085         0.6908         0.4213         2.3295        -30.505      -4.061991              1      0.9419715
      7902.0000         0.1906        -0.0026       121.7229        91.7771        -999.25       95.20252          0.694         0.4296         2.3364       -30.6052      -4.167517              1       0.940464
      7902.5000         0.1839        -0.0023       123.0281        91.9165        -999.25       95.37719         0.7018         0.4385         2.3414       -30.6765      -4.244141              1      0.9393694
      7903.0000          0.185        -0.0015       119.8921        90.2819        -999.25       93.33436         0.7087         0.4309         2.3334        -30.664      -4.236965              1      0.9394719
      7903.5000         0.1909        -0.0027       118.0934         89.462        -999.25       92.30991         0.7142         0.4116          2.323       -30.6286       -4.20689              1      0.9399016
      7904.0000         0.1976        -0.0075       116.9998        90.8666        -999.25       94.06608         0.7122         0.4019         2.3143       -30.3841      -3.967716              1      0.9433184
      7904.5000         0.2019        -0.0113       117.3857        92.2719        -999.25       95.82312         0.7028         0.4047         2.3112       -30.0391       -3.61253              1      0.9483925
      7905.0000         0.2035        -0.0098       117.7334        92.1115        -999.25       95.62303         0.6827         0.4087         2.3118       -29.9527      -3.510996              1      0.9498429
      7905.5000         0.2028        -0.0064        118.047        90.5162        -999.25       93.62932         0.6617         0.4092         2.3121       -30.1632      -3.706362              1       0.947052
      7906.0000         0.2011        -0.0034       118.6129        89.0778        -999.25       91.83174         0.6456         0.4115         2.3119       -30.2669      -3.794926              1      0.9457868
      7906.5000         0.2015        -0.0038       119.9663        88.2327        -999.25       90.77579         0.6333         0.4204         2.3096       -30.1727      -3.685595              1      0.9473487
      7907.0000         0.2043         -0.004       121.6512        88.7853        -999.25       91.46696         0.6217         0.4321         2.3076       -30.0015      -3.499258              1      0.9500106
      7907.5000         0.2058        -0.0039       122.8351        89.3319        -999.25       92.15063         0.6116         0.4393         2.3067       -29.7498      -3.232426              1      0.9538225
      7908.0000          0.205        -0.0039       123.5748        89.7645        -999.25        92.6918         0.6029         0.4446         2.3087       -29.5597      -3.027191              1      0.9567544
      7908.5000          0.204        -0.0041       123.8065        89.8435        -999.25       92.79097          0.596         0.4477         2.3097       -29.4695      -2.921856              1      0.9582592
      7909.0000         0.2029        -0.0069       123.7297        89.3671        -999.25       92.19588         0.5913         0.4471         2.3105       -29.3802      -2.817423              1      0.9597511
      7909.5000         0.2016        -0.0086       123.4889        88.9742        -999.25       91.70517          0.588         0.4448         2.3138       -29.2918      -2.713888              1      0.9612302
      7910.0000         0.1996        -0.0095       123.2186        89.0234        -999.25       91.76709         0.5858         0.4411         2.3153       -29.1736      -2.580555              1      0.9631349
      7910.5000         0.1974        -0.0098       123.6589        90.4102        -999.25       93.50101         0.5837         0.4408         2.3118        -29.019       -2.41082              1      0.9655597
