#------------------------------------------------------------------------------
# Created by    : vladimir.rabinovich
# Created on    : 09/19/2023 17:20:25
#------------------------------------------------------------------------------
~Version Information Section
VERS.           2.0     :   CWLS log ASCII Standard - VERSION 2.0
WRAP.           NO      :   One line per depth step
~Well Information Section
#MNEM       .UNIT                                         VALUE :DESCRIPTION
#------------------------------------------------------------------------------
STRT        .FT                                            2998 :START DEPTH
STOP        .FT                                           12526 :STOP DEPTH
STEP        .FT                                             0.5 :STEP      
NULL        .                                           -999.25 :NULL      
COMP        .                                 CALIFORNIA CO THE :COMPANY   
WELL        .                               OCS G01117 ST00BP00 :WELL      
FLD         .                                       HIGH ISLAND :FIELD     
LOC         .                                                   :LOCATION  
CNTY        .                           HIGH ISLAND LARGE BLOCK :LOCATION  
STAT        .                                             TEXAS :STATE     
CTRY        .                                     UNITED STATES :COUNTRY   
SRVC        .                                                   :SERVICE COMPANY
DATE        .                             9/13/2023 11:19:15 AM :LOG DATE  
API         .                                    42708000660000 :API NUMBER
UWI         .                                    42708000660000 :UNIQUE WELL ID
XCOORD      .                                  1214371.69372255 :SURFACE X 
YCOORD      .                                  10618355.5582238 :SURFACE Y 
LAT         .                                         29.252113 :LATITUDE  
LON         .                                        -94.336419 :LONGITUDE 
ELEV        .FT                                              77 :ELEVATION VALUE
ELEV_TYPE   .                                                KB :ELEVATION REFERENCE TYPE
~Curve Information Section
#MNEM       .UNIT                                      API CODE :CURVE DESCRIPTION
#------------------------------------------------------------------------------
DEPT        .FT                                                 :DEPTH     
ASN         .OHMM                                               :          
CILD        .OHMM                                               :          
ILD         .OHMM                                               :          
SP          .MV                                                 :          
SP_NORM     .MV                                                 :SP Normalized
VSH_SP      .V/V                                                :Volume of Shale from SP
~A        DEPTH            ASN           CILD            ILD             SP        SP_NORM         VSH_SP
# ...
     10598.0000         1.8651       1715.572         0.3863      -111.1563      -59.03509      0.0932017
     10598.5000         1.8888       1668.848         0.4143      -110.6523      -58.53109      0.1010768
     10599.0000         1.9077       1616.674         0.4422      -110.1472      -58.02599      0.1089689
     10599.5000         1.9111       1557.102         0.4702      -109.8477      -57.72649      0.1136486
     10600.0000         1.9081       1467.014         0.4982      -109.9795      -57.85829      0.1115893
     10600.5000         1.9066       1501.082         0.5046      -110.1116      -57.99039      0.1095251
     10601.0000         1.9065       1535.152         0.4991      -110.2434      -58.12219      0.1074658
     10601.5000         1.9188       1569.221         0.4936      -110.3752      -58.25399      0.1054065
     10602.0000         1.9109       1601.684         0.4932      -110.5073      -58.38609      0.1033424
     10602.5000         1.8914       1624.217         0.4988      -110.6392      -58.51799      0.1012815
     10603.0000         1.8722       1646.801         0.5043      -110.5024      -58.38119      0.1034189
     10603.5000         1.8535       1669.334         0.5099      -110.3156      -58.19439      0.1063377
     10604.0000         1.8703       1671.574         0.5329      -110.1288      -58.00759      0.1092564
     10604.5000         1.9371       1615.701         0.5655      -109.9419      -57.82069      0.1121767
     10605.0000         1.9554       1559.826          0.598      -109.7551      -57.63388      0.1150956
     10605.5000         2.0345       1503.953         0.6306      -109.5684      -57.44719      0.1180127
     10606.0000         2.1786       1427.445         0.6632      -108.8628      -56.74159      0.1290377
     10606.5000         2.3846       1339.449         0.6957      -107.3928      -55.27159      0.1520064
     10607.0000         2.6241        1251.26         0.7396      -105.9204      -53.79919      0.1750126
     10607.5000         2.9309       1043.924         0.7939      -104.4506      -52.32939      0.1979783
     10608.0000         2.6871       914.4629         0.8483       -103.058      -50.93679      0.2197377
     10608.5000         2.4432       908.0381         0.7849      -102.1202      -49.99899      0.2343908
     10609.0000          1.968       978.5127         0.6966      -101.1825      -49.06129      0.2490423
     10609.5000         1.9648       1048.986         0.6091      -103.0764      -50.95519      0.2194502
     10610.0000         1.9616       1277.346          0.552      -106.4637      -54.34249      0.1665236
     10610.5000         1.9584       1562.748         0.5141      -109.8461      -57.72489      0.1136736
     10611.0000         1.9552       1832.963         0.4762      -111.6577      -59.53649     0.08536738
     10611.5000         1.9493       1941.691         0.4602      -113.2063      -61.08509     0.06117052
     10612.0000         1.9305       2085.488         0.4469      -114.7549      -62.63369     0.03697366
     10612.5000         1.9116       2103.398         0.4337      -116.3036      -64.18239     0.01277518
     10613.0000         1.9032       2099.215         0.4205      -117.4429      -65.32169              0
     10613.5000         1.8957       2087.215         0.4073      -117.8657      -65.74449              0
     10614.0000         1.8883       2075.219         0.4059      -118.2885      -66.16728              0
     10614.5000         1.8808       2063.223         0.4053      -118.7107      -66.58949              0
     10615.0000         1.8737       2051.199         0.4047      -119.1334      -67.01219              0
     10615.5000         1.8669       2043.293         0.4041      -119.5563      -67.43509              0
     10616.0000         1.8601        2038.23         0.4036      -119.8046       -67.6834              0
     10616.5000         1.8533        2033.17         0.4027      -119.6085      -67.48729              0
     10617.0000         1.8465       2034.508         0.4015      -119.4121      -67.29089              0
     10617.5000         1.8269       2040.848         0.4002      -119.2161      -67.09489              0
     10618.0000         1.8033       2047.174         0.3989      -119.0198      -66.89859              0
     10618.5000         1.7796           2052         0.3976      -118.8237      -66.70248              0
     10619.0000         1.7589       2035.594         0.3964      -118.6274       -66.5062              0
     10619.5000         1.7423       2019.188         0.3951      -118.4314      -66.31018              0
     10620.0000         1.7256       2002.781         0.3938      -118.2354      -66.11418              0
     10620.5000         1.7096       1900.906         0.3925      -117.7661      -65.64488              0
     10621.0000         1.7114       1858.467         0.3913      -117.2413      -65.12009              0
     10621.5000          1.713        1815.93           0.39      -116.7166      -64.59538    0.006322145
     10622.0000         1.7143       1796.875         0.3887      -116.1917       -64.0705     0.01452351
     10622.5000         1.7156       1778.039         0.3893      -115.6656      -63.54439     0.02274388
     10623.0000         1.7169       1759.203         0.3899      -115.1409      -63.01969     0.03094238
     10623.5000         1.7181       1729.832         0.3905      -114.6161      -62.49488     0.03914243
     10624.0000         1.7149       1693.816          0.391      -114.0912      -61.96999     0.04734391
     10624.5000         1.7117       1658.578         0.3916      -113.7029      -61.58169     0.05341107
     10625.0000         1.7086       1627.139         0.3922      -113.3359      -61.21469     0.05914551
     10625.5000         1.7219       1595.746         0.3915      -112.9691      -60.84789     0.06487674
     10626.0000         1.7552       1594.115         0.3886      -112.6023      -60.48109     0.07060796
     10626.5000         1.7885       1616.188         0.3856      -112.2347      -60.11349      0.0763517
     10627.0000         1.8494       1658.822         0.3826      -111.8679      -59.74669     0.08208305
     10627.5000         1.8306       1701.457         0.3797      -112.1075      -59.98629     0.07833928
     10628.0000         1.8064       1758.303         0.3767      -112.7798      -60.65859     0.06783456
     10628.5000         1.7823        1834.91         0.3738      -113.3833      -61.26209     0.05840486
     10629.0000         1.7581       1911.127         0.3708       -113.902      -61.78079     0.05030018
     10629.5000         1.7364         2005.5          0.368      -114.4219      -62.30069     0.04217678
     10630.0000          1.717         2163.5         0.3651      -114.9406      -62.81939      0.0340721
     10630.5000         1.6976       2244.945         0.3622      -115.4592      -63.33799     0.02596897
     10631.0000         1.6782       2244.664         0.3593      -115.9779      -63.85669     0.01786429
     10631.5000         1.6587       2223.395         0.3564      -116.0688      -63.94759     0.01644391
     10632.0000         1.6338       2202.125         0.3536      -115.8605      -63.73928     0.01969868
     10632.5000         1.6059       2174.238         0.3591      -115.6521      -63.53089     0.02295488
     10633.0000         1.5823       2141.238         0.3647      -115.4435      -63.32228      0.0262143
     10633.5000         1.5691       2108.242         0.3703      -115.2352      -63.11399     0.02946895
     10634.0000         1.5559       2075.242         0.3758      -115.0269      -62.90569     0.03272361
     10634.5000           1.55       2050.375         0.3814      -114.8185      -62.69728     0.03597993
     10635.0000         1.5542       2027.547          0.387      -114.6271      -62.50589     0.03897053
     10635.5000         1.5583       2004.721         0.3925      -114.4698      -62.34859     0.04142827
