#------------------------------------------------------------------------------
# Created by    : vladimir.rabinovich
# Created on    : 09/19/2023 17:21:20
#------------------------------------------------------------------------------
~Version Information Section
VERS.           2.0     :   CWLS log ASCII Standard - VERSION 2.0
WRAP.           NO      :   One line per depth step
~Well Information Section
#MNEM       .UNIT                                         VALUE :DESCRIPTION
#------------------------------------------------------------------------------
STRT        .FT                                            6712 :START DEPTH
STOP        .FT                                           10254 :STOP DEPTH
STEP        .FT                                             0.5 :STEP      
NULL        .                                           -999.25 :NULL      
COMP        .                                SHELL OFFSHORE INC :COMPANY   
WELL        .                               OCS G17145 ST00BP00 :WELL      
FLD         .                                           WILDCAT :FIELD     
LOC         .                                                   :LOCATION  
CNTY        .                           HIGH ISLAND LARGE BLOCK :LOCATION  
STAT        .                                             TEXAS :STATE     
CTRY        .                                     UNITED STATES :COUNTRY   
SRVC        .                                                   :SERVICE COMPANY
DATE        .                             9/13/2023 11:19:48 AM :LOG DATE  
API         .                                    42708404610000 :API NUMBER
UWI         .                                    42708404610000 :UNIQUE WELL ID
XCOORD      .                                  1236256.25309123 :SURFACE X 
YCOORD      .                                  10648843.7308139 :SURFACE Y 
LAT         .                                         29.336637 :LATITUDE  
LON         .                                        -94.268822 :LONGITUDE 
ELEV        .FT                                             110 :ELEVATION VALUE
ELEV_TYPE   .                                                KB :ELEVATION REFERENCE TYPE
~Curve Information Section
#MNEM       .UNIT                                      API CODE :CURVE DESCRIPTION
#------------------------------------------------------------------------------
DEPT        .FT                                                 :DEPTH     
CALI        .IN                                                 :          
CPCHM       .MMHO                                               :          
CPCM        .MMHO                                               :          
DFL         .OHMM                                               :          
DPHI        .%                                                  :          
DRHO        .G/C3                                               :          
DT          .US/F                                               :          
GR          .GAPI                                               :          
GR_NORM     .GAPI                                               :GammaRay Normalized
GRAM        .GAPI                                               :          
HDCN        .MMHO                                               :          
HDRS        .OHMM                                               :          
HMRS        .OHMM                                               :          
NPHI        .%                                                  :          
PE          .G/C3                                               :          
RACHM       .OHMM                                               :          
RACM        .OHMM                                               :          
RHOB        .G/C3                                               :          
ROPS        .F/HR                                               :          
RPCHM       .OHMM                                               :          
RPCM        .OHMM                                               :          
RPTHM       .MINS                                               :          
RPTM        .MINS                                               :          
SP01        .MV                                                 :          
TENS        .LBS                                                :          
VSH_GR      .V/V                                                :Volume of Shale from GR
~A        DEPTH           CALI          CPCHM           CPCM            DFL           DPHI           DRHO             DT             GR        GR_NORM           GRAM           HDCN           HDRS           HMRS           NPHI             PE          RACHM           RACM           RHOB           ROPS          RPCHM           RPCM          RPTHM           RPTM           SP01           TENS         VSH_GR
# ...
      9482.0000        10.6289        2558.27        -999.25         0.4344        21.6692         0.0006       133.2031        59.4957       73.24791         81.923       2703.672         0.3699         0.3799        43.0071         5.8571          0.405        -999.25         2.2925         43.218          0.391        -999.25         67.818        -999.25       482.2798       4472.164      0.8563385
      9482.5000        10.4499       2567.809        -999.25         0.4547         21.599         0.0117          134.2        58.6999       73.93472        82.4159       2659.418          0.376         0.3874        43.1669         5.3397          0.402        -999.25         2.2936         39.774          0.389        -999.25         67.478        -999.25       482.1416       4489.039      0.8709514
      9483.0000        10.3116       2558.137        -999.25         0.4702        22.7691         -0.001       132.0234        60.5255       74.72009        82.9789       2599.629         0.3847         0.3972        41.2774         5.5071            0.4        -999.25         2.2743         39.774          0.391        -999.25        67.1232        -999.25       482.2241        4501.68      0.8876616
      9483.5000        10.1652       2595.148        -999.25         0.4853        21.4601        -0.0052       130.2234        59.8233       75.34531         83.428       2543.891         0.3931          0.406         40.009          5.768          0.399        -999.25         2.2959         37.304          0.385        -999.25        66.6859        -999.25       482.2681       4511.023       0.900964
      9484.0000        10.2384       2640.875        -999.25         0.4746        19.9539        -0.0006       130.6797        58.0914        73.4138         82.059       2523.008         0.3964         0.4089        40.1808         6.0833          0.399        -999.25         2.3208         37.304          0.379        -999.25        71.0392        -999.25       482.1792       4516.063      0.8598682
      9484.5000        10.2709       2641.395        -999.25         0.4898        20.7518        -0.0137        130.189        56.2657       70.75936        80.1759       2527.203         0.3957         0.4075        40.4194          6.209          0.399        -999.25         2.3076         38.959          0.379        -999.25        72.0791        -999.25       482.2583       4521.188      0.8033907
      9485.0000        10.2628       2617.176        -999.25         0.4781        19.9405        -0.0153       130.8701        57.6232       72.85831         81.673       2524.543         0.3961         0.4067        40.8599         6.8061            0.4        -999.25          2.321         38.959          0.382        -999.25        72.1888        -999.25       482.3086       4522.359      0.8480491
      9485.5000        10.2872       2534.809        -999.25         0.5083         19.716        -0.0118       131.8389          55.47        77.3898        84.8999       2520.535         0.3967         0.4071        41.7419         6.4538          0.411        -999.25         2.3247         39.376          0.395        -999.25        72.3813        -999.25       482.3242       4536.445      0.9444638
      9486.0000        10.2872       2340.258        -999.25          0.491        20.2082        -0.0009       131.7344         56.453       79.89502        86.6859       2524.586         0.3961         0.4067        42.0942         5.8803          0.422        -999.25         2.3166         39.376          0.427        -999.25        72.7378        -999.25       482.2021       4543.508      0.9977664
      9486.5000        10.2303       2361.789        -999.25         0.4747        21.1361        -0.0063        131.092        56.8275       79.74103        86.5809       2535.398         0.3944         0.4052        40.3454         5.9584          0.423        -999.25         2.3013         30.774          0.424        -999.25        73.1072        -999.25       482.0962        4532.68        0.99449
      9487.0000        10.1489       2499.336        -999.25         0.4691        20.2955         0.0172       130.7546        57.8105       79.27077         86.251       2542.586         0.3933         0.4052        40.9026         5.4845          0.414        -999.25         2.3151         30.774            0.4        -999.25         73.516        -999.25       481.9321       4505.539      0.9844844
      9487.5000        10.1814       2573.777        -999.25         0.4762        21.4349         0.0138       131.9561        58.9808       78.02959        85.3729       2525.895         0.3959         0.4084         40.068         5.4878          0.407        -999.25         2.2963         35.059          0.389        -999.25        73.9468        -999.25        481.647       4468.188      0.9580765
      9488.0000         10.157       2535.582        -999.25         0.4836        22.6594         0.0068        130.928        58.6063       76.26685        84.1239       2496.676         0.4005         0.4132         39.563         5.7274          0.407        -999.25         2.2761         35.059          0.394        -999.25        74.3447        -999.25       481.4355       4447.547      0.9205713
      9488.5000        10.1977       2500.148        -999.25         0.5053        23.5005        -0.0081       129.2969        62.3043       75.30299         83.443       2476.426         0.4038         0.4163        39.2115         6.0099          0.409        -999.25         2.2622         50.166            0.4        -999.25        74.7014        -999.25       481.3843       4456.898      0.9000637
      9489.0000        10.2791       2517.891        -999.25         0.5026        21.7888        -0.0059       129.9734        62.7723       73.55698        82.2059       2471.934         0.4045         0.4162        40.0283         6.1763          0.411        -999.25         2.2905         50.166          0.397        -999.25        75.0582        -999.25       481.5229       4485.367      0.8629144
      9489.5000        10.2628       2516.254        -999.25          0.496         21.041         0.0008       130.2905        59.5893       77.16892        84.7789       2481.547          0.403          0.414        42.2286          6.193          0.414        -999.25         2.3028         43.218          0.397        -999.25        75.4089        -999.25       481.7183       4512.414      0.9397643
      9490.0000        10.2547       2468.629        -999.25         0.4769        20.9684        -0.0023       131.4453        59.5893       79.54631         86.474       2489.199         0.4017          0.413        42.2599         5.9577          0.418        -999.25          2.304         43.218          0.405        -999.25        75.7516        -999.25       481.9214       4533.016       0.990347
      9490.5000        10.1896       2366.371        -999.25         0.4885        21.2117        -0.0002       131.8999        59.1212       78.33045        85.6139       2476.379         0.4038         0.4156        39.9938         5.6427          0.422        -999.25            2.3         52.316          0.423        -999.25        76.0944        -999.25       482.1411       4528.031      0.9644777
      9491.0000        10.3035       2424.637        -999.25         0.5045        22.6754         0.0013       131.6453        55.5636       75.14317        83.3519       2458.539         0.4067         0.4192        39.6734         5.8337          0.422        -999.25         2.2759         52.316          0.412        -999.25        76.4371        -999.25       482.1636       4517.211      0.8966632
      9491.5000        10.3686       2465.602        -999.25         0.4996        24.9033        -0.0146       131.4905        58.6999       73.07104        81.8829       2460.766         0.4064         0.4195        39.9569         5.6514          0.422        -999.25         2.2391        34.7159          0.406        -999.25        76.7784        -999.25       482.0742       4506.219      0.8525754
