#------------------------------------------------------------------------------
# Created by    : vladimir.rabinovich
# Created on    : 09/19/2023 17:20:32
#------------------------------------------------------------------------------
~Version Information Section
VERS.           2.0     :   CWLS log ASCII Standard - VERSION 2.0
WRAP.           NO      :   One line per depth step
~Well Information Section
#MNEM       .UNIT                                         VALUE :DESCRIPTION
#------------------------------------------------------------------------------
STRT        .FT                                             642 :START DEPTH
STOP        .FT                                           11989 :STOP DEPTH
STEP        .FT                                             0.5 :STEP      
NULL        .                                           -999.25 :NULL      
COMP        .                       CORPUS CHRISTI OIL & GAS CO :COMPANY   
WELL        .                               OCS G05177 ST00BP00 :WELL      
FLD         .                              GALVESTON BLOCK 0151 :FIELD     
LOC         .                                                   :LOCATION  
CNTY        .                             GALVESTON LARGE BLOCK :LOCATION  
STAT        .                                             TEXAS :STATE     
CTRY        .                                     UNITED STATES :COUNTRY   
SRVC        .                                                   :SERVICE COMPANY
DATE        .                             9/13/2023 11:19:27 AM :LOG DATE  
API         .                                    42706401010000 :API NUMBER
UWI         .                                    42706401010000 :UNIQUE WELL ID
XCOORD      .                                   1130272.6689428 :SURFACE X 
YCOORD      .                                  10609756.0111422 :SURFACE Y 
LAT         .                                         29.225567 :LATITUDE  
LON         .                                        -94.599775 :LONGITUDE 
ELEV        .FT                                              83 :ELEVATION VALUE
ELEV_TYPE   .                                                KB :ELEVATION REFERENCE TYPE
~Curve Information Section
#MNEM       .UNIT                                      API CODE :CURVE DESCRIPTION
#------------------------------------------------------------------------------
DEPT        .FT                                                 :DEPTH     
ASN         .OHMM                                               :          
CILD        .MMHO                                               :          
DT          .US/F                                               :          
ILD         .OHMM                                               :          
RHOB        .G/CC                                               :          
SP          .MV                                                 :          
SP_NORM     .MV                                                 :SP Normalized
VSH_SP      .V/V                                                :Volume of Shale from SP
~A        DEPTH            ASN           CILD             DT            ILD           RHOB             SP        SP_NORM         VSH_SP
# ...
      5922.5000         0.4411        2106.84       113.2446         0.3581        -999.25       -78.0885       -27.7335      0.6038072
      5923.0000         0.4271       2320.855       114.0005         0.3498        -999.25       -77.4452      -27.09454      0.6129351
      5923.5000          0.413       2665.266        114.937         0.3178        -999.25       -80.2307      -29.88439      0.5730802
      5924.0000         0.4051       3668.625       116.1828         0.2858        -999.25       -83.9532      -33.61123      0.5198395
      5924.5000         0.4034         3825.5       117.5833          0.252        -999.25       -92.6404      -42.30278      0.3956746
      5925.0000         0.4012       3982.375       119.9119         0.2199        -999.25       -97.1392      -46.80592       0.331344
      5925.5000          0.399       4827.023       123.3233         0.2088        -999.25      -111.3307      -61.00177      0.1285461
      5926.0000         0.3967        4981.75       125.9612         0.1977        -999.25      -114.9867      -64.66211     0.07625558
      5926.5000         0.3895       5407.398       124.4228         0.1866        -999.25      -117.9819      -67.66165     0.03340498
      5927.0000         0.3795       5518.672        121.183         0.1923        -999.25      -110.0627       -59.7468      0.1464743
      5927.5000         0.3695       5544.195       116.8603         0.2102        -999.25      -105.1794      -54.86784      0.2161737
      5928.0000         0.3738       5252.672       113.7752         0.2281        -999.25      -102.1334      -51.82619      0.2596259
      5928.5000         0.3827       5079.469         110.69          0.246        -999.25       -99.6677      -49.36483      0.2947882
      5929.0000         0.3917       4897.734       110.7402         0.2772        -999.25       -97.7898      -47.49128      0.3215532
      5929.5000         0.4006        4776.57       114.7836         0.3088        -999.25       -94.0969      -43.80272      0.3742469
      5930.0000         0.4096       3611.098       116.7477         0.3404        -999.25       -90.5924      -40.30256      0.4242491
      5930.5000         0.4183       3258.148       114.5927          0.372        -999.25       -79.0366      -28.75111      0.5892699
      5931.0000         0.4266       3040.461       112.1262         0.3924        -999.25       -73.4731      -23.19195      0.6686864
      5931.5000         0.4348       2916.023       111.2065         0.3824        -999.25       -68.4531       -18.1763      0.7403386
      5932.0000         0.4352        2657.52       111.0581         0.3725        -999.25       -63.6733      -13.40084      0.8085594
      5932.5000         0.4177       2525.137        111.378          0.357        -999.25       -66.9929      -16.72478      0.7610745
      5933.0000         0.4013       2404.871       112.7785         0.3369        -999.25        -71.281      -21.01722      0.6997539
      5933.5000         0.3848       2528.414       115.2618         0.3169        -999.25       -75.7245      -25.46507      0.6362132
      5934.0000         0.3706       2783.246       116.5076         0.2969        -999.25       -78.7252      -28.47011      0.5932841
      5934.5000         0.3565       3719.547       116.8253         0.2768        -999.25       -79.9044      -29.65366      0.5763763
      5935.0000         0.3491       3821.375       116.9884         0.2568        -999.25       -80.9414        -30.695         0.5615
      5935.5000         0.3445       3869.625       115.9141         0.2403        -999.25       -84.6371      -34.39505      0.5086422
      5936.0000           0.34       3917.875       114.3714         0.2242        -999.25       -86.9716      -36.73389      0.4752301
      5936.5000          0.338       3966.188       113.7654         0.2082        -999.25       -89.9714      -39.73803      0.4323138
      5937.0000         0.3362       4602.188       113.6191         0.1922        -999.25       -97.6086      -47.37958      0.3231489
      5937.5000         0.3344       4699.906       115.0217         0.1762        -999.25      -104.2479      -54.02322      0.2282397
      5938.0000         0.3325       4801.102       116.7316         0.1716        -999.25      -110.5988      -60.37847      0.1374505
      5938.5000         0.3313       5002.406       118.4414         0.1671        -999.25      -113.9739      -63.75791     0.08917269
      5939.0000         0.3316       5538.484       119.0665         0.1757        -999.25      -116.3545      -66.14285      0.0551021
      5939.5000         0.3319       5452.086       117.5302         0.1986        -999.25      -112.3325       -62.1252      0.1124972
      5940.0000         0.3322           4620       115.5277         0.2219        -999.25      -103.2202      -53.01724      0.2426108
      5940.5000         0.3388       3784.691         113.68          0.266        -999.25       -98.3369      -48.13829      0.3123102
      5941.0000         0.3725       3096.668       112.7603         0.3101        -999.25       -81.3138      -31.11953      0.5554353
      5941.5000         0.4531       2457.902       113.0781         0.3542        -999.25       -56.3687      -6.178776      0.9117318
      5942.0000         0.4835       1804.143       113.3958         0.3945        -999.25       -53.2635      -3.077919      0.9560297
      5942.5000         0.5079       1739.789       113.2495         0.4254        -999.25       -50.5594     -0.3781624      0.9945977
      5943.0000         0.5221       1695.846       112.9486         0.4564        -999.25        -48.554        1.62289              1
      5943.5000         0.5364       1751.707       111.5478         0.4874        -999.25       -46.5772       3.595345              1
      5944.0000         0.5471       1784.951       110.4718         0.5015        -999.25       -45.6188         4.5494              1
      5944.5000         0.5577       1813.057        109.573          0.501        -999.25       -46.5162       3.647659              1
      5945.0000         0.5682       1841.137       109.1152         0.5005        -999.25        -47.591       2.568516              1
      5945.5000         0.5705       1869.217       109.1257         0.5001        -999.25       -48.6649       1.490269              1
      5946.0000         0.5728       1893.225       109.7528         0.4996        -999.25       -49.6718      0.4790268              1
      5946.5000         0.5746       1915.445       111.4627         0.4993        -999.25       -50.2124    -0.06591415      0.9990584
      5947.0000         0.5733       1937.666       114.1006         0.4995        -999.25       -50.7531     -0.6109619       0.991272
      5947.5000          0.572       1947.281       117.8213         0.4998        -999.25       -51.1892      -1.051407      0.9849799
      5948.0000         0.5707       1954.643       120.1499         0.5001        -999.25       -51.1857       -1.05225      0.9849679
      5948.5000         0.5694        1962.27       117.3741         0.5004        -999.25       -51.2757      -1.146595        0.98362
      5949.0000         0.5681       1972.959       115.0623         0.5007        -999.25       -52.4235      -2.298737      0.9671609
      5949.5000          0.569       1983.635       113.6786         0.5009        -999.25       -53.5713      -3.450882      0.9507017
      5950.0000         0.5701       1994.322       111.5215         0.5012        -999.25       -54.7182      -4.602127      0.9342553
      5950.5000         0.5712       2005.967          110.6         0.5015        -999.25       -55.6821       -5.57037      0.9204233
      5951.0000         0.5723       2026.623       109.8112         0.5018        -999.25       -56.4501      -6.342716      0.9093898
      5951.5000         0.5735       2047.256       107.7881         0.5021        -999.25       -57.2181      -7.115059      0.8983563
