#------------------------------------------------------------------------------
# Created by    : vladimir.rabinovich
# Created on    : 09/19/2023 17:19:44
#------------------------------------------------------------------------------
~Version Information Section
VERS.           2.0     :   CWLS log ASCII Standard - VERSION 2.0
WRAP.           NO      :   One line per depth step
~Well Information Section
#MNEM       .UNIT                                         VALUE :DESCRIPTION
#------------------------------------------------------------------------------
STRT        .FT                                            2932 :START DEPTH
STOP        .FT                                           14530 :STOP DEPTH
STEP        .FT                                             0.5 :STEP      
NULL        .                                           -999.25 :NULL      
COMP        .                                 MESA PETROLEUM CO :COMPANY   
WELL        .                                 ST TR 00022-L W/2 :WELL      
FLD         .                                           WILDCAT :FIELD     
LOC         .                                                   :LOCATION  
CNTY        .                           HIGH ISLAND LARGE BLOCK :LOCATION  
STAT        .                                             TEXAS :STATE     
CTRY        .                                     UNITED STATES :COUNTRY   
SRVC        .                                                   :SERVICE COMPANY
DATE        .                             9/13/2023 11:19:15 AM :LOG DATE  
API         .                                    42708300770000 :API NUMBER
UWI         .                                    42708300770000 :UNIQUE WELL ID
XCOORD      .                                  1307803.37781852 :SURFACE X 
YCOORD      .                                  10713200.3443699 :SURFACE Y 
LAT         .                                         29.515602 :LATITUDE  
LON         .                                       -94.0460534 :LONGITUDE 
ELEV        .FT                                              85 :ELEVATION VALUE
ELEV_TYPE   .                                                KB :ELEVATION REFERENCE TYPE
~Curve Information Section
#MNEM       .UNIT                                      API CODE :CURVE DESCRIPTION
#------------------------------------------------------------------------------
DEPT        .FT                                                 :DEPTH     
ASFL        .OHMM                                               :          
CILD        .MMHO                                               :          
ILD         .OHMM                                               :          
SP          .MV                                                 :          
SP_NORM     .MV                                                 :SP Normalized
VSH_SP      .V/V                                                :Volume of Shale from SP
~A        DEPTH           ASFL           CILD            ILD             SP        SP_NORM         VSH_SP
# ...
     13724.0000         0.7578       1837.438         0.6968       -45.0034      -3.493965      0.9500862
     13724.5000         0.7463        1874.75         0.6961       -45.2173      -3.707867      0.9470305
     13725.0000         0.7409         1900.5         0.6928       -45.4312      -3.921764      0.9439748
     13725.5000         0.7379       1919.313         0.6873       -45.5259      -4.016468      0.9426219
     13726.0000         0.7395       1938.125         0.6818       -45.2651      -3.755665      0.9463477
     13726.5000         0.7411       1949.852         0.6763       -45.0049      -3.495468      0.9500647
     13727.0000         0.7426       1946.813         0.6709       -44.6113      -3.101868      0.9556876
     13727.5000         0.7443       1943.781         0.6654       -43.8867      -2.377266      0.9660391
     13728.0000         0.7473       1940.742         0.6655       -43.1641      -1.654667      0.9763619
     13728.5000         0.7503       1937.711         0.6661         -42.75      -1.240566      0.9822776
     13729.0000         0.7533       1934.672         0.6668       -42.3359     -0.8264656      0.9881933
     13729.5000         0.7563       1917.375         0.6674       -42.6768      -1.167366      0.9833233
     13730.0000         0.7593       1896.438          0.668       -43.1318      -1.622368      0.9768233
     13730.5000         0.7639         1875.5         0.6687       -43.5879      -2.078465      0.9703076
     13731.0000         0.7715       1854.563         0.6693       -43.4165      -1.907066      0.9727562
     13731.5000         0.7791       1850.934         0.6699       -43.3124      -1.802967      0.9742433
     13732.0000         0.7866       1851.895         0.6705       -43.3282      -1.818768      0.9740176
     13732.5000         0.7943       1852.857         0.6724       -43.5791      -2.069668      0.9704333
     13733.0000         0.8026       1853.818         0.6812       -44.0703      -2.560867      0.9634162
     13733.5000          0.811       1850.531         0.6899       -43.7813      -2.271866      0.9675448
     13734.0000         0.8194       1841.156         0.6986       -43.3398      -1.830368      0.9738519
     13734.5000         0.8277       1831.766         0.7074        -43.667      -2.157566      0.9691776
     13735.0000         0.8361        1813.25         0.7161       -43.9941      -2.484665      0.9645048
     13735.5000         0.8456        1772.75         0.7249       -44.3213      -2.811867      0.9598305
     13736.0000         0.8575        1732.25         0.7336       -44.6484      -3.138966      0.9551576
     13736.5000         0.8705        1691.75         0.7462       -44.8563      -3.346867      0.9521876
     13737.0000         0.8871        1638.25          0.761       -44.9259      -3.416466      0.9511933
     13737.5000          0.908       1581.375         0.7758       -44.2227      -2.713264      0.9612391
     13738.0000         0.9277        1522.75         0.7907       -43.2109      -1.701466      0.9756933
     13738.5000          0.947       1451.625         0.8055       -41.6016     -0.0921669      0.9986833
     13739.0000         0.9423       1457.156         0.8203       -42.2637     -0.7542648      0.9892248
     13739.5000         0.9315       1471.531         0.8307       -42.9766      -1.467167      0.9790404
     13740.0000         0.9206       1485.906         0.8319       -43.6875      -2.178066      0.9688848
     13740.5000         0.9098       1500.281         0.8332       -44.4004      -2.890965      0.9587005
     13741.0000         0.8989       1515.406         0.8344       -44.8965      -3.387066      0.9516134
     13741.5000         0.8908       1530.656         0.8316       -44.7925      -3.283066      0.9530991
     13742.0000         0.8848       1545.938         0.8213       -44.5283      -3.018867      0.9568733
     13742.5000         0.8853       1561.188          0.811       -44.2637      -2.754265      0.9606534
     13743.0000         0.8991       1576.469         0.8007       -44.6621      -3.152668      0.9549619
     13743.5000         0.9129       1591.719         0.8066       -45.0947      -3.585266      0.9487819
     13744.0000         0.9363         1584.5         0.8139       -45.5498      -4.040367      0.9422805
     13744.5000         0.9603       1551.063         0.8211       -45.3809      -3.871468      0.9446933
     13745.0000          0.989       1481.875         0.8284       -45.0547      -3.545265      0.9493533
     13745.5000         1.0281       1413.688          0.834       -44.8657      -3.356266      0.9520534
     13746.0000         1.0725       1385.563          0.837       -44.8513      -3.341866      0.9522591
     13746.5000         1.0562       1382.391           0.84       -44.8369      -3.327465      0.9524648
     13747.0000         1.0374        1388.25          0.843       -44.8224      -3.312965      0.9526719
     13747.5000         1.0184       1394.094          0.846       -43.4961      -1.986668       0.971619
     13748.0000         0.9975       1403.281          0.849       -43.1797      -1.670265      0.9761391
     13748.5000         0.9767       1415.531         0.8462       -43.4507      -1.941265      0.9722676
     13749.0000          0.927        1427.75         0.8395       -43.7217      -2.212265      0.9683962
     13749.5000         0.8441        1492.25         0.8328       -43.9927      -2.483265      0.9645248
     13750.0000         0.8394       1579.625          0.826       -44.0703      -2.560867      0.9634162
     13750.5000          0.835       1655.125         0.8193       -43.8545      -2.345066       0.966499
     13751.0000         0.8309       1676.813         0.7975       -43.6392      -2.129765      0.9695748
     13751.5000         0.8268       1686.844         0.7756         -43.25      -1.740566      0.9751348
     13752.0000         0.8226       1696.875         0.7536       -42.7461      -1.236668      0.9823333
     13752.5000         0.8177       1706.141         0.7317       -42.2412     -0.7317657      0.9895462
     13753.0000         0.8124       1715.391         0.7111       -41.7422     -0.2327652      0.9966748
     13753.5000         0.8071       1724.641         0.7017       -41.9873     -0.4778671      0.9931733
     13754.0000          0.803       1733.906         0.6922       -42.3662     -0.8567657      0.9877605
     13754.5000         0.8017       1743.156         0.6827       -42.7305      -1.221066      0.9825562
     13755.0000         0.8034       1756.781         0.6733       -42.1572     -0.6477661      0.9907462
     13755.5000         0.8086       1774.406         0.6638        -41.583    -0.07356644      0.9989491
     13756.0000         0.8189           1792         0.6544       -41.0088      0.5006332              1
     13756.5000         0.8297       1809.594          0.646       -40.5313      0.9781342              1
     13757.0000         0.8404        1791.75         0.6513       -40.8984      0.6110344              1
     13757.5000         0.8497       1766.188         0.6566       -41.3496       0.159832              1
     13758.0000         0.8573       1740.625         0.6618       -41.7422     -0.2327652      0.9966748
     13758.5000          0.865       1709.563         0.6671       -41.9609     -0.4514656      0.9935505
     13759.0000         0.8726           1675         0.6724       -42.3516     -0.8421669       0.987969
     13759.5000         0.8805       1640.375         0.6776       -43.2207      -1.711266      0.9755533
     13760.0000         0.8883       1605.813         0.6882       -43.9805      -2.471066      0.9646991
     13760.5000         0.8962       1571.188         0.7007       -44.6523      -3.142868      0.9551019
     13761.0000         0.9073       1526.625         0.7133       -45.2441      -3.734665      0.9466476
     13761.5000         0.9196        1479.25         0.7258       -44.7988      -3.289368       0.953009
