#------------------------------------------------------------------------------
# Created by    : vladimir.rabinovich
# Created on    : 09/19/2023 17:19:45
#------------------------------------------------------------------------------
~Version Information Section
VERS.           2.0     :   CWLS log ASCII Standard - VERSION 2.0
WRAP.           NO      :   One line per depth step
~Well Information Section
#MNEM       .UNIT                                         VALUE :DESCRIPTION
#------------------------------------------------------------------------------
STRT        .FT                                            3127 :START DEPTH
STOP        .FT                                           13892 :STOP DEPTH
STEP        .FT                                             0.5 :STEP      
NULL        .                                           -999.25 :NULL      
COMP        .                                       MONSANTO CO :COMPANY   
WELL        .                                     ST TR 00010-L :WELL      
FLD         .                                           WILDCAT :FIELD     
LOC         .                                                   :LOCATION  
CNTY        .                           HIGH ISLAND LARGE BLOCK :LOCATION  
STAT        .                                             TEXAS :STATE     
CTRY        .                                     UNITED STATES :COUNTRY   
SRVC        .                                                   :SERVICE COMPANY
DATE        .                             9/13/2023 11:19:15 AM :LOG DATE  
API         .                                    42708300750000 :API NUMBER
UWI         .                                    42708300750000 :UNIQUE WELL ID
XCOORD      .                                  1327265.43976741 :SURFACE X 
YCOORD      .                                  10725214.5969587 :SURFACE Y 
LAT         .                                        29.5491158 :LATITUDE  
LON         .                                       -93.9851741 :LONGITUDE 
ELEV        .FT                                              54 :ELEVATION VALUE
ELEV_TYPE   .                                                KB :ELEVATION REFERENCE TYPE
~Curve Information Section
#MNEM       .UNIT                                      API CODE :CURVE DESCRIPTION
#------------------------------------------------------------------------------
DEPT        .FT                                                 :DEPTH     
ASFL        .OHMM                                               :          
CILD        .MMHO                                               :          
ILD         .OHMM                                               :          
SP          .MV                                                 :          
SP_NORM     .MV                                                 :SP Normalized
VSH_SP      .V/V                                                :Volume of Shale from SP
~A        DEPTH           ASFL           CILD            ILD             SP        SP_NORM         VSH_SP
# ...
     10993.0000          0.673       1903.344        -999.25       -56.8686      -2.416561      0.9759905
     10993.5000         0.6957       1798.783        -999.25       -62.7891      -8.338829      0.8756131
     10994.0000         0.7477       1676.893        -999.25       -64.8151       -10.3666      0.8412442
     10994.5000         1.0247       1473.744        -999.25        -67.645      -13.19826      0.7932498
     10995.0000         1.0641       1323.973        -999.25       -68.9088      -14.46383      0.7717996
     10995.5000         1.0867       1159.959        -999.25       -67.0623      -12.61909      0.8030662
     10996.0000         1.1142       1141.039        -999.25       -65.4445      -11.00307      0.8304565
     10996.5000         1.0649       1301.766        -999.25        -66.337      -11.89733      0.8152995
     10997.0000         1.0161        1357.73        -999.25       -67.1373      -12.69939      0.8017052
     10997.5000         0.9696       1412.104        -999.25       -66.3899      -11.95376       0.814343
     10998.0000         0.9041       1458.309        -999.25       -65.5526      -11.11823      0.8285047
     10998.5000          0.826       1543.652        -999.25       -64.2791      -9.846493      0.8500594
     10999.0000         0.8061        1637.16        -999.25       -62.3023      -7.871464      0.8835345
     10999.5000         0.7812       1704.129        -999.25       -60.8984       -6.46933      0.9072995
     11000.0000         0.7531       1733.307        -999.25        -60.119      -5.691696      0.9204797
     11000.5000         0.7447       1779.662        -999.25       -59.6155      -5.189964      0.9289836
     11001.0000         0.7582       1810.906        -999.25       -59.2237      -4.799931      0.9355944
     11001.5000         0.7718       1799.754        -999.25       -59.0242      -4.602196      0.9389458
     11002.0000         0.7839       1788.576        -999.25       -58.8245      -4.404266      0.9423006
     11002.5000         0.7911       1777.422        -999.25       -58.5497      -4.131233      0.9469283
     11003.0000         0.7982       1766.244        -999.25       -58.0475      -3.630798      0.9554102
     11003.5000         0.8039       1760.107        -999.25       -57.2128      -2.797863      0.9695277
     11004.0000          0.808       1756.758        -999.25       -56.4727      -2.059528      0.9820419
     11004.5000         0.8089       1752.801        -999.25       -56.4694      -2.057995      0.9820679
     11005.0000         0.8084       1747.422        -999.25       -56.6722      -2.262566      0.9786006
     11005.5000         0.8037       1744.176        -999.25       -56.9921      -2.584232      0.9731486
     11006.0000         0.7988        1742.85        -999.25       -57.3984      -2.992298      0.9662322
     11006.5000         0.7939       1739.182        -999.25       -57.5765      -3.172165      0.9631836
     11007.0000         0.7895       1724.344        -999.25       -57.4658      -3.063232        0.96503
     11007.5000         0.7874       1709.506        -999.25       -57.3549      -2.954098      0.9668797
     11008.0000         0.7852       1694.668        -999.25       -57.2441      -2.845066      0.9687277
     11008.5000          0.783       1693.648        -999.25       -57.0518      -2.654533      0.9719571
     11009.0000         0.7791       1714.785        -999.25       -56.8523      -2.456799      0.9753085
     11009.5000         0.7737       1745.207        -999.25       -56.3694      -1.975666      0.9834633
     11010.0000         0.7657        1775.68        -999.25       -55.7953      -1.403332      0.9931639
     11010.5000         0.7578       1867.494        -999.25       -55.0073     -0.6170998              1
     11011.0000           0.75       1926.646        -999.25       -54.9242     -0.5357666              1
     11011.5000         0.7428       1952.588        -999.25       -54.8509     -0.4642334              1
     11012.0000         0.7355       1975.891        -999.25       -54.7778     -0.3929024              1
     11012.5000         0.7319       1952.041        -999.25       -54.6782     -0.2950668              1
     11013.0000         0.7297       1914.498        -999.25       -54.5049     -0.1235352              1
     11013.5000         0.7311       1853.852        -999.25       -54.3318     0.04780197              1
     11014.0000         0.7372        1823.23        -999.25       -54.3503     0.02753067              1
     11014.5000         0.7515       1791.314        -999.25       -54.7719     -0.3958359              1
     11015.0000         0.7657       1762.436        -999.25       -55.1942     -0.8199005              1
     11015.5000         0.7818       1788.773        -999.25         -55.67      -1.297466      0.9949582
     11016.0000         0.8046       1817.105        -999.25       -55.7523      -1.381535      0.9935333
     11016.5000         0.7877       1863.711        -999.25       -55.7531      -1.384102      0.9934898
     11017.0000         0.7623       1936.805        -999.25       -55.7539      -1.386669      0.9934463
     11017.5000         0.7422       1988.189        -999.25       -55.7547      -1.389236      0.9934028
     11018.0000         0.7242       2052.121        -999.25       -55.9484      -1.584702      0.9900898
     11018.5000         0.7089       2297.492        -999.25       -56.3141      -1.952168      0.9838616
     11019.0000         0.6945       2430.035        -999.25       -56.9719      -2.611736      0.9726824
     11019.5000         0.6839       2464.691        -999.25       -57.8324      -3.474003      0.9580678
     11020.0000         0.6733       2260.445        -999.25       -59.1577      -4.801067      0.9355751
     11020.5000         0.6937       2186.758        -999.25       -62.3958      -8.040939       0.880662
     11021.0000         0.7288       1669.523        -999.25       -79.2328      -24.87971      0.5952592
     11021.5000         0.9037       1535.686        -999.25       -82.9995      -28.64817       0.531387
     11022.0000         1.3761       1454.426        -999.25       -87.3121      -32.96254       0.458262
     11022.5000         1.8478       1288.918        -999.25       -89.6134      -35.26561       0.419227
     11023.0000         2.2497       1121.021        -999.25       -91.5497      -37.20367      0.3863785
     11023.5000         2.2755       1030.402        -999.25       -92.9081      -38.56384      0.3633248
     11024.0000         2.2607        978.918        -999.25       -91.5066       -37.1641      0.3870491
     11024.5000          2.222       987.8311        -999.25         -89.52      -35.17927      0.4206904
     11025.0000         2.1655       1533.594        -999.25       -87.2925      -32.95354      0.4584146
     11025.5000         2.1086       1614.555        -999.25       -86.2942        -31.957      0.4753051
     11026.0000         2.0518       1734.053        -999.25       -80.1967      -25.86127      0.5786225
     11026.5000          1.995       1729.074        -999.25       -76.5873      -22.25364      0.6397688
     11027.0000         1.6678       1699.748        -999.25       -74.5515       -20.2196       0.674244
     11027.5000         1.0406        1685.83        -999.25       -70.7552      -16.42508      0.7385581
     11028.0000          0.859        1674.08        -999.25       -68.7981      -14.46974      0.7716993
     11028.5000         0.8389       1687.375        -999.25       -67.0942       -12.7676      0.8005491
     11029.0000         0.8232       1700.668        -999.25       -66.1281      -11.80327      0.8168938
     11029.5000         0.8134           1723        -999.25       -65.1741      -10.85104      0.8330331
     11030.0000         0.8075       1752.625        -999.25       -64.1389      -9.817608       0.850549
     11030.5000         0.7848       1782.252        -999.25       -63.0031      -8.683575      0.8697699
