#------------------------------------------------------------------------------
# Created by    : vladimir.rabinovich
# Created on    : 09/19/2023 17:22:18
#------------------------------------------------------------------------------
~Version Information Section
VERS.           2.0     :   CWLS log ASCII Standard - VERSION 2.0
WRAP.           NO      :   One line per depth step
~Well Information Section
#MNEM       .UNIT                                         VALUE :DESCRIPTION
#------------------------------------------------------------------------------
STRT        .FT                                            4012 :START DEPTH
STOP        .FT                                            9352 :STOP DEPTH
STEP        .FT                                             0.5 :STEP      
NULL        .                                           -999.25 :NULL      
COMP        .                                   KERR-MCGEE CORP :COMPANY   
WELL        .                                ST TR 00007-L SE/4 :WELL      
FLD         .                                           WILDCAT :FIELD     
LOC         .                                                   :LOCATION  
CNTY        .                           HIGH ISLAND LARGE BLOCK :LOCATION  
STAT        .                                             TEXAS :STATE     
CTRY        .                                     UNITED STATES :COUNTRY   
SRVC        .                                                   :SERVICE COMPANY
DATE        .                             9/13/2023 11:19:15 AM :LOG DATE  
API         .                                    42708302700000 :API NUMBER
UWI         .                                    42708302700000 :UNIQUE WELL ID
XCOORD      .                                   1285759.2062487 :SURFACE X 
YCOORD      .                                  10728779.4927599 :SURFACE Y 
LAT         .                                        29.5578886 :LATITUDE  
LON         .                                       -94.1158411 :LONGITUDE 
ELEV        .FT                                             125 :ELEVATION VALUE
ELEV_TYPE   .                                                KB :ELEVATION REFERENCE TYPE
~Curve Information Section
#MNEM       .UNIT                                      API CODE :CURVE DESCRIPTION
#------------------------------------------------------------------------------
DEPT        .FT                                                 :DEPTH     
CALI        .IN                                                 :          
CILD        .MMHO                                               :          
DPHI        .%                                                  :          
ILD         .OHMM                                               :          
ILM         .OHMM                                               :          
SFL         .OHMM                                               :          
SP          .MV                                                 :          
SP_NORM     .MV                                                 :SP Normalized
VSH_SP      .V/V                                                :Volume of Shale from SP
~A        DEPTH           CALI           CILD           DPHI            ILD            ILM            SFL             SP        SP_NORM         VSH_SP
# ...
      8278.5000        13.2563       1531.908        18.2476         0.6192         0.6621         0.6912       -51.5905        -3.3146      0.9526486
      8279.0000        13.2541       1563.428        18.4262         0.6122         0.6646         0.6907       -51.0417        -2.7658      0.9604886
      8279.5000        13.2462       1585.795        18.5384         0.6132         0.6671         0.6902       -50.6957        -2.4198      0.9654315
      8280.0000        13.2366       1592.402        18.3627         0.6141         0.6697         0.6951        -50.949        -2.6731      0.9618129
      8280.5000        13.2271       1563.674        18.1311          0.615         0.6723          0.702       -51.2023        -2.9264      0.9581943
      8281.0000        13.2175       1548.598        17.7148         0.6162         0.6749         0.7085       -51.4788        -3.2029      0.9542443
      8281.5000        13.2139       1533.549        17.2986         0.6179         0.6752         0.6954       -51.7719         -3.496      0.9500571
      8282.0000        13.2206       1518.498        17.0852         0.6195         0.6709         0.6825       -52.0652        -3.7893      0.9458671
      8282.5000        13.2272       1530.465        17.0958         0.6212         0.6665          0.684       -52.3582        -4.0823      0.9416814
      8283.0000        13.2338        1542.34        17.1063         0.6229         0.6623          0.703       -52.4393        -4.1634      0.9405228
      8283.5000         13.241       1545.742        17.0875          0.624          0.658         0.7353       -52.2759             -4      0.9428571
      8284.0000        13.2514       1549.143         17.063         0.6215         0.6538          0.732       -52.1129         -3.837      0.9451857
      8284.5000         13.262       1551.377        17.0262          0.619         0.6532         0.7073       -51.9496        -3.6737      0.9475186
      8285.0000        13.2725        1553.26        16.8974         0.6165          0.654         0.6835       -51.7865        -3.5106      0.9498486
      8285.5000        13.2755       1559.219        16.7685         0.6141         0.6549         0.6821       -51.6376        -3.3617      0.9519757
      8286.0000        13.2766        1593.43        16.7872         0.6116         0.6558          0.685       -51.5197        -3.2438        0.95366
      8286.5000        13.2777       1621.475        17.0178         0.6096         0.6566         0.6953       -51.4017        -3.1258      0.9553457
      8287.0000        13.2717       1645.041        17.4637         0.6079         0.6572         0.7077       -51.2836        -3.0077      0.9570329
      8287.5000        13.2424       1657.863        18.2229         0.6063         0.6576         0.7122       -51.1657        -2.8898      0.9587172
      8288.0000        13.2068       1670.686        19.0715         0.6046          0.658         0.7079       -51.1472        -2.8713      0.9589815
      8288.5000        13.1401       1674.699        19.8512         0.6048         0.6533         0.7035       -51.1362        -2.8603      0.9591386
      8289.0000         13.139       1674.197         19.726         0.6076         0.6439         0.6992       -51.1252        -2.8493      0.9592957
      8289.5000        13.1561       1666.465        19.4815         0.6104         0.6393         0.7028       -51.1143        -2.8384      0.9594514
      8290.0000        13.1837       1630.871        19.1861         0.6132         0.6422         0.7091       -50.9704        -2.6945      0.9615071
      8290.5000        13.2136       1578.502        18.4725         0.6244         0.6488          0.716          -50.8        -2.5241      0.9639415
      8291.0000        13.2388        1523.49        18.2711         0.6378         0.6579         0.7089       -50.5884        -2.3125      0.9669643
      8291.5000        13.2227       1467.377        18.1177         0.6517         0.6671         0.7052       -50.3699         -2.094      0.9700857
      8292.0000        13.2066       1447.459        17.9149         0.6669         0.6779         0.7124       -50.2549         -1.979      0.9717286
      8292.5000        13.1726       1427.514        17.5662         0.6823          0.689         0.7426       -50.2083        -1.9324      0.9723943
      8293.0000        13.1291       1425.385        17.2174         0.6963         0.7003         0.7497       -50.3381        -2.0622        0.97054
      8293.5000        13.0647       1440.631        17.2336         0.6957         0.7006         0.7321       -50.7309         -2.455      0.9649286
      8294.0000        12.9994       1478.855        17.5717         0.6952         0.6953         0.7143        -51.123        -2.8471      0.9593272
      8294.5000        12.9208       1525.547        18.0467         0.6818         0.6831          0.694       -51.4161        -3.1402        0.95514
      8295.0000        12.8458        1570.33         18.143         0.6584         0.6636         0.6742       -51.6948        -3.4189      0.9511586
      8295.5000        12.7791       1597.736         17.965         0.6369          0.648         0.6682       -51.9734        -3.6975      0.9471785
      8296.0000        12.7235       1621.463        17.9537         0.6188          0.638         0.6676       -52.4408        -4.1649      0.9405015
      8296.5000        12.7358       1629.525        18.1476         0.6012         0.6281         0.6713        -52.929        -4.6531      0.9335272
      8297.0000        12.7534       1637.602         18.402         0.5899         0.6303         0.6829       -53.4166        -5.1407      0.9265614
      8297.5000        12.7422       1641.926        18.6931         0.5798         0.6369         0.6947       -53.8871        -5.6112        0.91984
      8298.0000        12.6917       1646.557        19.7528         0.5789         0.6433           0.72       -55.2238        -6.9479      0.9007443
      8298.5000        12.6205       1662.855        20.6536         0.5829         0.6482         0.7556       -57.1668        -8.8909      0.8729872
      8299.0000        12.5604       1679.154        21.1499         0.5859         0.6532         0.8224       -59.9713       -11.6954      0.8329229
      8299.5000        12.5002       1697.336        21.6106          0.587         0.6486         0.8554        -64.288       -16.0121      0.7712557
      8300.0000        12.4812       1711.229        21.9615         0.5881         0.6378         0.8494       -68.3257       -20.0498      0.7135743
      8300.5000         12.506       1715.016        22.2972          0.588         0.6296         0.8127       -70.8088       -22.5329      0.6781014
      8301.0000        12.5539       1743.293        22.2248         0.5762         0.6264         0.7769       -71.1797       -22.9038      0.6728029
      8301.5000        12.6001       1772.732        22.1524         0.5646         0.6232         0.7654       -70.7911       -22.5152      0.6783543
      8302.0000        12.6424       1796.959        22.0737         0.5569         0.6234          0.754       -70.1488       -21.8729        0.68753
      8302.5000        12.6415       1821.162        21.9924         0.5498          0.629         0.7456       -68.9338       -20.6579      0.7048872
      8303.0000        12.6266       1831.477        21.9152          0.543         0.6346         0.7484        -68.809       -20.5331        0.70667
      8303.5000        12.6178       1841.398        22.2368         0.5494         0.6396         0.7512       -69.4844       -21.2085      0.6970214
      8304.0000        12.6154       1834.303        22.5528          0.556         0.6422         0.7618       -70.3959         -22.12          0.684
      8304.5000         12.613        1817.27        22.7276         0.5628         0.6448         0.7787       -71.1274       -22.8515        0.67355
