#------------------------------------------------------------------------------
# Created by    : vladimir.rabinovich
# Created on    : 09/19/2023 17:20:28
#------------------------------------------------------------------------------
~Version Information Section
VERS.           2.0     :   CWLS log ASCII Standard - VERSION 2.0
WRAP.           NO      :   One line per depth step
~Well Information Section
#MNEM       .UNIT                                         VALUE :DESCRIPTION
#------------------------------------------------------------------------------
STRT        .FT                                            2653 :START DEPTH
STOP        .FT                                           10423 :STOP DEPTH
STEP        .FT                                             0.5 :STEP      
NULL        .                                           -999.25 :NULL      
COMP        .                                       MONSANTO CO :COMPANY   
WELL        .                                     ST TR 00150-L :WELL      
FLD         .                                           WILDCAT :FIELD     
LOC         .                                                   :LOCATION  
CNTY        .                             GALVESTON LARGE BLOCK :LOCATION  
STAT        .                                             TEXAS :STATE     
CTRY        .                                     UNITED STATES :COUNTRY   
SRVC        .                                                   :SERVICE COMPANY
DATE        .                             9/13/2023 11:19:24 AM :LOG DATE  
API         .                                    42706300340000 :API NUMBER
UWI         .                                    42706300340000 :UNIQUE WELL ID
XCOORD      .                                  1113316.22146511 :SURFACE X 
YCOORD      .                                  10612518.3672968 :SURFACE Y 
LAT         .                                         29.232517 :LATITUDE  
LON         .                                       -94.6530532 :LONGITUDE 
ELEV        .FT                                              81 :ELEVATION VALUE
ELEV_TYPE   .                                                KB :ELEVATION REFERENCE TYPE
~Curve Information Section
#MNEM       .UNIT                                      API CODE :CURVE DESCRIPTION
#------------------------------------------------------------------------------
DEPT        .FT                                                 :DEPTH     
ASN         .OHMM                                               :          
CILD        .MMHO                                               :          
ILD         .OHMM                                               :          
SP          .MV                                                 :          
SP_NORM     .MV                                                 :SP Normalized
VSH_SP      .V/V                                                :Volume of Shale from SP
~A        DEPTH            ASN           CILD            ILD             SP        SP_NORM         VSH_SP
# ...
      4211.0000         0.8116       1528.688         0.7593       -59.6306      -3.539612      0.9365097
      4211.5000         0.8073       1479.262          0.772        -60.107       -4.01368       0.924658
      4212.0000         0.8031       1428.314         0.7876       -60.7895      -4.693851      0.9076537
      4212.5000         0.7989       1365.553          0.811       -61.5984      -5.500423      0.8874894
      4213.0000         0.8154        1288.52         0.8373       -62.4073      -6.306992      0.8673252
      4213.5000         0.9443       1203.889         0.8711       -63.2162      -7.113567      0.8471608
      4214.0000         1.2695       1144.949          0.905       -64.2717      -8.166733      0.8208317
      4214.5000         1.3943       1107.697         0.9252       -65.3477      -9.240406      0.7939898
      4215.0000         1.6527       1096.676         0.9054       -66.3577      -10.24807      0.7687982
      4215.5000         1.6543       1135.535         0.9056       -67.1211      -11.00915      0.7497713
      4216.0000         1.4219       1174.369         0.8431       -67.8851      -11.77082      0.7307295
      4216.5000         1.2274       1264.887         0.7727       -68.6497      -12.53308      0.7116729
      4217.0000         1.1332       1363.248         0.6967       -69.4143      -13.29536       0.692616
      4217.5000         1.0825       1477.104         0.6248        -70.652      -14.53073      0.6617317
      4218.0000         1.0787       1695.795         0.5603       -72.0718       -15.9482       0.626295
      4218.5000         1.1277           2074         0.5039       -75.9644      -19.83847      0.5290381
      4219.0000         1.1675       2222.332           0.45       -78.8087      -22.68044      0.4579889
      4219.5000         1.2021       2407.383         0.4154       -84.0153      -27.88471      0.3278822
      4220.0000         1.2092       2621.367         0.3862       -86.0692      -29.93628      0.2765929
      4220.5000         1.1934        2684.84         0.3569       -87.2085      -31.07326      0.2481686
      4221.0000         1.1777       2730.957          0.336       -88.2677      -32.13013      0.2217468
      4221.5000         1.1637       2786.414         0.3269       -89.0724       -32.9325      0.2016875
      4222.0000         1.1501       2765.625         0.3248       -89.6201      -33.47787      0.1880532
      4222.5000         1.1502       2625.684         0.3473        -89.975      -33.83044      0.1792391
      4223.0000         1.1933       2542.668         0.3699       -89.9535      -33.80661      0.1798348
      4223.5000         1.2224       2477.012         0.4223       -89.8419      -33.69268      0.1826829
      4224.0000         1.2511       2315.984         0.4939       -89.6552      -33.50365      0.1874088
      4224.5000         1.2929       2169.375         0.5654       -89.4684      -33.31452       0.192137
      4225.0000         1.3398        1574.73         0.6325       -89.2816      -33.12539      0.1968652
      4225.5000         1.7349       1455.137         0.6995       -89.0721      -32.91356      0.2021609
      4226.0000         1.8407       1281.754         0.7639       -88.8187      -32.65784      0.2085541
      4226.5000         1.8142       1118.938         0.8274       -88.5653       -32.4021      0.2149474
      4227.0000          1.733       1128.059         0.8807       -88.3119      -32.14637      0.2213407
      4227.5000         1.6662       1174.959         0.8721       -88.3865      -32.21864      0.2195339
      4228.0000         1.5771       1228.111         0.8423       -88.7567      -32.58652      0.2103371
      4228.5000         1.4027       1319.264         0.7915       -89.6517      -33.47919      0.1880202
      4229.0000         1.2274           1935         0.6985       -90.5505      -34.37566      0.1656085
      4229.5000         1.0522           2765          0.595       -92.0084      -35.83123      0.1292192
      4230.0000          0.877         3595.5         0.4959       -93.4663       -37.2868     0.09282999
      4230.5000         0.7017           4426          0.408        -95.196      -39.01417     0.04964571
      4231.0000         0.6443       5139.531         0.3288       -96.6699      -40.48574     0.01285648
      4231.5000         0.8749       5327.742         0.2698        -97.557      -41.37051              0
      4232.0000         1.1057       5341.672          0.232       -96.7646      -40.57579     0.01060534
      4232.5000         1.3366       5273.414         0.2309       -94.6105      -38.41935     0.06451626
      4233.0000         1.5672           4981         0.2692       -92.4402      -36.24673      0.1188318
      4233.5000          1.798         4418.5         0.3075       -90.1187      -33.92289      0.1769277
      4234.0000         0.7875           3856         0.3458       -87.6052      -31.40707      0.2398233
      4234.5000         0.8392         3293.5         0.3841       -85.6134      -29.41294      0.2896765
      4235.0000          0.882           2731         0.4247       -83.8824      -27.67961      0.3330098
      4235.5000         0.9287         2168.5         0.5148       -81.1635      -24.95838      0.4010406
      4236.0000         0.8393       1673.238         0.6049       -77.5735      -21.36605      0.4908487
      4236.5000         0.8129       1474.555         0.6758       -73.1864      -16.97662      0.6005844
      4237.0000         0.7895       1461.021         0.6737       -68.1201      -11.90799      0.7273002
      4237.5000         0.7681       1534.572         0.6668       -61.8506      -5.636166      0.8840958
      4238.0000           0.75       1593.111         0.6416         -58.85      -2.633232      0.9591692
      4238.5000         0.7372       1581.295          0.617       -57.9912      -1.772102      0.9806975
      4239.0000         0.7308       1564.629         0.6293       -57.3387      -1.117275      0.9970681
      4239.5000         0.7361       1539.916         0.6416        -57.056     -0.8322449              1
      4240.0000         0.7414       1515.203         0.6539       -57.3749      -1.148819      0.9962795
      4240.5000         0.7452        1490.49         0.6662       -58.1838      -1.955387      0.9761153
      4241.0000         0.7477       1465.777         0.6785       -58.9927      -2.761955      0.9559511
      4241.5000         0.7503       1430.619         0.6822       -59.8699      -3.636829      0.9340793
      4242.0000         0.7528       1442.535         0.6805        -62.184      -5.948597      0.8762851
      4242.5000         0.7852       1519.076         0.6695       -65.8243      -9.586575      0.7853357
      4243.0000         0.8519       1595.568         0.6257       -72.1947      -15.95464      0.6261339
      4243.5000         0.9417         2026.5         0.5777       -81.1414      -24.89902      0.4025246
      4244.0000         0.9857         2487.5         0.5164       -85.9198      -29.67508      0.2831229
      4244.5000         1.0395         2948.5         0.4551        -89.778      -33.53095      0.1867262
      4245.0000         1.0248         3409.5         0.3986       -92.7723      -36.52293      0.1119268
      4245.5000          0.992         3870.5         0.3537       -94.7261      -38.47439      0.0631402
      4246.0000          0.933         4331.5         0.3089       -96.2787      -40.02467     0.02438326
      4246.5000         0.8793         4792.5         0.2816       -97.5902      -41.33384              0
      4247.0000         0.9722       4991.867         0.2557        -98.214       -41.9553              0
      4247.5000         0.9909       5048.914         0.2482       -98.1581      -41.89708              0
      4248.0000         0.9736       5046.352          0.242       -98.1022      -41.83885              0
      4248.5000         0.8162       5024.867         0.2357       -98.0464      -41.78072              0
