#------------------------------------------------------------------------------
# Created by    : vladimir.rabinovich
# Created on    : 09/19/2023 17:21:15
#------------------------------------------------------------------------------
~Version Information Section
VERS.           2.0     :   CWLS log ASCII Standard - VERSION 2.0
WRAP.           NO      :   One line per depth step
~Well Information Section
#MNEM       .UNIT                                         VALUE :DESCRIPTION
#------------------------------------------------------------------------------
STRT        .FT                                            2893 :START DEPTH
STOP        .FT                                           11505 :STOP DEPTH
STEP        .FT                                             0.5 :STEP      
NULL        .                                           -999.25 :NULL      
COMP        .                               SEAGULL ENERGY CORP :COMPANY   
WELL        .                               OCS G06105 ST00BP00 :WELL      
FLD         .                              GALVESTON BLOCK 0343 :FIELD     
LOC         .                                                   :LOCATION  
CNTY        .                             GALVESTON LARGE BLOCK :LOCATION  
STAT        .                                             TEXAS :STATE     
CTRY        .                                     UNITED STATES :COUNTRY   
SRVC        .                                                   :SERVICE COMPANY
DATE        .                             9/13/2023 11:19:54 AM :LOG DATE  
API         .                                    42706403720000 :API NUMBER
UWI         .                                    42706403720000 :UNIQUE WELL ID
XCOORD      .                                  915246.934514234 :SURFACE X 
YCOORD      .                                  10428990.3748243 :SURFACE Y 
LAT         .                                         28.718869 :LATITUDE  
LON         .                                        -95.262866 :LONGITUDE 
ELEV        .FT                                              96 :ELEVATION VALUE
ELEV_TYPE   .                                                KB :ELEVATION REFERENCE TYPE
~Curve Information Section
#MNEM       .UNIT                                      API CODE :CURVE DESCRIPTION
#------------------------------------------------------------------------------
DEPT        .FT                                                 :DEPTH     
CAL         .IN                                                 :          
CNCSS       .%                                                  :          
CORR        .G/CM3                                              :          
DT24        .US/FT                                              :          
GR_NORM     .GAPI                                               :GammaRay Normalized
GRR         .GAPI                                               :          
ILD         .OHMM                                               :          
ILM         .OHMM                                               :          
PORDSS      .%                                                  :          
RFOC        .OHMM                                               :          
SP          .MV                                                 :          
SP_NORM     .MV                                                 :SP Normalized
VSH_GR      .V/V                                                :Volume of Shale from GR
VSH_SP      .V/V                                                :Volume of Shale from SP
~A        DEPTH            CAL          CNCSS           CORR           DT24        GR_NORM            GRR            ILD            ILM         PORDSS           RFOC             SP        SP_NORM         VSH_GR         VSH_SP
# ...
      9193.0000          9.049        43.7647         -0.004          122.4       79.09438          100.8         0.4064         0.3884          18.48         0.4805        -4.4118        -4.4118      0.9807315      0.9369743
      9193.5000          9.049             44              0          122.4        80.3997          101.8         0.4062         0.3882          18.72         0.4847        -4.4118        -4.4118              1      0.9369743
      9194.0000          9.049             44         0.0041          121.4        79.3114            101         0.4061          0.388          19.08         0.4936        -4.4118        -4.4118      0.9853489      0.9369743
      9194.5000          9.049        43.6471         0.0041          120.8       78.75501          100.6         0.4059         0.3878          19.32          0.498        -4.4118        -4.4118      0.9735109      0.9369743
      9195.0000          9.049        43.2941         0.0082          120.6       80.59225            102         0.3947         0.3877           19.2         0.4886        -4.4118        -4.4118              1      0.9369743
      9195.5000          9.049        43.2941         0.0041            121       83.22736            104          0.384          0.384          19.32         0.4839        -4.1176        -4.1176              1      0.9411771
      9196.0000         9.1275        43.7647         0.0041          121.8       85.86246            106         0.3703         0.3804          19.68         0.4747        -3.5294        -3.5294              1        0.94958
      9196.5000         9.1275        44.4706              0          123.4       89.02948          108.4         0.3603         0.3803          20.04         0.4658        -2.6471        -2.6471              1      0.9621843
      9197.0000         9.1667        45.1765         -0.004            125       89.80288            109         0.3506           0.37          20.16         0.4528        -1.4706        -1.4706              1      0.9789914
      9197.5000         9.1667        45.6471         -0.008            126       88.98054          108.4         0.3473         0.3568          20.28         0.4401        -0.8824        -0.8824              1      0.9873943
      9198.0000         9.2059        46.2353         -0.004          126.8       86.82841          106.8         0.3409          0.344          20.28         0.4358        -0.5882        -0.5882              1      0.9915971
      9198.5000         9.2059        47.0588         0.0041            127       87.33584          107.2         0.3347         0.3438          20.52         0.4356              0              0              1              1
      9199.0000         9.2451        47.6471         0.0082          127.4       89.43904          108.8         0.3315         0.3437          20.64         0.4354              0              0              1              1
      9199.5000         9.2843        47.7647         0.0122          127.8       91.82442       110.6122         0.3284         0.3435          20.64         0.4352              0              0              1              1
      9200.0000         9.2843        46.9412         0.0122          127.8        90.7199          109.8         0.3283         0.3434          20.64          0.435              0              0              1              1
      9200.5000         9.2451        45.7647         0.0083          127.8       89.63943       109.0059         0.3372         0.3464          21.12         0.4431         0.0089         0.0089              1              1
      9201.0000         9.1667        44.7059         0.0085          127.6       89.36204       108.8157         0.3433         0.3464          21.48         0.4472         0.0238         0.0238              1              1
      9201.5000         9.1275        44.1176         0.0168            127       89.61656       109.0255         0.3527         0.3464          21.96         0.4514         0.0386         0.0386              1              1
      9202.0000         9.1275        43.7647          0.017          126.2       90.66895       109.8353         0.3623         0.3559          21.84         0.4556         0.0535         0.0535              1              1
      9202.5000          9.049        43.5294         0.0213          124.6       87.46616       107.4452         0.3722         0.3623           21.6         0.4642        -0.5212        -0.5212              1      0.9925543
      9203.0000          9.049        43.2941         0.0175          122.2       80.80618       102.4553          0.379         0.3689          20.88         0.4817        -1.3889        -1.3889              1      0.9801586
      9203.5000          9.049        43.7647         0.0095          119.8       76.81976        99.4759         0.3894         0.3756          20.16         0.4954        -2.8447        -2.8447      0.9323352      0.9593614
      9204.0000         9.0882        44.7059         0.0016            120       76.28677        99.0935         0.4075         0.3824          19.68            0.5        -3.4183        -3.4183       0.920995      0.9511672
      9204.5000         9.0882        45.7647        -0.0103          121.2       78.11283       100.4851         0.4075         0.3824          19.32         0.4817        -3.4038        -3.4038      0.9598475      0.9513743
      9205.0000         9.1275        45.7647        -0.0181            123       80.23158       102.0968         0.4075         0.3824           19.2         0.4685        -3.3893        -3.3893              1      0.9515814
      9205.5000         9.1275        44.8235        -0.0259          124.2       81.81589       103.3066         0.4075         0.3824          19.08         0.4642        -3.3748        -3.3748              1      0.9517885
      9206.0000         9.1667        43.8824        -0.0257          123.2       82.60231       103.9164            0.4         0.3824          19.32         0.4685        -3.0661        -3.0661              1      0.9561986
      9206.5000         9.1667        42.9412        -0.0215            122       82.59087       103.9262         0.3929         0.3756          19.44         0.4685        -3.0487        -3.0487              1      0.9564471
      9207.0000         9.2059        43.1765        -0.0093            122       81.78183       103.3362         0.3859         0.3689          19.44         0.4685        -3.0342        -3.0342              1      0.9566543
      9207.5000         9.2451        44.5882        -0.0051          123.4       81.77052       103.3461          0.379         0.3623           19.2         0.4642        -2.4314        -2.4314              1      0.9652657
      9208.0000         9.2451        46.4706        -0.0049          124.6       84.68423       105.5556         0.3756         0.3591          19.32         0.4556        -2.1228        -2.1228              1      0.9696743
      9208.5000         9.2451        46.9412        -0.0127          125.6       86.26827       106.7652         0.3689         0.3527          19.68         0.4514        -1.2259        -1.2259              1      0.9824871
      9209.0000         9.2843        46.9412        -0.0085          125.6       83.33184       104.5754         0.3623         0.3495           19.8         0.4514        -0.9173        -0.9173              1      0.9868957
      9209.5000         9.2451        46.9412         0.0038          125.2       81.99101       103.5855         0.3527         0.3464          20.04         0.4514        -0.9027        -0.9027              1      0.9871043
      9210.0000         9.2059        46.8235          0.004          124.8       81.97957       103.5953         0.3527         0.3527          20.04         0.4431        -0.5941        -0.5941              1      0.9915128
      9210.5000         9.2451        46.8235         -0.008            126       83.82305            105         0.3527         0.3591          20.16         0.4431        -0.5882        -0.5882              1      0.9915971
