#------------------------------------------------------------------------------
# Created by    : vladimir.rabinovich
# Created on    : 09/19/2023 17:21:40
#------------------------------------------------------------------------------
~Version Information Section
VERS.           2.0     :   CWLS log ASCII Standard - VERSION 2.0
WRAP.           NO      :   One line per depth step
~Well Information Section
#MNEM       .UNIT                                         VALUE :DESCRIPTION
#------------------------------------------------------------------------------
STRT        .FT                                             957 :START DEPTH
STOP        .FT                                           10053 :STOP DEPTH
STEP        .FT                                             0.5 :STEP      
NULL        .                                           -999.25 :NULL      
COMP        .                                    EXXON CO U S A :COMPANY   
WELL        .                               OCS G03237 ST00BP00 :WELL      
FLD         .                                           WILDCAT :FIELD     
LOC         .                                                   :LOCATION  
CNTY        .                           HIGH ISLAND LARGE BLOCK :LOCATION  
STAT        .                                             TEXAS :STATE     
CTRY        .                                     UNITED STATES :COUNTRY   
SRVC        .                                                   :SERVICE COMPANY
DATE        .                             9/13/2023 11:20:04 AM :LOG DATE  
API         .                                    42708400420000 :API NUMBER
UWI         .                                    42708400420000 :UNIQUE WELL ID
XCOORD      .                                  1163347.66403634 :SURFACE X 
YCOORD      .                                  10583934.5995257 :SURFACE Y 
LAT         .                                         29.155753 :LATITUDE  
LON         .                                        -94.495054 :LONGITUDE 
ELEV        .FT                                              94 :ELEVATION VALUE
ELEV_TYPE   .                                                KB :ELEVATION REFERENCE TYPE
~Curve Information Section
#MNEM       .UNIT                                      API CODE :CURVE DESCRIPTION
#------------------------------------------------------------------------------
DEPT        .FT                                                 :DEPTH     
CALI        .IN                                                 :          
DRHO        .G/C3                                               :          
DT          .US/F                                               :          
GR          .GAPI                                               :          
GR_1        .GAPI                                               :          
GR_NORM     .GAPI                                               :GammaRay Normalized
ILD         .OHMM                                               :          
NPHI        .%                                                  :          
RHOB        .G/C3                                               :          
SFL         .OHMM                                               :          
SP          .MV                                                 :          
SP_NORM     .MV                                                 :SP Normalized
VSH_GR      .V/V                                                :Volume of Shale from GR
VSH_SP      .V/V                                                :Volume of Shale from SP
~A        DEPTH           CALI           DRHO             DT             GR           GR_1        GR_NORM            ILD           NPHI           RHOB            SFL             SP        SP_NORM         VSH_GR         VSH_SP
# ...
      4665.0000        -999.25        -999.25        -999.25        -999.25        97.0977       77.22185         0.3974        -999.25        -999.25          0.561       -53.2109      -7.617298      0.9408904      0.8649531
      4665.5000        -999.25        -999.25        -999.25        -999.25        93.4813       74.09688         0.3835        -999.25        -999.25         0.5854       -53.9769      -8.394291      0.8744017      0.8490961
      4666.0000        -999.25        -999.25        -999.25        -999.25        89.8997       71.00201         0.3621        -999.25        -999.25         0.5945       -57.2445      -11.67289      0.8085533       0.782186
      4666.5000        -999.25        -999.25        -999.25        -999.25        87.9004       69.27392         0.3442        -999.25        -999.25         0.6016       -60.7292      -15.16858      0.7717855      0.7108454
      4667.0000        -999.25        -999.25        -999.25        -999.25          86.05       67.67448         0.3308        -999.25        -999.25         0.6119       -61.4378      -15.88817      0.7377548      0.6961598
      4667.5000        -999.25        -999.25        -999.25        -999.25         84.428       66.27229         0.3188        -999.25        -999.25         0.5567        -62.916      -17.37737      0.7079211      0.6657681
      4668.0000        -999.25        -999.25        -999.25        -999.25        84.7667        66.5638          0.308        -999.25        -999.25         0.4943        -65.254      -19.72636      0.7141234      0.6178294
      4668.5000        -999.25        -999.25        -999.25        -999.25        87.3047       68.75507          0.299        -999.25        -999.25         0.4924       -68.5354      -23.01875      0.7607462      0.5506377
      4669.0000        -999.25        -999.25        -999.25        -999.25        89.3536       70.52387         0.2923        -999.25        -999.25         0.4962       -68.8121      -23.30645      0.7983803      0.5447663
      4669.5000        -999.25        -999.25        -999.25        -999.25        91.0997       72.03109         0.2909        -999.25        -999.25          0.498       -65.6189      -20.12424      0.8304487      0.6097094
      4670.0000        -999.25        -999.25        -999.25        -999.25        92.2762       73.04629         0.2926        -999.25        -999.25         0.5043       -63.7797      -18.29604      0.8520487      0.6470197
      4670.5000        -999.25        -999.25        -999.25        -999.25        93.0494       73.71313         0.2969        -999.25        -999.25         0.5173       -65.1387      -19.66603      0.8662367      0.6190607
      4671.0000        -999.25        -999.25        -999.25        -999.25        93.5446       74.13982         0.3014        -999.25        -999.25          0.537       -67.2782      -21.81652      0.8753152      0.5751731
      4671.5000        -999.25        -999.25        -999.25        -999.25        93.6992        74.2723         0.3062        -999.25        -999.25         0.5399       -66.7954      -21.34472      0.8781341      0.5848017
      4672.0000        -999.25        -999.25        -999.25        -999.25        93.4004        74.0131         0.3114        -999.25        -999.25         0.5284       -64.2489      -18.80921      0.8726192      0.6365468
      4672.5000        -999.25        -999.25        -999.25        -999.25        92.5524       73.27953         0.3169        -999.25        -999.25         0.4963       -64.8644       -19.4357      0.8570114      0.6237612
      4673.0000        -999.25        -999.25        -999.25        -999.25        91.1903       72.10188         0.3206        -999.25        -999.25         0.4771       -67.2391      -21.82139      0.8319548      0.5750737
      4673.5000        -999.25        -999.25        -999.25        -999.25        89.5485       70.68259         0.3218        -999.25        -999.25         0.4911       -66.5299      -21.12318      0.8017573      0.5893227
      4674.0000        -999.25        -999.25        -999.25        -999.25        87.0676       68.53851         0.3155        -999.25        -999.25         0.5153       -63.8963      -18.50058      0.7561386      0.6428453
      4674.5000        -999.25        -999.25        -999.25        -999.25        81.9745       64.13799         0.3053        -999.25        -999.25         0.4853       -65.0083      -19.62357      0.6625105       0.619927
      4675.0000        -999.25        -999.25        -999.25        -999.25        77.9336       60.64636         0.2948        -999.25        -999.25         0.4832       -69.5481      -24.17437      0.5882204      0.5270537
      4675.5000        -999.25        -999.25        -999.25        -999.25        76.7001       59.57979         0.2833        -999.25        -999.25         0.5034       -72.8389      -27.47616      0.5655274      0.4596702
      4676.0000        -999.25        -999.25        -999.25        -999.25        77.9287          60.64         0.2743        -999.25        -999.25         0.5183       -72.7069      -27.35516       0.588085      0.4621397
      4676.5000        -999.25        -999.25        -999.25        -999.25           78.7       61.30518         0.2645        -999.25        -999.25         0.4778       -74.3162      -28.97545      0.6022379      0.4290725
      4677.0000        -999.25        -999.25        -999.25        -999.25        74.7393       57.88283         0.2545        -999.25        -999.25         0.4985       -77.0886      -31.75884      0.5294219      0.3722686
      4677.5000        -999.25        -999.25        -999.25        -999.25        72.5575       55.99711          0.247        -999.25        -999.25         0.5366       -79.6414      -34.32264      0.4893003      0.3199462
      4678.0000        -999.25        -999.25        -999.25        -999.25        73.7427       57.01982         0.2411        -999.25        -999.25         0.5799       -80.1691      -34.86132      0.5110599      0.3089526
      4678.5000        -999.25        -999.25        -999.25        -999.25        75.9108       58.89156         0.2379        -999.25        -999.25         0.5707       -79.9207      -34.62392      0.5508843      0.3137975
      4679.0000        -999.25        -999.25        -999.25        -999.25        77.7574       60.48561         0.2356        -999.25        -999.25         0.5005       -76.5103      -31.22451      0.5848002      0.3831732
      4679.5000        -999.25        -999.25        -999.25        -999.25        77.3057       60.09436         0.2351        -999.25        -999.25         0.4517       -69.5455      -24.27071      0.5764759      0.5250875
      4680.0000        -999.25        -999.25        -999.25        -999.25        76.4469       59.35145         0.2336        -999.25        -999.25         0.4538       -70.3721       -25.1083      0.5606692      0.5079939
      4680.5000        -999.25        -999.25        -999.25        -999.25        75.4684       58.50515         0.2321        -999.25        -999.25         0.4925       -75.1625      -29.90969      0.5426627      0.4100063
      4681.0000        -999.25        -999.25        -999.25        -999.25        74.6604       57.80612         0.2321        -999.25        -999.25         0.5268        -79.233      -33.99119      0.5277898      0.3267105
      4681.5000        -999.25        -999.25        -999.25        -999.25        74.4683       57.63911         0.2298        -999.25        -999.25         0.5525       -80.5072      -35.27638      0.5242365       0.300482
      4682.0000        -999.25        -999.25        -999.25        -999.25        75.4491       58.48526         0.2234        -999.25        -999.25         0.5639       -78.5878      -33.36797      0.5422397      0.3394291
      4682.5000        -999.25        -999.25        -999.25        -999.25        77.4099       60.17796         0.2168        -999.25        -999.25         0.5064       -75.7755      -30.56667      0.5782545      0.3965987
