#------------------------------------------------------------------------------
# Created by    : vladimir.rabinovich
# Created on    : 09/19/2023 17:22:54
#------------------------------------------------------------------------------
~Version Information Section
VERS.           2.0     :   CWLS log ASCII Standard - VERSION 2.0
WRAP.           NO      :   One line per depth step
~Well Information Section
#MNEM       .UNIT                                         VALUE :DESCRIPTION
#------------------------------------------------------------------------------
STRT        .FT                                             494 :START DEPTH
STOP        .FT                                            6854 :STOP DEPTH
STEP        .FT                                             0.5 :STEP      
NULL        .                                           -999.25 :NULL      
COMP        .                          HUMBLE OIL & REFINING CO :COMPANY   
WELL        .                                     ST TR 00247-L :WELL      
FLD         .                                           WILDCAT :FIELD     
LOC         .                                                   :LOCATION  
CNTY        .                             GALVESTON LARGE BLOCK :LOCATION  
STAT        .                                             TEXAS :STATE     
CTRY        .                                     UNITED STATES :COUNTRY   
SRVC        .                                                   :SERVICE COMPANY
DATE        .                             9/13/2023 11:19:42 AM :LOG DATE  
API         .                                    42706000180000 :API NUMBER
UWI         .                                    42706000180000 :UNIQUE WELL ID
XCOORD      .                                  979775.061814126 :SURFACE X 
YCOORD      .                                  10543201.0009156 :SURFACE Y 
LAT         .                                        29.0361078 :LATITUDE  
LON         .                                       -95.0678326 :LONGITUDE 
ELEV        .FT                                              11 :ELEVATION VALUE
ELEV_TYPE   .                                                KB :ELEVATION REFERENCE TYPE
~Curve Information Section
#MNEM       .UNIT                                      API CODE :CURVE DESCRIPTION
#------------------------------------------------------------------------------
DEPT        .FT                                                 :DEPTH     
LAT         .OHMM                                               :          
LN          .OHMM                                               :          
SN          .OHMM                                               :          
SP          .MV                                                 :          
SP_NORM     .MV                                                 :SP Normalized
VSH_SP      .V/V                                                :Volume of Shale from SP
~A        DEPTH            LAT             LN             SN             SP        SP_NORM         VSH_SP
# ...
      2584.0000          0.229         0.4358         0.5455       -86.1788      -13.07813      0.7191133
      2584.5000          0.228         0.4106         0.5486       -85.2675      -12.15984      0.7404689
      2585.0000         0.2671         0.3854         0.5517       -84.2709      -11.15625      0.7638081
      2585.5000         0.3096         0.3639         0.5923       -83.1962      -10.07456      0.7889637
      2586.0000         0.3521         0.3541          0.658       -81.8218      -8.693176      0.8210889
      2586.5000         0.4093         0.3443         0.7236       -80.9501      -7.814491      0.8415235
      2587.0000          0.474         0.3346         0.7892       -80.5374      -7.394798      0.8512838
      2587.5000         0.5386         0.3248         0.8548       -80.3589       -7.20932      0.8555972
      2588.0000         0.6056         0.3169          0.902       -80.3528      -7.196228      0.8559017
      2588.5000         0.6753         0.3101         0.9477       -80.5225       -7.35894      0.8521177
      2589.0000          0.745         0.3212         0.9933       -80.9617      -7.791153      0.8420662
      2589.5000          0.794         0.3423          1.037        -81.401      -8.237228      0.8316923
      2590.0000         0.7602         0.3635         1.0648       -84.2894      -11.13277      0.7643541
      2590.5000         0.7093         0.3799         1.0926       -87.2555      -14.10603      0.6952087
      2591.0000         0.6544         0.3922         1.1204       -90.4207      -17.27837      0.6214332
      2591.5000         0.5995         0.4045         1.1471       -93.6724      -20.53722       0.545646
      2592.0000         0.5446         0.4168         1.1508       -96.9915      -23.86347      0.4682913
      2592.5000         0.4888         0.4188         1.1545      -100.7123      -27.59142      0.3815948
      2593.0000         0.4214          0.414         1.1514      -104.2395      -31.12577      0.2994007
      2593.5000         0.3541         0.4092         1.1472      -107.1976      -34.09102      0.2304414
      2594.0000         0.2867         0.4044         1.1431      -109.5867      -36.48727      0.1747147
      2594.5000         0.2283         0.3997          1.139       -111.239      -38.14671      0.1361231
      2595.0000         0.1789         0.3948          1.134      -112.8918      -39.80666     0.09751963
      2595.5000         0.1296         0.3879         1.1209      -113.9679      -40.88991     0.07232773
      2596.0000         0.1225         0.3809         1.1079      -114.7443      -41.67345     0.05410571
      2596.5000         0.1259          0.374         1.0948       -115.521      -42.45731     0.03587661
      2597.0000         0.1293          0.367         1.0818      -114.6569      -41.60035     0.05580583
      2597.5000         0.1327           0.36         1.0613      -113.7773       -40.7279      0.0760954
      2598.0000         0.1361         0.3513         1.0216      -112.8979      -39.85565     0.09638019
      2598.5000         0.1394         0.3417         0.9819      -112.0187       -38.9836      0.1166605
      2599.0000         0.1523          0.332         0.9422      -111.1394      -38.11144      0.1369432
      2599.5000         0.1667         0.3224         0.9025      -110.2601       -37.2393      0.1572257
      2600.0000          0.181         0.3127         0.8628      -109.3809      -36.36724       0.177506
      2600.5000         0.1954         0.3062          0.827      -108.5012      -35.49469      0.1977979
      2601.0000          0.205         0.3016         0.7936      -107.6219      -34.62254      0.2180804
      2601.5000          0.213          0.297         0.7601      -106.7427      -33.75049      0.2383607
      2602.0000          0.221         0.2924         0.7266      -105.8634      -32.87833      0.2586434
      2602.5000          0.229         0.2886         0.6932      -104.9841      -32.00618       0.278926
      2603.0000         0.2296         0.2878         0.6612      -104.1045      -31.13373      0.2992156
      2603.5000         0.2245          0.287         0.6329      -103.2252      -30.26157      0.3194983
      2604.0000         0.2194         0.2861         0.6676      -102.2268      -29.27032      0.3425506
      2604.5000         0.2143         0.2853          0.727      -101.2684      -28.31908      0.3646726
      2605.0000         0.2092         0.2845         0.7758      -102.7306      -29.78842      0.3305018
      2605.5000         0.2065         0.2836         0.8246      -104.1929      -31.25787      0.2963285
      2606.0000         0.2179         0.2746         0.8184      -106.6792      -33.75132      0.2383414
      2606.5000         0.2293         0.2639         0.7455      -109.5215      -36.60077      0.1720751
      2607.0000         0.2407         0.2532         0.6727       -112.528      -39.61442      0.1019903
      2607.5000         0.2521         0.2425         0.5999       -115.197      -42.29057     0.03975429
      2608.0000         0.2634         0.2318         0.5511      -115.1228      -42.22352     0.04131353
      2608.5000         0.2748         0.2266         0.5062      -109.7936      -36.90147      0.1650822
      2609.0000         0.3201          0.225         0.4612      -104.4645      -31.57951      0.2888487
      2609.5000         0.3656         0.2234         0.4163       -96.0377      -23.15985      0.4846546
      2610.0000         0.4162         0.2219         0.3713       -87.2083       -14.3376      0.6898232
      2610.5000         0.4497         0.2203         0.3868       -83.3413      -10.47775      0.7795871
      2611.0000         0.4531         0.2188         0.4264       -85.7979       -12.9415      0.7222908
      2611.5000         0.4201         0.2172         0.4654       -96.3031      -23.45385      0.4778174
      2612.0000         0.3761         0.2157         0.4892      -102.1294       -29.2873      0.3421558
      2612.5000         0.3201          0.213         0.5028      -107.4451      -34.61015      0.2183687
      2613.0000         0.2961         0.2101         0.5164      -108.9816      -36.15379      0.1824699
      2613.5000         0.2796         0.2072         0.5801      -102.6244      -29.80374      0.3301455
      2614.0000         0.2631         0.2042         0.6725       -99.7517      -26.93819      0.3967862
      2614.5000         0.2453         0.2013         0.7649       -97.5139      -24.70754      0.4486618
      2615.0000         0.2265         0.1997         0.8525       -98.8019      -26.00269       0.418542
      2615.5000         0.2077          0.203         0.8898      -100.3782      -27.58614      0.3817178
      2616.0000         0.1828         0.2063         0.9271      -101.9546      -29.16968      0.3448912
      2616.5000         0.1554         0.2096         0.8932      -105.3868      -32.60903      0.2649062
      2617.0000         0.1281         0.2128          0.836       -110.428      -37.65738      0.1475028
      2617.5000         0.1008         0.2161         0.8227      -113.2152      -40.45173     0.08251794
      2618.0000         0.0734         0.2194         0.8156      -115.5659      -42.80958     0.02768423
      2618.5000         0.0565         0.2227         0.8326      -118.0641      -45.31493              0
      2619.0000         0.0463          0.226         0.8769      -120.2585      -47.51647              0
      2619.5000         0.0361         0.2268         0.9212      -121.5581      -48.82322              0
      2620.0000         0.0259         0.2271         0.9655      -122.3888      -49.66107              0
      2620.5000         0.0157         0.2274         0.9747      -122.8767      -50.15612              0
      2621.0000         0.0126         0.2277         0.9565       -123.191      -50.47757              0
      2621.5000         0.0117         0.2294         0.9098      -123.1527      -50.44642              0
