#------------------------------------------------------------------------------
# Created by    : vladimir.rabinovich
# Created on    : 09/19/2023 17:19:46
#------------------------------------------------------------------------------
~Version Information Section
VERS.           2.0     :   CWLS log ASCII Standard - VERSION 2.0
WRAP.           NO      :   One line per depth step
~Well Information Section
#MNEM       .UNIT                                         VALUE :DESCRIPTION
#------------------------------------------------------------------------------
STRT        .FT                                             290 :START DEPTH
STOP        .FT                                         11377.5 :STOP DEPTH
STEP        .FT                                             0.5 :STEP      
NULL        .                                           -999.25 :NULL      
COMP        .                         SONAT EXPLORATION GOM INC :COMPANY   
WELL        .                               OCS G04571 ST00BP00 :WELL      
FLD         .                                           WILDCAT :FIELD     
LOC         .                                                   :LOCATION  
CNTY        .                           HIGH ISLAND LARGE BLOCK :LOCATION  
STAT        .                                             TEXAS :STATE     
CTRY        .                                     UNITED STATES :COUNTRY   
SRVC        .                                                   :SERVICE COMPANY
DATE        .                             9/13/2023 11:19:19 AM :LOG DATE  
API         .                                    42708401190000 :API NUMBER
UWI         .                                    42708401190000 :UNIQUE WELL ID
XCOORD      .                                  1324427.25220013 :SURFACE X 
YCOORD      .                                  10679041.7751219 :SURFACE Y 
LAT         .                                         29.422046 :LATITUDE  
LON         .                                        -93.992863 :LONGITUDE 
ELEV        .FT                                             116 :ELEVATION VALUE
ELEV_TYPE   .                                                KB :ELEVATION REFERENCE TYPE
~Curve Information Section
#MNEM       .UNIT                                      API CODE :CURVE DESCRIPTION
#------------------------------------------------------------------------------
DEPT        .FT                                                 :DEPTH     
ASFL        .OHMM                                               :          
CALI        .IN                                                 :          
CILD        .MMHO                                               :          
GR          .GAPI                                               :          
GR_NORM     .GAPI                                               :GammaRay Normalized
ILD         .OHMM                                               :          
RHOB        .G/C3                                               :          
SP          .MV                                                 :          
SP_NORM     .GAPI                                               :SP Normalized
VSH_GR      .V/V                                                :Volume of Shale from GR
VSH_SP      .V/V                                                :Volume of Shale from SP
~A        DEPTH           ASFL           CALI           CILD             GR        GR_NORM            ILD           RHOB             SP        SP_NORM         VSH_GR         VSH_SP
# ...
       312.5000        -999.25        -999.25        -999.25        45.4338       50.76334        -999.25        -999.25        -999.25        -999.25      0.3779434        -999.25
       313.0000        -999.25        -999.25        -999.25        44.9299       50.11772        -999.25        -999.25        -999.25        -999.25      0.3642069        -999.25
       313.5000        -999.25        -999.25        -999.25         44.426        49.4721        -999.25        -999.25        -999.25        -999.25      0.3504702        -999.25
       314.0000        -999.25        -999.25        -999.25        44.0233       48.95614        -999.25        -999.25        -999.25       2.409639      0.3394923              1
       314.5000        -999.25        -999.25        -999.25        43.6251       48.44595        -999.25        -999.25        -999.25       3.012048      0.3286372              1
       315.0000         1.9912        -999.25        11.8613        43.2269       47.93575         1.5079        -999.25        16.1328       3.614458      0.3177819              1
       315.5000         1.9912        -999.25        -0.4341        42.8287       47.42556         1.5277        -999.25        13.6642       4.216867      0.3069268              1
       316.0000         1.9912        -999.25        -9.6167        42.5662       47.08923         1.5476        -999.25        10.9542       4.819277      0.2997708              1
       316.5000         1.9912        -999.25       -12.3896        43.6214        48.4412         1.5546        -999.25         8.1644       4.819277      0.3285362              1
       317.0000         1.9912        -999.25         -8.321        44.6766       49.79318         1.5353        -999.25         5.2895       4.819277      0.3573017              1
       317.5000         1.9908        -999.25        13.0396        45.7319       51.14528          1.516        -999.25         1.0068       4.819277      0.3860698              1
       318.0000         1.9904        -999.25        91.4861        46.8029        52.5175         1.4979        -999.25        -1.5532       4.819277       0.415266              1
       318.5000         1.5503        -999.25       181.0937         49.913       56.50231         1.4842        -999.25        -3.7449       4.819277      0.5000492              1
       319.0000           1.48        -999.25       285.7227        52.9017       60.33159         1.4704        -999.25       -11.9746       4.819277      0.5815232              1
       319.5000         1.4495        -999.25       445.0078        54.0617       61.81784         1.4647        -999.25       -12.7269       4.819277      0.6131455              1
       320.0000         1.4243        -999.25       578.8975        55.2217       63.30408         1.4769        -999.25       -13.4088       4.819277      0.6447678              1
       320.5000         1.4213        -999.25       651.0957        56.3817       64.79034          1.489        -999.25       -14.1633       4.819277      0.6763901              1
       321.0000         1.4603        -999.25       659.4707        57.7146       66.49812          1.502        -999.25       -15.7034       4.819277      0.7127259              1
       321.5000          1.496        -999.25       637.1631        58.0318       66.90453         1.5495        -999.25       -17.3397       4.819277      0.7213729              1
       322.0000         1.5388        -999.25       614.8555        57.5964       66.34668          1.597        -999.25       -18.2966       4.819277      0.7095038              1
       322.5000         1.6033        -999.25       592.0557        57.1611       65.78894         1.6555        -999.25       -19.0555       4.819277       0.697637              1
       323.0000         1.6728        -999.25       568.3389        56.4302       64.85248         1.7359        -999.25       -19.5399       4.819277      0.6777123              1
       323.5000         1.8156        -999.25       544.6221        55.6527       63.85631         1.8162        -999.25       -20.0241       4.819277      0.6565172              1
       324.0000         1.8613        -999.25       520.9072        54.8752       62.86014         1.8966        -999.25       -20.5085       4.819277      0.6353221              1
       324.5000         1.8931        -999.25       497.1909        54.0977       61.86396         1.9971        -999.25       -20.8332       4.819277      0.6141268              1
       325.0000         1.9187        -999.25       475.7251        53.3065       60.85024         2.1168        -999.25       -21.0834       4.819277      0.5925583              1
       325.5000         1.9458        -999.25       459.7266        52.4937       59.80884         2.2236        -999.25       -21.3336       4.819277      0.5704008              1
       326.0000          1.963        -999.25       443.7275        51.6808       58.76731          2.322        -999.25       -21.5838       4.819277      0.5482407              1
       326.5000         1.9692        -999.25        427.728        52.9362       60.37579         2.3713        -999.25       -21.8104       4.819277      0.5824636              1
       327.0000         1.9551        -999.25       419.6738        53.1302       60.62435         2.3915        -999.25        -21.962       4.819277      0.5877522              1
       327.5000         1.9055        -999.25        423.936        52.7036       60.07778         2.3683        -999.25       -22.1136       4.819277      0.5761229              1
       328.0000         1.8662        -999.25       428.1982        52.2743       59.52773         2.3451        -999.25       -22.2651       4.819277      0.5644199              1
       328.5000         1.8358        -999.25       432.4609        51.8441       58.97654         2.3219        -999.25       -22.4167       4.819277      0.5526924              1
       329.0000         1.8055        -999.25       436.3862        51.4138       58.42522         2.2987        -999.25       -22.7605       4.819277       0.540962              1
       329.5000         1.7845        -999.25        439.416        51.2399        58.2024         2.2755        -999.25       -23.1603       4.819277      0.5362214              1
       330.0000         1.7708        -999.25       442.4468        51.3925       58.39793         2.2522        -999.25       -23.5601       4.819277      0.5403814              1
       330.5000         1.7572        -999.25       445.4771        51.5636       58.61715          2.229        -999.25       -24.2441       4.819277      0.5450457              1
       331.0000         1.7435        -999.25       448.5068        51.8922       59.03817         2.2098        -999.25       -24.9599       4.819277      0.5540035              1
       331.5000         1.7295        -999.25       451.5371        52.2207       59.45906         2.1935        -999.25       -25.6757       4.819277      0.5629587              1
       332.0000         1.7108        -999.25       454.5679        52.4655       59.77271         2.1771        -999.25       -26.3002       4.819277       0.569632              1
       332.5000         1.6921        -999.25       457.5981        52.6486       60.00731         2.1608        -999.25       -26.8841       4.819277      0.5746235              1
       333.0000         1.6746        -999.25       460.6279        53.3122       60.85754         2.1445        -999.25       -27.4679       4.819277      0.5927136              1
       333.5000         1.6669        -999.25       463.6582        54.2576       62.06883         2.1281        -999.25       -28.0517       4.819277      0.6184858              1
       334.0000         1.6655        -999.25       464.2388        55.2029          63.28         2.1446        -999.25       -28.4387       4.819277      0.6442553              1
       334.5000         1.6964        -999.25       458.3359        56.1483       64.49129         2.1627        -999.25       -28.8018       4.819277      0.6700276              1
