#------------------------------------------------------------------------------
# Created by    : vladimir.rabinovich
# Created on    : 09/19/2023 17:20:39
#------------------------------------------------------------------------------
~Version Information Section
VERS.           2.0     :   CWLS log ASCII Standard - VERSION 2.0
WRAP.           NO      :   One line per depth step
~Well Information Section
#MNEM       .UNIT                                         VALUE :DESCRIPTION
#------------------------------------------------------------------------------
STRT        .FT                                             523 :START DEPTH
STOP        .FT                                           11863 :STOP DEPTH
STEP        .FT                                             0.5 :STEP      
NULL        .                                           -999.25 :NULL      
COMP        .                                      SHELL OIL CO :COMPANY   
WELL        .                                OCS 00727 ST00BP00 :WELL      
FLD         .                                           WILDCAT :FIELD     
LOC         .                                                   :LOCATION  
CNTY        .                             GALVESTON LARGE BLOCK :LOCATION  
STAT        .                                             TEXAS :STATE     
CTRY        .                                     UNITED STATES :COUNTRY   
SRVC        .                                                   :SERVICE COMPANY
DATE        .                             9/13/2023 11:19:42 AM :LOG DATE  
API         .                                    42706000240000 :API NUMBER
UWI         .                                    42706000240000 :UNIQUE WELL ID
XCOORD      .                                  977080.798970248 :SURFACE X 
YCOORD      .                                   10388448.113324 :SURFACE Y 
LAT         .                                         28.610486 :LATITUDE  
LON         .                                        -95.067834 :LONGITUDE 
ELEV        .FT                                              76 :ELEVATION VALUE
ELEV_TYPE   .                                                KB :ELEVATION REFERENCE TYPE
~Curve Information Section
#MNEM       .UNIT                                      API CODE :CURVE DESCRIPTION
#------------------------------------------------------------------------------
DEPT        .FT                                                 :DEPTH     
ASN         .OHMM                                               :          
ILD         .OHMM                                               :          
LN          .OHMM                                               :          
SP          .MV                                                 :          
SP_NORM     .MV                                                 :SP Normalized
VSH_SP      .V/V                                                :Volume of Shale from SP
~A        DEPTH            ASN            ILD             LN             SP        SP_NORM         VSH_SP
# ...
      4285.0000           0.91         0.8433        -999.25       -34.6008     -0.4544563              1
      4285.5000         0.9092         0.8463        -999.25        -34.692     -0.5456581              1
      4286.0000         0.9083         0.8494        -999.25       -34.7831     -0.6367569              1
      4286.5000         0.9074         0.8365        -999.25       -34.8731      -0.726757              1
      4287.0000         0.9051         0.8227        -999.25       -34.9214     -0.7750549              1
      4287.5000         0.8936          0.809        -999.25       -34.9697     -0.8233566              1
      4288.0000         0.8806         0.7952        -999.25        -35.018     -0.8716583              1
      4288.5000          0.867         0.7814        -999.25       -35.0663     -0.9199562              1
      4289.0000         0.8418          0.764        -999.25       -35.1146     -0.9682579              1
      4289.5000         0.8055         0.7445        -999.25       -35.1628      -1.016457      0.9994325
      4290.0000         0.7854          0.725        -999.25       -35.2111      -1.064758       0.997767
      4290.5000         0.7673         0.7055        -999.25       -35.2594      -1.113056      0.9961015
      4291.0000          0.755         0.6879        -999.25       -35.3077      -1.161358      0.9944359
      4291.5000         0.7512         0.6741        -999.25        -35.356      -1.209656      0.9927705
      4292.0000         0.7476         0.6602        -999.25       -35.4042      -1.257858      0.9911084
      4292.5000         0.7449         0.6477        -999.25       -35.4525      -1.306156      0.9894429
      4293.0000         0.7431         0.6549        -999.25        -35.465      -1.318657      0.9890118
      4293.5000         0.7501         0.6621        -999.25       -35.4562      -1.309856      0.9893153
      4294.0000          0.757         0.6694        -999.25       -35.4475      -1.301155      0.9896153
      4294.5000          0.764         0.6766        -999.25       -35.4388      -1.292458      0.9899153
      4295.0000         0.7737         0.6838        -999.25       -35.4301      -1.283756      0.9902153
      4295.5000         0.7844         0.6887        -999.25       -35.4214      -1.275055      0.9905154
      4296.0000         0.7951         0.6937        -999.25       -35.4127      -1.266357      0.9908153
      4296.5000         0.8059         0.6986        -999.25        -35.404      -1.257656      0.9911153
      4297.0000         0.8166         0.7036        -999.25       -35.3953      -1.248959      0.9914152
      4297.5000         0.8274         0.7085        -999.25       -35.3865      -1.240158      0.9917187
      4298.0000         0.8341         0.7135        -999.25       -35.3778      -1.231457      0.9920188
      4298.5000         0.8344         0.7184        -999.25       -35.3691      -1.222755      0.9923187
      4299.0000         0.8315         0.7234        -999.25       -35.3472      -1.200855      0.9930739
      4299.5000         0.8286         0.7283        -999.25       -35.2861      -1.139755      0.9951808
      4300.0000         0.8257         0.7312        -999.25       -35.2249      -1.078556      0.9972911
      4300.5000         0.8228           0.73        -999.25       -35.1638      -1.017456      0.9993981
      4301.0000         0.8199         0.7287        -999.25       -35.1027      -0.956356              1
      4301.5000          0.817         0.7275        -999.25       -35.0415     -0.8951569              1
      4302.0000         0.8157         0.7262        -999.25       -34.9941     -0.8477554              1
      4302.5000         0.8145         0.7249        -999.25       -35.0115     -0.8651581              1
      4303.0000         0.8134         0.7237        -999.25        -35.029     -0.8826561              1
      4303.5000         0.8122         0.7224        -999.25       -35.0464     -0.9000549              1
      4304.0000         0.8111         0.7211        -999.25       -35.0613     -0.9149551              1
      4304.5000         0.8099         0.7199        -999.25       -35.0751     -0.9287567              1
      4305.0000         0.8088         0.7186        -999.25        -35.089     -0.9426575              1
      4305.5000         0.8034         0.7173        -999.25       -35.1028     -0.9564552              1
      4306.0000          0.797          0.714        -999.25       -35.1166     -0.9702568              1
      4306.5000         0.7902          0.707        -999.25       -35.1305     -0.9841576              1
      4307.0000         0.7833            0.7        -999.25       -35.0494     -0.9030571              1
      4307.5000         0.7764         0.6931        -999.25       -34.8409     -0.6945572              1
      4308.0000         0.7695         0.6861        -999.25       -34.6325     -0.4861565              1
      4308.5000         0.7626         0.6791        -999.25        -34.424     -0.2776566              1
      4309.0000         0.7557         0.6722        -999.25       -34.2155    -0.06915665              1
      4309.5000         0.7488         0.6652        -999.25       -34.0071      0.1392441              1
      4310.0000         0.7459         0.6582        -999.25       -33.8188      0.3275414              1
      4310.5000         0.7433         0.6513        -999.25       -33.6452      0.5011444              1
      4311.0000         0.7408         0.6472        -999.25       -33.4717      0.6746445              1
      4311.5000         0.7384          0.643        -999.25        -33.298      0.8483429              1
      4312.0000          0.741         0.6422        -999.25       -33.1246       1.021744              1
      4312.5000         0.7436         0.6438        -999.25       -32.9509       1.195442              1
      4313.0000         0.7462         0.6454        -999.25       -32.7773       1.369041              1
      4313.5000         0.7512          0.647        -999.25       -32.6038       1.542542              1
      4314.0000         0.7599         0.6486        -999.25       -32.5786       1.567741              1
      4314.5000         0.7683         0.6617        -999.25       -32.6142       1.532143              1
      4315.0000          0.769         0.6856        -999.25       -32.6498       1.496544              1
      4315.5000          0.785         0.7094        -999.25       -32.6942       1.452145              1
      4316.0000          0.807         0.7332        -999.25       -32.9045       1.241844              1
      4316.5000         0.8365          0.757        -999.25       -33.1147       1.031643              1
      4317.0000         0.8768         0.7773        -999.25        -33.325      0.8213425              1
      4317.5000         0.9014         0.7734        -999.25       -33.5352       0.611145              1
      4318.0000          0.885         0.7695        -999.25       -33.7454      0.4009438              1
      4318.5000         0.8691         0.7657        -999.25       -33.9556      0.1907425              1
      4319.0000         0.8533         0.7537        -999.25        -33.593      0.5533447              1
      4319.5000         0.8374         0.7378        -999.25       -33.1801      0.9662437              1
      4320.0000         0.8277         0.7219        -999.25       -32.7673       1.379044              1
      4320.5000         0.8187          0.706        -999.25       -32.3547       1.791645              1
      4321.0000         0.8114         0.6902        -999.25        -31.942       2.204344              1
      4321.5000         0.8066         0.6743        -999.25       -31.5293       2.617043              1
      4322.0000         0.8018         0.6757        -999.25       -31.4448       2.701544              1
      4322.5000         0.8004         0.6832        -999.25        -31.494       2.652344              1
