#------------------------------------------------------------------------------
# Created by    : vladimir.rabinovich
# Created on    : 09/19/2023 17:22:51
#------------------------------------------------------------------------------
~Version Information Section
VERS.           2.0     :   CWLS log ASCII Standard - VERSION 2.0
WRAP.           NO      :   One line per depth step
~Well Information Section
#MNEM       .UNIT                                         VALUE :DESCRIPTION
#------------------------------------------------------------------------------
STRT        .FT                                            3080 :START DEPTH
STOP        .FT                                           13004 :STOP DEPTH
STEP        .FT                                             0.5 :STEP      
NULL        .                                           -999.25 :NULL      
COMP        .                                     INEXCO OIL CO :COMPANY   
WELL        .                                     ST TR 00006-L :WELL      
FLD         .                                           WILDCAT :FIELD     
LOC         .                                                   :LOCATION  
CNTY        .                           HIGH ISLAND LARGE BLOCK :LOCATION  
STAT        .                                             TEXAS :STATE     
CTRY        .                                     UNITED STATES :COUNTRY   
SRVC        .                                                   :SERVICE COMPANY
DATE        .                             9/13/2023 11:19:15 AM :LOG DATE  
API         .                                    42708302350000 :API NUMBER
UWI         .                                    42708302350000 :UNIQUE WELL ID
XCOORD      .                                  1306008.37969423 :SURFACE X 
YCOORD      .                                  10751503.0860356 :SURFACE Y 
LAT         .                                          29.62091 :LATITUDE  
LON         .                                         -94.05279 :LONGITUDE 
ELEV        .FT                                              84 :ELEVATION VALUE
ELEV_TYPE   .                                                KB :ELEVATION REFERENCE TYPE
~Curve Information Section
#MNEM       .UNIT                                      API CODE :CURVE DESCRIPTION
#------------------------------------------------------------------------------
DEPT        .FT                                                 :DEPTH     
DT          .US/F                                               :          
GR          .GAPI                                               :          
GR_NORM     .GAPI                                               :GammaRay Normalized
ILD         .OHMM                                               :          
SFL         .OHMM                                               :          
SP          .MV                                                 :          
SP_NORM     .MV                                                 :SP Normalized
VSH_GR      .V/V                                                :Volume of Shale from GR
VSH_SP      .V/V                                                :Volume of Shale from SP
~A        DEPTH             DT             GR        GR_NORM            ILD            SFL             SP        SP_NORM         VSH_GR         VSH_SP
# ...
      7717.5000       118.4033        53.2029       73.58614         0.5161         0.6161        -39.248       3.249687      0.8635348              1
      7718.0000       118.2009        53.0967       73.37825         0.5142         0.6105       -39.0532       3.446987      0.8591117              1
      7718.5000       117.9585        52.6312       72.32021         0.5127         0.6192       -39.1371       3.365585      0.8366003              1
      7719.0000       117.7075        52.2848       71.54397         0.5158         0.6324       -39.3073       3.197887      0.8200845              1
      7719.5000       117.4165        52.3148       71.65836          0.519         0.6476       -39.4519       3.055786      0.8225182              1
      7720.0000       117.1251        52.6368       72.46363         0.5224          0.662       -39.5939       2.916286      0.8396517              1
      7720.5000       116.8912        53.3323       74.15273         0.5259         0.6605        -39.743       2.769688      0.8755901              1
      7721.0000       116.6801        53.8264       75.36524         0.5278         0.6533        -40.012       2.503185      0.9013881              1
      7721.5000       116.7078         53.991       75.79811         0.5264          0.645       -40.3687       2.148987      0.9105981              1
      7722.0000       116.8785        54.4554       76.94036         0.5237         0.6352       -40.8205       1.699684      0.9349013              1
      7722.5000       117.0372         54.981       78.22741         0.5171         0.6239       -41.3234       1.199287      0.9622853              1
      7723.0000       115.1411        55.3603        79.1683         0.5115         0.6104         -41.87      0.6551857      0.9823042              1
      7723.5000          109.3        55.4293       79.37494         0.5106         0.6015       -42.4933     0.03438187      0.9867008              1
      7724.0000        101.261        55.0828       78.59846         0.5097         0.6013       -43.1327       -0.60252      0.9701801              1
      7724.5000       109.4205        54.4529       77.15141         0.4957         0.6067       -43.7617      -1.229015      0.9393918      0.9969052
      7725.0000       119.2208        53.7198       75.46016         0.5052         0.6203       -43.9899      -1.454716      0.9034076      0.9938552
      7725.5000       121.1227        53.3817       74.70354         0.5145         0.6369       -43.8901      -1.352417      0.8873094      0.9952376
      7726.0000       120.2307        55.4153       79.55878         0.5247         0.6409         -43.57      -1.029816      0.9906124      0.9995971
      7726.5000            119        56.6364       82.49153         0.5352         0.6425       -43.0905     -0.5478172              1              1
      7727.0000       117.9362        57.3126       84.13493          0.547         0.6453       -42.5925     -0.0473175              1              1
      7727.5000       117.0681        57.1176       83.71693         0.5612          0.656       -42.3658       0.181881              1              1
      7728.0000          116.2        56.9336       83.32497         0.5757         0.6697       -42.6096    -0.05941772              1              1
      7728.5000       115.3607        57.0651       83.63951         0.5884         0.6883       -42.8174     -0.2647209              1              1
      7729.0000       114.4084        55.5378       79.99124         0.5999         0.7093       -42.7794     -0.2242203      0.9998137              1
      7729.5000       113.2882        53.8867       76.05003         0.6057         0.7143       -42.6514    -0.09371948      0.9159582              1
      7730.0000       111.5105        53.4561       74.99676         0.6105          0.715        -42.753     -0.1928177       0.893548              1
      7730.5000       107.1624        53.8232       75.83096         0.6144         0.7067       -42.9719     -0.4092216      0.9112971              1
      7731.0000       100.1971        53.5654       75.18653         0.6184         0.6865       -43.3276     -0.7624207      0.8975857              1
      7731.5000        83.3464         53.149       74.16685         0.6221         0.6722       -43.6787      -1.111019      0.8758904      0.9984998
      7732.0000        81.9614        53.1981        74.2486          0.621         0.6801       -43.6276      -1.057423      0.8776299       0.999224
      7732.5000        90.9639        53.6136       75.19733         0.6199         0.7051       -43.1824     -0.6097221      0.8978155              1
      7733.0000        92.9711        53.5085       74.91423         0.6158         0.7314       -42.3893      0.1858749      0.8917921              1
      7733.5000        94.4854         52.873       73.37612         0.6104         0.7452       -41.9356      0.6420784      0.8590664              1
      7734.0000        91.4557        52.0718       71.44588         0.6018         0.7271       -41.5245       1.055676      0.8179976              1
      7734.5000        83.5773         51.515       70.09399         0.5927         0.6975       -41.1477       1.434975      0.7892337              1
      7735.0000        73.2876        51.4549       69.91736         0.5897          0.669       -40.7197       1.865479      0.7854757              1
      7735.5000        74.7252        52.0981       71.40489          0.587          0.643       -40.1526       2.435078      0.8171254              1
      7736.0000        97.3369        53.5305       74.75976         0.5849         0.6326       -40.1461       2.444077      0.8885055              1
      7736.5000       113.9819        54.7856       77.69514         0.5829         0.6428       -40.8201       1.772575      0.9509603              1
      7737.0000       114.8942        54.7972       77.68816         0.5826         0.6577        -40.934       1.661179       0.950812              1
      7737.5000       114.9138        53.8779       75.47855         0.5825         0.6705       -40.8641       1.733574      0.9037989              1
      7738.0000       114.6562         52.468       72.10804         0.5843         0.6942       -40.9197       1.680473       0.832086              1
      7738.5000       109.9825        51.3969       69.53921         0.5872         0.7299       -40.9881       1.614574      0.7774299              1
      7739.0000        98.3606         50.517       67.42281          0.589         0.7698       -41.1376       1.467575      0.7324001              1
      7739.5000        81.6403        50.0588       66.30421          0.584         0.7499       -41.2871       1.320572      0.7086002              1
      7740.0000         69.657        50.1476       66.47991         0.5791         0.6837        -41.334       1.276173      0.7123386              1
      7740.5000        72.8685        52.0381       70.91874         0.5732         0.6217       -41.3014       1.311275      0.8067817              1
      7741.0000        72.5925         53.636       74.66524         0.5673         0.5971       -41.1829       1.432274      0.8864944              1
      7741.5000         70.791        53.8082       75.03829          0.561         0.6023       -41.0172       1.600471      0.8944318              1
      7742.0000        72.6478        53.6788       74.69769         0.5548         0.6276       -40.8367        1.78347      0.8871848              1
      7742.5000        77.6057        53.6285       74.54424         0.5513         0.6506       -40.6525       1.970173      0.8839201              1
      7743.0000        87.9832        53.5342       74.28669         0.5486         0.6691       -40.3087       2.316471      0.8784402              1
      7743.5000       101.8331        53.1752       73.40282         0.5481         0.6836       -39.8409        2.78677      0.8596346              1
