#------------------------------------------------------------------------------
# Created by    : vladimir.rabinovich
# Created on    : 09/19/2023 17:22:54
#------------------------------------------------------------------------------
~Version Information Section
VERS.           2.0     :   CWLS log ASCII Standard - VERSION 2.0
WRAP.           NO      :   One line per depth step
~Well Information Section
#MNEM       .UNIT                                         VALUE :DESCRIPTION
#------------------------------------------------------------------------------
STRT        .FT                                             410 :START DEPTH
STOP        .FT                                            7624 :STOP DEPTH
STEP        .FT                                             0.5 :STEP      
NULL        .                                           -999.25 :NULL      
COMP        .                                      SHELL OIL CO :COMPANY   
WELL        .                                     ST TR 00249-L :WELL      
FLD         .                                           WILDCAT :FIELD     
LOC         .                                                   :LOCATION  
CNTY        .                             GALVESTON LARGE BLOCK :LOCATION  
STAT        .                                             TEXAS :STATE     
CTRY        .                                     UNITED STATES :COUNTRY   
SRVC        .                                                   :SERVICE COMPANY
DATE        .                             9/13/2023 11:19:42 AM :LOG DATE  
API         .                                    42706000200000 :API NUMBER
UWI         .                                    42706000200000 :UNIQUE WELL ID
XCOORD      .                                  981084.037319939 :SURFACE X 
YCOORD      .                                  10535303.7769946 :SURFACE Y 
LAT         .                                         29.014458 :LATITUDE  
LON         .                                       -95.0633058 :LONGITUDE 
ELEV        .FT                                              11 :ELEVATION VALUE
ELEV_TYPE   .                                                KB :ELEVATION REFERENCE TYPE
~Curve Information Section
#MNEM       .UNIT                                      API CODE :CURVE DESCRIPTION
#------------------------------------------------------------------------------
DEPT        .FT                                                 :DEPTH     
LAT         .OHMM                                               :          
SN          .OHMM                                               :          
SP          .MV                                                 :          
SP_NORM     .MV                                                 :SP Normalized
VSH_SP      .V/V                                                :Volume of Shale from SP
~A        DEPTH            LAT             SN             SP        SP_NORM         VSH_SP
# ...
      7098.0000         0.6225         0.7172       -51.9563      -8.877705      0.8769109
      7098.5000         0.6229         0.7177       -50.1865      -7.098839      0.9047056
      7099.0000         0.6233         0.7182       -48.4166       -5.31987       0.932502
      7099.5000         0.6237         0.7187       -46.5396      -3.433807      0.9619718
      7100.0000         0.6232         0.7193       -44.5576      -1.442738      0.9930822
      7100.5000         0.6207         0.7198       -43.8444     -0.7204704              1
      7101.0000         0.6182         0.7203       -43.4443     -0.3113098              1
      7101.5000         0.6157         0.7205       -43.2132    -0.07114029              1
      7102.0000         0.6131         0.7161       -42.9824      0.1687241              1
      7102.5000         0.6017         0.7118       -42.7513      0.4088898              1
      7103.0000         0.5903         0.7074       -42.1828      0.9864578              1
      7103.5000         0.5789         0.7031       -41.5363       1.642021              1
      7104.0000         0.5675         0.6988       -41.6074        1.57999              1
      7104.5000         0.5562         0.6935       -41.8279       1.368553              1
      7105.0000         0.5448         0.6878       -43.0262      0.1793213              1
      7105.5000         0.5334         0.6821       -45.6033       -2.38871      0.9783014
      7106.0000          0.522         0.6738       -48.1804      -4.956749      0.9381758
      7106.5000         0.5142          0.662       -53.8946      -10.66188      0.8490331
      7107.0000         0.5066         0.6507       -60.8865      -17.64472      0.7399263
      7107.5000          0.499         0.6415       -67.3008      -24.04995      0.6398446
      7108.0000         0.4914         0.6324       -73.1901      -29.93018      0.5479659
      7108.5000         0.4838         0.6348       -77.6486      -34.37962      0.4784435
      7109.0000         0.4786         0.6558       -79.7684      -36.49035      0.4454632
      7109.5000          0.489         0.6954       -80.2147      -36.92759      0.4386315
      7110.0000         0.4994         0.7352       -78.9786      -35.68242      0.4580872
      7110.5000         0.5638         0.7751       -77.7437      -34.43845      0.4775242
      7111.0000         0.6318         0.8149       -76.5077      -33.19339      0.4969783
      7111.5000         0.6999         0.8619       -69.6635      -26.34012      0.6040606
      7112.0000         0.7853         0.9105       -62.2253      -18.89286      0.7204241
      7112.5000         0.8748         0.9822       -56.3405      -12.99899      0.8125158
      7113.0000         0.9643         1.0803       -51.7332      -8.382622      0.8846465
      7113.5000         1.0537         1.1805       -48.2241      -4.864456      0.9396179
      7114.0000         1.1311         1.2818       -46.9377      -3.568989      0.9598595
      7114.5000          1.198         1.3741       -47.8905      -4.512722      0.9451137
      7115.0000          1.265         1.4539       -48.8815      -5.494659      0.9297709
      7115.5000         1.3194         1.4867       -49.9699       -6.57399      0.9129064
      7116.0000         1.2979         1.3937       -51.0583      -7.653328      0.8960418
      7116.5000         1.2239         1.2773       -52.1477      -8.733662      0.8791615
      7117.0000         1.0953         1.1254       -52.8084      -9.385292      0.8689798
      7117.5000         0.9666         0.9734       -51.8382      -8.406029      0.8842808
      7118.0000         0.8381         0.8632       -50.8679      -7.426662      0.8995834
      7118.5000         0.7459         0.8155       -49.8977      -6.447399      0.9148844
      7119.0000          0.662         0.7677       -49.1418       -5.68243       0.926837
      7119.5000          0.578           0.72       -48.4243      -4.955864      0.9381896
      7120.0000          0.497         0.6738       -47.7067      -4.229198      0.9495438
      7120.5000         0.4429         0.6277       -46.9891      -3.502533      0.9608979
      7121.0000         0.3916          0.613       -46.6559      -3.160267      0.9662458
      7121.5000         0.3957         0.6138        -46.737        -3.2323      0.9651203
      7122.0000         0.3998         0.6179       -46.8182      -3.304432      0.9639933
      7122.5000         0.4039         0.6258        -46.924      -3.401169      0.9624817
      7123.0000          0.408         0.6336       -47.0573      -3.525402      0.9605406
      7123.5000         0.4121         0.6403       -47.1907      -3.649738      0.9585978
      7124.0000         0.4162         0.6455       -47.3242       -3.77417      0.9566536
      7124.5000         0.4232         0.6508       -47.4575      -3.898403      0.9547125
      7125.0000          0.432         0.6576       -47.0794      -3.511238      0.9607619
      7125.5000         0.4407          0.669       -46.4297       -2.85247      0.9710552
      7126.0000         0.4494         0.6804       -45.7799      -2.193607      0.9813499
      7126.5000         0.4582         0.6918       -45.1302       -1.53484      0.9916431
      7127.0000         0.4669         0.7032       -44.6527      -1.048271      0.9992458
      7127.5000         0.4726         0.7148       -44.3604     -0.7469101              1
      7128.0000         0.4745         0.7264       -44.6396       -1.01704      0.9997337
      7128.5000         0.4764         0.7379       -45.5245      -1.892876      0.9860488
      7129.0000         0.4783         0.7495       -46.3438       -2.70311      0.9733889
      7129.5000         0.4802         0.7504       -47.0865      -3.436741      0.9619259
      7130.0000         0.4821         0.7457        -47.547       -3.88818      0.9548722
      7130.5000         0.4839         0.7409       -47.0559      -3.388012      0.9626873
      7131.0000         0.4834         0.7362       -46.5642      -2.887245      0.9705118
      7131.5000         0.4829         0.7314       -46.0731      -2.387081      0.9783269
      7132.0000         0.4824         0.7169       -45.5814      -1.886314      0.9861513
      7132.5000         0.4819         0.6965       -45.3818       -1.67765      0.9894117
      7133.0000         0.4814          0.676       -45.2338       -1.52058      0.9918659
      7133.5000         0.4965         0.6555       -45.0858      -1.363514      0.9943201
      7134.0000         0.5208         0.6351       -44.9378      -1.206451      0.9967742
      7134.5000         0.5451         0.6146       -44.7897      -1.049282        0.99923
      7135.0000         0.5695         0.5983       -44.6418     -0.8923187              1
      7135.5000         0.5938         0.5902       -44.4938     -0.7352524              1
      7136.0000         0.6194          0.582       -43.9986     -0.2309837              1
      7136.5000         0.6485         0.5738       -43.3127      0.4639816              1
      7137.0000         0.6775         0.5656       -42.6269       1.158848              1
      7137.5000         0.7066         0.5575       -41.9421       1.852711              1
      7138.0000         0.7358         0.5508       -41.2875        2.51638              1
      7138.5000         0.7559         0.5585       -40.7122       3.100746              1
      7139.0000         0.7554         0.5662       -40.4644       3.357609              1
      7139.5000         0.7549          0.574       -41.0069       2.824177              1
      7140.0000         0.7544         0.5817       -41.5495       2.290642              1
      7140.5000         0.7539         0.5894       -41.9466       1.902607              1
      7141.0000         0.7534         0.5971       -41.9347       1.923576              1
      7141.5000         0.7497         0.6049       -41.9228       1.944542              1
