#------------------------------------------------------------------------------
# Created by    : vladimir.rabinovich
# Created on    : 09/19/2023 17:19:48
#------------------------------------------------------------------------------
~Version Information Section
VERS.           2.0     :   CWLS log ASCII Standard - VERSION 2.0
WRAP.           NO      :   One line per depth step
~Well Information Section
#MNEM       .UNIT                                         VALUE :DESCRIPTION
#------------------------------------------------------------------------------
STRT        .FT                                            3926 :START DEPTH
STOP        .FT                                            8446 :STOP DEPTH
STEP        .FT                                             0.5 :STEP      
NULL        .                                           -999.25 :NULL      
COMP        .                             WALTER OIL & GAS CORP :COMPANY   
WELL        .                               OCS G06101 ST00BP00 :WELL      
FLD         .                                           WILDCAT :FIELD     
LOC         .                                                   :LOCATION  
CNTY        .                             GALVESTON LARGE BLOCK :LOCATION  
STAT        .                                             TEXAS :STATE     
CTRY        .                                     UNITED STATES :COUNTRY   
SRVC        .                                                   :SERVICE COMPANY
DATE        .                             9/13/2023 11:19:36 AM :LOG DATE  
API         .                                    42706402050000 :API NUMBER
UWI         .                                    42706402050000 :UNIQUE WELL ID
XCOORD      .                                  1036351.71170487 :SURFACE X 
YCOORD      .                                  10440832.2127806 :SURFACE Y 
LAT         .                                         28.757227 :LATITUDE  
LON         .                                        -94.885733 :LONGITUDE 
ELEV        .FT                                              88 :ELEVATION VALUE
ELEV_TYPE   .                                                KB :ELEVATION REFERENCE TYPE
~Curve Information Section
#MNEM       .UNIT                                      API CODE :CURVE DESCRIPTION
#------------------------------------------------------------------------------
DEPT        .FT                                                 :DEPTH     
ASFL        .OHMM                                               :          
CALI        .IN                                                 :          
CILD        .MMHO                                               :          
GR          .GAPI                                               :          
GR_1        .GAPI                                               :          
GR_NORM     .GAPI                                               :GammaRay Normalized
ILD         .OHMM                                               :          
ILM         .OHMM                                               :          
NPHI        .%                                                  :          
RFOC        .OHMM                                               :          
RHOB        .G/C3                                               :          
SP          .MV                                                 :          
SP_NORM     .MV                                                 :SP Normalized
VSH_GR      .V/V                                                :Volume of Shale from GR
VSH_SP      .V/V                                                :Volume of Shale from SP
~A        DEPTH           ASFL           CALI           CILD             GR           GR_1        GR_NORM            ILD            ILM           NPHI           RFOC           RHOB             SP        SP_NORM         VSH_GR         VSH_SP
# ...
      7547.0000         0.8106        12.3419       2060.996        65.5304        66.1158       63.89944         0.4586         0.5113        30.2302         0.7678         2.2996       -69.1437      -23.20401      0.6574348      0.6685142
      7547.5000         0.8107        12.3387       2036.725        65.5399        65.5115        63.9124         0.4676         0.5144        30.3253         0.7844         2.2956       -70.0736      -24.13819      0.6577106      0.6551687
      7548.0000         0.8091         12.337       2012.426        65.5494          64.98       63.92536         0.4733         0.5186         30.414         0.8117         2.2947       -70.4087      -24.47758      0.6579864      0.6503204
      7548.5000         0.8075        12.3371       1987.039        66.3622        64.7068       64.99265         0.4777         0.5259         29.875         0.8245         2.3005       -68.8362      -22.90936      0.6806946      0.6727235
      7549.0000         0.8059        12.3371       1960.488        67.4469        65.1965       66.41682         0.4821         0.5336        29.0337         0.8015         2.3132       -67.3126      -21.39005      0.7109961      0.6944278
      7549.5000         0.8043        12.3309       1933.963        68.5304        66.5457       67.83942         0.4885         0.5423        28.3143         0.7735          2.324        -66.296      -20.37773      0.7412642      0.7088895
      7550.0000         0.8053        12.3224       1907.412        68.9829        68.3679       68.43382         0.4953         0.5512        28.2357         0.7613         2.3315       -65.8021      -19.88812      0.7539111       0.715884
      7550.5000         0.8066        12.3139       1871.607        68.0271        69.6807       67.17981          0.503         0.5604        28.6871         0.7697         2.3354        -65.524      -19.61431        0.72723      0.7197956
      7551.0000          0.808        12.3171        1821.85        67.0713        68.8599       65.92581         0.5125         0.5699        29.1518         0.7732         2.3373       -65.5253      -19.61989      0.7005492      0.7197159
      7551.5000         0.8138        12.3217       1772.043        66.1155         66.813       64.67183          0.524         0.5806        29.5566         0.7756         2.3405       -65.3209      -19.41978      0.6738687      0.7225746
      7552.0000         0.8197        12.3264       1726.598        65.1945        66.4104       63.46351         0.5377          0.592        29.6749         0.7727         2.3414       -64.9525      -19.05566      0.6481599      0.7277763
      7552.5000         0.8255        12.3412       1687.258        65.4907        65.7838       63.85277         0.5531         0.6056        29.3916         0.7753         2.3405       -64.5127      -18.62015      0.6564419      0.7339978
      7553.0000         0.8314        12.3624       1647.965        66.7837        64.7196       65.55032          0.569         0.6193        29.0852         0.7845         2.3413       -64.2939      -18.40563      0.6925601      0.7370624
      7553.5000         0.8373        12.3836       1610.949        68.0754        63.8958       67.24617         0.5844         0.6319        28.8398          0.803         2.3501       -64.2935      -18.40952      0.7286419      0.7370068
      7554.0000         0.8432        12.3952       1576.695        69.3684        64.9568       68.94374         0.5996         0.6443        28.6161         0.8215         2.3614       -63.9203       -18.0406      0.7647604      0.7422771
      7554.5000         0.8491        12.4008       1543.943        70.6614        67.9965       70.64129          0.614         0.6562        28.5998         0.8336         2.3712       -62.5361      -16.66069      0.8008785      0.7619902
      7555.0000         0.8536        12.4064       1522.818        71.8286         71.277       72.17374         0.6286         0.6679        28.9187         0.8316         2.3796       -60.4528      -14.58168      0.8334838      0.7916903
      7555.5000         0.8578        12.3864        1501.67        72.4471        73.2775       72.98601          0.643         0.6792        29.2713         0.8259         2.3875       -58.4774      -12.61056      0.8507661      0.8198491
      7556.0000         0.8619        12.3623       1486.494        73.0658        74.0737       73.79856         0.6546         0.6881        29.4866         0.8225         2.3949       -57.1722      -11.30964      0.8680545      0.8384337
      7556.5000         0.8661        12.3469        1479.91        73.6843        74.0286       74.61083         0.6647         0.6901        29.4858          0.825         2.4004       -56.6485      -10.79023      0.8853369      0.8458539
      7557.0000         0.8703        12.3401       1475.723         74.303        73.6401       85.59631         0.6702         0.6914        29.2457         0.8398         2.4058       -56.8986      -11.04462              1      0.8422198
      7557.5000         0.8745        12.3346       1476.766        73.8734        73.4528       84.90678         0.6736         0.6902        28.9766         0.8552         2.4095       -57.5123       -11.6626              1      0.8333914
      7558.0000         0.8771        12.3478       1477.809        73.3311        73.8435        84.0362         0.6749         0.6894        28.8858         0.8677         2.4121       -57.8317      -11.98629              1      0.8287674
      7558.5000         0.8798        12.3469       1478.852        72.7881        74.7345       83.16452         0.6735         0.6908        28.9709         0.8645         2.4114       -57.4025      -11.56137              1      0.8348376
      7559.0000         0.8824        12.3768       1479.896        72.2457        74.7936       82.29379         0.6722         0.6915        29.0663          0.852          2.402       -56.7354      -10.89856              1      0.8443063
      7559.5000          0.885        12.3859       1480.939         71.068        71.9873       80.40247         0.6697         0.6937        29.0339         0.8375         2.3887       -56.2266      -10.39404              1      0.8515137
      7560.0000         0.8879        12.4021       1481.984        69.5829        68.6866       78.01736         0.6669         0.6959        28.8663         0.8256         2.3774       -57.4182      -11.58993      0.9578161      0.8344296
      7560.5000         0.8911        12.4216       1480.777        68.4821         67.236       76.24959         0.6658         0.6987        28.7462         0.8252         2.3692       -59.6772      -13.85321       0.920204       0.802097
      7561.0000         0.8943        12.4409       1479.305        67.3824        66.3586        74.4836         0.6654         0.7016        28.6521         0.8413         2.3736       -61.6262       -15.8065      0.8826297      0.7741929
      7561.5000         0.8968        12.4592       1477.834         67.137        65.7098       74.08997         0.6656         0.7017        28.6246         0.8634         2.3835       -61.9167      -16.10128      0.8742548      0.7699817
      7562.0000         0.8991        12.4771       1476.359         67.696        66.3448       74.98858         0.6668          0.702        28.6552         0.8889         2.3945        -59.755      -13.94387       0.893374      0.8008019
      7562.5000         0.9002        12.4892       1474.889        68.2551        68.2098       75.88734         0.6678         0.7039        28.9273         0.8932         2.4047       -56.3464      -10.53956      0.9124967      0.8494349
      7563.0000         0.9001        12.5014       1473.416        68.8149        70.0044       76.78724         0.6662         0.7058        29.3427         0.8918         2.3945       -53.3193      -7.516743      0.9316434      0.8926179
      7563.5000         0.9001        12.5129       1471.945         69.374        71.4502       77.68601         0.6646         0.7039        29.7645         0.8876         2.3799       -51.6326      -5.834328      0.9507662      0.9166524
