#------------------------------------------------------------------------------
# Created by    : vladimir.rabinovich
# Created on    : 09/19/2023 17:22:34
#------------------------------------------------------------------------------
~Version Information Section
VERS.           2.0     :   CWLS log ASCII Standard - VERSION 2.0
WRAP.           NO      :   One line per depth step
~Well Information Section
#MNEM       .UNIT                                         VALUE :DESCRIPTION
#------------------------------------------------------------------------------
STRT        .FT                                            2432 :START DEPTH
STOP        .FT                                            8088 :STOP DEPTH
STEP        .FT                                             0.5 :STEP      
NULL        .                                           -999.25 :NULL      
COMP        .                                  XTO OFFSHORE INC :COMPANY   
WELL        .                               OCS G23162 ST00BP00 :WELL      
FLD         .                                 BRAZOS BLOCK 0398 :FIELD     
LOC         .                                                   :LOCATION  
CNTY        .                                BRAZOS LARGE BLOCK :LOCATION  
STAT        .                                             TEXAS :STATE     
CTRY        .                                     UNITED STATES :COUNTRY   
SRVC        .                                                   :SERVICE COMPANY
DATE        .                             9/13/2023 11:09:58 AM :LOG DATE  
API         .                                    42704403400000 :API NUMBER
UWI         .                                    42704403400000 :UNIQUE WELL ID
XCOORD      .                                  869002.191083907 :SURFACE X 
YCOORD      .                                  10369331.9113669 :SURFACE Y 
LAT         .                                        28.5523806 :LATITUDE  
LON         .                                       -95.4033279 :LONGITUDE 
ELEV        .FT                                             100 :ELEVATION VALUE
ELEV_TYPE   .                                                KB :ELEVATION REFERENCE TYPE
~Curve Information Section
#MNEM       .UNIT                                      API CODE :CURVE DESCRIPTION
#------------------------------------------------------------------------------
DEPT        .FT                                                 :DEPTH     
CO12        .MMHO                                               :          
DCAL        .IN                                                 :          
DPHI        .FRAC                                               :          
DRHO        .G/CC                                               :          
GR          .GAPI                                               :          
GR_NORM     .GAPI                                               :GammaRay Normalized
HO01        .OHMM                                               :          
HO02        .OHMM                                               :          
HO03        .OHMM                                               :          
HO06        .OHMM                                               :          
HO09        .OHMM                                               :          
HO12        .OHMM                                               :          
NPHI        .FRAC                                               :          
RWA         .OHMM                                               :          
SP          .MV                                                 :          
SP_NORM     .MV                                                 :SP Normalized
TENS        .LB/F                                               :          
VSH_GR      .V/V                                                :Volume of Shale from GR
VSH_SP      .V/V                                                :Volume of Shale from SP
~A        DEPTH           CO12           DCAL           DPHI           DRHO             GR        GR_NORM           HO01           HO02           HO03           HO06           HO09           HO12           NPHI            RWA             SP        SP_NORM           TENS         VSH_GR         VSH_SP
# ...
      6954.5000       1307.548        -2.3301          0.267         0.1667        76.4973       54.48429         0.9796         0.8386         0.8589         0.8594         0.9492         0.8926         0.3099         0.0796        62.1354      -14.05848       5214.469      0.4571125      0.6231725
      6955.0000       1371.026        -2.3147         0.2801          0.148        86.0228        65.2607         1.1848         0.8215         0.7344         0.7207         0.7455         0.7149         0.3454           0.08        67.1713      -9.025177       5244.081      0.6863978      0.7804632
      6955.5000       1495.302        -2.2532         0.2791         0.1367        91.4659       71.41694         0.8031         0.6713         0.6457         0.6267         0.6461         0.6274         0.3732         0.0744        70.9026      -5.296486       5256.062      0.8173817      0.8969848
      6956.0000       1433.052        -2.2686         0.2733         0.1307        90.9682       70.84977          0.804         0.6882         0.6724         0.6989         0.6861         0.6697         0.3823         0.0707        72.3201      -3.881599       5233.005      0.8053142         0.9412
      6956.5000        1269.67        -2.2609         0.2749         0.1245        86.3012       65.56406         1.0174         0.8222         0.7844         0.7868         0.8431         0.8251         0.3882         0.0775        72.4894      -3.714897       5179.432      0.6928524      0.9464095
      6957.0000       1129.429        -2.2532         0.2853         0.1177        82.2246       60.94653         1.1596         0.9625         0.9129         0.8554         0.9203         0.9059         0.3871         0.0971         72.672      -3.534912       5129.928       0.594607       0.952034
      6957.5000       1085.965        -2.2532         0.2957         0.1158        83.9051        62.8445         1.0058         0.9697         0.9618         0.8999         0.9408         0.9325         0.3804         0.1139        73.6745      -2.535011       5112.749      0.6349893      0.9832809
      6958.0000       1073.478        -2.2532          0.301         0.1204        89.6329       69.32293         0.8252         0.9284         0.9513         0.8707         0.9282         0.9245         0.3863         0.1143        75.0057      -1.206421       5124.503      0.7728283              1
      6958.5000       1078.665        -2.1994         0.2947         0.1328        96.4381       77.02071         0.8665         0.9391         0.9758         0.9241         0.9404         0.9378         0.4016         0.1175        75.6995     -0.5152206       5139.196      0.9366109              1
      6959.0000       1015.612        -2.2225         0.2869         0.1397        97.0368       77.69437         0.8813         0.9017         0.9245          0.885          0.924         0.9191          0.386          0.104        75.8422     -0.3751297       5134.223      0.9509441              1
      6959.5000       933.6555        -2.2148         0.2809         0.1374        94.8337       75.19714         1.0644         1.0493         1.0872         1.1056         1.1394         1.1205         0.3591         0.1086        75.8157     -0.4042435       5119.982      0.8978116              1
      6960.0000       864.4119        -2.2071         0.2802         0.1265        91.5834       71.51476          1.192         1.2433         1.2941         1.2781         1.2568         1.2188         0.3536         0.1151         75.736     -0.4865417       5118.626      0.8194629              1
      6960.5000       907.2677        -2.1149         0.2846         0.1143        91.4459       71.35524         0.9576         1.0927         1.1436         1.0694         1.1576          1.136         0.3625         0.1147        75.7227      -0.502449       5139.648      0.8160689              1
      6961.0000       992.0242        -2.0304         0.2864         0.1104        89.9995       69.71439         0.8033         0.9411         0.9737         0.9129         0.9916         0.9794         0.3827         0.1163        75.8389      -0.388855       5172.425      0.7811573              1
      6961.5000        1051.73        -1.9842         0.2839         0.1158        90.6464        70.4426         0.8382          0.863         0.9053         0.9072         0.9404         0.9304         0.4073         0.1093        75.9651     -0.2652588       5186.666      0.7966511              1
      6962.0000       1055.359        -1.9304         0.2775         0.1259        93.4808       73.64648         0.8413         0.8712         0.9184         0.9141          0.955          0.944         0.4217         0.0965         75.902     -0.3309631        5168.13      0.8648188              1
      6962.5000       1034.449         -1.892         0.2723         0.1342        97.8489       78.58611          0.826         0.9072         0.9528         0.9491         0.9836         0.9691            0.4         0.0935        75.6431     -0.5924759       5131.963      0.9699171              1
      6963.0000       1027.351        -1.8843         0.2722         0.1352       100.2173        81.2626           0.81         0.9388         0.9873         0.9736         1.0076         0.9881         0.4045         0.0965        75.4007     -0.8374786       5103.933              1              1
      6963.5000       1041.994        -1.8766         0.2754         0.1282       101.8232       83.07613         0.7924         0.9029         0.9522         0.9532          0.986         0.9633         0.4177          0.099        75.2381      -1.002686       5094.439              1              1
      6964.0000       1055.555        -1.8536         0.2713         0.1207       103.1404       84.56296         0.7656         0.8954         0.9362         0.9057         0.9537         0.9295         0.4159         0.0996         75.175       -1.06839       5100.995              1              1
      6964.5000       1067.071        -1.7306         0.2605         0.1137       101.0319       82.17278         0.7836         0.9304         0.9764         0.9465          0.978         0.9499         0.4018         0.0841        75.1982      -1.047798       5115.688              1              1
      6965.0000        1039.01        -1.7306         0.2469         0.1119         95.191       75.55854         0.8502         0.8997         0.9238         0.9093         0.9622         0.9323         0.3851         0.0753        75.2314      -1.017204       5142.361      0.9055008              1
      6965.5000       933.3921        -1.7152         0.2417         0.1102        89.5212       69.13793         1.1283         0.9813          0.976         1.0034         1.0476         1.0084         0.3552         0.0775        75.1717      -1.079514       5181.467      0.7688922              1
      6966.0000       880.6375        -1.6691         0.2495         0.1077        88.5987          68.09         1.3175         1.2307         1.2779         1.3435         1.4105         1.3589         0.3508         0.0901        74.9592      -1.294617       5207.235      0.7465957              1
      6966.5000       884.7857        -1.6691         0.2626          0.106        92.0199       71.95798         0.8041         1.1072         1.2175          1.174         1.1426         1.0937         0.3799          0.104        74.7401      -1.516327       5205.879      0.8288931              1
      6967.0000        970.437        -1.6768          0.273         0.1063         96.994       77.58343         0.8402         0.9655         1.0152         1.0049         1.0403         0.9959         0.4051         0.1103        74.7069      -1.552124         5188.7      0.9485835              1
      6967.5000       1004.945        -1.6768         0.2765         0.1096        99.7067       80.64957         0.9037          0.938         0.9623          0.968         1.0512         1.0072          0.411          0.106        74.9393      -1.322334       5169.486              1              1
