#------------------------------------------------------------------------------
# Created by    : vladimir.rabinovich
# Created on    : 09/19/2023 17:21:24
#------------------------------------------------------------------------------
~Version Information Section
VERS.           2.0     :   CWLS log ASCII Standard - VERSION 2.0
WRAP.           NO      :   One line per depth step
~Well Information Section
#MNEM       .UNIT                                         VALUE :DESCRIPTION
#------------------------------------------------------------------------------
STRT        .FT                                            4234 :START DEPTH
STOP        .FT                                            7516 :STOP DEPTH
STEP        .FT                                             0.5 :STEP      
NULL        .                                           -999.25 :NULL      
COMP        .                          SEAGULL ENERGY E & P INC :COMPANY   
WELL        .                               OCS G11311 ST00BP00 :WELL      
FLD         .                                           WILDCAT :FIELD     
LOC         .                                                   :LOCATION  
CNTY        .                             GALVESTON LARGE BLOCK :LOCATION  
STAT        .                                             TEXAS :STATE     
CTRY        .                                     UNITED STATES :COUNTRY   
SRVC        .                                                   :SERVICE COMPANY
DATE        .                             9/13/2023 11:19:54 AM :LOG DATE  
API         .                                    42706403550000 :API NUMBER
UWI         .                                    42706403550000 :UNIQUE WELL ID
XCOORD      .                                  972569.007613557 :SURFACE X 
YCOORD      .                                  10477919.1442114 :SURFACE Y 
LAT         .                                         28.856272 :LATITUDE  
LON         .                                        -95.086774 :LONGITUDE 
ELEV        .FT                                              94 :ELEVATION VALUE
ELEV_TYPE   .                                                KB :ELEVATION REFERENCE TYPE
~Curve Information Section
#MNEM       .UNIT                                      API CODE :CURVE DESCRIPTION
#------------------------------------------------------------------------------
DEPT        .FT                                                 :DEPTH     
CALI        .IN                                                 :          
DPHI        .%                                                  :          
DRHO        .G/C3                                               :          
DTLN        .US/F                                               :          
GR          .GAPI                                               :          
GR_NORM     .GAPI                                               :GammaRay Normalized
IDPH        .OHMM                                               :          
IMPH        .OHMM                                               :          
NPHI        .%                                                  :          
SFLU        .OHMM                                               :          
SP          .MV                                                 :          
SP_NORM     .MV                                                 :SP Normalized
VSH_GR      .V/V                                                :Volume of Shale from GR
VSH_SP      .V/V                                                :Volume of Shale from SP
~A        DEPTH           CALI           DPHI           DRHO           DTLN             GR        GR_NORM           IDPH           IMPH           NPHI           SFLU             SP        SP_NORM         VSH_GR         VSH_SP
# ...
      7456.0000         12.087        28.1745        -0.0107       115.6189        -999.25        -999.25         0.6469         0.6752        -999.25         0.6869        -59.761      -11.01982        -999.25       0.842574
      7456.5000         11.858        27.8434        -0.0096       108.0524        -999.25        -999.25         0.6298         0.6574        -999.25         0.6392       -63.1176      -14.44609        -999.25      0.7936273
      7457.0000        11.6274        29.1243        -0.0076       107.3358        -999.25        -999.25         0.6092         0.6177        -999.25         0.6114       -66.1484      -17.54655        -999.25      0.7493349
      7457.5000        11.2435        31.9377        -0.0073       111.3413        -999.25        -999.25          0.607         0.5774        -999.25         0.5674       -69.3073      -20.77512        -999.25      0.7032126
      7458.0000          8.658        33.0294        -0.0079       113.3036        -999.25        -999.25         0.6092         0.5629        -999.25         0.5033       -72.0266      -23.56409        -999.25      0.6633701
      7458.5000        -999.25        32.4426        -0.0103       113.8848        -999.25        -999.25         0.5991          0.557        -999.25         0.4933        -72.249      -23.85616        -999.25      0.6591977
      7459.0000        -999.25        32.0261        -0.0125       113.1835        -999.25        -999.25         0.5825          0.563        -999.25         0.5259       -72.0652      -23.74203        -999.25      0.6608281
      7459.5000        -999.25        35.2814        -0.0145       109.9321        -999.25        -999.25         0.5682         0.5656        -999.25         0.5698       -71.7032       -23.4497        -999.25      0.6650043
      7460.0000        -999.25        42.0229        -0.0152       103.7747        -999.25        -999.25         0.5518         0.5674        -999.25         0.5969       -71.8002      -23.61637        -999.25      0.6626233
      7460.5000        -999.25        -999.25        -999.25       100.8812        -999.25        -999.25         0.5304         0.5655        -999.25         0.5854        -72.325      -24.21083        -999.25       0.654131
      7461.0000        -999.25        -999.25        -999.25       110.4978        -999.25        -999.25          0.516         0.5389        -999.25         0.5304       -74.6649      -26.62041        -999.25      0.6197085
      7461.5000        -999.25        -999.25        -999.25       117.1307        -999.25        -999.25         0.4992         0.4825        -999.25          0.471       -77.5094      -29.53457        -999.25      0.5780776
      7462.0000        -999.25        -999.25        -999.25       121.3232        -999.25        -999.25         0.4836         0.4513        -999.25         0.4245       -79.1492      -31.24404        -999.25      0.5536566
      7462.5000        -999.25        -999.25        -999.25       118.8728        -999.25        -999.25         0.4711         0.4245        -999.25          0.385       -80.7756      -32.94011        -999.25      0.5294271
      7463.0000        -999.25        -999.25        -999.25       112.9857        -999.25        -999.25         0.4605         0.4147        -999.25         0.3529        -82.212      -34.44617        -999.25      0.5079118
      7463.5000        -999.25        -999.25        -999.25       108.5704        -999.25        -999.25         0.4539         0.4154        -999.25         0.3494       -82.4968      -34.80065        -999.25      0.5028479
      7464.0000        -999.25        -999.25        -999.25       105.1326        -999.25        -999.25         0.4501          0.428        -999.25         0.3774       -81.9663      -34.33982        -999.25      0.5094312
      7464.5000        -999.25        -999.25        -999.25       104.5469        -999.25        -999.25         0.4601         0.4482        -999.25         0.4223       -80.9958      -33.43898        -999.25      0.5223003
      7465.0000        -999.25        -999.25        -999.25       104.7184        -999.25        -999.25         0.4884         0.4803        -999.25         0.4897       -79.9313      -32.44415        -999.25      0.5365121
      7465.5000        -999.25        -999.25        -999.25       108.4377        -999.25        -999.25         0.5134         0.5138        -999.25         0.5695       -78.1062      -30.68872        -999.25      0.5615897
      7466.0000        -999.25        -999.25        -999.25       109.8657        -999.25        -999.25         0.5359         0.5472        -999.25         0.6116       -75.9225      -28.57469        -999.25      0.5917901
      7466.5000        -999.25        -999.25        -999.25       110.8219        -999.25        -999.25         0.5599         0.5707        -999.25         0.5926       -73.8423      -26.56416        -999.25       0.620512
      7467.0000        -999.25        -999.25        -999.25       112.4601        -999.25        -999.25          0.585         0.5881        -999.25          0.561       -72.6577      -25.44923        -999.25      0.6364396
      7467.5000        -999.25        -999.25        -999.25       111.7242        -999.25        -999.25         0.6044         0.6066        -999.25         0.5262       -72.4277      -25.28889        -999.25      0.6387301
      7468.0000        -999.25        -999.25        -999.25       103.9449        -999.25        -999.25         0.6202         0.6235        -999.25         0.5188       -72.8304      -25.76126        -999.25       0.631982
      7468.5000        -999.25        -999.25        -999.25        92.6313        -999.25        -999.25         0.6365         0.6432        -999.25         0.5414       -73.1987      -26.19923        -999.25      0.6257252
      7469.0000        -999.25        -999.25        -999.25        81.3928        -999.25        -999.25         0.6507         0.6722        -999.25           0.61       -73.0065       -26.0767        -999.25      0.6274757
      7469.5000        -999.25        -999.25        -999.25        80.9974        -999.25        -999.25         0.6626         0.6835        -999.25         0.6794       -72.1649      -25.30477        -999.25      0.6385033
      7470.0000        -999.25        -999.25        -999.25       102.9037        -999.25        -999.25         0.6754         0.6773        -999.25         0.6596       -70.6533      -23.86283        -999.25      0.6591024
      7470.5000        -999.25        -999.25        -999.25       125.2705        -999.25        -999.25         0.6849         0.6569        -999.25         0.6147       -68.0686      -21.34781        -999.25      0.6950313
      7471.0000        -999.25        -999.25        -999.25       136.9595        -999.25        -999.25         0.6874         0.6515        -999.25         0.6083       -64.6875      -18.03638        -999.25      0.7423375
      7471.5000        -999.25        -999.25        -999.25       138.3286        -999.25        -999.25         0.6828         0.6578        -999.25         0.6452       -62.7137      -16.13224        -999.25      0.7695394
      7472.0000        -999.25        -999.25        -999.25       136.7241        -999.25        -999.25         0.6671         0.6644        -999.25         0.6876       -61.8035      -15.29171        -999.25       0.781547
      7472.5000        -999.25        -999.25        -999.25        143.342        -999.25        -999.25         0.6518         0.6528        -999.25         0.6932       -60.8021      -14.35998        -999.25      0.7948574
      7473.0000        -999.25        -999.25        -999.25       147.6072        -999.25        -999.25         0.6462         0.6453        -999.25         0.6659       -59.5068      -13.13435        -999.25      0.8123664
      7473.5000        -999.25        -999.25        -999.25       136.0132        -999.25        -999.25         0.6467         0.6508        -999.25          0.637       -57.8936      -11.59082        -999.25      0.8344169
