#------------------------------------------------------------------------------
# Created by    : vladimir.rabinovich
# Created on    : 09/19/2023 17:21:52
#------------------------------------------------------------------------------
~Version Information Section
VERS.           2.0     :   CWLS log ASCII Standard - VERSION 2.0
WRAP.           NO      :   One line per depth step
~Well Information Section
#MNEM       .UNIT                                         VALUE :DESCRIPTION
#------------------------------------------------------------------------------
STRT        .FT                                            2690 :START DEPTH
STOP        .FT                                            8272 :STOP DEPTH
STEP        .FT                                             0.5 :STEP      
NULL        .                                           -999.25 :NULL      
COMP        .                        PG&E RESOURCES OFFSHORE CO :COMPANY   
WELL        .                               OCS G09053 ST00BP00 :WELL      
FLD         .                              GALVESTON BLOCK 0427 :FIELD     
LOC         .                                                   :LOCATION  
CNTY        .                             GALVESTON LARGE BLOCK :LOCATION  
STAT        .                                             TEXAS :STATE     
CTRY        .                                     UNITED STATES :COUNTRY   
SRVC        .                                                   :SERVICE COMPANY
DATE        .                             9/13/2023 11:11:09 AM :LOG DATE  
API         .                                    42706402380000 :API NUMBER
UWI         .                                    42706402380000 :UNIQUE WELL ID
XCOORD      .                                  948581.259723803 :SURFACE X 
YCOORD      .                                  10360666.4777899 :SURFACE Y 
LAT         .                                         28.532718 :LATITUDE  
LON         .                                        -95.155068 :LONGITUDE 
ELEV        .FT                                             119 :ELEVATION VALUE
ELEV_TYPE   .                                                KB :ELEVATION REFERENCE TYPE
~Curve Information Section
#MNEM       .UNIT                                      API CODE :CURVE DESCRIPTION
#------------------------------------------------------------------------------
DEPT        .FT                                                 :DEPTH     
CALI        .IN                                                 :          
DRHO        .G/C3                                               :          
DT          .US/F                                               :          
GR          .GAPI                                               :          
GR_1        .GAPI                                               :          
GR_NORM     .GAPI                                               :GammaRay Normalized
ILD         .OHMM                                               :          
ILM         .OHMM                                               :          
NPHI        .%                                                  :          
RFOC        .OHMM                                               :          
RHOB        .G/C3                                               :          
SP          .MV                                                 :          
SP_NORM     .MV                                                 :SP Normalized
VSH_GR      .V/V                                                :Volume of Shale from GR
VSH_SP      .V/V                                                :Volume of Shale from SP
~A        DEPTH           CALI           DRHO             DT             GR           GR_1        GR_NORM            ILD            ILM           NPHI           RFOC           RHOB             SP        SP_NORM         VSH_GR         VSH_SP
# ...
      6787.0000        11.6559         0.0203       109.8221        66.7378        51.4971        31.8051         0.5457         0.6544         32.904         1.1991         2.1533       -86.1372       -36.9261              0      0.0788179
      6787.5000        11.6778         0.0251       111.1918        63.3396        50.7462       30.95668         0.5269         0.6196         32.813         1.2302         2.1452       -90.4327      -41.21914              0              0
      6788.0000        11.6996         0.0259       111.9159        58.4948         50.912       31.14572         0.5088         0.5853         32.653         1.2667         2.1415        -95.248      -46.03199              0              0
      6788.5000        11.7234         0.0268       111.8853        55.7157        51.3064       31.59349         0.4909         0.5655        32.3622         1.2934         2.1386        -98.075      -48.85652              0              0
      6789.0000        11.7617         0.0301       111.2124        55.2582        52.5388       32.98965         0.4797         0.5505        32.0807         1.3055         2.1368       -99.9751      -50.75416              0              0
      6789.5000        11.8145         0.0395       110.5719         55.302        56.1721       37.10297          0.479         0.5439        31.9832         1.2993         2.1416      -100.9219      -51.69851     0.08729732              0
      6790.0000        11.8781         0.0539       110.0059        55.8629         63.077       44.91889         0.4862         0.5533        32.1121         1.2738         2.1799       -99.2299      -50.00404      0.2535934              0
      6790.5000        11.9297         0.0653       109.4954        56.7688        73.2681       56.45391         0.5049         0.5829        32.4174         1.2319         2.2577       -96.8712      -47.64289      0.4990193              0
      6791.0000        11.9948         0.0668       108.6338        60.8143        78.3075       62.15858         0.5414         0.6174        32.8521         1.1875         2.2779       -92.9042      -43.67342      0.6203954              0
      6791.5000        12.0756         0.0622       107.0818        65.5658        79.4132       63.41134         0.5928         0.6667        33.5511         1.1052         2.2997       -82.6115      -33.37827      0.6470498      0.1697879
      6792.0000        12.1544         0.0618       105.7159        70.0648        78.1289       61.95926         0.6468         0.7165        34.1233         1.0143         2.2996        -72.412      -23.17631      0.6161544      0.4313766
      6792.5000        12.2236         0.0676         104.59        72.0521        73.2926       56.48726         0.7032         0.7593         34.517         1.0037         2.2884       -66.7679      -17.52975       0.499729      0.5761603
      6793.0000        12.2988         0.0755       103.7115        72.3036        72.4343        55.5173         0.7543         0.8024        34.8535         1.0781         2.2896       -63.4727      -14.23209      0.4790915      0.6607158
      6793.5000        12.3456         0.0809       103.9127         72.426        73.2241       56.41254         0.8095         0.8485        34.7953         1.1987         2.3147       -61.1509      -11.90783      0.4981392       0.720312
      6794.0000        12.3654         0.0804       105.1211        73.4153        77.5494       61.30904         0.8559         0.8971        34.3926         1.2308         2.3363       -59.2482      -10.00267        0.60232      0.7691623
      6794.5000        12.3701         0.0771       107.3367        78.8203        80.1119       64.21051         0.8992         0.9517        33.7337         1.1969         2.3507        -57.277      -8.029011      0.6640534       0.819769
      6795.0000        12.3876         0.0731       110.6506        83.7925         80.772       64.95898         0.9408         0.9986        32.5114         1.1713         2.3588       -55.2641      -6.013653      0.6799784      0.8714448
      6795.5000        12.4277         0.0676       112.7275        85.4757        80.6266       64.79584         0.9882          1.041        29.8893         1.1819         2.3648       -53.2683      -4.015392      0.6765072      0.9226822
      6796.0000        12.5598         0.0584       110.3058        85.7347        78.2708       62.13109         1.0307         1.0753        29.1538         1.2014         2.3687       -51.5153      -2.259933      0.6198104       0.967694
      6796.5000        12.9263         0.0485       106.7268        84.5796         74.877       58.29162         1.0665         1.1039         29.966         1.2393         2.3698       -50.7353       -1.47747      0.5381196      0.9877571
      6797.0000        13.0602          0.048       104.1127        81.5222        73.5591       56.80151         1.0944         1.1267        30.7105         1.2836         2.3717       -51.1346      -1.874317      0.5064151      0.9775816
      6797.5000        13.0771         0.0576       101.5385        77.3148        73.0839       56.26513         1.1155         1.1402        30.8399         1.3529         2.3736        -52.366      -3.103256      0.4950027      0.9460704
      6798.0000        13.0547         0.0712        98.8292        71.2001        72.8666        56.0206          1.127         1.1499         30.875         1.4394         2.3682       -53.6416      -4.376396      0.4897999      0.9134257
      6798.5000        13.0229         0.0779        97.5972        71.8793        72.9005       56.06036         1.1357         1.1576        31.3679         1.4739         2.3644       -53.8777      -4.610035       0.490646       0.907435
      6799.0000        13.0407         0.0804        99.1417        76.3635        73.2737       56.48413         1.1423         1.1672        31.8923         1.3956         2.3669       -53.6845      -4.414379      0.4996624      0.9124518
      6799.5000        13.0775         0.0777       101.6735        79.7238        74.3293       57.68021         1.1521         1.1728        32.0439         1.2922         2.3761       -53.3253      -4.052715      0.5251108      0.9217253
      6800.0000        13.1012         0.0658       104.7474        79.3903        76.3296       59.94542         1.1614         1.1757        32.5316         1.2394         2.3907        -52.743      -3.467957      0.5733068      0.9367191
      6800.5000        13.0558         0.0609       105.7546        78.0186        77.1296        60.8522         1.1692         1.1765        32.7695         1.2657         2.3942       -51.9272      -2.649696         0.5926      0.9577001
      6801.0000         12.995         0.0658       103.3229        76.6345        77.2441        60.9832         1.1743         1.1791        32.9717         1.2983         2.3935       -51.1456      -1.865639      0.5953872      0.9778041
      6801.5000         12.949          0.072       101.5741        75.9152        76.9409       60.64147         1.1781         1.1802        32.9303         1.3264          2.388       -50.5309      -1.248478      0.5881163      0.9936288
      6802.0000        12.9411           0.07       101.2223        75.7562        76.7571       60.43486         1.1778         1.1789        32.3519         1.3433         2.3784       -50.2336      -0.948719      0.5837204              1
      6802.5000        12.9582         0.0619       101.4382        75.5909        76.8334        60.5226         1.1765         1.1797        31.8695         1.3373         2.3641       -50.1526     -0.8652611      0.5855873              1
      6803.0000        12.9924         0.0532       101.0286         75.606        77.0078       60.72139         1.1739         1.1801        32.9611         1.3113         2.3498       -50.2045     -0.9146996      0.5898167              1
      6803.5000        13.0317         0.0497        99.9814        76.3317        77.0254       60.74271         1.1652         1.1779        34.7489         1.3159         2.3419       -50.2257     -0.9334412      0.5902705              1
