#------------------------------------------------------------------------------
# Created by    : vladimir.rabinovich
# Created on    : 09/19/2023 17:20:39
#------------------------------------------------------------------------------
~Version Information Section
VERS.           2.0     :   CWLS log ASCII Standard - VERSION 2.0
WRAP.           NO      :   One line per depth step
~Well Information Section
#MNEM       .UNIT                                         VALUE :DESCRIPTION
#------------------------------------------------------------------------------
STRT        .FT                                             502 :START DEPTH
STOP        .FT                                           11475 :STOP DEPTH
STEP        .FT                                             0.5 :STEP      
NULL        .                                           -999.25 :NULL      
COMP        .                                      SHELL OIL CO :COMPANY   
WELL        .                                OCS 00730 ST00BP00 :WELL      
FLD         .                                           WILDCAT :FIELD     
LOC         .                                                   :LOCATION  
CNTY        .                             GALVESTON LARGE BLOCK :LOCATION  
STAT        .                                             TEXAS :STATE     
CTRY        .                                     UNITED STATES :COUNTRY   
SRVC        .                                                   :SERVICE COMPANY
DATE        .                             9/13/2023 11:19:42 AM :LOG DATE  
API         .                                    42706000250000 :API NUMBER
UWI         .                                    42706000250000 :UNIQUE WELL ID
XCOORD      .                                  958538.282477158 :SURFACE X 
YCOORD      .                                   10357465.718335 :SURFACE Y 
LAT         .                                         28.524406 :LATITUDE  
LON         .                                        -95.123893 :LONGITUDE 
ELEV        .FT                                              80 :ELEVATION VALUE
ELEV_TYPE   .                                                KB :ELEVATION REFERENCE TYPE
~Curve Information Section
#MNEM       .UNIT                                      API CODE :CURVE DESCRIPTION
#------------------------------------------------------------------------------
DEPT        .FT                                                 :DEPTH     
ASN         .OHMM                                               :          
CILD        .MMHO                                               :          
ILD         .OHMM                                               :          
LAT         .OHMM                                               :          
LN          .OHMM                                               :          
SP          .MV                                                 :          
SP_NORM     .MV                                                 :SP Normalized
VSH_SP      .V/V                                                :Volume of Shale from SP
~A        DEPTH            ASN           CILD            ILD            LAT             LN             SP        SP_NORM         VSH_SP
# ...
      8526.0000         0.5189       3273.723         0.3212        -999.25        -999.25       -80.5817      -34.69695      0.2341602
      8526.5000         0.5302       3286.762         0.3245        -999.25        -999.25        -80.597      -34.71844      0.2336718
      8527.0000         0.5414       3299.801         0.3278        -999.25        -999.25       -81.9448      -36.07244      0.2028992
      8527.5000         0.5526        3270.68         0.3431        -999.25        -999.25       -83.3301      -37.46393      0.1712743
      8528.0000         0.5638       3228.125         0.3587        -999.25        -999.25       -84.7571      -38.89713      0.1387016
      8528.5000         0.5751       3171.086         0.3744        -999.25        -999.25       -86.1841      -40.33032      0.1061291
      8529.0000         0.5863       3006.547           0.39        -999.25        -999.25        -87.609      -41.76142     0.07360415
      8529.5000         0.5975       2582.762         0.4057        -999.25        -999.25        -89.036      -43.19461     0.04103149
      8530.0000         0.6083       2096.609         0.4447        -999.25        -999.25       -88.5251      -42.68991     0.05250211
      8530.5000         0.6132       2037.975         0.4846        -999.25        -999.25       -86.3405       -40.5115      0.1020113
      8531.0000          0.618       1992.004         0.5245        -999.25        -999.25       -83.9004      -38.07759      0.1573274
      8531.5000         0.6229        1896.23         0.5644        -999.25        -999.25       -70.7047      -24.88809      0.4570889
      8532.0000         0.6278       1726.539         0.6043        -999.25        -999.25       -65.9567      -20.14629      0.5648571
      8532.5000         0.6326       1658.084         0.6361        -999.25        -999.25       -61.2175      -15.41328      0.6724254
      8533.0000         0.6375       1629.432         0.6534        -999.25        -999.25       -56.4695      -10.67148      0.7801937
      8533.5000         0.6423       1600.824         0.6707        -999.25        -999.25        -53.829       -8.03717      0.8400643
      8534.0000         0.6566       1582.033         0.6879        -999.25        -999.25       -52.6794      -6.893768      0.8660507
      8534.5000         0.6821       1566.242         0.7053        -999.25        -999.25       -51.5409      -5.761463      0.8917849
      8535.0000         0.7076       1550.449         0.7225        -999.25        -999.25        -51.161       -5.38776      0.9002782
      8535.5000         0.7325       1534.881         0.7398        -999.25        -999.25       -50.7811      -5.014057      0.9087715
      8536.0000         0.7501       1519.865         0.7571        -999.25        -999.25       -50.4263      -4.665451      0.9166943
      8536.5000         0.7677       1504.873         0.7649        -999.25        -999.25       -50.1601      -4.405445      0.9226035
      8537.0000         0.7853       1489.859         0.7722        -999.25        -999.25       -49.8939      -4.145443      0.9285126
      8537.5000         0.8028       1474.867         0.7794        -999.25        -999.25        -49.628      -3.885735      0.9344151
      8538.0000         0.8231        1458.43         0.7866        -999.25        -999.25       -49.3618      -3.625732      0.9403242
      8538.5000         0.8438       1440.883         0.7938        -999.25        -999.25       -49.1039      -3.374027      0.9460449
      8539.0000         0.8646       1423.336          0.801        -999.25        -999.25       -49.1464      -3.422722      0.9449381
      8539.5000         0.8863       1405.791         0.8083        -999.25        -999.25        -49.189      -3.471516      0.9438292
      8540.0000         0.9107       1388.221         0.8155        -999.25        -999.25       -49.2316      -3.520313      0.9427202
      8540.5000         0.9351       1368.188         0.8227        -999.25        -999.25       -49.2803      -3.575207      0.9414726
      8541.0000         0.9563       1345.576           0.83        -999.25        -999.25       -49.6288      -3.929901      0.9334114
      8541.5000         0.9426       1329.852         0.8372        -999.25        -999.25       -49.9778      -4.285095      0.9253387
      8542.0000         0.9285       1349.107         0.8444        -999.25        -999.25       -50.3269      -4.640392      0.9172638
      8542.5000         0.9091       1368.365         0.8429        -999.25        -999.25       -50.6754      -4.995087      0.9092026
      8543.0000         0.8898       1387.645         0.8333        -999.25        -999.25       -51.0245      -5.350384      0.9011276
      8543.5000         0.8704         1406.9         0.8237        -999.25        -999.25       -50.8698      -5.201878      0.9045028
      8544.0000          0.851       1426.158         0.8141        -999.25        -999.25       -50.7095      -5.047771      0.9080052
      8544.5000         0.8316       1445.336         0.8045        -999.25        -999.25       -50.5496      -4.894066      0.9114985
      8545.0000         0.8123       1454.443         0.7949        -999.25        -999.25       -50.3894      -4.740063      0.9149986
      8545.5000         0.8008       1463.539         0.7853        -999.25        -999.25       -50.0291      -4.385956      0.9230465
      8546.0000         0.7999       1472.645         0.7757        -999.25        -999.25       -49.6674      -4.030453      0.9311261
      8546.5000         0.7989       1481.752         0.7661        -999.25        -999.25       -49.3051      -3.674347      0.9392194
      8547.0000          0.798       1490.857         0.7565        -999.25        -999.25       -48.9434      -3.318844       0.947299
      8547.5000         0.7971       1499.953         0.7469        -999.25        -999.25       -48.5811      -2.962738      0.9553923
      8548.0000          0.796       1509.061         0.7373        -999.25        -999.25       -48.2194      -2.607231       0.963472
      8548.5000         0.7945       1518.166         0.7289        -999.25        -999.25       -47.8571      -2.251129      0.9715652
      8549.0000         0.7931       1527.273         0.7216        -999.25        -999.25       -47.4949      -1.895123      0.9796563
      8549.5000         0.7802       1548.361         0.7144        -999.25        -999.25       -47.1331      -1.539516      0.9877383
      8550.0000         0.7509       1581.412         0.7071        -999.25        -999.25       -46.8214      -1.234013      0.9946815
      8550.5000         0.7216        1614.15         0.6999        -999.25        -999.25       -46.6879      -1.106709      0.9975748
      8551.0000         0.6923       1645.734         0.6926        -999.25        -999.25       -46.5542     -0.9792023              1
      8551.5000          0.645       1672.811         0.6854        -999.25        -999.25       -46.4207     -0.8518982              1
      8552.0000          0.647       1662.959         0.6781        -999.25        -999.25       -46.2872     -0.7245941              1
      8552.5000         0.6645       1653.109         0.6709        -999.25        -999.25       -46.1537       -0.59729              1
      8553.0000         0.6788       1643.203         0.6636        -999.25        -999.25         -46.02     -0.4697838              1
      8553.5000         0.6878       1633.309         0.6697        -999.25        -999.25       -45.8865     -0.3424797              1
      8554.0000         0.6967       1623.402         0.6781        -999.25        -999.25       -45.7994     -0.2615738              1
      8554.5000         0.7057       1613.496         0.6864        -999.25        -999.25       -45.8761     -0.3444672              1
      8555.0000         0.7147       1617.793         0.6948        -999.25        -999.25       -45.9529     -0.4274635              1
