#------------------------------------------------------------------------------
# Created by    : vladimir.rabinovich
# Created on    : 09/19/2023 17:19:47
#------------------------------------------------------------------------------
~Version Information Section
VERS.           2.0     :   CWLS log ASCII Standard - VERSION 2.0
WRAP.           NO      :   One line per depth step
~Well Information Section
#MNEM       .UNIT                                         VALUE :DESCRIPTION
#------------------------------------------------------------------------------
STRT        .FT                                            2960 :START DEPTH
STOP        .FT                                           11758 :STOP DEPTH
STEP        .FT                                             0.5 :STEP      
NULL        .                                           -999.25 :NULL      
COMP        .                             CHAMPLIN PETROLEUM CO :COMPANY   
WELL        .                               OCS G06095 ST00BP00 :WELL      
FLD         .                                           WILDCAT :FIELD     
LOC         .                                                   :LOCATION  
CNTY        .                             GALVESTON LARGE BLOCK :LOCATION  
STAT        .                                             TEXAS :STATE     
CTRY        .                                     UNITED STATES :COUNTRY   
SRVC        .                                                   :SERVICE COMPANY
DATE        .                             9/13/2023 11:19:27 AM :LOG DATE  
API         .                                    42706401150000 :API NUMBER
UWI         .                                    42706401150000 :UNIQUE WELL ID
XCOORD      .                                  1057213.14222316 :SURFACE X 
YCOORD      .                                  10507856.7651171 :SURFACE Y 
LAT         .                                        28.9424301 :LATITUDE  
LON         .                                       -94.8238502 :LONGITUDE 
ELEV        .FT                                              89 :ELEVATION VALUE
ELEV_TYPE   .                                                KB :ELEVATION REFERENCE TYPE
~Curve Information Section
#MNEM       .UNIT                                      API CODE :CURVE DESCRIPTION
#------------------------------------------------------------------------------
DEPT        .FT                                                 :DEPTH     
ASFL        .OHMM                                               :          
CILD        .MMHO                                               :          
GR          .GAPI                                               :          
GR_NORM     .GAPI                                               :GammaRay Normalized
ILD         .OHMM                                               :          
SP          .MV                                                 :          
SP_NORM     .MV                                                 :SP Normalized
VSH_GR      .V/V                                                :Volume of Shale from GR
VSH_SP      .V/V                                                :Volume of Shale from SP
~A        DEPTH           ASFL           CILD             GR        GR_NORM            ILD             SP        SP_NORM         VSH_GR         VSH_SP
# ...
      5901.5000         0.7596       2352.559        31.4474       38.30816         0.4148        99.4746      -59.20885      0.1129396              0
      5902.0000         0.6963       3022.012        32.8025        41.4588         0.3912        99.7266      -59.46887      0.1799744              0
      5902.5000         0.6623       3265.246        34.2618       44.85175         0.3677        99.6978       -59.4481       0.252165              0
      5903.0000         0.6297       3488.898        35.6666       48.11798         0.3442        99.6691      -59.42742      0.3216592              0
      5903.5000         0.6096       3725.168        36.8494       50.86788         0.3263        99.6403      -59.40665      0.3801676              0
      5904.0000         0.5945       4033.348        37.2236        51.7373         0.3114        99.6115      -59.38588      0.3986659              0
      5904.5000         0.5795       3750.582        35.7697       48.35526         0.2964        98.8024       -58.5848      0.3267075              0
      5905.0000         0.5645       3510.266        34.5093       45.42326         0.2814        96.8254      -56.61583      0.2643247     0.02428363
      5905.5000         0.5561       3359.754         33.249       42.49147         0.2665        93.4425      -53.24096      0.2019461     0.08349201
      5906.0000          0.548       3027.801        32.1676       39.97573         0.2515        90.7561      -50.56259      0.1484197      0.1304809
      5906.5000         0.5399       2963.184        31.2129       37.75464         0.2429        89.9991      -49.81361      0.1011626      0.1436208
      5907.0000         0.5411       2898.516        30.3393       35.72216         0.2378        91.0143      -50.83684     0.05791822      0.1256695
      5907.5000         0.5463       2867.875        29.6144        34.0355         0.2387        92.0282      -51.85876     0.02203191       0.107741
      5908.0000         0.5516       2839.117        28.9241       32.42931         0.2469        92.8846      -52.72319              0     0.09257561
      5908.5000         0.5605       3084.516        28.7811       32.09592         0.2552        93.6285      -53.47512              0     0.07938385
      5909.0000         0.5724       3411.336        29.5321       33.84166         0.2635        94.3717      -54.22635     0.01790765     0.06620447
      5909.5000         0.5806       3613.906        30.3476       35.73736         0.2718         95.115      -54.97767     0.05824174     0.05302329
      5910.0000         0.5635       3946.371        31.1886        37.6924         0.2681        95.6072       -55.4779     0.09983826     0.04424734
      5910.5000         0.5464       4397.445        32.0308       39.65021         0.2623        95.9253      -55.80403      0.1414938     0.03852583
      5911.0000         0.5296       4691.695        32.7139       41.23803         0.2565        96.2433      -56.13005      0.1752771     0.03280606
      5911.5000         0.5165       4935.117        33.0151       41.93768         0.2507         96.561      -56.45578      0.1901634     0.02709158
      5912.0000         0.5034       5076.125        33.3163       42.63734         0.2449        96.6307      -56.53351      0.2050497     0.02572792
      5912.5000         0.4903       5149.734        33.5292       43.13165          0.239        96.4598      -56.37064      0.2155669     0.02858533
      5913.0000         0.4771       5057.484        33.3047       42.60872         0.2349        96.1195      -56.03836      0.2044409     0.03441473
      5913.5000         0.4681        4692.07        33.0806       42.08673         0.2327        95.4165      -55.34338      0.1933348      0.0466073
      5914.0000         0.4617       4468.039        32.8561       41.56381         0.2306        94.7135      -54.64841      0.1822087     0.05879974
      5914.5000         0.4634       4286.938        32.5668       40.89019         0.2285        93.7339      -53.67685      0.1678763     0.07584482
      5915.0000         0.4675       4141.406        32.0752       39.74609         0.2263        92.1312      -52.08217      0.1435339      0.1038215
      5915.5000          0.472        4037.02        31.5836       38.60201         0.2276        90.7229       -50.6819      0.1191918      0.1283878
      5916.0000         0.4765       3941.008        31.0921       37.45815         0.2362         89.722      -49.68902     0.09485432      0.1458066
      5916.5000          0.481       3844.336        30.6005       36.31406         0.2447        88.7198      -48.69485       0.070512      0.1632482
      5917.0000         0.4974       3746.629        30.2227       35.43464         0.2533        89.0551      -49.03818     0.05180091       0.157225
      5917.5000          0.514       3633.484        29.9002        34.6838         0.2619        90.1306       -50.1217     0.03582561      0.1382157
      5918.0000          0.532       3147.582        29.5774       33.93227         0.2704        91.2062      -51.20533     0.01983545      0.1192047
      5918.5000         0.5579       3488.523          30.17       35.30962         0.2679        92.2828      -52.28996     0.04914077      0.1001762
      5919.0000         0.5837       3672.078        30.9476       37.11718         0.2652        93.5125      -53.52768     0.08759957     0.07846177
      5919.5000         0.5999       3761.594        31.7258       38.92616         0.2625        94.7999       -54.8231      0.1260886       0.055735
      5920.0000         0.6033       3842.359        32.4003       40.49398         0.2598        96.0875      -56.11874      0.1594465     0.03300456
      5920.5000         0.5926       3917.664        32.9375       41.74248         0.2571        96.8113      -56.85057      0.1860102     0.02016549
      5921.0000         0.5828       3989.766        33.4753       42.99237         0.2543        95.0605      -55.10779      0.2126037     0.05074049
      5921.5000         0.5741       4059.047        34.0125       44.24089         0.2527        93.3123      -53.36762      0.2391678     0.08126985
      5922.0000         0.5655       3859.773        34.5336       45.45195         0.2551        91.5615      -51.62484      0.2649352      0.1118449
      5922.5000         0.5568        3472.52        34.9589       46.44022         0.2574        89.8132      -49.88457      0.2859621      0.1423759
      5923.0000         0.5482       3353.539        35.3841       47.42825         0.2598        85.5869       -45.6663       0.306984      0.2163807
      5923.5000         0.5408       3268.258        35.8094       48.41653         0.2621        81.9172      -42.00462      0.3280112      0.2806206
      5924.0000         0.5452       3174.691         36.234       49.40316         0.2683        77.8639      -37.95935      0.3490034      0.3515903
      5924.5000         0.5497       3095.719        36.4243       49.84489         0.2856        74.8197      -34.92318      0.3584019      0.4048565
      5925.0000         0.5535        2993.02        36.5854       50.21875         0.3028        73.0702       -33.1817      0.3663564      0.4354087
      5925.5000         0.5573       2893.527         36.908       50.96817         0.3201         71.509      -31.62854      0.3823016      0.4626573
      5926.0000         0.5691       2818.598        37.5506       52.46177         0.3374        70.1812      -30.30876      0.4140802      0.4858113
      5926.5000         0.5881       2717.598        38.1926       53.95402         0.3706        69.0121      -29.14769      0.4458302      0.5061809
      5927.0000         0.6071       2570.566        38.9406       55.69277         0.4124        67.2389      -27.38251      0.4828249       0.537149
      5927.5000         0.6383        2429.18        39.8941       57.90942         0.4543        64.4884      -24.64004      0.5299878      0.5852624
