#------------------------------------------------------------------------------
# Created by    : vladimir.rabinovich
# Created on    : 09/19/2023 17:21:20
#------------------------------------------------------------------------------
~Version Information Section
VERS.           2.0     :   CWLS log ASCII Standard - VERSION 2.0
WRAP.           NO      :   One line per depth step
~Well Information Section
#MNEM       .UNIT                                         VALUE :DESCRIPTION
#------------------------------------------------------------------------------
STRT        .FT                                            6712 :START DEPTH
STOP        .FT                                           10254 :STOP DEPTH
STEP        .FT                                             0.5 :STEP      
NULL        .                                           -999.25 :NULL      
COMP        .                                SHELL OFFSHORE INC :COMPANY   
WELL        .                               OCS G17145 ST00BP00 :WELL      
FLD         .                                           WILDCAT :FIELD     
LOC         .                                                   :LOCATION  
CNTY        .                           HIGH ISLAND LARGE BLOCK :LOCATION  
STAT        .                                             TEXAS :STATE     
CTRY        .                                     UNITED STATES :COUNTRY   
SRVC        .                                                   :SERVICE COMPANY
DATE        .                             9/13/2023 11:19:48 AM :LOG DATE  
API         .                                    42708404610000 :API NUMBER
UWI         .                                    42708404610000 :UNIQUE WELL ID
XCOORD      .                                  1236256.25309123 :SURFACE X 
YCOORD      .                                  10648843.7308139 :SURFACE Y 
LAT         .                                         29.336637 :LATITUDE  
LON         .                                        -94.268822 :LONGITUDE 
ELEV        .FT                                             110 :ELEVATION VALUE
ELEV_TYPE   .                                                KB :ELEVATION REFERENCE TYPE
~Curve Information Section
#MNEM       .UNIT                                      API CODE :CURVE DESCRIPTION
#------------------------------------------------------------------------------
DEPT        .FT                                                 :DEPTH     
CALI        .IN                                                 :          
CPCHM       .MMHO                                               :          
CPCM        .MMHO                                               :          
DFL         .OHMM                                               :          
DPHI        .%                                                  :          
DRHO        .G/C3                                               :          
DT          .US/F                                               :          
GR          .GAPI                                               :          
GR_NORM     .GAPI                                               :GammaRay Normalized
GRAM        .GAPI                                               :          
HDCN        .MMHO                                               :          
HDRS        .OHMM                                               :          
HMRS        .OHMM                                               :          
NPHI        .%                                                  :          
PE          .G/C3                                               :          
RACHM       .OHMM                                               :          
RACM        .OHMM                                               :          
RHOB        .G/C3                                               :          
ROPS        .F/HR                                               :          
RPCHM       .OHMM                                               :          
RPCM        .OHMM                                               :          
RPTHM       .MINS                                               :          
RPTM        .MINS                                               :          
SP01        .MV                                                 :          
TENS        .LBS                                                :          
VSH_GR      .V/V                                                :Volume of Shale from GR
~A        DEPTH           CALI          CPCHM           CPCM            DFL           DPHI           DRHO             DT             GR        GR_NORM           GRAM           HDCN           HDRS           HMRS           NPHI             PE          RACHM           RACM           RHOB           ROPS          RPCHM           RPCM          RPTHM           RPTM           SP01           TENS         VSH_GR
# ...
      9272.0000         9.4005       2198.223        -999.25         0.5051        23.3013        -0.0197       124.1187        55.8913       81.56693        85.9449       2203.113         0.4539         0.4679        40.9979         7.4667          0.457        -999.25         2.2655         15.681          0.455        -999.25       299.3232        -999.25       481.9248       4327.031              1
      9272.5000         9.5387       2104.938        -999.25         0.5124        21.2134         -0.009        126.464        54.8771       80.72667        85.3519       2216.984         0.4511         0.4653        40.2406         7.0787          0.466        -999.25            2.3         17.038          0.475        -999.25       299.0923        -999.25       482.3643       4327.109              1
      9273.0000         9.5632       2088.684        -999.25         0.5192        22.1898        -0.0276       127.3062        54.5806       79.80923         84.704        2196.16         0.4553         0.4697        40.8853         7.8473          0.472        -999.25         2.2839         17.038          0.479        -999.25       299.3682        -999.25       482.6685       4332.445       0.995941
      9273.5000         9.5469       2123.762        -999.25         0.5469        22.2462        -0.0332       128.1279        57.7169       81.78555        86.1139        2173.82           0.46         0.4754        41.5421         7.6381          0.468        -999.25         2.2829         16.062          0.471        -999.25        299.709        -999.25       483.1738       4343.086              1
      9274.0000         9.4574       2109.344        -999.25         0.5456        21.1058        -0.0295       126.9249        55.6729       83.51453        87.3479       2146.152         0.4659         0.4788        41.3344         7.9698          0.475        -999.25         2.3018         16.062          0.474        -999.25         299.79        -999.25       483.6064       4359.313              1
      9274.5000         9.4493       2034.184        -999.25         0.5467         22.829        -0.0494       125.1172        55.0175       83.12006        87.0719       2145.109         0.4662         0.4808        42.8209         8.0023          0.484        -999.25         2.2733         16.407          0.492        -999.25       299.7749        -999.25       483.6865       4365.836              1
      9275.0000         9.4574       1946.348        -999.25         0.5565        21.3152        -0.0377       125.7969        55.0019       81.83559         86.163       2140.086         0.4673         0.4836        41.7191         8.4254          0.494        -999.25         2.2983         16.407          0.514        -999.25       299.7603        -999.25       483.6909       4370.063              1
      9275.5000         9.4493       1906.797        -999.25         0.5586         20.315        -0.0287       127.8218        53.1451       80.94035        85.5309       2118.973         0.4719         0.4883        40.3079         7.5086          0.502        -999.25         2.3148         16.049          0.524        -999.25       299.7451        -999.25       483.5898       4370.633              1
      9276.0000         9.4249       1896.746        -999.25         0.5758        20.8061        -0.0216       130.0952        55.1423       77.89369        83.3689       2103.457         0.4754         0.4929        41.1518         7.9493          0.508        -999.25         2.3067         16.049          0.527        -999.25       299.7305        -999.25       483.5313        4363.32      0.9551849
      9276.5000         9.3923       1891.221        -999.25         0.5689        23.4781        -0.0509       130.7795         59.402        73.5125        80.2579       2104.965         0.4751         0.4925        42.2788         8.5744          0.513        -999.25         2.2626         15.681          0.529        -999.25       299.7153        -999.25       483.3169       4359.922      0.8619682
      9277.0000         9.5225       1872.428        -999.25         0.5544        22.8043        -0.0492       125.9858        58.9027       73.71289        80.4049       2144.203         0.4664          0.484        42.3355         8.1776          0.516        -999.25         2.2737         15.681          0.534        -999.25       299.7007        -999.25       482.9849       4349.789      0.8662317
      9277.5000         9.6282       1860.975        -999.25         0.5483        23.8814        -0.0599       122.1515         58.419           75.2        81.4669       2194.359         0.4557         0.4732        42.0169         9.0803          0.523        -999.25          2.256         22.504          0.537        -999.25       299.6855        -999.25       482.8257        4333.75      0.8978723
      9278.0000         9.6933       1855.256        -999.25         0.5084        23.0299        -0.0711       123.6359        56.2501       78.35912        83.7179       2203.926         0.4537         0.4703        42.0372        10.3188          0.531        -999.25           2.27         22.504          0.539        -999.25       299.6709        -999.25        482.916       4320.438      0.9650876
      9278.5000         9.6038       1855.369        -999.25         0.5484         21.443        -0.0729       127.1875        54.6118       78.61167         83.902       2162.906         0.4623          0.478        42.5596        10.9857          0.538        -999.25         2.2962         23.068          0.539        -999.25       299.6558        -999.25       483.3687       4314.242      0.9704611
      9279.0000         9.6526       1798.258        -999.25         0.5703        19.5655        -0.0568       128.1279        52.4741       76.77987        82.6039       2122.035         0.4712         0.4869        40.6663        10.3451          0.545        -999.25         2.3272         23.068          0.556        -999.25       299.6411        -999.25       483.8657       4313.563      0.9314865
      9279.5000          9.612       1777.525        -999.25         0.5747        19.6853        -0.0559       128.1719         52.911       75.61619        81.7809       2122.926          0.471         0.4873         39.783        10.6907          0.554        -999.25         2.3252         21.168          0.563        -999.25        299.626        -999.25       484.1807       4317.133      0.9067274
      9280.0000         9.5876       1759.525        -999.25         0.5444         17.717        -0.0438       127.4609        55.5168       75.10078        81.4189       2144.219         0.4664         0.4825         39.666         9.2657          0.563        -999.25         2.3577         21.168          0.568        -999.25       299.6113        -999.25       484.3188       4319.453      0.8957614
      9280.5000         9.5632       1714.525        -999.25         0.5431        18.7674        -0.0445       124.4952        56.4062       72.06833         79.267       2153.574         0.4643         0.4796        40.5128         9.8154          0.567        -999.25         2.3403         11.423          0.583        -999.25       299.5967        -999.25       484.1426       4325.281       0.831241
      9281.0000          9.555       1669.006        -999.25         0.5503        21.1119        -0.0615       122.4546        54.7678       71.81434        79.0909       2150.742          0.465         0.4796        40.3299        10.1889           0.57        -999.25         2.3017         11.423          0.599        -999.25       299.5815        -999.25       483.7646       4325.531       0.825837
      9281.5000         9.5876       1678.984        -999.25         0.5406        21.0753        -0.0784       123.8125        55.0331       68.66377         76.855       2140.816         0.4671         0.4821        41.2864        10.1591          0.573        -999.25         2.3023         12.986          0.596        -999.25       299.5669        -999.25       483.3735       4328.609      0.7588037
