#------------------------------------------------------------------------------
# Created by    : vladimir.rabinovich
# Created on    : 09/19/2023 17:21:52
#------------------------------------------------------------------------------
~Version Information Section
VERS.           2.0     :   CWLS log ASCII Standard - VERSION 2.0
WRAP.           NO      :   One line per depth step
~Well Information Section
#MNEM       .UNIT                                         VALUE :DESCRIPTION
#------------------------------------------------------------------------------
STRT        .FT                                            2690 :START DEPTH
STOP        .FT                                            8272 :STOP DEPTH
STEP        .FT                                             0.5 :STEP      
NULL        .                                           -999.25 :NULL      
COMP        .                        PG&E RESOURCES OFFSHORE CO :COMPANY   
WELL        .                               OCS G09053 ST00BP00 :WELL      
FLD         .                              GALVESTON BLOCK 0427 :FIELD     
LOC         .                                                   :LOCATION  
CNTY        .                             GALVESTON LARGE BLOCK :LOCATION  
STAT        .                                             TEXAS :STATE     
CTRY        .                                     UNITED STATES :COUNTRY   
SRVC        .                                                   :SERVICE COMPANY
DATE        .                             9/13/2023 11:11:09 AM :LOG DATE  
API         .                                    42706402380000 :API NUMBER
UWI         .                                    42706402380000 :UNIQUE WELL ID
XCOORD      .                                  948581.259723803 :SURFACE X 
YCOORD      .                                  10360666.4777899 :SURFACE Y 
LAT         .                                         28.532718 :LATITUDE  
LON         .                                        -95.155068 :LONGITUDE 
ELEV        .FT                                             119 :ELEVATION VALUE
ELEV_TYPE   .                                                KB :ELEVATION REFERENCE TYPE
~Curve Information Section
#MNEM       .UNIT                                      API CODE :CURVE DESCRIPTION
#------------------------------------------------------------------------------
DEPT        .FT                                                 :DEPTH     
CALI        .IN                                                 :          
DRHO        .G/C3                                               :          
DT          .US/F                                               :          
GR          .GAPI                                               :          
GR_1        .GAPI                                               :          
GR_NORM     .GAPI                                               :GammaRay Normalized
ILD         .OHMM                                               :          
ILM         .OHMM                                               :          
NPHI        .%                                                  :          
RFOC        .OHMM                                               :          
RHOB        .G/C3                                               :          
SP          .MV                                                 :          
SP_NORM     .MV                                                 :SP Normalized
VSH_GR      .V/V                                                :Volume of Shale from GR
VSH_SP      .V/V                                                :Volume of Shale from SP
~A        DEPTH           CALI           DRHO             DT             GR           GR_1        GR_NORM            ILD            ILM           NPHI           RFOC           RHOB             SP        SP_NORM         VSH_GR         VSH_SP
# ...
      3132.0000        -999.25        -999.25       146.7078        90.8047        -999.25       85.51155         0.7731         0.7834        -999.25         1.0195        -999.25       -49.0483       -2.13472              1      0.9709046
      3132.5000        -999.25        -999.25       147.0203        90.2285        -999.25       84.85636         0.7794         0.8029        -999.25         1.0176        -999.25       -48.9294       -2.01582              1      0.9739534
      3133.0000        -999.25        -999.25        147.425         88.549        -999.25       82.95255         0.7873         0.8223        -999.25          1.027        -999.25       -49.0442      -2.130619              1      0.9710098
      3133.5000        -999.25        -999.25       147.3406        86.0522        -999.25       80.12376         0.7955         0.8333        -999.25         1.0477        -999.25       -49.3887      -2.475117              1      0.9621765
      3134.0000        -999.25        -999.25        146.623        84.8604        -999.25       78.77188          0.805           0.84        -999.25         1.0771        -999.25       -50.0175       -3.10392      0.9738698      0.9460533
      3134.5000        -999.25        -999.25       144.0315        84.4117        -999.25       78.26099         0.8126         0.8419        -999.25          1.116        -999.25       -50.7839      -3.870319      0.9629999      0.9264021
      3135.0000        -999.25        -999.25       140.8459        84.5862        -999.25       78.45541         0.8183         0.8392        -999.25         1.1376        -999.25       -51.1651      -4.251518      0.9671364      0.9166278
      3135.5000        -999.25        -999.25       139.4619        85.7819        -999.25       79.80556         0.8178         0.8348        -999.25         1.1301        -999.25       -51.2725      -4.358917      0.9958629      0.9138739
      3136.0000        -999.25        -999.25       139.2625        87.4996        -999.25       81.74647         0.8134         0.8293        -999.25         1.1031        -999.25       -51.2219      -4.308319              1      0.9151713
      3136.5000        -999.25        -999.25       140.1558        89.1283        -999.25       83.58665         0.8079         0.8212        -999.25          1.068        -999.25       -51.0032      -4.089619              1       0.920779
      3137.0000        -999.25        -999.25       142.7178        88.3695        -999.25       82.72481         0.8034         0.8097        -999.25         1.0535        -999.25       -50.6991      -3.785519              1      0.9285765
      3137.5000        -999.25        -999.25       145.1875        88.6589        -999.25       83.04924         0.8009         0.8005        -999.25         1.0534        -999.25       -50.3141      -3.400517              1      0.9384483
      3138.0000        -999.25        -999.25       147.1421        90.7151        -999.25       85.37325         0.7986         0.7936        -999.25         1.0369        -999.25       -49.7564      -2.842819              1      0.9527482
      3138.5000        -999.25        -999.25       148.9231        92.5422        -999.25       87.43797         0.7964         0.7881        -999.25         1.0124        -999.25       -49.1682       -2.25462              1      0.9678302
      3139.0000        -999.25        -999.25       149.9233        92.3296        -999.25       87.19427          0.794         0.7833        -999.25         1.0049        -999.25       -48.7054      -1.791817              1       0.979697
      3139.5000        -999.25        -999.25       149.9919        90.3694        -999.25       84.97279         0.7906         0.7793        -999.25         1.0029        -999.25        -48.502      -1.588417              1      0.9849124
      3140.0000        -999.25        -999.25        149.469        90.6282        -999.25        85.2626         0.7864         0.7763        -999.25         1.0054        -999.25       -48.5468      -1.633217              1      0.9837637
      3140.5000        -999.25        -999.25       148.8555        91.2015        -999.25       85.90835         0.7824         0.7741        -999.25         1.0182        -999.25       -48.7274       -1.81382              1      0.9791328
      3141.0000        -999.25        -999.25        148.469        91.0752        -999.25       85.76234         0.7788         0.7721        -999.25         1.0294        -999.25       -49.0609       -2.14732              1      0.9705815
      3141.5000        -999.25        -999.25       148.4131        90.1268        -999.25       84.68594         0.7768         0.7704        -999.25         1.0144        -999.25       -49.5026       -2.58902              1      0.9592559
      3142.0000        -999.25        -999.25        148.718        89.9105        -999.25       84.43806         0.7749          0.769        -999.25         0.9872        -999.25       -49.8735      -2.959919              1      0.9497457
      3142.5000        -999.25        -999.25       149.2129        89.8044        -999.25       84.31491         0.7732         0.7678        -999.25         0.9693        -999.25       -50.0125      -3.098919              1      0.9461816
      3143.0000        -999.25        -999.25       149.4246        89.2502        -999.25       83.68462         0.7715         0.7667        -999.25         0.9672        -999.25       -49.8655       -2.95192              1      0.9499508
      3143.5000        -999.25        -999.25       148.9858        87.9825        -999.25       82.24686         0.7698         0.7657        -999.25         0.9785        -999.25       -49.6506      -2.737019              1      0.9554611
      3144.0000        -999.25        -999.25        148.553        87.4974        -999.25       81.69478         0.7673         0.7646        -999.25         0.9979        -999.25       -49.5009      -2.587318              1      0.9592995
      3144.5000        -999.25        -999.25       148.5513        88.6614        -999.25       83.00904         0.7646         0.7632        -999.25         1.0073        -999.25       -49.5903       -2.67672              1      0.9570072
      3145.0000        -999.25        -999.25       149.0896        89.9042        -999.25       84.41248          0.762         0.7603        -999.25         1.0084        -999.25       -49.7158      -2.802219              1      0.9537892
      3145.5000        -999.25        -999.25       149.8088        89.8685        -999.25       84.36901         0.7596         0.7575        -999.25         1.0027        -999.25       -49.5283      -2.614719              1      0.9585969
      3146.0000        -999.25        -999.25       150.2466        88.9379        -999.25       83.31274         0.7578         0.7549        -999.25         0.9934        -999.25       -49.2431      -2.329517              1      0.9659098
      3146.5000        -999.25        -999.25       150.5859        86.9442        -999.25       81.05334         0.7556         0.7528        -999.25         0.9833        -999.25       -49.0563      -2.142719              1      0.9706995
      3147.0000        -999.25        -999.25       150.7747        87.2146        -999.25       81.35628         0.7534         0.7513        -999.25         0.9727        -999.25       -48.8621      -1.948517              1       0.975679
      3147.5000        -999.25        -999.25       150.7048        88.1963        -999.25       82.46423         0.7512         0.7511        -999.25         0.9688        -999.25       -48.6763      -1.762718              1      0.9804431
      3148.0000        -999.25        -999.25       150.5037         88.342        -999.25       82.62605           0.75         0.7519        -999.25         0.9725        -999.25       -48.5322      -1.618618              1       0.984138
      3148.5000        -999.25        -999.25       149.9319        88.1244        -999.25        82.3767         0.7506         0.7531        -999.25         0.9788        -999.25       -48.3804       -1.46682              1      0.9880303
