#------------------------------------------------------------------------------
# Created by    : vladimir.rabinovich
# Created on    : 09/19/2023 17:20:12
#------------------------------------------------------------------------------
~Version Information Section
VERS.           2.0     :   CWLS log ASCII Standard - VERSION 2.0
WRAP.           NO      :   One line per depth step
~Well Information Section
#MNEM       .UNIT                                         VALUE :DESCRIPTION
#------------------------------------------------------------------------------
STRT        .FT                                             970 :START DEPTH
STOP        .FT                                            6500 :STOP DEPTH
STEP        .FT                                             0.5 :STEP      
NULL        .                                           -999.25 :NULL      
COMP        .                                CONTINENTAL OIL CO :COMPANY   
WELL        .                               OCS G03106 ST00BP00 :WELL      
FLD         .                       MATAGORDA ISLAND BLOCK 0687 :FIELD     
LOC         .                                                   :LOCATION  
CNTY        .                      MATAGORDA ISLAND LARGE BLOCK :LOCATION  
STAT        .                                             TEXAS :STATE     
CTRY        .                                     UNITED STATES :COUNTRY   
SRVC        .                                                   :SERVICE COMPANY
DATE        .                             9/13/2023 11:12:09 AM :LOG DATE  
API         .                                    42703400330000 :API NUMBER
UWI         .                                    42703400330000 :UNIQUE WELL ID
XCOORD      .                                  468864.661343862 :SURFACE X 
YCOORD      .                                  10154488.9405743 :SURFACE Y 
LAT         .                                         27.934663 :LATITUDE  
LON         .                                        -96.628194 :LONGITUDE 
ELEV        .FT                                              96 :ELEVATION VALUE
ELEV_TYPE   .                                                KB :ELEVATION REFERENCE TYPE
~Curve Information Section
#MNEM       .UNIT                                      API CODE :CURVE DESCRIPTION
#------------------------------------------------------------------------------
DEPT        .FT                                                 :DEPTH     
ASFL        .OHMM                                               :          
CALI        .IN                                                 :          
CILD        .MMHO                                               :          
DRHO        .G/C3                                               :          
DT          .US/F                                               :          
DTL         .US/F                                               :          
GR          .GAPI                                               :          
GR_1        .GAPI                                               :          
GR_NORM     .GAPI                                               :GammaRay Normalized
ILD         .OHMM                                               :          
ILM         .OHMM                                               :          
NPHI        .%                                                  :          
RHOB        .G/C3                                               :          
SFL         .OHMM                                               :          
SP          .MV                                                 :          
SP_NORM     .MV                                                 :SP Normalized
VSH_GR      .V/V                                                :Volume of Shale from GR
VSH_SP      .V/V                                                :Volume of Shale from SP
~A        DEPTH           ASFL           CALI           CILD           DRHO             DT            DTL             GR           GR_1        GR_NORM            ILD            ILM           NPHI           RHOB            SFL             SP        SP_NORM         VSH_GR         VSH_SP
# ...
      2832.0000         0.8001        -999.25       1339.695        -999.25       108.0972        -999.25        24.9046        -999.25       43.89582         0.7006         0.7534        -999.25        -999.25         0.7785       -67.0693       -21.7863       0.231826      0.3886382
      2832.5000         0.8172        -999.25       1401.479        -999.25       109.2174        -999.25        25.7342        -999.25       44.95481         0.7202         0.7998        -999.25        -999.25          0.773       -65.4153       -20.1323      0.2543576      0.4372853
      2833.0000         0.8343        -999.25       1473.031        -999.25        110.796        -999.25        25.8199        -999.25       45.06111         0.7398         0.8275        -999.25        -999.25         0.7783        -64.139        -18.856      0.2566194      0.4748235
      2833.5000         0.8462        -999.25       1544.584        -999.25        112.374        -999.25        25.7828        -999.25       45.01014         0.7594         0.8367        -999.25        -999.25         0.7913       -63.2371       -17.9541      0.2555349        0.50135
      2834.0000         0.8556        -999.25        1607.32        -999.25       113.5148        -999.25         25.675        -999.25       44.86861          0.779         0.8265        -999.25        -999.25         0.8204       -62.7302       -17.4472      0.2525235      0.5162588
      2834.5000         0.8314        -999.25       1663.463        -999.25       114.6289        -999.25        24.8831        -999.25       43.85086         0.7765         0.7827        -999.25        -999.25         0.8713       -65.0466       -19.7636      0.2308695      0.4481294
      2835.0000         0.7934        -999.25       1719.582        -999.25       117.2281        -999.25        23.8386        -999.25       42.50959         0.7367         0.7377        -999.25        -999.25         0.9109          -67.5        -22.217      0.2023317      0.3759706
      2835.5000         0.7568        -999.25       1736.645        -999.25       127.8578        -999.25        22.0622        -999.25       40.23088         0.7019         0.6811        -999.25        -999.25         0.9199       -68.3401       -23.0571      0.1538485      0.3512618
      2836.0000         0.7201        -999.25       1751.492        -999.25       138.1208        -999.25        20.5267        -999.25       38.26072         0.6794          0.633        -999.25        -999.25         0.8813       -68.4685       -23.1855      0.1119303      0.3474853
      2836.5000         0.7051        -999.25       1717.799        -999.25        143.479        -999.25        19.5245        -999.25       36.97362          0.657         0.5949        -999.25        -999.25         0.7855       -68.5582       -23.2752     0.08454514      0.3448471
      2837.0000         0.7003        -999.25       1635.453        -999.25       146.3689        -999.25        19.5688        -999.25       37.02678         0.6345         0.5718        -999.25        -999.25         0.6948       -68.4353       -23.1523     0.08567616      0.3484618
      2837.5000         0.7486        -999.25       1553.156        -999.25       144.9133        -999.25        20.8444        -999.25       38.65714         0.6121         0.5731        -999.25        -999.25         0.6192       -67.9393       -22.6563      0.1203646        0.36305
      2838.0000         0.7969        -999.25       1331.123        -999.25       129.8889        -999.25        23.3378        -999.25       41.84727         0.6105         0.5894        -999.25        -999.25         0.5778        -66.821        -21.538      0.1882398      0.3959412
      2838.5000         0.8452        -999.25       1154.953        -999.25       106.9377        -999.25        25.1602        -999.25       44.17799         0.6558         0.6336        -999.25        -999.25         0.5766        -64.485        -19.202      0.2378295      0.4646471
      2839.0000         0.8827        -999.25       1057.271        -999.25        97.0017        -999.25        26.9329        -999.25       46.44503          0.701         0.7339        -999.25        -999.25         0.6382       -62.3185       -17.0355      0.2860646      0.5283676
      2839.5000         0.9177        -999.25       990.3105        -999.25        89.4264        -999.25        28.5692        -999.25       48.53739         0.7695         0.8815        -999.25        -999.25         0.9099       -60.0524       -14.7694      0.3305828      0.5950177
      2840.0000         0.9526        -999.25       976.9277        -999.25        87.8064        -999.25        31.1941        -999.25       51.89596         0.8461         1.0802        -999.25        -999.25         1.1616       -58.3947       -13.1117      0.4020417      0.6437736
      2840.5000         0.9832        -999.25       1252.195        -999.25         89.014        -999.25        34.4758        -999.25       56.09577         0.9227         1.1643        -999.25        -999.25         1.2581       -57.2601       -11.9771      0.4913994      0.6771441
      2841.0000         0.9992        -999.25       1419.428        -999.25        94.6459        -999.25        35.6727        -999.25        57.6252         0.9993         1.1814        -999.25        -999.25         1.2689       -56.9585       -11.6755      0.5239404      0.6860147
      2841.5000         1.0153        -999.25        1535.23        -999.25         97.465        -999.25        35.4183        -999.25        57.2959         0.9257         1.1559        -999.25        -999.25         1.2072       -58.1353       -12.8523      0.5169341       0.651403
      2842.0000         0.9693        -999.25       1686.102        -999.25        97.2922        -999.25        33.6273        -999.25       54.99849         0.8412         1.0863        -999.25        -999.25         1.0814       -62.6355       -17.3525       0.468053      0.5190441
      2842.5000         0.7217        -999.25       1858.705        -999.25        99.8456        -999.25        31.2395        -999.25       51.93669         0.7567         0.9559        -999.25        -999.25          0.937       -65.5123       -20.2293      0.4029082      0.4344324
      2843.0000         0.6705        -999.25       2031.311        -999.25       117.4238        -999.25        28.4831        -999.25       48.40278         0.6825         0.8459        -999.25        -999.25          0.814       -67.9602       -22.6772      0.3277187      0.3624353
      2843.5000         0.6328        -999.25       2203.914        -999.25       128.0212        -999.25        25.4588        -999.25       44.52573         0.6089         0.7423        -999.25        -999.25         0.7066       -70.8887       -25.6057      0.2452284       0.276303
      2844.0000         0.6061        -999.25       2314.344        -999.25       145.0049        -999.25        19.9424        -999.25       37.45675         0.5352         0.6683        -999.25        -999.25         0.6265       -73.1646       -27.8816     0.09482437      0.2093647
      2844.5000         0.5892        -999.25       2736.488        -999.25       148.5945        -999.25        16.9648        -999.25       33.63952         0.4616         0.6078        -999.25        -999.25         0.5693       -74.4912       -29.2082     0.01360678       0.170347
      2845.0000         0.5723        -999.25       2767.016        -999.25       144.4922        -999.25        15.5337        -999.25       31.80295         0.4337         0.5525        -999.25        -999.25         0.5313       -75.0648       -29.7818              0      0.1534765
      2845.5000         0.5554        -999.25       2745.074        -999.25       138.0193        -999.25        15.3863        -999.25       31.61069         0.4145         0.5014        -999.25        -999.25         0.5033       -75.0693       -29.7863              0      0.1533441
