#------------------------------------------------------------------------------
# Created by    : vladimir.rabinovich
# Created on    : 09/19/2023 17:20:39
#------------------------------------------------------------------------------
~Version Information Section
VERS.           2.0     :   CWLS log ASCII Standard - VERSION 2.0
WRAP.           NO      :   One line per depth step
~Well Information Section
#MNEM       .UNIT                                         VALUE :DESCRIPTION
#------------------------------------------------------------------------------
STRT        .FT                                             523 :START DEPTH
STOP        .FT                                           11863 :STOP DEPTH
STEP        .FT                                             0.5 :STEP      
NULL        .                                           -999.25 :NULL      
COMP        .                                      SHELL OIL CO :COMPANY   
WELL        .                                OCS 00727 ST00BP00 :WELL      
FLD         .                                           WILDCAT :FIELD     
LOC         .                                                   :LOCATION  
CNTY        .                             GALVESTON LARGE BLOCK :LOCATION  
STAT        .                                             TEXAS :STATE     
CTRY        .                                     UNITED STATES :COUNTRY   
SRVC        .                                                   :SERVICE COMPANY
DATE        .                             9/13/2023 11:19:42 AM :LOG DATE  
API         .                                    42706000240000 :API NUMBER
UWI         .                                    42706000240000 :UNIQUE WELL ID
XCOORD      .                                  977080.798970248 :SURFACE X 
YCOORD      .                                   10388448.113324 :SURFACE Y 
LAT         .                                         28.610486 :LATITUDE  
LON         .                                        -95.067834 :LONGITUDE 
ELEV        .FT                                              76 :ELEVATION VALUE
ELEV_TYPE   .                                                KB :ELEVATION REFERENCE TYPE
~Curve Information Section
#MNEM       .UNIT                                      API CODE :CURVE DESCRIPTION
#------------------------------------------------------------------------------
DEPT        .FT                                                 :DEPTH     
ASN         .OHMM                                               :          
ILD         .OHMM                                               :          
LN          .OHMM                                               :          
SP          .MV                                                 :          
SP_NORM     .MV                                                 :SP Normalized
VSH_SP      .V/V                                                :Volume of Shale from SP
~A        DEPTH            ASN            ILD             LN             SP        SP_NORM         VSH_SP
# ...
      5045.0000         0.7077         0.3977        -999.25       -61.8491      -27.70275     0.07921535
      5045.5000         0.7065         0.3874        -999.25       -62.5729      -28.42656      0.0542567
      5046.0000         0.6967         0.3771        -999.25       -63.2973      -29.15096     0.02927741
      5046.5000         0.6864         0.3667        -999.25       -64.5461      -30.39975              0
      5047.0000         0.6758         0.3564        -999.25       -65.7419      -31.59555              0
      5047.5000         0.6641         0.3461        -999.25       -66.6838      -32.53746              0
      5048.0000         0.6523         0.3392        -999.25       -67.6268      -33.48046              0
      5048.5000           0.64         0.3445        -999.25       -68.5687      -34.42236              0
      5049.0000         0.6278         0.3498        -999.25       -68.9691      -34.82276              0
      5049.5000         0.6384         0.3551        -999.25       -69.1578      -35.01146              0
      5050.0000         0.6561         0.3604        -999.25       -69.3466      -35.20026              0
      5050.5000         0.6738         0.3657        -999.25       -69.4878      -35.34146              0
      5051.0000         0.6715          0.371        -999.25       -69.4579      -35.31156              0
      5051.5000         0.6664         0.3763        -999.25       -69.4279      -35.28156              0
      5052.0000         0.6614         0.3816        -999.25       -69.0811      -34.93476              0
      5052.5000         0.6563         0.3901        -999.25       -68.5096      -34.36325              0
      5053.0000         0.6512            0.4        -999.25       -67.9382      -33.79186              0
      5053.5000         0.6462         0.4099        -999.25       -67.3668      -33.22046              0
      5054.0000         0.6411         0.4198        -999.25       -66.7948      -32.64846              0
      5054.5000         0.6421         0.4297        -999.25       -65.9275      -31.78115              0
      5055.0000         0.6509         0.4396        -999.25       -64.9536      -30.80725              0
      5055.5000          0.661         0.4495        -999.25       -63.9775      -29.83116    0.005822149
      5056.0000         0.6747         0.4594        -999.25       -63.6879      -29.54156     0.01580837
      5056.5000         0.6884         0.4732        -999.25       -63.6158      -29.46946     0.01829463
      5057.0000         0.7005         0.5005        -999.25       -63.1686      -29.02225     0.03371534
      5057.5000         0.7036         0.5279        -999.25       -62.7214      -28.57506     0.04913593
      5058.0000         0.7068         0.5553        -999.25       -60.9122      -26.76586      0.1115221
      5058.5000         0.7167         0.5774        -999.25       -59.0372      -24.89086      0.1761773
      5059.0000         0.7638         0.5984        -999.25       -56.8597      -22.71336      0.2512636
      5059.5000         0.7814         0.6194        -999.25       -54.0197      -19.87336      0.3491946
      5060.0000          0.799         0.6404        -999.25       -45.9215      -11.77516      0.6284428
      5060.5000         0.8166         0.6568        -999.25       -43.8699      -9.723557      0.6991877
      5061.0000         0.8233         0.6558        -999.25       -42.8043      -8.657955      0.7359326
      5061.5000         0.8273         0.6548        -999.25       -41.9861      -7.839756      0.7641463
      5062.0000         0.8313         0.6538        -999.25       -41.1678      -7.021458      0.7923635
      5062.5000         0.8336         0.6527        -999.25       -40.5203      -6.373959      0.8146911
      5063.0000         0.8334         0.6517        -999.25       -40.1589      -6.012558      0.8271531
      5063.5000         0.8332         0.6503        -999.25       -39.8022      -5.655857      0.8394532
      5064.0000         0.8362         0.6488        -999.25        -40.078      -5.931656      0.8299429
      5064.5000         0.8402         0.6473        -999.25       -40.3538      -6.207458      0.8204325
      5065.0000         0.8442         0.6458        -999.25       -40.5704      -6.424057      0.8129635
      5065.5000         0.8501         0.6443        -999.25       -40.7647      -6.618359      0.8062635
      5066.0000         0.8576         0.6428        -999.25        -40.959      -6.812656      0.7995636
      5066.5000         0.8651         0.6413        -999.25       -41.1534      -7.007057      0.7928601
      5067.0000         0.8725         0.6398        -999.25       -41.3476      -7.201256      0.7861636
      5067.5000           0.88         0.6384        -999.25       -41.5419      -7.395557      0.7794635
      5068.0000         0.8837         0.6372        -999.25       -41.7363      -7.589958        0.77276
      5068.5000         0.8862         0.6383        -999.25       -41.7606      -7.614258      0.7719222
      5069.0000         0.8887         0.6393        -999.25       -41.7708      -7.624458      0.7715704
      5069.5000         0.8912         0.6404        -999.25       -42.4498      -8.303455      0.7481567
      5070.0000         0.8937         0.6414        -999.25       -44.8195      -10.67316      0.6664429
      5070.5000         0.8962         0.6299        -999.25       -46.7789      -12.63256      0.5988774
      5071.0000         0.8985         0.5984        -999.25       -47.6313      -13.48496      0.5694842
      5071.5000         0.8993         0.5864        -999.25       -48.4832      -14.33686      0.5401084
      5072.0000         0.8952         0.5744        -999.25       -49.2374      -15.09106      0.5141015
      5072.5000         0.8788         0.5724        -999.25       -49.9789      -15.83256      0.4885325
      5073.0000         0.8625         0.5782        -999.25       -50.7551      -16.60876       0.461767
      5073.5000         0.8437          0.584        -999.25       -47.8428      -13.69646      0.5621911
      5074.0000         0.8248         0.5898        -999.25        -44.846      -10.69966      0.6655291
      5074.5000         0.8122         0.5957        -999.25       -43.2725      -9.126156      0.7197877
      5075.0000         0.8062         0.6015        -999.25       -42.1263      -7.979958      0.7593118
      5075.5000         0.8134         0.6073        -999.25       -41.4461      -7.299755      0.7827671
      5076.0000         0.8205         0.6132        -999.25       -40.7665      -6.620155      0.8062015
      5076.5000         0.8277         0.6125        -999.25       -40.0863      -5.939957      0.8296567
      5077.0000         0.8349         0.6107        -999.25       -39.9294      -5.783058       0.835067
      5077.5000         0.8406         0.6089        -999.25       -39.8844      -5.738056      0.8366188
      5078.0000         0.8431         0.6072        -999.25       -39.8394      -5.693058      0.8381704
      5078.5000         0.8456         0.6054        -999.25       -39.7943      -5.647957      0.8397256
      5079.0000         0.8481         0.5934        -999.25       -39.7493      -5.602955      0.8412774
      5079.5000         0.8506         0.5782        -999.25       -41.6217      -7.475357      0.7767118
      5080.0000         0.8504          0.563        -999.25       -49.3909      -15.24456      0.5088084
      5080.5000         0.8212         0.5478        -999.25       -50.8198      -16.67346      0.4595359
      5081.0000         0.8367         0.5523        -999.25       -52.2436      -18.09726      0.4104395
      5081.5000         0.8519          0.567        -999.25       -51.7092      -17.56286       0.428867
      5082.0000          0.867         0.5796        -999.25       -51.1742      -17.02785      0.4473153
      5082.5000         0.8822         0.5895        -999.25       -50.6398      -16.49346      0.4657428
