#------------------------------------------------------------------------------
# Created by    : vladimir.rabinovich
# Created on    : 09/19/2023 17:22:28
#------------------------------------------------------------------------------
~Version Information Section
VERS.           2.0     :   CWLS log ASCII Standard - VERSION 2.0
WRAP.           NO      :   One line per depth step
~Well Information Section
#MNEM       .UNIT                                         VALUE :DESCRIPTION
#------------------------------------------------------------------------------
STRT        .FT                                            2000 :START DEPTH
STOP        .FT                                            7372 :STOP DEPTH
STEP        .FT                                             0.5 :STEP      
NULL        .                                           -999.25 :NULL      
COMP        .                       CORPUS CHRISTI OIL & GAS CO :COMPANY   
WELL        .                                ST TR 00596-L SE/4 :WELL      
FLD         .                                           WILDCAT :FIELD     
LOC         .                                                   :LOCATION  
CNTY        .                      MATAGORDA ISLAND LARGE BLOCK :LOCATION  
STAT        .                                             TEXAS :STATE     
CTRY        .                                     UNITED STATES :COUNTRY   
SRVC        .                                                   :SERVICE COMPANY
DATE        .                             9/13/2023 11:19:13 AM :LOG DATE  
API         .                                    42703300520000 :API NUMBER
UWI         .                                    42703300520000 :UNIQUE WELL ID
XCOORD      .                                  480173.649028781 :SURFACE X 
YCOORD      .                                  10231220.1013933 :SURFACE Y 
LAT         .                                        28.1462983 :LATITUDE  
LON         .                                       -96.6002451 :LONGITUDE 
ELEV        .FT                                              82 :ELEVATION VALUE
ELEV_TYPE   .                                                GL :ELEVATION REFERENCE TYPE
~Curve Information Section
#MNEM       .UNIT                                      API CODE :CURVE DESCRIPTION
#------------------------------------------------------------------------------
DEPT        .FT                                                 :DEPTH     
CILD        .MMHO                                               :          
ILD         .OHMM                                               :          
SN          .OHMM                                               :          
SP          .MV                                                 :          
SP_NORM     .MV                                                 :SP Normalized
VSH_SP      .V/V                                                :Volume of Shale from SP
~A        DEPTH           CILD            ILD             SN             SP        SP_NORM         VSH_SP
# ...
      3064.0000       2112.202         0.3885         1.1748       -77.3578      -51.66079     0.06421559
      3064.5000       2144.153         0.3744         1.1322       -78.3566      -52.66705     0.04486436
      3065.0000        2164.84         0.3602         1.0897       -79.3554      -53.67332     0.02551299
      3065.5000       2185.527         0.3484         1.0471       -80.3542       -54.6796    0.006161616
      3066.0000       2188.123         0.3284         1.0045        -81.353      -55.68586              0
      3066.5000       2288.759         0.2885          0.962       -82.7456      -57.08593              0
      3067.0000       2389.394         0.2884         0.9194       -84.1428       -58.4906              0
      3067.5000        2490.03         0.2884         0.8644        -83.744      -58.09927              0
      3068.0000        2575.58         0.2684         0.8613       -83.5447      -57.90744              0
      3068.5000       2619.025         0.2484         0.8604       -83.1458      -57.51601              0
      3069.0000       2662.469         0.2484         0.8485       -82.9466      -57.32428              0
      3069.5000       2705.914         0.2284         0.8366       -82.5477      -56.93285              0
      3070.0000       2749.359         0.2283         0.8246       -82.9472      -57.33981              0
      3070.5000        2843.22         0.2283         0.8127       -83.3467      -57.74679              0
      3071.0000       2839.238         0.2283         0.8008       -83.9459      -58.35345              0
      3071.5000       2835.256         0.2482         0.7889       -84.3454      -58.76042              0
      3072.0000       2827.281         0.2282          0.777       -85.1441      -59.56659              0
      3072.5000       2819.305         0.2281          0.765       -82.5497      -56.97966              0
      3073.0000       2819.317         0.2281         0.7531       -81.9512      -56.38863              0
      3073.5000       2835.526         0.2281         0.7412       -82.3507       -56.7956              0
      3074.0000       2859.722          0.228         0.7293       -82.9499      -57.40227              0
      3074.5000       2883.918          0.228         0.7173       -84.3474      -58.80723              0
      3075.0000       2908.115          0.228         0.7054       -83.3497      -57.81701              0
      3075.5000       2932.311         0.2279         0.6926       -82.9508      -57.42557              0
      3076.0000       2956.507         0.2279         0.7039         -83.55      -58.03225              0
      3076.5000       3039.061         0.2279         0.7152       -85.1474      -59.63711              0
      3077.0000         3004.9         0.2278         0.7266       -84.9478      -59.44498              0
      3077.5000       3019.105         0.2278         0.7379       -82.8102      -57.31485              0
      3078.0000       2949.522         0.2478         0.7493       -80.6726      -55.18472              0
      3078.5000        2879.94         0.2477         0.7606       -78.5349      -53.05449     0.03741374
      3079.0000       2810.358         0.2532         0.7719       -76.3973      -50.92436     0.07837772
      3079.5000       2740.776         0.2587         0.7833       -74.2596      -48.79412      0.1193438
      3080.0000       2671.194         0.2641         0.7946        -72.122        -46.664      0.1603077
      3080.5000       2601.612         0.2676          0.806       -69.9843      -44.53376      0.2012738
      3081.0000       2532.029         0.2675         0.8173       -67.1864      -41.74334      0.2549359
      3081.5000       2462.447         0.2875         0.8287       -67.8855       -42.4499       0.241348
      3082.0000        2460.11         0.2874           0.84       -68.5845      -43.15638       0.227762
      3082.5000       2479.454         0.2874         0.8522       -69.2836      -43.86294      0.2141742
      3083.0000       2498.798         0.2873         0.8522       -69.9826       -44.5694      0.2005884
      3083.5000       2518.142         0.2673         0.8522       -70.6817      -45.27598      0.1870004
      3084.0000       2537.485         0.2673         0.8482       -71.3807      -45.98244      0.1734145
      3084.5000       2556.829         0.2517         0.8402       -72.0798      -46.68902      0.1598266
      3085.0000       2576.173          0.236         0.8382       -72.7789      -47.39558      0.1462388
      3085.5000       2595.517         0.2273         0.8362       -73.4779      -48.10205      0.1326529
      3086.0000        2614.86         0.2272         0.8362        -74.177      -48.80862      0.1190649
      3086.5000       2634.204         0.2272         0.8322       -74.9744      -49.61349      0.1035866
      3087.0000       2653.548         0.2272         0.8242       -74.9747      -49.62126      0.1034373
      3087.5000       2672.892         0.2072         0.8162       -74.9748      -49.62883      0.1032917
      3088.0000       2692.235         0.2271         0.8082       -75.3743       -50.0358     0.09546544
      3088.5000        2719.86         0.2271         0.8042       -75.5742      -50.24317     0.09147747
      3089.0000       2723.853          0.227         0.7861        -75.375      -50.05144     0.09516466
      3089.5000         2727.2          0.207           0.78       -75.3753       -50.0592      0.0950153
      3090.0000       2730.547          0.207         0.7739       -74.7768      -49.46818      0.1063812
      3090.5000       2731.876          0.207         0.7678       -74.3779      -49.07674      0.1139088
      3091.0000       2754.241         0.2069         0.7617       -72.7815      -47.48782      0.1444651
      3091.5000       2776.607         0.2069         0.7556       -73.1688      -47.88258      0.1368734
      3092.0000       2798.972         0.2069         0.7495       -73.5562      -48.27745      0.1292798
      3092.5000       2821.337         0.2068         0.7442       -74.7785      -49.50723      0.1056303
      3093.0000       2843.703         0.2268         0.7442       -75.3776      -50.11379     0.09396553
      3093.5000       2866.068         0.2267         0.7482       -76.1763      -50.91996     0.07846231
      3094.0000       2888.433         0.2267         0.7554       -76.7758      -51.52693     0.06678978
      3094.5000        2915.68         0.2267         0.7627       -76.5762       -51.3348      0.0704846
      3095.0000       2907.693         0.2266         0.7699       -75.7784      -50.54446     0.08568338
      3095.5000       2853.172         0.2266         0.7801       -73.9299      -48.70344      0.1210877
      3096.0000       2798.651         0.2266         0.7841       -72.0815       -46.8625      0.1564903
      3096.5000        2744.13         0.2465         0.7801       -70.1906      -44.97907      0.1927101
      3097.0000       2672.144         0.2465         0.7726       -70.3902      -45.18614       0.188728
      3097.5000       2672.153         0.2664          0.765       -70.9894      -45.79282      0.1770612
      3098.0000       2672.156         0.2664         0.7575       -72.4885      -47.29939      0.1480888
      3098.5000       2613.306         0.3063           0.75       -73.9876      -48.80595      0.1191163
      3099.0000       2554.456         0.3062         0.7441       -75.3819      -50.20772     0.09215927
      3099.5000       2495.607         0.3062         0.7441       -74.7602      -49.59349      0.1039713
      3100.0000       2436.757         0.3062         0.7549       -74.1849      -49.02566      0.1148912
      3100.5000       2377.907         0.3261         0.7657        -70.899      -45.74723      0.1779379
      3101.0000       2319.057          0.346         0.7765       -67.6131       -42.4688      0.2409847
      3101.5000       2260.208          0.346         0.7872       -64.3271      -39.19027      0.3040333
