#------------------------------------------------------------------------------
# Created by    : vladimir.rabinovich
# Created on    : 09/19/2023 17:21:25
#------------------------------------------------------------------------------
~Version Information Section
VERS.           2.0     :   CWLS log ASCII Standard - VERSION 2.0
WRAP.           NO      :   One line per depth step
~Well Information Section
#MNEM       .UNIT                                         VALUE :DESCRIPTION
#------------------------------------------------------------------------------
STRT        .FT                                            2957 :START DEPTH
STOP        .FT                                            7390 :STOP DEPTH
STEP        .FT                                             0.5 :STEP      
NULL        .                                           -999.25 :NULL      
COMP        .                              DEVON LOUISIANA CORP :COMPANY   
WELL        .                               OCS G09039 ST00BP00 :WELL      
FLD         .                              GALVESTON BLOCK 0273 :FIELD     
LOC         .                                                   :LOCATION  
CNTY        .                             GALVESTON LARGE BLOCK :LOCATION  
STAT        .                                             TEXAS :STATE     
CTRY        .                                     UNITED STATES :COUNTRY   
SRVC        .                                                   :SERVICE COMPANY
DATE        .                             9/13/2023 11:19:54 AM :LOG DATE  
API         .                                    42706403330000 :API NUMBER
UWI         .                                    42706403330000 :UNIQUE WELL ID
XCOORD      .                                  1020560.14583294 :SURFACE X 
YCOORD      .                                  10500181.0477632 :SURFACE Y 
LAT         .                                        28.9197225 :LATITUDE  
LON         .                                       -94.9380297 :LONGITUDE 
ELEV        .FT                                              98 :ELEVATION VALUE
ELEV_TYPE   .                                                KB :ELEVATION REFERENCE TYPE
~Curve Information Section
#MNEM       .UNIT                                      API CODE :CURVE DESCRIPTION
#------------------------------------------------------------------------------
DEPT        .FT                                                 :DEPTH     
CALI        .IN                                                 :          
DCAL        .IN                                                 :          
DPHI        .%                                                  :          
DRHO        .G/C3                                               :          
GR          .GAPI                                               :          
GR_NORM     .GAPI                                               :GammaRay Normalized
ILD         .OHMM                                               :          
ILM         .OHMM                                               :          
LL3         .OHMM                                               :          
NPHI        .%                                                  :          
SP          .MV                                                 :          
SP_NORM     .MV                                                 :SP Normalized
VSH_GR      .V/V                                                :Volume of Shale from GR
VSH_SP      .V/V                                                :Volume of Shale from SP
~A        DEPTH           CALI           DCAL           DPHI           DRHO             GR        GR_NORM            ILD            ILM            LL3           NPHI             SP        SP_NORM         VSH_GR         VSH_SP
# ...
      4739.0000        11.7522         1.9297        18.9232         0.0779         70.709       75.93488         0.7013         0.8052         0.8904         35.366        -5.6786      -1.000762       0.913508      0.9857034
      4739.5000        11.8092         1.9752        19.0104         0.0679        71.9745       77.38567         0.7549         0.8533         0.7845        34.1443        -5.4186     -0.7449508      0.9443759      0.9893578
      4740.0000        11.8508         1.9564        19.4938         0.0708        72.9092       78.45714         0.7715         0.8735         0.7668        32.8773        -5.4846     -0.8151402      0.9671732      0.9883552
      4740.5000        11.8416         1.9245        19.8029         0.0806        71.0933       76.37458         0.7445         0.8662         0.7338        31.3407        -6.4963      -1.831029      0.9228634      0.9738424
      4741.0000        11.7853          1.871        19.8044         0.0862        65.6093       70.08594         0.6815         0.8299         0.8112        29.7516        -9.7004      -5.039319      0.7890625      0.9280097
      4741.5000        11.6911         1.7434        19.9225         0.0692        58.7164       62.18176         0.5971         0.7588         1.2692        28.4963       -16.6201      -11.96321      0.6208885       0.829097
      4742.0000        11.6363         1.6504        20.7096         0.0419        52.7808       55.37529         0.5135         0.6595         2.3534        27.9066       -27.3531       -22.7004        0.47607      0.6757087
      4742.5000        11.6073         1.6849        23.5166         0.0252        48.2591       50.19009         0.4438         0.5551         3.0027        27.7234       -40.0328      -35.38428      0.3657465      0.4945102
      4743.0000        11.6279         1.8543        26.7834         0.0322         46.783       48.49718         0.3925          0.471         1.6036        28.2336       -51.5513      -46.90697      0.3297272      0.3299004
      4743.5000        11.7656         2.1377        28.7864         0.0607        47.9388       49.82217         0.3572         0.4165         1.0348        29.7472       -58.7535      -54.11337      0.3579184      0.2269519
      4744.0000        12.2627         2.5213        29.3267         0.0824        51.0673       53.40919         0.3311         0.3891         0.7209         32.244       -59.4487      -54.81275      0.4342381      0.2169607
      4744.5000        12.5399         2.6691        28.4928         0.0822        56.6102       59.76474         0.3087         0.3811         0.7418        34.9049       -53.4169      -48.78514      0.5694625      0.3030694
      4745.0000        12.5625         2.6038        27.0606          0.065         62.153       66.12016         0.2915         0.3834         0.6358        36.7908       -43.4944      -38.86683      0.7046841      0.4447595
      4745.5000        12.4519         2.4137        26.1823         0.0473        64.4827       68.79123         0.2826         0.3877         0.7533        37.4466       -34.0012      -29.37782      0.7615155      0.5803168
      4746.0000         12.123         2.1294         26.479         0.0428        63.8751       68.09419         0.2853         0.3911         0.7532        37.3992       -28.9756      -24.35641       0.746685      0.6520513
      4746.5000        11.8427          1.823        27.4824         0.0523        61.8303       65.74918         0.3004         0.3966         0.7535        37.3247       -30.1118       -25.4968       0.696791        0.63576
      4747.0000         11.726         1.7354        28.0364           0.06        60.3654       64.06909         0.3241          0.408         0.6508        37.3246       -35.0311      -30.42029      0.6610445      0.5654244
      4747.5000        11.6699         1.7245         28.091         0.0637        61.3013       65.14195         0.3497         0.4281          0.716        37.3685       -38.7742      -34.16758      0.6838713      0.5118918
      4748.0000        11.6381           1.71        27.4548         0.0577        67.6075       72.37273         0.3726         0.4563         0.8926         37.176       -38.3323      -33.72987      0.8377178      0.5181448
      4748.5000        11.6137         1.6847        26.3266         0.0469        69.8437       74.93659         0.3946         0.4894         0.9339        36.5366       -33.9711      -29.37285      0.8922679      0.5803878
      4749.0000        11.6002         1.6992        25.2722         0.0409        70.8658       76.10828         0.4226         0.5233         0.9211        35.5409       -28.5769      -23.98285      0.9171973      0.6573879
      4749.5000        11.6049         1.7361        24.7454         0.0366        70.7679        75.9957         0.4607         0.5571         1.1089        34.3935       -25.2509      -20.66103      0.9148023      0.7048424
      4750.0000        11.6252         1.7952        24.4959         0.0328         67.087       71.77462         0.5065         0.5914         1.1434        33.2411       -24.8935      -20.30782      0.8249919      0.7098883
      4750.5000        11.6735         1.8594        24.3127          0.031        65.8768        70.3866         0.5518         0.6253         1.1194        32.1622       -26.5631      -21.98161      0.7954597       0.685977
      4751.0000        11.7251         1.9128        23.9231         0.0299        65.1582       69.56229          0.588          0.658         1.2095        31.1094       -28.8167       -24.2394      0.7779211      0.6537228
      4751.5000        11.7526         1.9337         23.343         0.0327        63.9365       68.16109         0.6138         0.6877         1.3379        30.0779       -30.4133      -25.84019      0.7481082      0.6308544
      4752.0000        11.7827          1.952        22.4115         0.0406        61.7566       65.66115         0.6336         0.7135         1.3604        29.1862       -30.6869      -26.11798       0.694918      0.6268861
      4752.5000        11.8316         1.9761        21.4801         0.0472         59.821       63.44133         0.6505         0.7354         1.3026        28.5223       -28.8355      -24.27077       0.647688      0.6532747
      4753.0000        11.8841         2.0051        20.5486         0.0519        59.1011       62.61554         0.6657         0.7541         1.1758        28.2222       -24.7713      -20.21076      0.6301178      0.7112749
      4753.5000        11.9305         2.0438        19.6171         0.0555        61.5933       65.47293         0.6774         0.7698         1.1031        28.1828       -19.5708      -15.01445      0.6909134      0.7855079
      4754.0000        11.9673         2.0827        19.2669          0.054        65.5135       69.96778         0.6826          0.781          0.955        28.3877       -15.1613      -10.60913      0.7865486      0.8484409
      4754.5000        11.9982         2.1028        19.3619         0.0525         68.733       73.65915         0.6791          0.786         0.9806        28.7769       -13.1052      -8.557224      0.8650883      0.8777539
      4755.0000        12.0178         2.1189        20.3422         0.0495        69.6537       74.71458         0.6678         0.7834         0.9986        29.3637       -14.2628      -9.719013      0.8875442      0.8611569
      4755.5000        12.0269         2.1335          22.15         0.0436         68.069       72.89713         0.6527         0.7707         1.0281        29.9595       -18.4525       -13.9129       0.848875      0.8012443
      4756.0000        12.0314         2.1445        23.9562         0.0393        64.3623       68.64646         0.6378         0.7489         1.1334        30.7091       -24.7134      -20.17799      0.7584354       0.711743
      4756.5000        12.0335         2.1571        25.2245         0.0428        61.5687       65.44281         0.6269          0.726         1.3544        31.6484       -31.1063      -26.57508      0.6902726       0.620356
