#------------------------------------------------------------------------------
# Created by    : vladimir.rabinovich
# Created on    : 09/19/2023 17:22:44
#------------------------------------------------------------------------------
~Version Information Section
VERS.           2.0     :   CWLS log ASCII Standard - VERSION 2.0
WRAP.           NO      :   One line per depth step
~Well Information Section
#MNEM       .UNIT                                         VALUE :DESCRIPTION
#------------------------------------------------------------------------------
STRT        .FT                                            3420 :START DEPTH
STOP        .FT                                           11707 :STOP DEPTH
STEP        .FT                                             0.5 :STEP      
NULL        .                                           -999.25 :NULL      
COMP        .                        TRI-UNION DEVELOPMENT CORP :COMPANY   
WELL        .                               OCS G08154 ST00BP00 :WELL      
FLD         .                                           WILDCAT :FIELD     
LOC         .                                                   :LOCATION  
CNTY        .                           HIGH ISLAND LARGE BLOCK :LOCATION  
STAT        .                                             TEXAS :STATE     
CTRY        .                                     UNITED STATES :COUNTRY   
SRVC        .                                                   :SERVICE COMPANY
DATE        .                             9/13/2023 11:19:57 AM :LOG DATE  
API         .                                    42708403520000 :API NUMBER
UWI         .                                    42708403520000 :UNIQUE WELL ID
XCOORD      .                                  1180527.91159004 :SURFACE X 
YCOORD      .                                  10524923.1623167 :SURFACE Y 
LAT         .                                        28.9940426 :LATITUDE  
LON         .                                       -94.4389714 :LONGITUDE 
ELEV        .FT                                             100 :ELEVATION VALUE
ELEV_TYPE   .                                                KB :ELEVATION REFERENCE TYPE
~Curve Information Section
#MNEM       .UNIT                                      API CODE :CURVE DESCRIPTION
#------------------------------------------------------------------------------
DEPT        .FT                                                 :DEPTH     
DCAL        .IN                                                 :          
DPHI        .%                                                  :          
DRHO        .G/C3                                               :          
GR          .GAPI                                               :          
GR_NORM     .GAPI                                               :GammaRay Normalized
ILD         .OHMM                                               :          
ILM         .OHMM                                               :          
NPHI        .%                                                  :          
SFL         .OHMM                                               :          
SP          .MV                                                 :          
SP_NORM     .MV                                                 :SP Normalized
VSH_GR      .V/V                                                :Volume of Shale from GR
VSH_SP      .V/V                                                :Volume of Shale from SP
~A        DEPTH           DCAL           DPHI           DRHO             GR        GR_NORM            ILD            ILM           NPHI            SFL             SP        SP_NORM         VSH_GR         VSH_SP
# ...
      5130.0000         2.9416        25.0397        -0.0058        75.0859       75.69895         1.0608         1.0791         44.072         1.0747       -36.8246        -2.8623      0.9084883      0.9738697
      5130.5000         2.9353        25.2679        -0.0073        77.0454       77.92265         1.0463         1.0505        43.9562         1.0217       -36.8693         -2.907      0.9558011      0.9725152
      5131.0000         2.8731        25.9215        -0.0072         77.986       78.99017         1.0261         0.9788        45.4017         0.9507       -36.9147        -2.9524      0.9785141      0.9711394
      5131.5000         2.8065         26.351        -0.0066        78.6497       79.74345         1.0042         0.9121        46.1906         0.8847       -36.8131        -2.8508      0.9945414      0.9742182
      5132.0000         2.7359        26.6485        -0.0055        79.3091       80.49187         0.9776         0.8499         46.019         0.8232       -36.4438        -2.4815              1      0.9854091
      5132.5000         2.8123        26.7281        -0.0043        79.8154       81.06655         0.9429          0.792         46.684         0.7836       -36.0525        -2.0902              1      0.9972667
      5133.0000         2.9266        26.6921        -0.0039        79.3047        80.4872         0.9085         0.7713        47.6262         0.7892       -35.8127        -1.8504              1              1
      5133.5000         3.0336        26.7303        -0.0036        75.4293       76.08974         0.8784         0.7881        46.6326         0.8023       -35.6494        -1.6871      0.9168029              1
      5134.0000         3.0503        27.1253        -0.0039        71.6996       71.85762         0.8577         0.7994        43.0531         0.8118       -35.5876        -1.6253      0.8267578              1
      5134.5000         3.0516        27.6342        -0.0044         69.918       69.83609         0.8397         0.8082        41.1664         0.8086       -35.5258        -1.5635      0.7837466              1
      5135.0000          3.028        28.0976        -0.0051        68.7821       68.54729         0.8315         0.8041        40.9637          0.798       -35.5103         -1.548      0.7563252              1
      5135.5000         2.9985        28.0691        -0.0062        68.1807       67.86501          0.829          0.798        43.0501         0.7851       -35.4987        -1.5364      0.7418088              1
      5136.0000         2.9537        27.8786        -0.0065        69.3955       69.24367         0.8301         0.7933         45.348         0.7882       -35.4974        -1.5351      0.7711419              1
      5136.5000         2.9292        27.8184         -0.009        73.6105       74.02681         0.8232         0.7924        46.1685         0.7926       -35.5029        -1.5406      0.8729109              1
      5137.0000         2.8766         28.079        -0.0147        76.5142       77.32194         0.8054         0.7871        46.0513         0.7865       -35.5588        -1.5965      0.9430199              1
      5137.5000         2.7611        28.6927        -0.0215        78.4948        79.5696         0.7942         0.7729        46.7474         0.7695       -35.6519        -1.6896      0.9908425              1
      5138.0000         2.8259        29.3384        -0.0241        79.7476       80.99136         0.7904         0.7585        48.0439         0.7502       -35.7285        -1.7662              1              1
      5138.5000         2.8564         29.857        -0.0235        80.3049       81.62392         0.7921         0.7487        49.3404           0.74       -35.7665        -1.8042              1              1
      5139.0000         2.7354        29.8055        -0.0222        80.5397       81.89053         0.7958         0.7468        49.9438         0.7399       -35.8047        -1.8424              1              1
      5139.5000         2.5453        29.1781        -0.0203        81.0944       82.52013         0.7982         0.7508        49.5554         0.7438       -35.8285        -1.8662              1              1
      5140.0000         2.3224        28.3787        -0.0171        82.9548       84.63138         0.8009         0.7591         48.982         0.7562       -35.8498        -1.8875              1              1
      5140.5000         2.1387        27.6525        -0.0135        84.1552       85.99369         0.8066         0.7676        48.4576         0.7797       -35.8716        -1.9093              1              1
      5141.0000         1.9493        27.0642        -0.0106        82.9225       84.59505         0.8144         0.7834        48.3818         0.8014       -35.8947        -1.9324              1              1
      5141.5000         1.8214        26.7115        -0.0085        81.7246       83.23589         0.8228         0.7975        48.3851         0.8177       -35.9161        -1.9538              1              1
      5142.0000         1.9842        26.5699        -0.0071        83.1501       84.85364         0.8305         0.7918        48.1471         0.8286       -35.9017        -1.9394              1              1
      5142.5000         2.1147        26.6392        -0.0063        85.2104       87.19173         0.8252          0.776        47.4813         0.8291       -35.8864        -1.9241              1              1
      5143.0000         2.0164        26.9164        -0.0057        85.6421       87.68176         0.8091         0.7654        46.7947         0.8212       -35.8594        -1.8971              1              1
      5143.5000         1.8827        27.2018        -0.0054        84.2823       86.13889         0.7918         0.7596        46.6677         0.8051       -35.8325        -1.8702              1              1
      5144.0000         1.8008        27.3557        -0.0053        82.7297       84.37722         0.7773         0.7486        47.0399         0.7858         -35.77        -1.8077              1              1
      5144.5000         1.8442        27.4173         -0.006        81.9503       83.49296         0.7612         0.7361        47.1307         0.7637       -35.6849        -1.7226              1              1
      5145.0000         2.0262        27.2748        -0.0059        82.2327       83.81357         0.7453          0.726        46.5462         0.7418       -35.5774        -1.6151              1              1
      5145.5000         2.2086        27.0328        -0.0049        82.9698       84.65015         0.7339         0.7212        45.8264         0.7291       -35.4379        -1.4756              1              1
      5146.0000         2.3641        27.4802         -0.005        83.7797       85.56935         0.7262         0.7164        45.2687         0.7217       -35.3439        -1.3816              1              1
      5146.5000         2.4469        28.2043        -0.0074        84.6139       86.51611         0.7216         0.7091        45.1434         0.7158       -35.5093         -1.547              1              1
      5147.0000          2.242        28.9275        -0.0104        85.1482       87.12257         0.7206         0.7054         45.292         0.7111        -35.739        -1.7767              1              1
      5147.5000          2.071        29.3171        -0.0153         85.199       87.18038         0.7195          0.704        45.4085         0.7091       -35.9866        -2.0243              1      0.9992636
      5148.0000         2.0033        29.0349        -0.0174        84.6506       86.55823         0.7233         0.7104        45.2344         0.7155       -36.0434        -2.0811              1      0.9975424
      5148.5000         2.0501        28.1886        -0.0171        83.5819       85.34569         0.7407         0.7268        44.5903         0.7457       -36.0112        -2.0489              1      0.9985182
