#------------------------------------------------------------------------------
# Created by    : vladimir.rabinovich
# Created on    : 09/19/2023 17:20:23
#------------------------------------------------------------------------------
~Version Information Section
VERS.           2.0     :   CWLS log ASCII Standard - VERSION 2.0
WRAP.           NO      :   One line per depth step
~Well Information Section
#MNEM       .UNIT                                         VALUE :DESCRIPTION
#------------------------------------------------------------------------------
STRT        .FT                                            3094 :START DEPTH
STOP        .FT                                           15705 :STOP DEPTH
STEP        .FT                                             0.5 :STEP      
NULL        .                                           -999.25 :NULL      
COMP        .                                       MONSANTO CO :COMPANY   
WELL        .                                     ST TR 00011-L :WELL      
FLD         .                                           WILDCAT :FIELD     
LOC         .                                                   :LOCATION  
CNTY        .                           HIGH ISLAND LARGE BLOCK :LOCATION  
STAT        .                                             TEXAS :STATE     
CTRY        .                                     UNITED STATES :COUNTRY   
SRVC        .                                                   :SERVICE COMPANY
DATE        .                             9/13/2023 11:19:15 AM :LOG DATE  
API         .                                    42708300660000 :API NUMBER
UWI         .                                    42708300660000 :UNIQUE WELL ID
XCOORD      .                                  1343190.12128624 :SURFACE X 
YCOORD      .                                   10724936.940093 :SURFACE Y 
LAT         .                                        29.5487141 :LATITUDE  
LON         .                                       -93.9350737 :LONGITUDE 
ELEV        .FT                                              49 :ELEVATION VALUE
ELEV_TYPE   .                                                KB :ELEVATION REFERENCE TYPE
~Curve Information Section
#MNEM       .UNIT                                      API CODE :CURVE DESCRIPTION
#------------------------------------------------------------------------------
DEPT        .FT                                                 :DEPTH     
ASN         .OHMM                                               :          
CILD        .MMHO                                               :          
ILD         .OHMM                                               :          
SP_NORM     .MV                                                 :SP Normalized
VSH_SP      .V/V                                                :Volume of Shale from SP
~A        DEPTH            ASN           CILD            ILD        SP_NORM         VSH_SP
# ...
     10662.0000         0.5548       2035.947         0.4637      -1.250668       0.995957
     10662.5000         0.5502       2037.324         0.4638      -1.213646      0.9965541
     10663.0000         0.5456       2042.074          0.464      -1.152523      0.9975399
     10663.5000          0.541        2053.43         0.4642     -0.9852028              1
     10664.0000         0.5367       2064.785         0.4643     -0.8180771              1
     10664.5000         0.5328       2076.168         0.4608     -0.6507568              1
     10665.0000         0.5288       2095.266         0.4542     -0.4833336              1
     10665.5000         0.5248       2122.434         0.4476     -0.2642097              1
     10666.0000         0.5209       2168.945          0.441      0.1489143              1
     10666.5000         0.5169       2344.512         0.4344      0.5126381              1
     10667.0000         0.5101       2391.023         0.4278       0.799263              1
     10667.5000         0.5023       2433.875         0.4212       1.113182              1
     10668.0000         0.4945       2475.641         0.4146       1.536705              1
     10668.5000         0.4867        2525.32          0.408       1.606728              1
     10669.0000         0.4789       2566.043         0.4014        1.66885              1
     10669.5000         0.4722       2596.746         0.3948       1.676575              1
     10670.0000         0.4675       2611.418         0.3882       1.606098              1
     10670.5000         0.4629       2626.117         0.3817        1.53582              1
     10671.0000         0.4583       2640.488         0.3763       1.468143              1
     10671.5000         0.4536       2614.934         0.3709       1.433365              1
     10672.0000         0.4528       2585.688         0.3655       1.398487              1
     10672.5000         0.4528       2556.492         0.3601       1.363712              1
     10673.0000         0.4541       2515.324         0.3547       1.328835              1
     10673.5000         0.4598        2472.57         0.3493        1.29406              1
     10674.0000         0.4654       2414.184         0.3558       1.259182              1
     10674.5000          0.471       2366.531         0.3626       1.178104              1
     10675.0000         0.4767       2330.508         0.3695       1.027027              1
     10675.5000         0.4827       2309.031         0.3763      0.8759499              1
     10676.0000         0.4902       2288.051         0.3832      0.7248726              1
     10676.5000         0.4977       2276.816           0.39     -0.2666054              1
     10677.0000         0.5052       2275.973         0.3945       -1.39558      0.9936197
     10677.5000         0.5127       2295.523         0.3982      -1.904556      0.9854104
     10678.0000         0.5202       2334.414          0.402      -1.964333      0.9844462
     10678.5000         0.5218       2373.309         0.4058      -1.779213      0.9874321
     10679.0000         0.5212       2404.484         0.4096      -1.374691      0.9939566
     10679.5000         0.5207       2435.164         0.4133     -0.9696693              1
     10680.0000         0.5162       2462.031         0.4171     -0.6777458              1
     10680.5000         0.5087       2486.742         0.4166     -0.4986229              1
     10681.0000         0.5012       2482.828         0.4152     -0.3195992              1
     10681.5000         0.4937       2478.434         0.4138     -0.1404762              1
     10682.0000         0.4861       2466.535         0.4124    -0.02994919              1
     10682.5000         0.4786       2454.633          0.411     0.01737213              1
     10683.0000         0.4802       2442.758         0.4096     0.06469345              1
     10683.5000         0.4854       2430.859         0.4077      0.1119156              1
     10684.0000         0.4932       2418.957         0.4008      0.1592407              1
     10684.5000         0.5009       2418.387         0.3939      0.2064629              1
     10685.0000         0.5049       2432.566          0.387      0.3121872              1
     10685.5000         0.4993       2446.742         0.3801        0.45681              1
     10686.0000         0.4937       2469.059         0.3732      0.6010323              1
     10686.5000          0.488       2500.184         0.3664      0.7455559              1
     10687.0000         0.4827       2531.457         0.3608      0.8900757              1
     10687.5000         0.4776       2562.828         0.3552       1.034698              1
     10688.0000         0.4725       2590.836         0.3496      0.8685226              1
     10688.5000         0.4674       2614.637         0.3439      0.6418457              1
     10689.0000         0.4717       2638.438         0.3385      0.4152679              1
     10689.5000         0.4808        2616.07         0.3454     -0.1181068              1
     10690.0000         0.4899       2372.023         0.3523     -0.9128838              1
     10690.5000          0.499       2327.488         0.3613      -1.708965      0.9885651
     10691.0000         0.5081       2298.293         0.3772      -2.541939        0.97513
     10691.5000         0.5172       2267.664         0.3932      -3.108616      0.9659901
     10692.0000         0.5289       2234.016         0.4091      -3.675293      0.9568501
     10692.5000         0.5415       2137.078         0.4251       -4.31097      0.9465973
     10693.0000         0.5542         2034.5          0.441      -5.103348       0.933817
     10693.5000         0.5667        1999.75         0.4498      -5.894424      0.9210576
     10694.0000         0.5793       1954.475         0.4569      -6.464699      0.9118597
     10694.5000         0.5919       1872.434         0.4641      -6.101681      0.9177148
     10695.0000         0.6149       1825.623         0.4712      -5.655258      0.9249152
     10695.5000         0.6375       1792.766         0.4784      -5.210735      0.9320849
     10696.0000         0.6588       1842.645         0.4783      -4.787209       0.938916
     10696.5000         0.6664       1922.213         0.4692      -4.363586      0.9457486
     10697.0000         0.6635       1970.408           0.46      -4.609062      0.9417893
     10697.5000         0.6499        2055.73         0.4509      -5.596241      0.9258671
     10698.0000         0.6363       2087.398         0.4417      -7.397217      0.8968191
     10698.5000         0.6125       2119.066         0.4327      -9.570698      0.8617629
     10699.0000           0.58       2150.785         0.4247      -8.419575      0.8803294
     10699.5000         0.5476       2182.457         0.4168      -7.142651       0.900925
     10700.0000         0.5213       2214.125         0.4088      -5.883026      0.9212415
     10700.5000         0.5283       2274.145         0.4009      -4.620903      0.9415984
     10701.0000         0.5383       2323.133         0.3929      -3.287281      0.9631084
     10701.5000         0.5476       2348.258          0.385      -2.030758      0.9833749
     10702.0000         0.5514       2347.609          0.377      -2.323032      0.9786608
     10702.5000         0.5408       2346.961         0.3691      -2.615314      0.9739465
     10703.0000         0.5302       2374.004         0.3612      -2.729389      0.9721066
     10703.5000         0.5185       2421.902         0.3532      -2.312668       0.978828
     10704.0000         0.5026       2491.672          0.351      -1.835442      0.9865251
     10704.5000         0.4867       2550.086         0.3494      -1.358818      0.9942126
     10705.0000         0.4708       2557.559         0.3477     -0.8816948              1
     10705.5000         0.4619        2542.34          0.346     -0.4747734              1
