#------------------------------------------------------------------------------
# Created by    : vladimir.rabinovich
# Created on    : 09/19/2023 17:19:48
#------------------------------------------------------------------------------
~Version Information Section
VERS.           2.0     :   CWLS log ASCII Standard - VERSION 2.0
WRAP.           NO      :   One line per depth step
~Well Information Section
#MNEM       .UNIT                                         VALUE :DESCRIPTION
#------------------------------------------------------------------------------
STRT        .FT                                             960 :START DEPTH
STOP        .FT                                            9172 :STOP DEPTH
STEP        .FT                                             0.5 :STEP      
NULL        .                                           -999.25 :NULL      
COMP        .                                ODECO OIL & GAS CO :COMPANY   
WELL        .                               OCS G06101 ST00BP00 :WELL      
FLD         .                                           WILDCAT :FIELD     
LOC         .                                                   :LOCATION  
CNTY        .                             GALVESTON LARGE BLOCK :LOCATION  
STAT        .                                             TEXAS :STATE     
CTRY        .                                     UNITED STATES :COUNTRY   
SRVC        .                                                   :SERVICE COMPANY
DATE        .                             9/13/2023 11:19:27 AM :LOG DATE  
API         .                                    42706401070000 :API NUMBER
UWI         .                                    42706401070000 :UNIQUE WELL ID
XCOORD      .                                  1041316.87817256 :SURFACE X 
YCOORD      .                                  10447909.9182991 :SURFACE Y 
LAT         .                                         28.776905 :LATITUDE  
LON         .                                        -94.870587 :LONGITUDE 
ELEV        .FT                                              92 :ELEVATION VALUE
ELEV_TYPE   .                                                KB :ELEVATION REFERENCE TYPE
~Curve Information Section
#MNEM       .UNIT                                      API CODE :CURVE DESCRIPTION
#------------------------------------------------------------------------------
DEPT        .FT                                                 :DEPTH     
ASFL        .OHMM                                               :          
GR          .GAPI                                               :          
GR_NORM     .GAPI                                               :GammaRay Normalized
ILD         .OHMM                                               :          
SP          .MV                                                 :          
SP_NORM     .MV                                                 :SP Normalized
VSH_GR      .V/V                                                :Volume of Shale from GR
VSH_SP      .V/V                                                :Volume of Shale from SP
~A        DEPTH           ASFL             GR        GR_NORM            ILD             SP        SP_NORM         VSH_GR         VSH_SP
# ...
      9131.5000         1.0021        81.7356       88.32704         1.0026       -42.9385      -1.031335              1      0.9828111
      9132.0000         1.0094        83.1798       90.23736         1.0061       -42.9789      -1.087897              1      0.9818684
      9132.5000         1.0167        84.0186       91.34688         1.0096       -43.0276      -1.156075              1      0.9807321
      9133.0000         1.0228        82.0273       88.71288         1.0131       -43.2355      -1.447136              1       0.975881
      9133.5000         1.0277        79.3627       85.18829         1.0166       -43.4434      -1.738197              1      0.9710301
      9134.0000         1.0326        77.4686       82.68285         1.0201       -43.5185      -1.843337              1      0.9692777
      9134.5000         1.0375        76.1655       80.95918         1.0236       -43.4428      -1.737354              1      0.9710441
      9135.0000         1.0339        74.8647       79.23854         1.0271       -43.3671      -1.631375      0.9837987      0.9728104
      9135.5000         1.0274        74.1815       78.33484         1.0284       -43.2914      -1.525397      0.9645711      0.9745767
      9136.0000         1.0209        75.5139       80.09727         1.0295       -43.2195      -1.424738              1      0.9762544
      9136.5000         1.0144        76.6907       81.65388         1.0306       -43.1481      -1.324778              1      0.9779204
      9137.0000         1.0074        77.8699       83.21368         1.0317       -43.0767      -1.224813              1      0.9795864
      9137.5000         0.9995        79.0465       84.77003         1.0272       -43.0052      -1.124715              1      0.9812548
      9138.0000         0.9917        79.7468       85.69635         1.0206       -42.9338      -1.024755              1      0.9829208
      9138.5000         0.9839        79.5061       85.37797          1.014       -42.8622     -0.9245178              1      0.9845914
      9139.0000         0.9761        78.7682       84.40191         1.0074        -42.813      -0.855635              1      0.9857394
      9139.5000         0.9683        78.0449       83.44515         1.0009       -42.8095     -0.8507378              1       0.985821
      9140.0000         0.9626        77.3301       82.49965         0.9943        -42.806     -0.8458351              1      0.9859027
      9140.5000           0.96        76.6152       81.55402         0.9884       -43.2018      -1.399957              1      0.9766674
      9141.0000         0.9574        75.9017       80.61024         0.9828       -43.7282      -2.136914              1      0.9643848
      9141.5000         0.9548        75.1869       79.66473         0.9773       -43.9716      -2.477675      0.9928667      0.9587054
      9142.0000         0.9548        74.5839       78.86712         0.9717       -44.0985      -2.655334      0.9758961      0.9557444
      9142.5000         0.9568        74.0265       78.12981         0.9662       -44.2255      -2.833133      0.9602087      0.9527811
      9143.0000         0.9589        74.5863        78.8703         0.9606       -44.3524      -3.010798      0.9759638        0.94982
      9143.5000         0.9609        75.1577       79.62611         0.9643       -44.3605      -3.022136      0.9920448      0.9496311
      9144.0000          0.963         75.729       80.38179         0.9685       -44.3053      -2.944858              1       0.950919
      9144.5000         0.9651        76.3004       81.13762         0.9726       -44.2501      -2.867574              1      0.9522071
      9145.0000         0.9673        76.9861       82.04462         0.9768       -44.1949      -2.790296              1      0.9534951
      9145.5000         0.9701        77.7834       83.09927         0.9803       -44.1398      -2.713157              1      0.9547807
      9146.0000         0.9706        78.5809       84.15415         0.9805       -44.0456      -2.581277              1      0.9569787
      9146.5000         0.9708        79.7079        85.6449         0.9807       -43.9508      -2.448558              1      0.9591907
      9147.0000         0.9684        80.9163        87.2433         0.9809        -43.856      -2.315834              1      0.9614028
      9147.5000         0.9604        82.2875       89.05706         0.9782       -43.7613      -2.183254              1      0.9636124
      9148.0000         0.9488        83.7244       90.95773         0.9612       -43.6665      -2.050536              1      0.9658244
      9148.5000         0.9341        85.1613       92.85838         0.9441       -43.5613      -1.903253              1      0.9682791
      9149.0000         0.9194        86.6249       94.79436         0.9271       -43.3817      -1.651814              1      0.9724697
      9149.5000         0.9046        86.8315       95.06764         0.9101       -43.2021      -1.400374              1      0.9766604
      9150.0000         0.8899        85.2708       93.00323          0.893       -43.0225      -1.148934              1      0.9808511
      9150.5000         0.8785        83.7098       90.93842         0.8773       -42.8429     -0.8974945              1      0.9850417
      9151.0000         0.8683        82.1489       88.87373         0.8624       -42.6119     -0.5740959              1      0.9904317
      9151.5000         0.8581        80.7314       86.99873         0.8474       -42.3715     -0.2375328              1      0.9960411
      9152.0000         0.8479        79.6034       85.50667         0.8385       -42.1308     0.09944687              1              1
      9152.5000         0.8377        78.4777       84.01764          0.842       -41.8901      0.4364266              1              1
      9153.0000         0.8288        77.3519       82.52849         0.8455       -41.7208      0.6734467              1              1
      9153.5000         0.8424        76.3308       81.17783          0.849       -41.5871      0.8606232              1              1
      9154.0000          0.856        76.5569       81.47691         0.8525       -41.4534       1.047805              1              1
      9154.5000         0.8697         77.634       82.90164         0.8615       -41.3197       1.234987              1              1
      9155.0000         0.8844        78.7098       84.32465         0.8723       -41.3005       1.261866              1              1
      9155.5000         0.8992        79.7528       85.70428         0.8832       -41.3444       1.200407              1              1
      9156.0000         0.9056        80.7947       87.08246         0.8941       -41.3884       1.138803              1              1
      9156.5000         0.8969        81.8376       88.46196          0.905       -41.4324       1.077205              1              1
      9157.0000         0.8887        82.8795       89.84013         0.9159        -41.484       1.004963              1              1
      9157.5000         0.8801        84.1426        91.5109         0.9181       -41.5357      0.9325821              1              1
      9158.0000         0.8711        85.7861       93.68484         0.9046       -41.5873      0.8603455              1              1
      9158.5000         0.8621        84.7528       92.31804          0.891       -41.6389      0.7881035              1              1
      9159.0000          0.853        83.5542       90.73259         0.8774       -41.6832      0.7260834              1              1
      9159.5000         0.8462        82.4188       89.23074         0.8608       -41.6867       0.721186              1              1
      9160.0000         0.8396        81.2833       87.72875         0.8427       -41.6901      0.7164223              1              1
      9160.5000          0.833         80.323       86.45851         0.8247       -41.6936       0.711525              1              1
