#------------------------------------------------------------------------------
# Created by    : vladimir.rabinovich
# Created on    : 09/19/2023 17:20:10
#------------------------------------------------------------------------------
~Version Information Section
VERS.           2.0     :   CWLS log ASCII Standard - VERSION 2.0
WRAP.           NO      :   One line per depth step
~Well Information Section
#MNEM       .UNIT                                         VALUE :DESCRIPTION
#------------------------------------------------------------------------------
STRT        .FT                                             409 :START DEPTH
STOP        .FT                                           13135 :STOP DEPTH
STEP        .FT                                             0.5 :STEP      
NULL        .                                           -999.25 :NULL      
COMP        .                         ATLANTIC RICHFIELD CO THE :COMPANY   
WELL        .                               OCS G04547 ST00BP00 :WELL      
FLD         .                                           WILDCAT :FIELD     
LOC         .                                                   :LOCATION  
CNTY        .                      MATAGORDA ISLAND LARGE BLOCK :LOCATION  
STAT        .                                             TEXAS :STATE     
CTRY        .                                     UNITED STATES :COUNTRY   
SRVC        .                                                   :SERVICE COMPANY
DATE        .                             9/13/2023 11:12:03 AM :LOG DATE  
API         .                                    42703401300000 :API NUMBER
UWI         .                                    42703401300000 :UNIQUE WELL ID
XCOORD      .                                  517134.995430583 :SURFACE X 
YCOORD      .                                  10172294.5320476 :SURFACE Y 
LAT         .                                         27.987424 :LATITUDE  
LON         .                                        -96.480505 :LONGITUDE 
ELEV        .FT                                              99 :ELEVATION VALUE
ELEV_TYPE   .                                                KB :ELEVATION REFERENCE TYPE
~Curve Information Section
#MNEM       .UNIT                                      API CODE :CURVE DESCRIPTION
#------------------------------------------------------------------------------
DEPT        .FT                                                 :DEPTH     
ASFL        .OHMM                                               :          
CILD        .MMHO                                               :          
GR          .GAPI                                               :          
GR_NORM     .GAPI                                               :GammaRay Normalized
ILD         .OHMM                                               :          
SP          .MV                                                 :          
SP_NORM     .MV                                                 :SP Normalized
VSH_GR      .V/V                                                :Volume of Shale from GR
VSH_SP      .V/V                                                :Volume of Shale from SP
~A        DEPTH           ASFL           CILD             GR        GR_NORM            ILD             SP        SP_NORM         VSH_GR         VSH_SP
# ...
      8862.5000         1.0863        895.418        -999.25        -999.25          1.088       -43.8211      -2.338779        -999.25      0.9656723
      8863.0000         1.0672       876.5303        -999.25        -999.25         1.0602       -44.1634      -2.681969        -999.25      0.9568726
      8863.5000         1.0533       857.6436        -999.25        -999.25          1.047       -44.4789      -2.998356        -999.25      0.9487601
      8864.0000         1.2764       835.0322        -999.25        -999.25         1.0434        -44.665      -3.185341        -999.25      0.9439656
      8864.5000         1.5098       785.2832        -999.25        -999.25         1.0679       -44.8385      -3.359726        -999.25      0.9394942
      8865.0000         1.6998       736.3125        -999.25        -999.25         1.1665       -44.8837      -3.405815        -999.25      0.9383124
      8865.5000         1.7204       688.8516        -999.25        -999.25         1.3818       -44.8538      -3.376801        -999.25      0.9390564
      8866.0000         1.7771       648.2529        -999.25        -999.25         1.5428       -44.7581      -3.281982        -999.25      0.9414876
      8866.5000         1.7912       654.9219        -999.25        -999.25          1.687        -44.506      -3.030773        -999.25      0.9479289
      8867.0000         1.6512       700.6309        -999.25        -999.25         1.7461       -44.2538      -2.779457        -999.25      0.9543729
      8867.5000          1.375       749.5527        -999.25        -999.25         1.6379       -44.0016      -2.528141        -999.25      0.9608169
      8868.0000         1.1746        811.959        -999.25        -999.25         1.4593       -43.7786      -2.306026        -999.25      0.9665121
      8868.5000         1.1173       884.1973        -999.25        -999.25         1.2416       -43.5862      -2.114517        -999.25      0.9714226
      8869.0000         1.0643       977.8545        -999.25        -999.25         1.1283       -43.3939      -1.923103        -999.25      0.9763307
      8869.5000         1.0404       1047.172        -999.25        -999.25         1.0257       -43.2275      -1.757587        -999.25      0.9805747
      8870.0000          1.025       1101.205        -999.25        -999.25         0.9433       -43.2509      -1.781872        -999.25       0.979952
      8870.5000         1.0164       1138.111        -999.25        -999.25         0.8927       -43.2764      -1.808262        -999.25      0.9792753
      8871.0000          1.012       1139.098        -999.25        -999.25         0.8445       -43.3114      -1.844147        -999.25      0.9783552
      8871.5000         1.0076       1145.332        -999.25        -999.25         0.8454       -43.3464      -1.880032        -999.25      0.9774351
      8872.0000         0.9967       1159.303        -999.25        -999.25         0.8515       -43.3815      -1.916016        -999.25      0.9765124
      8872.5000         0.9826       1173.297        -999.25        -999.25         0.8576       -43.4124      -1.947803        -999.25      0.9756973
      8873.0000         0.9718       1190.408        -999.25        -999.25         0.8637       -43.4393       -1.97559        -999.25      0.9749849
      8873.5000         0.9691       1208.273        -999.25        -999.25         0.8635       -43.4662      -2.003376        -999.25      0.9742724
      8874.0000         0.9733       1220.898        -999.25        -999.25         0.8589       -43.4792      -2.017258        -999.25      0.9739165
      8874.5000         0.9789       1222.354        -999.25        -999.25         0.8544       -43.4446      -1.983547        -999.25      0.9747809
      8875.0000         0.9881       1213.311        -999.25        -999.25         0.8423       -43.4099      -1.949734        -999.25      0.9756479
      8875.5000         0.9803       1204.037        -999.25        -999.25         0.8293       -43.3752      -1.915916        -999.25      0.9765149
      8876.0000         0.9725        1192.33        -999.25        -999.25         0.8163       -43.3475      -1.889103        -999.25      0.9772025
      8876.5000         0.9628       1180.623        -999.25        -999.25         0.8055       -43.3641      -1.906593        -999.25       0.976754
      8877.0000         0.9504       1163.611        -999.25        -999.25         0.8012       -43.3808      -1.924175        -999.25      0.9763032
      8877.5000         0.9524       1140.586        -999.25        -999.25          0.811       -43.4388      -1.983063        -999.25      0.9747933
      8878.0000          0.955       1111.232        -999.25        -999.25         0.8508       -43.6339      -2.179047        -999.25       0.969768
      8878.5000         0.9933       1064.209        -999.25        -999.25         0.9088       -43.8293      -2.375336        -999.25       0.964735
      8879.0000         1.0827       1007.256        -999.25        -999.25         1.0139       -43.9764      -2.523319        -999.25      0.9609405
      8879.5000         1.1726       955.7549        -999.25        -999.25         1.0898       -43.9255      -2.473305        -999.25      0.9622229
      8880.0000         1.2318       941.1631        -999.25        -999.25         1.1375       -43.8741      -2.422791        -999.25      0.9635182
      8880.5000         1.2599       947.6133        -999.25        -999.25         1.1852       -43.8152       -2.36478        -999.25      0.9650056
      8881.0000         1.2498       954.0752        -999.25        -999.25         1.1972       -43.7564      -2.306866        -999.25      0.9664906
      8881.5000         1.2094       958.6357        -999.25        -999.25         1.1928       -43.6975      -2.248848        -999.25      0.9679782
      8882.0000         1.1726       960.5459        -999.25        -999.25         1.1639       -43.6961      -2.248337        -999.25      0.9679914
      8882.5000         1.1528         962.46        -999.25        -999.25         1.1349       -43.6994      -2.252525        -999.25      0.9678839
      8883.0000         1.1371       947.5273        -999.25        -999.25          1.106       -43.7027       -2.25671        -999.25      0.9677767
      8883.5000         1.1208       926.0361        -999.25        -999.25          1.077        -43.706      -2.260895        -999.25      0.9676694
      8884.0000          1.272        892.959        -999.25        -999.25         1.0478       -43.7175      -2.273281        -999.25      0.9673518
      8884.5000         1.3092       854.6494        -999.25        -999.25         1.0281       -43.7334      -2.290066        -999.25      0.9669214
      8885.0000         1.3338       834.2051        -999.25        -999.25         1.1408       -43.7492      -2.306751        -999.25      0.9664935
      8885.5000         1.3557       830.5781        -999.25        -999.25         1.2336       -43.6771      -2.235538        -999.25      0.9683195
      8886.0000         1.3502       851.1445        -999.25        -999.25          1.309       -43.5353      -2.094627        -999.25      0.9719326
      8886.5000         1.2766       871.7109        -999.25        -999.25         1.3162       -43.3936      -1.953812        -999.25      0.9755433
      8887.0000         1.1717       892.2783        -999.25        -999.25         1.2845       -43.2518      -1.812897        -999.25      0.9791565
      8887.5000         1.1212       913.8906        -999.25        -999.25         1.2305       -43.1412      -1.703182        -999.25      0.9819697
      8888.0000         1.0886       954.1484        -999.25        -999.25         1.1764       -43.0379      -1.600769        -999.25      0.9845957
      8888.5000         1.0421       998.2988        -999.25        -999.25         1.1277       -42.9348      -1.498554        -999.25      0.9872165
