#------------------------------------------------------------------------------
# Created by    : vladimir.rabinovich
# Created on    : 09/19/2023 17:22:52
#------------------------------------------------------------------------------
~Version Information Section
VERS.           2.0     :   CWLS log ASCII Standard - VERSION 2.0
WRAP.           NO      :   One line per depth step
~Well Information Section
#MNEM       .UNIT                                         VALUE :DESCRIPTION
#------------------------------------------------------------------------------
STRT        .FT                                            1126 :START DEPTH
STOP        .FT                                            9906 :STOP DEPTH
STEP        .FT                                             0.5 :STEP      
NULL        .                                           -999.25 :NULL      
COMP        .                                        EXXON CORP :COMPANY   
WELL        .                               OCS G06053 ST00BP00 :WELL      
FLD         .                                           WILDCAT :FIELD     
LOC         .                                                   :LOCATION  
CNTY        .                      MATAGORDA ISLAND LARGE BLOCK :LOCATION  
STAT        .                                             TEXAS :STATE     
CTRY        .                                     UNITED STATES :COUNTRY   
SRVC        .                                                   :SERVICE COMPANY
DATE        .                             9/13/2023 11:12:11 AM :LOG DATE  
API         .                                    42703402640000 :API NUMBER
UWI         .                                    42703402640000 :UNIQUE WELL ID
XCOORD      .                                  440255.018680432 :SURFACE X 
YCOORD      .                                  10152284.9344853 :SURFACE Y 
LAT         .                                         27.926249 :LATITUDE  
LON         .                                        -96.716438 :LONGITUDE 
ELEV        .FT                                              94 :ELEVATION VALUE
ELEV_TYPE   .                                                KB :ELEVATION REFERENCE TYPE
~Curve Information Section
#MNEM       .UNIT                                      API CODE :CURVE DESCRIPTION
#------------------------------------------------------------------------------
DEPT        .FT                                                 :DEPTH     
GR          .GAPI                                               :          
GR_NORM     .GAPI                                               :GammaRay Normalized
ILD         .OHMM                                               :          
SP          .MV                                                 :          
SP_NORM     .MV                                                 :SP Normalized
VSH_GR      .V/V                                                :Volume of Shale from GR
VSH_SP      .V/V                                                :Volume of Shale from SP
~A        DEPTH             GR        GR_NORM            ILD             SP        SP_NORM         VSH_GR         VSH_SP
# ...
      7524.5000        53.9211       70.73744         1.1789       -44.6974       3.948654      0.8029243              1
      7525.0000        53.7206       70.31821         1.1825       -43.8105       4.834881      0.7940044              1
      7525.5000        54.8666       72.72823         1.1848       -45.6046       3.040108      0.8452814              1
      7526.0000        56.0151       75.14353         1.1875       -48.0186      0.6254311      0.8966709              1
      7526.5000        57.2014       77.63821         1.1933       -50.0339      -1.390541      0.9497491        0.99434
      7527.0000        58.3889       80.13544          1.199       -48.8818     -0.2391167              1              1
      7527.5000        59.5715       82.62234         1.2057       -46.4678       2.174213              1              1
      7528.0000        60.3774       84.31775         1.2128        -44.414       4.227337              1              1
      7528.5000        59.3216       82.10137         1.2054       -44.8365       3.804165              1              1
      7529.0000        58.3524       80.06694         1.1817       -45.8423       2.797691              1              1
      7529.5000        57.6938       78.68517         1.1452       -46.0325       2.606815       0.972025              1
      7530.0000        57.6667       78.63027         1.0981       -44.8401       3.798546      0.9708568              1
      7530.5000        57.3758       78.02109         1.0611       -44.8547       3.783272      0.9578955              1
      7531.0000         56.757       76.72292         1.0266       -47.1791       1.458195       0.930275              1
      7531.5000        54.8593       72.73755         1.0173       -48.5563     0.08032227      0.8454798              1
      7532.0000        52.6453       68.08755         1.0128       -48.8836     -0.2476501      0.7465436              1
      7532.5000        50.4678       63.51427         1.0114       -48.2298      0.4054718      0.6492397              1
      7533.0000        48.9426       60.31157         1.0017       -47.1773       1.457302      0.5810971              1
      7533.5000        48.2928       58.94826         0.9872       -46.2346       2.399326      0.5520906              1
      7534.0000        48.3585       59.08837         0.9726       -46.0648       2.568455      0.5550717              1
      7534.5000        49.7484       62.01085         0.9654       -46.5199       2.112679      0.6172522              1
      7535.0000        49.7521       62.02071         0.9677       -47.7443      0.8876038      0.6174619              1
      7535.5000        51.0189       64.68453         0.9971       -49.8145      -1.183266       0.674139       0.997344
      7536.0000        54.5106       72.02332         1.0323       -52.5193      -3.888741      0.8302833      0.9581342
      7536.5000         56.971       77.19514         1.0748       -53.9019      -5.272018      0.9403222      0.9380867
      7537.0000        57.2197       77.71974         1.1012       -56.2958      -7.666588      0.9514838      0.9033828
      7537.5000        53.7596       70.45146         1.1057       -59.6461      -11.01756      0.7968396      0.8548179
      7538.0000        48.1367       58.63873         1.0912       -63.8451      -15.21724      0.5455049      0.7939531
      7538.5000        43.7451       49.41319         1.0565       -67.5538      -18.92661      0.3492168       0.740194
      7539.0000        44.7424       51.51077         0.9897       -71.0835      -22.45699      0.3938461      0.6890292
      7539.5000        47.2686       56.82085         0.9189       -73.8961      -25.27026      0.5068267      0.6482571
      7540.0000        49.7241       61.98237         0.8586       -74.9175      -26.29234      0.6166461      0.6334444
      7540.5000        47.2734       56.83506         0.8114       -74.3589      -25.73441      0.5071288      0.6415303
      7541.0000         44.818       51.67783         0.7859       -72.5721      -23.94828      0.3974006      0.6674163
      7541.5000         44.212       50.40656         0.7609        -70.522      -21.89886      0.3703523       0.697118
      7542.0000        45.0886       52.25052         0.7364       -68.6603      -20.03783      0.4095855      0.7240894
      7542.5000        47.5027       57.32503         0.7199       -67.5918         -18.97      0.5175539      0.7395653
      7543.0000        50.3849       63.38316         0.7101       -70.8787      -22.25758      0.6464503      0.6919192
      7543.5000        51.5016       65.73162         0.7019        -76.248      -27.62755      0.6964175      0.6140935
      7544.0000        50.0971       62.78254         0.6988       -79.8032      -31.18342       0.633671      0.5625591
      7544.5000        46.4493       55.11986         0.6969       -80.2549      -31.63579      0.4706354       0.556003
      7545.0000        45.1813       52.45761         0.6966        -82.828      -34.20957      0.4139917      0.5187019
      7545.5000         44.212       50.42295         0.6964       -87.1769      -38.55915      0.3707012      0.4556645
      7546.0000        43.0623       48.00928         0.6972       -88.6747      -40.05761      0.3193465      0.4339476
      7546.5000        41.6115       44.96291         0.6979       -88.0876      -39.47119      0.2545301      0.4424465
      7547.0000        41.1165       43.92488         0.6979       -86.6173      -38.00156      0.2324443      0.4637454
      7547.5000        42.3991       46.62195         0.6976       -84.3313      -35.71624      0.2898288      0.4968661
      7548.0000        44.5742        51.1943         0.6977       -82.6561      -34.04171      0.3871128      0.5211346
      7548.5000         46.798       55.86897         0.6983       -82.3287      -33.71498      0.4865739      0.5258698
      7549.0000        47.9532       58.29831         0.6989       -83.6766      -35.06356       0.538262      0.5063252
      7549.5000        47.6322       57.62587         0.6998         -85.97      -37.35764      0.5239546      0.4730777
      7550.0000        47.4627       57.27178         0.7009       -88.1023      -39.49061      0.5164209      0.4421651
      7550.5000        46.7272        55.7284          0.702       -89.6129      -41.00188      0.4835831      0.4202626
      7551.0000        44.8765       51.84179         0.7024       -91.0649      -42.45456      0.4008892      0.3992094
      7551.5000        43.3135       48.55967         0.7028       -92.3049      -43.69523      0.3310567      0.3812286
      7552.0000        42.3539       46.54544         0.7084       -91.3887      -42.77971      0.2882009       0.394497
      7552.5000        42.4265       46.70002         0.7162       -90.8126      -42.20427      0.2914897      0.4028366
      7553.0000        42.9721       47.84848         0.7299       -91.4573      -42.84965      0.3159252      0.3934834
      7553.5000        43.2726       48.48195         0.7506       -92.1467      -43.53972      0.3294033      0.3834823
      7554.0000        42.8118       47.51577         0.8126       -92.4365       -43.8302      0.3088461      0.3792725
      7554.5000        42.6057       47.08477         0.9397       -89.2727      -40.66707       0.299676       0.425115
      7555.0000        43.0239       47.96554         1.0862       -84.7263      -36.12135      0.3184158       0.490995
      7555.5000        43.5787       49.13331         1.2031       -81.3577      -32.75341      0.3432619      0.5398056
      7556.0000        43.9072       49.82563         1.2738        -80.264      -31.66039      0.3579921      0.5556465
      7556.5000        43.2891       48.52892         1.2913       -80.8466      -32.24367      0.3304026      0.5471932
      7557.0000        43.5744       49.13044         1.2878       -81.3965      -32.79424      0.3432009       0.539214
      7557.5000        45.5178       53.21595         1.2708       -81.8619      -33.26031      0.4301266      0.5324593
