#------------------------------------------------------------------------------
# Created by    : vladimir.rabinovich
# Created on    : 09/19/2023 17:22:26
#------------------------------------------------------------------------------
~Version Information Section
VERS.           2.0     :   CWLS log ASCII Standard - VERSION 2.0
WRAP.           NO      :   One line per depth step
~Well Information Section
#MNEM       .UNIT                                         VALUE :DESCRIPTION
#------------------------------------------------------------------------------
STRT        .FT                                            3450 :START DEPTH
STOP        .FT                                            9344 :STOP DEPTH
STEP        .FT                                             0.5 :STEP      
NULL        .                                           -999.25 :NULL      
COMP        .                                  W&T OFFSHORE INC :COMPANY   
WELL        .                               OCS G04565 ST00BP00 :WELL      
FLD         .                              GALVESTON BLOCK 0303 :FIELD     
LOC         .                                                   :LOCATION  
CNTY        .                             GALVESTON LARGE BLOCK :LOCATION  
STAT        .                                             TEXAS :STATE     
CTRY        .                                     UNITED STATES :COUNTRY   
SRVC        .                                                   :SERVICE COMPANY
DATE        .                             9/13/2023 11:19:39 AM :LOG DATE  
API         .                                    42706403900000 :API NUMBER
UWI         .                                    42706403900000 :UNIQUE WELL ID
XCOORD      .                                  983096.827540607 :SURFACE X 
YCOORD      .                                  10485968.3003259 :SURFACE Y 
LAT         .                                        28.8789082 :LATITUDE  
LON         .                                       -95.0543314 :LONGITUDE 
ELEV        .FT                                              90 :ELEVATION VALUE
ELEV_TYPE   .                                                KB :ELEVATION REFERENCE TYPE
~Curve Information Section
#MNEM       .UNIT                                      API CODE :CURVE DESCRIPTION
#------------------------------------------------------------------------------
DEPT        .FT                                                 :DEPTH     
CDER        .MMHO                                               :          
DCAL        .IN                                                 :          
DPHI        .DEC                                                :          
DRHO        .G/CC                                               :          
DTLN        .US/F                                               :          
GR          .GAPI                                               :          
GR_NORM     .GAPI                                               :GammaRay Normalized
IDER        .OHMM                                               :          
IMER        .OHMM                                               :          
NPOR        .DEC                                                :          
RWA         .OHMM                                               :          
SFLA        .OHMM                                               :          
SP          .MV                                                 :          
SP_NORM     .MV                                                 :SP Normalized
TENS        .LB                                                 :          
VSH_GR      .V/V                                                :Volume of Shale from GR
VSH_SP      .V/V                                                :Volume of Shale from SP
~A        DEPTH           CDER           DCAL           DPHI           DRHO           DTLN             GR        GR_NORM           IDER           IMER           NPOR            RWA           SFLA             SP        SP_NORM           TENS         VSH_GR         VSH_SP
# ...
      8160.0000        898.715          0.377           0.12          0.024         85.034         69.221       66.51252          1.113          1.173          0.294          0.058          1.256            0.5      -1.065625       3128.031      0.7130324      0.9847768
      8160.5000        794.913          0.348            0.1          0.029         83.708         66.311       63.08235          1.258          1.336          0.254          0.047          1.352            0.5      -1.087268       3118.777      0.6400501      0.9844676
      8161.0000        671.817          0.357          0.085          0.035         87.587         63.496       59.76418          1.488          1.489          0.223          0.043          1.437           0.74     -0.8689102       3109.594      0.5694506       0.987587
      8161.5000        696.136          0.396          0.091          0.038         92.351         62.832       58.98149          1.436          1.466           0.22          0.043          1.425            0.9     -0.7305529       3105.602      0.5527976      0.9895635
      8162.0000        783.638          0.458          0.109          0.038         96.235         65.544       62.17825          1.276          1.263          0.266           0.05          1.351           0.82     -0.8321955        3110.07      0.6208139      0.9881115
      8162.5000        888.652          0.537          0.124          0.044         97.897         71.111       68.74036          1.125          1.102          0.306          0.057          1.258            0.6      -1.073838       3114.336      0.7604331      0.9846594
      8163.0000        997.506          0.648          0.128          0.052         97.668         74.343       72.55008          1.003          0.979          0.361          0.061          1.161            0.5      -1.195481       3104.883       0.841491      0.9829217
      8163.5000       1063.717          0.799          0.128          0.057         96.205         73.485       71.53871           0.94          0.933          0.355          0.059          1.076            0.4      -1.317123       3095.449      0.8199726      0.9811839
      8164.0000       1075.731          0.973          0.126           0.06         94.823         68.301       65.42808           0.93          0.951           0.33           0.06          1.048           0.12      -1.618766       3089.352      0.6899591      0.9768748
      8164.5000       1019.056          1.169          0.124          0.066         93.883         63.904       60.24511          0.981          0.995           0.31          0.061          1.043         -0.296      -2.056408       3083.672      0.5796831      0.9706227
      8165.0000        964.785          1.348          0.124          0.073         93.722         60.415       56.13245          1.036          1.026           0.32           0.07          1.094         -0.633      -2.415051       3094.137      0.4921797      0.9654993
      8165.5000        951.384           1.32          0.128          0.078         93.514         60.329       56.03107          1.051          1.045          0.333          0.077          1.136         -0.831      -2.634694       3105.227      0.4900228      0.9623615
      8166.0000        942.596          1.232          0.132          0.076         93.342         64.033       60.39716          1.061          1.039           0.34          0.079          1.165         -0.525      -2.350336       3105.094      0.5829183      0.9664237
      8166.5000        949.577          1.125          0.132          0.074         93.637         67.571       64.56758          1.053          1.028          0.343          0.073          1.156         -0.202      -2.048979       3111.758      0.6716506      0.9707289
      8167.0000        956.572          1.023          0.131          0.074         93.295         70.707       68.26414          1.045           1.03          0.345          0.069          1.155         -0.101      -1.969621       3121.254      0.7503009      0.9718626
      8167.5000        955.658          0.949          0.139          0.067         91.208         70.808       68.38319          1.046          1.031          0.339          0.067          1.172         -0.061      -1.951264       3132.547      0.7528339      0.9721248
      8168.0000         946.88          0.891          0.147          0.062         92.032          68.08       65.16756          1.056          1.052          0.319          0.064          1.194           0.14      -1.771907        3139.93      0.6844162       0.974687
      8168.5000        932.836          0.847          0.147          0.064           92.8         64.455        60.8946          1.072          1.087            0.3          0.063          1.213           0.06      -1.873549        3134.25      0.5935021       0.973235
      8169.0000        887.233          0.827           0.14          0.068         93.985         64.472       60.91464          1.127          1.128          0.285          0.062           1.22         -0.101      -2.056192       3131.469      0.5939285      0.9706258
      8169.5000        843.882          0.859          0.134          0.069         96.077          66.02       62.73933          1.185          1.174          0.284          0.063          1.209           0.08      -1.896834       3131.527      0.6327518      0.9729024
      8170.0000        846.668          0.782          0.129          0.067         98.123          68.06       65.14399          1.181           1.15          0.288          0.065          1.171           0.44      -1.558477       3131.895      0.6839147      0.9777361
      8170.5000        906.536          0.673          0.125          0.064         99.495         69.773       67.16319          1.103          1.071          0.298          0.067          1.121           0.64       -1.38012       3131.441      0.7268764       0.980284
      8171.0000        984.833          0.551          0.124          0.058          98.57         70.858       68.44213          1.015          0.973          0.322          0.072          1.073            0.6      -1.441762       3127.238      0.7540879      0.9794034
      8171.5000       1060.221          0.458          0.128          0.052         96.312         71.686       69.41813          0.943          0.919          0.354          0.076          1.045            0.6      -1.463405        3106.93      0.7748538      0.9790942
      8172.0000         1101.2          0.447          0.125           0.04         93.885         70.449       67.96002          0.908          0.893          0.363           0.07          1.039            0.6      -1.485047       3097.418      0.7438303       0.978785
      8172.5000       1089.681          0.436          0.118          0.028         93.571          68.05       65.13221          0.918          0.932           0.34           0.06          1.062            0.5       -1.60669       3099.809       0.683664      0.9770473
      8173.0000       1010.305            0.4          0.111          0.021         95.176         65.575       62.21479           0.99          0.984            0.3          0.051          1.106            0.6      -1.528333       3147.793      0.6215913      0.9781667
      8173.5000        968.523          0.379          0.116          0.015         97.831          64.15       60.53508          1.033          1.057          0.284          0.051          1.152            0.5      -1.649975       3187.281      0.5858529      0.9764289
      8174.0000        997.805          0.394          0.125          0.015         99.765          64.65       61.12445          1.002          1.031          0.297          0.057          1.173           0.28      -1.891618       3215.801      0.5983927      0.9729769
      8174.5000       1076.426          0.406          0.137          0.019        100.326         66.824       63.68705          0.929          0.943          0.321          0.064          1.186         -0.106       -2.29926       3210.125       0.652916      0.9671534
