#------------------------------------------------------------------------------
# Created by    : vladimir.rabinovich
# Created on    : 09/19/2023 17:22:16
#------------------------------------------------------------------------------
~Version Information Section
VERS.           2.0     :   CWLS log ASCII Standard - VERSION 2.0
WRAP.           NO      :   One line per depth step
~Well Information Section
#MNEM       .UNIT                                         VALUE :DESCRIPTION
#------------------------------------------------------------------------------
STRT        .FT                                              10 :START DEPTH
STOP        .FT                                            7932 :STOP DEPTH
STEP        .FT                                             0.5 :STEP      
NULL        .                                           -999.25 :NULL      
COMP        .                                       ALLIED CORP :COMPANY   
WELL        .                               OCS G04069 ST00BP00 :WELL      
FLD         .                                           WILDCAT :FIELD     
LOC         .                                                   :LOCATION  
CNTY        .                             GALVESTON LARGE BLOCK :LOCATION  
STAT        .                                             TEXAS :STATE     
CTRY        .                                     UNITED STATES :COUNTRY   
SRVC        .                                                   :SERVICE COMPANY
DATE        .                             9/13/2023 11:18:53 AM :LOG DATE  
API         .                                    42706400790000 :API NUMBER
UWI         .                                    42706400790000 :UNIQUE WELL ID
XCOORD      .                                  993545.470392299 :SURFACE X 
YCOORD      .                                  10396443.6120929 :SURFACE Y 
LAT         .                                         28.633244 :LATITUDE  
LON         .                                        -95.016955 :LONGITUDE 
ELEV        .FT                                              82 :ELEVATION VALUE
ELEV_TYPE   .                                                KB :ELEVATION REFERENCE TYPE
~Curve Information Section
#MNEM       .UNIT                                      API CODE :CURVE DESCRIPTION
#------------------------------------------------------------------------------
DEPT        .FT                                                 :DEPTH     
CALI        .IN                                                 :          
CILD        .MMHO                                               :          
DPHI        .B                                                  :          
DRHO        .G/C3                                               :          
DT          .US/F                                               :          
GR          .GAPI                                               :          
GR_1        .GAPI                                               :          
GR_NORM     .GAPI                                               :GammaRay Normalized
ILD         .OHMM                                               :          
ILM         .OHMM                                               :          
NPHI        .%                                                  :          
SFL         .OHMM                                               :          
SP          .MV                                                 :          
SP_NORM     .MV                                                 :SP Normalized
VSH_GR      .V/V                                                :Volume of Shale from GR
VSH_SP      .V/V                                                :Volume of Shale from SP
~A        DEPTH           CALI           CILD           DPHI           DRHO             DT             GR           GR_1        GR_NORM            ILD            ILM           NPHI            SFL             SP        SP_NORM         VSH_GR         VSH_SP
# ...
      1850.0000        -999.25       791.4375        -999.25        -999.25       147.0627        81.8313        -999.25       82.31508         1.2135         1.5078        -999.25         1.6102       -109.379      -3.849037              1      0.9450138
      1850.5000        -999.25       774.8818        -999.25        -999.25       145.5662        79.0496        -999.25       78.83526          1.138         1.4198        -999.25         1.5787      -108.9882      -3.466454      0.9752182      0.9504792
      1851.0000        -999.25       758.3262        -999.25        -999.25       144.7922        78.2064        -999.25       77.77856         1.0714         1.3241        -999.25         1.5394      -108.8628      -3.349266      0.9527352      0.9521533
      1851.5000        -999.25       810.9551        -999.25        -999.25       144.2852        76.8196        -999.25       76.04237         1.0087         1.2551        -999.25         1.4849      -108.9747      -3.469383       0.915795      0.9504374
      1852.0000        -999.25       861.7061        -999.25        -999.25       146.6487         73.286        -999.25       71.62267         0.9627         1.1985        -999.25         1.4249      -109.2562      -3.759094      0.8217589      0.9462987
      1852.5000        -999.25          909.5        -999.25        -999.25       151.9929        67.5605        -999.25       64.46309         0.9298         1.1798        -999.25         1.3661      -109.7633      -4.274406      0.6694275      0.9389371
      1853.0000        -999.25       960.8535        -999.25        -999.25       155.9556        67.2388        -999.25       64.05827         0.8981         1.1688        -999.25         1.3142      -109.8917      -4.411018      0.6608142      0.9369854
      1853.5000        -999.25       996.9707        -999.25        -999.25       158.2764        68.5682        -999.25       65.71732         0.8844         1.1682        -999.25         1.3027      -109.8729      -4.400436      0.6961131      0.9371367
      1854.0000        -999.25       1025.172        -999.25        -999.25       158.4832        68.7765        -999.25       65.97499         0.8872          1.175        -999.25         1.3203      -109.3888      -3.924553      0.7015955       0.943935
      1854.5000        -999.25       1050.529        -999.25        -999.25       156.7661        68.8235        -999.25       66.03104         0.9106          1.193        -999.25         1.3518      -109.0469      -3.590858      0.7027882       0.948702
      1855.0000        -999.25       1076.328        -999.25        -999.25       154.3611        69.5403        -999.25       66.92435         0.9448         1.2175        -999.25         1.3879      -108.9701      -3.522278      0.7217948      0.9496818
      1855.5000        -999.25       1084.336        -999.25        -999.25       152.1592        71.8948        -999.25       69.86478         0.9894          1.235        -999.25         1.4248      -109.6412      -4.201584       0.784357      0.9399773
      1856.0000        -999.25       1058.023        -999.25        -999.25       150.4585        80.2361        -999.25        80.2887         1.0392         1.2659        -999.25         1.4581      -110.4513      -5.019905              1      0.9282871
      1856.5000        -999.25       1035.088        -999.25        -999.25         150.01        83.1487        -999.25       83.92676         1.0643         1.2965        -999.25         1.4921      -110.6566      -5.233414              1      0.9252369
      1857.0000        -999.25       1012.503        -999.25        -999.25        151.303        83.5465        -999.25       84.42131          1.066         1.3223        -999.25         1.5126      -110.2061       -4.79113              1      0.9315553
      1857.5000        -999.25       989.9248        -999.25        -999.25       152.3108        82.8875        -999.25       83.59486         1.0666         1.3295        -999.25         1.5242      -109.6615      -4.254738              1       0.939218
      1858.0000        -999.25       967.3457        -999.25        -999.25       152.3276        82.2612        -999.25       82.80929         1.0408            1.3        -999.25         1.5054      -109.3956      -3.997055              1      0.9428992
      1858.5000        -999.25       945.5117        -999.25        -999.25       151.9739        81.8142        -999.25       82.24784         1.0156         1.2134        -999.25         1.4642      -109.5215      -4.131172              1      0.9409832
      1859.0000        -999.25        926.918        -999.25        -999.25       151.6572        81.3093        -999.25       81.61401         0.9892         1.1674        -999.25         1.4092      -109.9751      -4.592979              1       0.934386
      1859.5000        -999.25       970.8994        -999.25        -999.25        152.626        79.4102        -999.25       79.23744         0.9577         1.1435        -999.25         1.3567      -110.5187      -5.144798      0.9837754      0.9265029
      1860.0000        -999.25       991.2666        -999.25        -999.25       155.9204        73.5498        -999.25       71.90924         0.9273         1.1284        -999.25         1.2942      -110.7686      -5.402908      0.8278562      0.9228156
      1860.5000        -999.25       1011.635        -999.25        -999.25       159.6099        69.7739        -999.25       67.18667         0.8977         1.1189        -999.25         1.2593      -110.9509      -5.593422      0.7273759       0.920094
      1861.0000        -999.25       1032.002        -999.25        -999.25        164.687        69.9005        -999.25       67.34222         0.8754         1.1167        -999.25         1.2743      -110.9752      -5.625931      0.7306855      0.9196296
      1861.5000        -999.25       1064.953        -999.25        -999.25       166.5823        72.4163        -999.25       70.48427         0.8536         1.1152        -999.25         1.3331      -110.1251       -4.78405      0.7975376      0.9316564
      1862.0000        -999.25       1127.701        -999.25        -999.25       166.5598        74.3406        -999.25       72.88695         0.8324         1.1092        -999.25         1.3605      -109.6044      -4.271561      0.8486584      0.9389777
      1862.5000        -999.25       1144.488        -999.25        -999.25        165.459        74.5055        -999.25       73.09037         0.8215         1.1013        -999.25          1.356      -109.5924      -4.267776      0.8529866      0.9390318
      1863.0000        -999.25       1158.309        -999.25        -999.25        162.146        72.3885        -999.25       70.44142         0.8166         1.0895        -999.25         1.3454       -109.975      -4.658585       0.796626      0.9334488
      1863.5000        -999.25       1160.824        -999.25        -999.25       158.8274        72.1204        -999.25        70.1036         0.8117         1.0799        -999.25          1.347      -110.4641      -5.155907      0.7894383      0.9263442
      1864.0000        -999.25       1163.297        -999.25        -999.25       157.3584        72.5676        -999.25        70.6599         0.8082         1.0753        -999.25         1.3417      -110.9319       -5.63192      0.8012744       0.919544
      1864.5000        -999.25       1159.266        -999.25        -999.25       157.1448        71.1965        -999.25       68.94333         0.8202         1.0772        -999.25         1.3077      -111.1143      -5.822533      0.7647517      0.9168209
      1865.0000        -999.25       1146.332        -999.25        -999.25       157.4626        66.0696        -999.25       62.53201         0.8324         1.1123        -999.25         1.2778      -110.7946      -5.511047      0.6283405      0.9212707
      1865.5000        -999.25       1133.402        -999.25        -999.25       157.9993        63.6589        -999.25       59.51593         0.8467          1.154        -999.25         1.2951      -110.4191      -5.143753      0.5641688      0.9265178
