#------------------------------------------------------------------------------
# Created by    : vladimir.rabinovich
# Created on    : 09/19/2023 17:22:45
#------------------------------------------------------------------------------
~Version Information Section
VERS.           2.0     :   CWLS log ASCII Standard - VERSION 2.0
WRAP.           NO      :   One line per depth step
~Well Information Section
#MNEM       .UNIT                                         VALUE :DESCRIPTION
#------------------------------------------------------------------------------
STRT        .FT                                             270 :START DEPTH
STOP        .FT                                            9392 :STOP DEPTH
STEP        .FT                                             0.5 :STEP      
NULL        .                                           -999.25 :NULL      
COMP        .                                     TALOS ERT LLC :COMPANY   
WELL        .                               OCS G12363 ST00BP00 :WELL      
FLD         .                                 BRAZOS BLOCK 0453 :FIELD     
LOC         .                                                   :LOCATION  
CNTY        .                                BRAZOS LARGE BLOCK :LOCATION  
STAT        .                                             TEXAS :STATE     
CTRY        .                                     UNITED STATES :COUNTRY   
SRVC        .                                                   :SERVICE COMPANY
DATE        .                             9/13/2023 11:19:08 AM :LOG DATE  
API         .                                    42704401340000 :API NUMBER
UWI         .                                    42704401340000 :UNIQUE WELL ID
XCOORD      .                                  788791.944469438 :SURFACE X 
YCOORD      .                                  10354739.7167093 :SURFACE Y 
LAT         .                                         28.507622 :LATITUDE  
LON         .                                        -95.652007 :LONGITUDE 
ELEV        .FT                                             100 :ELEVATION VALUE
ELEV_TYPE   .                                                KB :ELEVATION REFERENCE TYPE
~Curve Information Section
#MNEM       .UNIT                                      API CODE :CURVE DESCRIPTION
#------------------------------------------------------------------------------
DEPT        .FT                                                 :DEPTH     
DPHI        .%                                                  :          
DT          .US/F                                               :          
GR          .GAPI                                               :          
GR_NORM     .GAPI                                               :GammaRay Normalized
ILD         .OHMM                                               :          
ILM         .OHMM                                               :          
LL          .OHMM                                               :          
NPHI        .%                                                  :          
SP          .MV                                                 :          
SP_NORM     .MV                                                 :SP Normalized
VSH_GR      .V/V                                                :Volume of Shale from GR
VSH_SP      .V/V                                                :Volume of Shale from SP
~A        DEPTH           DPHI             DT             GR        GR_NORM            ILD            ILM             LL           NPHI             SP        SP_NORM         VSH_GR         VSH_SP
# ...
       352.0000        -999.25        -999.25        25.6048        72.4642        -999.25        -999.25        -999.25        54.2407        -999.25        -999.25      0.8396637        -999.25
       352.5000        -999.25        -999.25        28.4407       74.38594        -999.25        -999.25        -999.25        59.3586        -999.25        -999.25      0.8805519        -999.25
       353.0000        -999.25        -999.25        29.2564       73.76732        -999.25        -999.25        -999.25        58.8948        -999.25        -999.25      0.8673897        -999.25
       353.5000        -999.25        -999.25        28.9977       71.79766        -999.25        -999.25        -999.25        54.8027        -999.25        -999.25      0.8254821        -999.25
       354.0000        -999.25        -999.25        28.1067       69.03289        -999.25        -999.25        -999.25        54.2859        -999.25        -999.25      0.7666572        -999.25
       354.5000        -999.25        -999.25        27.0216       66.02406        -999.25        -999.25        -999.25        56.2735        -999.25        -999.25      0.7026395        -999.25
       355.0000        -999.25        -999.25        25.5607       62.54265        -999.25        -999.25        -999.25        58.4337        -999.25        -999.25       0.628567        -999.25
       355.5000        -999.25        -999.25        24.2161        59.2075        -999.25        -999.25        -999.25        63.3843        -999.25        -999.25      0.5576064        -999.25
       356.0000        -999.25        -999.25        22.9925       56.02449        -999.25        -999.25        -999.25        66.4703        -999.25        -999.25      0.4898829        -999.25
       356.5000        -999.25        -999.25         21.919       53.03024        -999.25        -999.25        -999.25        75.7434        -999.25        -999.25      0.4261752        -999.25
       357.0000        -999.25        -999.25        21.2437       50.53672        -999.25        -999.25        -999.25         72.776        -999.25        -999.25      0.3731217        -999.25
       357.5000        -999.25        -999.25        20.6939       48.51863        -999.25        -999.25        -999.25        61.0562        -999.25        -999.25      0.3301836        -999.25
       358.0000        -999.25        -999.25        20.2711       47.89561        -999.25        -999.25        -999.25        54.7052        -999.25        -999.25       0.316928        -999.25
       358.5000        -999.25        -999.25        19.9184       47.36075        -999.25        -999.25        -999.25        52.9089        -999.25        -999.25      0.3055478        -999.25
       359.0000        -999.25        -999.25        19.6416       46.92132        -999.25        -999.25        -999.25        56.4722        -999.25        -999.25      0.2961982        -999.25
       359.5000        -999.25        -999.25        19.6239       46.80771        -999.25        -999.25        -999.25        58.3048        -999.25        -999.25      0.2937811        -999.25
       360.0000        -999.25        -999.25         19.767       46.89631        -999.25        -999.25        -999.25        55.9144        -999.25        -999.25      0.2956662        -999.25
       360.5000        -999.25        -999.25        20.0604        47.1739        -999.25        -999.25        -999.25        53.6725        -999.25        -999.25      0.3015724        -999.25
       361.0000        -999.25        -999.25         20.739       47.93587        -999.25        -999.25        -999.25        53.9756        -999.25        -999.25      0.3177846        -999.25
       361.5000        -999.25        -999.25        21.1346       48.34198        -999.25        -999.25        -999.25        59.3657        -999.25        -999.25      0.3264252        -999.25
       362.0000        -999.25        -999.25        20.5863       47.56115        -999.25        -999.25        -999.25        65.4917        -999.25        -999.25      0.3098118        -999.25
       362.5000        -999.25        -999.25        20.1451         46.915        -999.25        -999.25        -999.25         74.713        -999.25        -999.25      0.2960638        -999.25
       363.0000        -999.25        -999.25        21.1361       48.06982        -999.25        -999.25        -999.25        90.3403        -999.25        -999.25      0.3206344        -999.25
       363.5000        -999.25        -999.25        24.4271       52.11683        -999.25        -999.25        -999.25       100.1829        -999.25        -999.25      0.4067411        -999.25
       364.0000        69.7916        -999.25        26.0809        54.1051          0.178        17.1683         0.5198        99.8663      -140.2966       -17.7456      0.4490446        -999.25
       364.5000        70.8397        -999.25        25.7787       53.63374         0.1984         6.0104         0.6707        93.0571       -132.113       -11.9895      0.4390157        -999.25
       365.0000        71.7125        -999.25        25.3006       52.94117         17.273         1.7464         1.0641        69.3887      -128.1558       -10.4598      0.4242803        -999.25
       365.5000        72.4956        -999.25        26.1805       53.95629         5.6647         1.3932         1.2203        57.6221      -125.6226       -10.3541      0.4458784        -999.25
       366.0000        73.0343        -999.25        27.0691       54.98233         1.8415         1.3327         1.3289        52.5934      -123.0239       -10.1829      0.4677092        -999.25
       366.5000        73.4567        -999.25        27.6192       55.58273          1.547          1.339         1.5037        53.7925      -119.1404        -8.7269      0.4804836        -999.25
       367.0000        73.6411        -999.25        28.6016       56.72672         1.6017         1.3757         1.6357        63.9287      -116.7278        -8.7418      0.5048238        -999.25
       367.5000        73.6281        -999.25        30.2811       58.74731         1.7111         1.4518         1.7636        79.7493      -115.1509        -9.5924       0.547815        -999.25
       368.0000        73.4974        -999.25        35.2279       64.87646         1.8204         1.4895         1.9395         81.238      -113.5553       -10.4243      0.6782227        -999.25
       368.5000        73.2882        -999.25        37.9105       68.15844         1.8694         1.5208         2.0528        75.1997      -110.5597        -9.8562      0.7480519        -999.25
       369.0000        72.9795        -999.25        40.8525        71.7666         1.8758         1.5451          1.998        68.4076      -107.5709        -9.2949      0.8248213        -999.25
       369.5000        72.4454        -999.25        43.0923       74.49174         1.8841          1.518         1.9323        62.1665      -105.3358        -9.4873      0.8828031        -999.25
       370.0000        69.6431        -999.25        45.0495       76.86154         1.8853         1.4551         1.8725        58.0288      -102.7986        -9.3776      0.9332243        -999.25
       370.5000        62.6368        -999.25        45.3521       77.15071         1.7258         1.4774         1.8342        54.6816      -102.2321       -11.2386      0.9393768        -999.25
       371.0000        56.6436        -999.25        44.9876         76.601         1.6603         1.5206         1.8187         58.415      -102.2703       -13.7043      0.9276808        -999.25
       371.5000        48.3171        -999.25        43.8027       75.01965         1.6156         1.5535          1.806        66.7166      -102.0139       -15.8754      0.8940352        -999.25
       372.0000        45.5074        -999.25        41.3773        71.8784         1.6013         1.5686         1.7924        75.3422       -99.8397       -16.1287      0.8272001        -999.25
