#------------------------------------------------------------------------------
# Created by    : vladimir.rabinovich
# Created on    : 09/19/2023 17:19:55
#------------------------------------------------------------------------------
~Version Information Section
VERS.           2.0     :   CWLS log ASCII Standard - VERSION 2.0
WRAP.           NO      :   One line per depth step
~Well Information Section
#MNEM       .UNIT                                         VALUE :DESCRIPTION
#------------------------------------------------------------------------------
STRT        .FT                                            1601 :START DEPTH
STOP        .FT                                            6340 :STOP DEPTH
STEP        .FT                                             0.5 :STEP      
NULL        .                                           -999.25 :NULL      
COMP        .                 FAIRWAYS OFFSHORE EXPLORATION INC :COMPANY   
WELL        .                                ST TR 00629-L SE/4 :WELL      
FLD         .                                       BLOCK 630-L :FIELD     
LOC         .                                                   :LOCATION  
CNTY        .                      MATAGORDA ISLAND LARGE BLOCK :LOCATION  
STAT        .                                             TEXAS :STATE     
CTRY        .                                     UNITED STATES :COUNTRY   
SRVC        .                                                   :SERVICE COMPANY
DATE        .                             9/13/2023 11:19:05 AM :LOG DATE  
API         .                                    42703302840100 :API NUMBER
UWI         .                                    42703302840100 :UNIQUE WELL ID
XCOORD      .                                  449566.970470722 :SURFACE X 
YCOORD      .                                  10204940.3648147 :SURFACE Y 
LAT         .                                        28.0716107 :LATITUDE  
LON         .                                       -96.6925833 :LONGITUDE 
ELEV        .FT                                              82 :ELEVATION VALUE
ELEV_TYPE   .                                                KB :ELEVATION REFERENCE TYPE
~Curve Information Section
#MNEM       .UNIT                                      API CODE :CURVE DESCRIPTION
#------------------------------------------------------------------------------
DEPT        .FT                                                 :DEPTH     
ASFL        .OHMM                                               :          
CILD        .MMHO                                               :          
GR          .GAPI                                               :          
GR_NORM     .GAPI                                               :GammaRay Normalized
ILD         .OHMM                                               :          
SP          .MV                                                 :          
SP_NORM     .MV                                                 :SP Normalized
VSH_GR      .V/V                                                :Volume of Shale from GR
VSH_SP      .V/V                                                :Volume of Shale from SP
~A        DEPTH           ASFL           CILD             GR        GR_NORM            ILD             SP        SP_NORM         VSH_GR         VSH_SP
# ...
      5072.5000         0.8659       1032.574        72.0629        80.0195         0.9401       -42.1372     -0.1685638              1              1
      5073.0000         0.8566       1044.564        72.8618       81.27523         0.9332        -41.988   -0.009109497              1              1
      5073.5000         0.8502       1056.555        73.6608       82.53113         0.9264       -41.8387       0.150444              1              1
      5074.0000         0.8472       1074.994        74.4858       83.82798         0.9195       -41.7731      0.2262955              1              1
      5074.5000         0.8443       1105.863        75.4083       85.27845         0.9054       -41.7641      0.2455521              1              1
      5075.0000         0.8414       1136.121        76.3425       86.74734         0.8883       -41.7551      0.2648048              1              1
      5075.5000         0.8315       1166.354        77.4686       88.51859         0.8711       -41.7461      0.2840576              1              1
      5076.0000         0.8213       1196.611        78.5308       90.18916          0.854       -41.6724      0.3680115              1              1
      5076.5000         0.8066       1226.867        79.4432       91.62369         0.8368       -41.5715      0.4791679              1              1
      5077.0000         0.7907       1274.484        80.3558       93.05857         0.8219       -41.4706      0.5903168              1              1
      5077.5000         0.7748       1324.162         81.084       94.20291         0.8084       -41.5204      0.5507698              1              1
      5078.0000          0.758       1370.209        81.8022       95.33149         0.7948       -41.6749      0.4065247              1              1
      5078.5000         0.7413       1401.742        82.5695       96.53745         0.7813       -41.8494      0.2422791              1              1
      5079.0000         0.7253       1421.051        83.4063       97.85289         0.7677        -42.083     0.01893234              1              1
      5079.5000           0.71        1433.91        84.1736       99.05883         0.7554       -42.3166     -0.2044144              1              1
      5080.0000          0.696       1443.666        84.3138       99.27673         0.7432       -42.5502     -0.4277611              1              1
      5080.5000         0.6828       1446.691        78.2092       89.65573         0.7312       -42.7837     -0.6510048              1              1
      5081.0000         0.7066       1437.785        77.2842        88.1954          0.736       -42.4418      -0.298851              1              1
      5081.5000         0.7566         1266.1        74.8514       84.35946         0.7512       -42.0898     0.06340027              1              1
      5082.0000         0.7922       1213.922         70.814       77.99543         0.7792       -41.7506      0.4128571      0.9573496              1
      5082.5000         0.8211       1167.824        69.0956       75.28503         0.8073       -41.6157      0.5580101      0.8996814              1
      5083.0000         0.8416       1145.609        68.6781       74.62428         0.8334        -41.481      0.7029648       0.885623              1
      5083.5000         0.8541       1125.566        68.4725       74.29739         0.8459       -41.3462      0.8480186      0.8786678              1
      5084.0000         0.8667       1105.533        68.5922       74.48301         0.8583       -41.0612       1.143272      0.8826172              1
      5084.5000         0.8792       1085.488        69.2018       75.44049         0.8708       -40.6549       1.559822      0.9029891              1
      5085.0000         0.8867       1065.455        70.1472       76.92702         0.8833       -40.2487       1.976276      0.9346176              1
      5085.5000         0.8927       1049.574        71.5092       79.06997         0.8958       -39.8343       2.400928      0.9802121              1
      5086.0000         0.8988        1040.25        73.4038       82.05199         0.9035       -40.1667       2.078785              1              1
      5086.5000          0.904        1033.65        78.1992       89.60438         0.8977       -40.5469       1.708836              1              1
      5087.0000          0.898       1036.434        79.1267       91.06271         0.8919       -40.9271        1.33889              1              1
      5087.5000         0.8921       1039.213        79.6239        91.8431         0.8861       -41.3074      0.9688454              1              1
      5088.0000         0.8861       1042.465        79.7947       92.10924         0.8803       -41.6876      0.5988998              1              1
      5088.5000         0.8801       1046.857        79.1416       91.07729           0.88       -42.0678      0.2289543              1              1
      5089.0000         0.8741       1051.246        78.4692       90.01492         0.8889       -42.2554     0.05160522              1              1
      5089.5000         0.8664       1049.922         77.157       87.94453         0.8978       -42.4043    -0.08703995              1              1
      5090.0000         0.8606       1038.313         75.579       85.45537         0.9067       -42.5529     -0.2253838              1              1
      5090.5000         0.8947       1026.691         73.528       82.22095         0.9167        -42.677     -0.3392296              1              1
      5091.0000         0.9221       1015.111        72.6415       80.82128         0.9399       -42.7511     -0.4030762              1              1
      5091.5000          0.942       1005.979        74.1215       83.15011          0.963       -42.8253     -0.4670219              1              1
      5092.0000         0.9618       996.8506        76.1259       86.30515         0.9861       -42.8995     -0.5309753              1              1
      5092.5000         0.9692       987.7168        76.0812       86.23175         0.9944       -42.9736     -0.5948181              1              1
      5093.0000         0.9723       982.6045        75.2078       84.85271         0.9909       -43.0478     -0.6587639              1              1
      5093.5000         0.9729       989.3232         74.335        83.4746         0.9844       -43.1052     -0.7059135              1              1
      5094.0000         0.9733       1006.903        73.4615       82.09542         0.9673       -43.1605     -0.7509575              1              1
      5094.5000         0.9602       1024.484         72.688       80.87376         0.9503       -43.2158     -0.7960052              1              1
      5095.0000         0.9471       1045.693         72.726       80.93066         0.9332        -43.271       -0.84095              1              1
      5095.5000         0.9268       1068.717        81.0269        94.0061         0.9161       -43.3263     -0.8859978              1              1
      5096.0000          0.903       1094.314          83.87       98.48255          0.899       -43.3815     -0.9309425              1              1
      5096.5000         0.8864       1119.914         86.085       101.9694         0.8819       -43.4462     -0.9853897              1              1
      5097.0000         0.8724       1145.488        84.4474       99.38632         0.8648       -43.5359      -1.064835              1      0.9986768
      5097.5000         0.8584        1170.35        82.5304       96.36304         0.8477       -43.6257      -1.144382              1      0.9970534
      5098.0000         0.8442       1193.816        81.4999       94.73648         0.8306       -43.7154      -1.223827              1      0.9954321
      5098.5000           0.83       1219.881        80.8611       93.72705         0.8136       -43.8051      -1.303272              1      0.9938108
