#------------------------------------------------------------------------------
# Created by    : vladimir.rabinovich
# Created on    : 09/19/2023 17:20:33
#------------------------------------------------------------------------------
~Version Information Section
VERS.           2.0     :   CWLS log ASCII Standard - VERSION 2.0
WRAP.           NO      :   One line per depth step
~Well Information Section
#MNEM       .UNIT                                         VALUE :DESCRIPTION
#------------------------------------------------------------------------------
STRT        .FT                                             526 :START DEPTH
STOP        .FT                                            9568 :STOP DEPTH
STEP        .FT                                             0.5 :STEP      
NULL        .                                           -999.25 :NULL      
COMP        .                       BLUE DOLPHIN EXPLORATION CO :COMPANY   
WELL        .                                OCS 00713 ST00BP00 :WELL      
FLD         .                              GALVESTON BLOCK 0288 :FIELD     
LOC         .                                                   :LOCATION  
CNTY        .                             GALVESTON LARGE BLOCK :LOCATION  
STAT        .                                             TEXAS :STATE     
CTRY        .                                     UNITED STATES :COUNTRY   
SRVC        .                                                   :SERVICE COMPANY
DATE        .                             9/13/2023 11:19:25 AM :LOG DATE  
API         .                                    42706000630000 :API NUMBER
UWI         .                                    42706000630000 :UNIQUE WELL ID
XCOORD      .                                  1101981.32688909 :SURFACE X 
YCOORD      .                                  10481575.8265757 :SURFACE Y 
LAT         .                                          28.87198 :LATITUDE  
LON         .                                        -94.682732 :LONGITUDE 
ELEV        .FT                                              58 :ELEVATION VALUE
ELEV_TYPE   .                                                KB :ELEVATION REFERENCE TYPE
~Curve Information Section
#MNEM       .UNIT                                      API CODE :CURVE DESCRIPTION
#------------------------------------------------------------------------------
DEPT        .FT                                                 :DEPTH     
ASN         .OHMM                                               :          
CALI        .IN                                                 :          
DT          .US/F                                               :          
ILD         .OHMM                                               :          
SP          .MV                                                 :          
SP_NORM     .MV                                                 :SP Normalized
VSH_SP      .V/V                                                :Volume of Shale from SP
~A        DEPTH            ASN           CALI             DT            ILD             SP        SP_NORM         VSH_SP
# ...
      2938.0000          0.925        -999.25        -999.25         0.9113       -41.9961       -2.46122      0.9743767
      2938.5000         0.9213        -999.25        -999.25         0.9131       -42.0739      -2.539017      0.9700546
      2939.0000          0.919        -999.25        -999.25         0.9094        -42.069      -2.534119      0.9703267
      2939.5000         0.9164        -999.25        -999.25         0.9036       -41.8044       -2.26952      0.9850267
      2940.0000         0.9116        -999.25        -999.25         0.8969       -41.6019      -2.067017      0.9962769
      2940.5000         0.9079        -999.25        -999.25         0.8969       -41.9133      -2.378418      0.9789768
      2941.0000         0.9077        -999.25        -999.25         0.8969       -42.0655      -2.530617      0.9705213
      2941.5000         0.9119        -999.25        -999.25         0.8955       -42.0855      -2.550617      0.9694102
      2942.0000         0.9188        -999.25        -999.25         0.8987       -42.0351      -2.500217      0.9722102
      2942.5000         0.9197        -999.25        -999.25         0.8957       -41.8929      -2.358017      0.9801102
      2943.0000         0.9171        -999.25        -999.25         0.8886       -41.8478       -2.31292      0.9826156
      2943.5000          0.912        -999.25        -999.25         0.8859       -42.1225       -2.58762      0.9673545
      2944.0000         0.9076        -999.25        -999.25         0.8862       -42.5325       -2.99762      0.9445767
      2944.5000          0.906        -999.25        -999.25          0.888       -42.7853       -3.25042      0.9305322
      2945.0000          0.903        -999.25        -999.25         0.8871       -42.8872      -3.352318      0.9248712
      2945.5000         0.9017        -999.25        -999.25          0.888       -42.9221      -3.387218      0.9229323
      2946.0000         0.9058        -999.25        -999.25         0.8898       -42.8324       -3.29752      0.9279156
      2946.5000         0.9097        -999.25        -999.25         0.8784       -42.9587      -3.423817      0.9208991
      2947.0000         0.9182        -999.25        -999.25         0.8754         -43.23      -3.695118      0.9058268
      2947.5000         0.9343        -999.25        -999.25         0.8778       -43.0305      -3.495617      0.9169102
      2948.0000         0.9474        -999.25        -999.25         0.9116       -42.7625      -3.227619      0.9317989
      2948.5000          0.963        -999.25        -999.25         0.9451       -42.7799      -3.245018      0.9308323
      2949.0000           0.99        -999.25        -999.25         0.9507       -42.7622      -3.227318      0.9318157
      2949.5000         1.0219        -999.25        -999.25         0.9646       -42.7445      -3.209618       0.932799
      2950.0000         1.0357        -999.25        -999.25         0.9835       -42.6698      -3.134918       0.936949
      2950.5000         1.0432        -999.25        -999.25         1.0103       -42.4131       -2.87822        0.95121
      2951.0000         1.0483        -999.25        -999.25         1.0331        -42.166      -2.631119      0.9649379
      2951.5000         1.0623        -999.25        -999.25         1.0475       -42.2194      -2.684517      0.9619713
      2952.0000         1.0753        -999.25        -999.25         1.0595       -42.3808      -2.845917      0.9530046
      2952.5000         1.0817        -999.25        -999.25         1.0655       -42.7413      -3.206417      0.9329768
      2953.0000         1.0779        -999.25        -999.25         1.0763       -43.0842       -3.54932      0.9139267
      2953.5000         1.0687        -999.25        -999.25         1.0843       -43.1812      -3.646317       0.908538
      2954.0000         1.0634        -999.25        -999.25         1.1039       -43.1018      -3.566917       0.912949
      2954.5000         1.0612        -999.25        -999.25         1.1143       -43.2221      -3.687218      0.9062657
      2955.0000          1.058        -999.25        -999.25         1.1273       -43.3257      -3.790817      0.9005101
      2955.5000         1.0553        -999.25        -999.25          1.118       -43.0726       -3.53772      0.9145711
      2956.0000         1.0517        -999.25        -999.25         1.1167        -42.887      -3.352119      0.9248822
      2956.5000         1.0431        -999.25        -999.25         1.1056       -43.1923      -3.657417      0.9079213
      2957.0000         1.0287        -999.25        -999.25          1.094       -43.4413      -3.906418      0.8940879
      2957.5000         1.0157        -999.25        -999.25         1.0844       -43.7153       -4.18042      0.8788655
      2958.0000         1.0115        -999.25        -999.25         1.0811       -43.8162      -4.281319      0.8732601
      2958.5000         1.0107        -999.25        -999.25         1.0733       -43.4863       -3.95142      0.8915878
      2959.0000           1.01        -999.25        -999.25         1.0686       -42.8615      -3.326618       0.926299
      2959.5000         1.0088        -999.25        -999.25         1.0563       -42.4397      -2.904819      0.9497322
      2960.0000         1.0019        -999.25        -999.25         1.0404       -42.2741       -2.73922      0.9589322
      2960.5000         0.9957        -999.25        -999.25           1.03       -42.3676      -2.832718      0.9537379
      2961.0000         0.9931        -999.25        -999.25         1.0255       -42.5257      -2.990818      0.9449546
      2961.5000         0.9934        -999.25        -999.25         1.0188       -42.6286      -3.093719      0.9392378
      2962.0000          0.991        -999.25        -999.25         1.0085       -42.3919      -2.857018      0.9523879
      2962.5000          0.987        -999.25        -999.25         0.9955       -42.1048       -2.56992      0.9683378
      2963.0000         0.9806        -999.25        -999.25         0.9845       -42.1232      -2.588318      0.9673157
      2963.5000         0.9764        -999.25        -999.25         0.9842       -42.0687      -2.533817      0.9703435
      2964.0000          0.973        -999.25        -999.25         0.9791       -41.8016       -2.26672      0.9851822
      2964.5000          0.969        -999.25        -999.25         0.9685       -41.4591      -1.924217              1
      2965.0000         0.9633        -999.25        -999.25         0.9633        -41.265      -1.730118              1
      2965.5000         0.9689        -999.25        -999.25         0.9607       -41.4896       -1.95472              1
      2966.0000          0.973        -999.25        -999.25         0.9545       -42.0335      -2.498619      0.9722989
      2966.5000         0.9762        -999.25        -999.25         0.9474       -42.4947       -2.95982      0.9466767
      2967.0000         0.9759        -999.25        -999.25         0.9452       -42.7037      -3.168819      0.9350656
      2967.5000         0.9752        -999.25        -999.25          0.943       -42.7221      -3.187218      0.9340435
      2968.0000         0.9708        -999.25        -999.25         0.9318       -42.7405       -3.20562      0.9330211
      2968.5000         0.9589        -999.25        -999.25         0.9226       -42.7228       -3.18792      0.9340045
      2969.0000         0.9355        -999.25        -999.25         0.9144       -42.6837      -3.148819      0.9361767
      2969.5000         0.9233        -999.25        -999.25         0.9069       -42.6514       -3.11652      0.9379711
      2970.0000         0.9282        -999.25        -999.25         0.9067       -42.5452      -3.010319      0.9438712
      2970.5000         0.9378        -999.25        -999.25         0.8999       -42.3913      -2.856419      0.9524212
      2971.0000         0.9358        -999.25        -999.25         0.8969       -42.4485       -2.91362      0.9492433
