#------------------------------------------------------------------------------
# Created by    : vladimir.rabinovich
# Created on    : 09/19/2023 17:22:54
#------------------------------------------------------------------------------
~Version Information Section
VERS.           2.0     :   CWLS log ASCII Standard - VERSION 2.0
WRAP.           NO      :   One line per depth step
~Well Information Section
#MNEM       .UNIT                                         VALUE :DESCRIPTION
#------------------------------------------------------------------------------
STRT        .FT                                             606 :START DEPTH
STOP        .FT                                           12703 :STOP DEPTH
STEP        .FT                                             0.5 :STEP      
NULL        .                                           -999.25 :NULL      
COMP        .                                       PURE OIL CO :COMPANY   
WELL        .                                OCS 00099 ST00BP00 :WELL      
FLD         .                                           WILDCAT :FIELD     
LOC         .                                                   :LOCATION  
CNTY        .                             GALVESTON LARGE BLOCK :LOCATION  
STAT        .                                             TEXAS :STATE     
CTRY        .                                     UNITED STATES :COUNTRY   
SRVC        .                                                   :SERVICE COMPANY
DATE        .                             9/13/2023 11:19:42 AM :LOG DATE  
API         .                                    42706000130000 :API NUMBER
UWI         .                                    42706000130000 :UNIQUE WELL ID
XCOORD      .                                  1105531.03723184 :SURFACE X 
YCOORD      .                                  10576678.2721464 :SURFACE Y 
LAT         .                                         29.133654 :LATITUDE  
LON         .                                        -94.675857 :LONGITUDE 
ELEV        .FT                                              66 :ELEVATION VALUE
ELEV_TYPE   .                                                KB :ELEVATION REFERENCE TYPE
~Curve Information Section
#MNEM       .UNIT                                      API CODE :CURVE DESCRIPTION
#------------------------------------------------------------------------------
DEPT        .FT                                                 :DEPTH     
LAT         .OHMM                                               :          
LN          .OHMM                                               :          
SN          .OHMM                                               :          
SP          .MV                                                 :          
SP_NORM     .MV                                                 :SP Normalized
VSH_SP      .V/V                                                :Volume of Shale from SP
~A        DEPTH            LAT             LN             SN             SP        SP_NORM         VSH_SP
# ...
      8624.0000         0.2937         0.2758         0.3695       -67.3354      -17.69258      0.5719851
      8624.5000         0.3102         0.2816         0.3825       -65.6677      -16.02371      0.6147766
      8625.0000         0.3267         0.2873         0.3955       -62.6548      -13.00965      0.6920604
      8625.5000         0.3432         0.2901         0.3993       -59.6465      -10.00018      0.7692261
      8626.0000         0.3551         0.2926          0.402       -56.6335      -6.986019      0.8465123
      8626.5000         0.3644         0.2951         0.4047       -56.5186      -6.869957      0.8494883
      8627.0000         0.3737         0.2977         0.4074       -58.0881       -8.43829      0.8092746
      8627.5000         0.3586         0.3002         0.4082       -59.6578      -10.00682      0.7690558
      8628.0000         0.3294         0.3027         0.3959       -61.2274      -11.57526      0.7288394
      8628.5000         0.3003         0.3053         0.3836       -62.5506       -12.8973      0.6949411
      8629.0000         0.2711         0.3067         0.3713       -62.8708      -13.21634      0.6867606
      8629.5000          0.242         0.3063          0.359        -63.191      -13.53537      0.6785803
      8630.0000         0.2128         0.3059         0.3467       -64.6304      -14.97361      0.6417024
      8630.5000         0.1867         0.3056         0.3343       -72.8167      -23.15874      0.4318271
      8631.0000         0.1631         0.3052         0.3292       -82.7574      -33.09828      0.1769672
      8631.5000         0.1396         0.3048         0.3339       -84.1556      -34.49532      0.1411458
      8632.0000          0.116         0.3045         0.3387       -84.7849      -35.12345      0.1250398
      8632.5000         0.0925         0.2953         0.3434       -85.4141      -35.75148      0.1089363
      8633.0000         0.0689         0.2813         0.3481       -86.0511      -36.38732     0.09263279
      8633.5000         0.0476         0.2674         0.3528       -86.6882      -37.02326     0.07632671
      8634.0000         0.0333         0.2535         0.3576       -87.3264      -37.66029     0.05999247
      8634.5000         0.0191         0.2396         0.3601       -87.9635      -38.29623      0.0436864
      8635.0000         0.0048         0.2257         0.3567       -89.1238      -39.45536     0.01396502
      8635.5000              0         0.2218         0.3532       -88.7156        -39.046      0.0244616
      8636.0000              0         0.2214         0.3498       -87.3107      -37.63993      0.0605145
      8636.5000              0         0.2211         0.3464       -85.9056      -36.23367     0.09657248
      8637.0000              0         0.2207         0.3429       -84.4736      -34.80051      0.1333202
      8637.5000              0         0.2203         0.3395       -82.8838      -33.20954      0.1741143
      8638.0000              0          0.242         0.3374       -81.2916      -31.61618      0.2149697
      8638.5000              0         0.2639         0.3427       -79.6995      -30.02291      0.2558227
      8639.0000              0         0.2859         0.3481       -78.1095      -28.43175      0.2966219
      8639.5000              0         0.3079         0.3534        -80.385      -30.70609      0.2383054
      8640.0000              0         0.3298         0.3588       -84.9946      -35.31452      0.1201405
      8640.5000         0.0068         0.3518         0.3642       -88.1699      -38.48866     0.03875243
      8641.0000         0.0561         0.3507         0.3695       -87.9985      -38.31609     0.04317719
      8641.5000         0.1054         0.3433         0.3729       -86.0996      -36.41603     0.09189665
      8642.0000         0.1547         0.3359         0.3757       -83.5648      -33.88006      0.1569215
      8642.5000         0.2039         0.3285         0.3784         -81.03       -31.3441      0.2219461
      8643.0000         0.2563         0.3303         0.3812       -78.4996      -28.81254      0.2868579
      8643.5000         0.3126         0.3372          0.384       -73.2677      -23.57947      0.4210392
      8644.0000         0.3688         0.3442         0.3868          -66.2       -16.5106      0.6022922
      8644.5000         0.4251         0.3511         0.3896            -65      -15.30944      0.6330912
      8645.0000         0.4813         0.3581         0.3981       -65.1893      -15.49758      0.6282672
      8645.5000         0.5376         0.3651         0.4077       -65.3788      -15.68592       0.623438
      8646.0000         0.5614          0.372         0.4173       -64.6304      -14.93635      0.6426576
      8646.5000         0.5817         0.3859          0.427       -62.7924      -13.09719      0.6898157
      8647.0000         0.6019         0.4031         0.4366       -60.9545      -11.25812      0.7369713
      8647.5000         0.6222         0.4202         0.4462       -59.1188      -9.421261      0.7840703
      8648.0000         0.6423         0.4374         0.4576       -57.2808      -7.582096      0.8312283
      8648.5000         0.6624         0.4545         0.4737       -55.1181      -5.418232       0.886712
      8649.0000         0.6824          0.464         0.4897        -55.524      -5.822964      0.8763342
      8649.5000         0.7025           0.47         0.5058       -57.1703      -7.468102      0.8341513
      8650.0000         0.7197          0.476         0.5179       -58.8166      -9.113239      0.7919682
      8650.5000         0.6812          0.482         0.5199       -59.6921      -9.987576      0.7695494
      8651.0000         0.6308         0.4863          0.522       -60.0434      -10.33771      0.7605715
      8651.5000         0.5804         0.4773         0.5191       -60.3947      -10.68784      0.7515938
      8652.0000           0.53         0.4684         0.5053       -60.3884      -10.68038      0.7517851
      8652.5000         0.4797         0.4594         0.4914       -59.2496      -9.540417       0.781015
      8653.0000         0.4486         0.4504         0.4775       -58.1107      -8.400352      0.8102474
      8653.5000         0.4467         0.4415         0.4636       -58.8504      -9.138889      0.7913105
      8654.0000         0.4447         0.4345         0.4497        -60.871      -11.15833      0.7395301
      8654.5000         0.4428         0.4358         0.4359       -63.9584      -14.24456      0.6603959
      8655.0000         0.4408         0.4371          0.422       -67.1923      -17.47729      0.5775052
      8655.5000         0.4118         0.4385         0.4122       -70.4307      -20.71453      0.4944991
      8656.0000         0.3665         0.4398         0.4162       -73.6691      -23.95177      0.4114932
      8656.5000         0.3212         0.4412         0.4203       -76.5422       -26.8237      0.3378538
      8657.0000         0.2759         0.4425         0.4243       -75.3785      -25.65884       0.367722
      8657.5000         0.2306         0.4439         0.4283       -73.3534      -23.63258      0.4196775
      8658.0000         0.1853         0.4452         0.4324       -71.8876      -22.16562      0.4572919
      8658.5000         0.1719         0.4484         0.4364       -71.5345      -21.81135      0.4663757
      8659.0000         0.1678         0.4526         0.4405       -71.1812      -21.45688      0.4754646
      8659.5000         0.1837         0.4567         0.4445       -70.6855      -20.96002      0.4882047
      8660.0000          0.205         0.4608         0.4485       -69.2219      -19.49525      0.5257627
      8660.5000         0.2263          0.465         0.4532       -67.7606      -18.03279      0.5632619
      8661.0000         0.2475         0.4691         0.4592       -66.2992      -16.57023      0.6007634
      8661.5000         0.2688         0.4733         0.4653       -64.8356      -15.10546      0.6383214
