#------------------------------------------------------------------------------
# Created by    : vladimir.rabinovich
# Created on    : 09/19/2023 17:22:53
#------------------------------------------------------------------------------
~Version Information Section
VERS.           2.0     :   CWLS log ASCII Standard - VERSION 2.0
WRAP.           NO      :   One line per depth step
~Well Information Section
#MNEM       .UNIT                                         VALUE :DESCRIPTION
#------------------------------------------------------------------------------
STRT        .FT                                             411 :START DEPTH
STOP        .FT                                           10036 :STOP DEPTH
STEP        .FT                                             0.5 :STEP      
NULL        .                                           -999.25 :NULL      
COMP        .                          HUMBLE OIL & REFINING CO :COMPANY   
WELL        .                                     ST TR 00278-L :WELL      
FLD         .                                           WILDCAT :FIELD     
LOC         .                                                   :LOCATION  
CNTY        .                             GALVESTON LARGE BLOCK :LOCATION  
STAT        .                                             TEXAS :STATE     
CTRY        .                                     UNITED STATES :COUNTRY   
SRVC        .                                                   :SERVICE COMPANY
DATE        .                             9/13/2023 11:19:42 AM :LOG DATE  
API         .                                    42706000220000 :API NUMBER
UWI         .                                    42706000220000 :UNIQUE WELL ID
XCOORD      .                                  941560.719964966 :SURFACE X 
YCOORD      .                                  10497824.1170516 :SURFACE Y 
LAT         .                                        28.9094621 :LATITUDE  
LON         .                                       -95.1847519 :LONGITUDE 
ELEV        .FT                                              10 :ELEVATION VALUE
ELEV_TYPE   .                                                KB :ELEVATION REFERENCE TYPE
~Curve Information Section
#MNEM       .UNIT                                      API CODE :CURVE DESCRIPTION
#------------------------------------------------------------------------------
DEPT        .FT                                                 :DEPTH     
LAT         .OHMM                                               :          
LN          .OHMM                                               :          
SN          .OHMM                                               :          
SP          .MV                                                 :          
SP_NORM     .MV                                                 :SP Normalized
VSH_SP      .V/V                                                :Volume of Shale from SP
~A        DEPTH            LAT             LN             SN             SP        SP_NORM         VSH_SP
# ...
      4895.0000           0.42         0.1512         0.7846       141.3599      -65.75014              0
      4895.5000         0.4062         0.1531         0.7983       140.6702      -65.06044              0
      4896.0000         0.4227          0.155          0.795       139.9802      -64.37044    0.009836912
      4896.5000         0.4392         0.1569         0.7545         139.29      -63.68024      0.0206213
      4897.0000         0.4557         0.1588         0.7141       138.5999      -62.99014     0.03140402
      4897.5000         0.4721         0.1607         0.6736       137.9104      -62.30064     0.04217744
      4898.0000         0.4886         0.1626         0.6332       136.8437      -61.23395     0.05884457
      4898.5000         0.5051         0.1644         0.6003        134.885      -59.27524     0.08944941
      4899.0000         0.5216         0.1663         0.5779       132.9263      -57.31654       0.120054
      4899.5000         0.5214         0.1682         0.5556       125.5438      -49.93404      0.2354056
      4900.0000         0.5163         0.1701         0.5332        95.4347      -19.82494      0.7058603
      4900.5000         0.5112         0.1734         0.5108        93.1656      -17.55585      0.7413149
      4901.0000         0.5061         0.1769         0.4884        95.3237      -19.71394      0.7075946
      4901.5000          0.501         0.1804          0.466       114.9911      -39.38134      0.4002916
      4902.0000         0.4959         0.1839          0.471       120.8336      -45.22385      0.3090024
      4902.5000          0.494         0.1874         0.4987       123.5737      -47.96394      0.2661884
      4903.0000         0.5008         0.1909         0.5264       126.3137      -50.70394      0.2233759
      4903.5000         0.5076         0.1944         0.5542       128.5669      -52.95714      0.1881697
      4904.0000         0.5143         0.1979         0.5819       130.7227      -55.11295      0.1544852
      4904.5000         0.5211         0.2015         0.6097       130.9788      -55.36905      0.1504836
      4905.0000         0.5279         0.2089         0.6374       121.4631      -45.85334      0.2991666
      4905.5000         0.5347         0.2198         0.6543         117.67      -42.06024      0.3584337
      4906.0000         0.5398         0.2307         0.6405       114.6447      -39.03494       0.405704
      4906.5000         0.5434         0.2416         0.6267       112.9802      -37.37045      0.4317118
      4907.0000          0.547         0.2524         0.6129       116.1007      -40.49094       0.382954
      4907.5000         0.5507         0.2633         0.5991       120.4531      -44.84335      0.3149477
      4908.0000         0.5543         0.2598         0.6132       125.0864      -49.47665      0.2425524
      4908.5000         0.5579         0.2351         0.6967       130.1951      -54.58534       0.162729
      4909.0000         0.5615         0.2105         0.7738        135.186      -59.57625     0.08474612
      4909.5000         0.5314         0.1859         0.8145       139.6201      -64.01035     0.01546335
      4910.0000          0.493         0.1664         0.8193       141.6128      -66.00304              0
      4910.5000         0.4547         0.1469         0.7667       143.6035      -67.99374              0
      4911.0000         0.4163         0.1274         0.7142       144.8477      -69.23795              0
      4911.5000         0.4146         0.1079         0.6785       145.5168      -69.90704              0
      4912.0000         0.4373         0.0895         0.7247       129.1309      -53.52115      0.1793571
      4912.5000           0.46         0.1008         0.7709        121.368      -45.75824      0.3006525
      4913.0000         0.4827         0.1121         0.8171       118.0776      -42.46784       0.352065
      4913.5000         0.5054         0.1234         0.8174       114.1306      -38.52084      0.4137368
      4914.0000         0.5281         0.1347         0.7609       109.6943      -34.08454       0.483054
      4914.5000         0.5508          0.146         0.7044       106.9758      -31.36604      0.5255306
      4915.0000         0.5629         0.1573          0.648       105.9681      -30.35835      0.5412759
      4915.5000         0.5738         0.1686         0.5915       105.9467      -30.33694      0.5416102
      4916.0000         0.5848         0.1799          0.535       110.0409      -34.43114      0.4776384
      4916.5000         0.5957         0.1912         0.5035       114.9142      -39.30444      0.4014931
      4917.0000         0.6009         0.2025         0.5632       119.8553      -44.24554      0.3242884
      4917.5000         0.5743          0.213         0.6229       124.4161      -48.80634      0.2530259
      4918.0000         0.5478         0.2227         0.6827       129.7285      -54.11874      0.1700196
      4918.5000         0.5213         0.2324          0.721       135.0413      -59.43155     0.08700705
      4919.0000         0.4948         0.2422          0.738       135.5168      -59.90704     0.07957745
      4919.5000         0.4683         0.2519         0.7551       126.5583      -50.94854      0.2195541
      4920.0000         0.4507         0.2617         0.7233       119.3628      -43.75304      0.3319837
      4920.5000         0.4485         0.2714         0.6883       117.7346      -42.12484      0.3574244
      4921.0000         0.4463         0.2812         0.6532       116.1052      -40.49545      0.3828837
      4921.5000         0.4441         0.2909         0.6182       117.0054      -41.39565       0.368818
      4922.0000         0.4419         0.3006         0.5832       122.8354      -47.22565      0.2777243
      4922.5000         0.4399         0.3104          0.556       126.8436      -51.23384      0.2150962
      4923.0000         0.4521          0.319         0.5442       129.4648      -53.85504        0.17414
      4923.5000         0.4643         0.3159         0.5325       130.9595      -55.34975      0.1507852
      4924.0000         0.4765         0.3128         0.5207       132.4529      -56.84314      0.1274509
      4924.5000         0.4887         0.3096         0.5089       133.5212      -57.91144      0.1107588
      4925.0000         0.5009         0.3065         0.4971       133.5132      -57.90344      0.1108837
      4925.5000         0.5131         0.3034         0.4853       132.8572      -57.24744      0.1211338
      4926.0000         0.5253         0.2987         0.4889       132.2009      -56.59114      0.1313884
      4926.5000         0.5375         0.2841         0.5175       131.2639      -55.65414       0.146029
      4927.0000         0.5497         0.2694         0.5461       128.9224      -53.31264       0.182615
      4927.5000         0.5619         0.2548         0.5747       126.5787      -50.96894      0.2192353
      4928.0000         0.5714         0.2402         0.6033       124.2372      -48.62744      0.2558212
      4928.5000         0.5799         0.2256         0.6319       121.3657      -45.75594      0.3006884
      4929.0000         0.5885         0.2428         0.6605        118.295      -42.68524      0.3486681
      4929.5000          0.597         0.2613         0.6891       115.2267      -39.61694      0.3966103
      4930.0000         0.6055         0.2797         0.7116       113.3708      -37.76104      0.4256088
      4930.5000          0.614         0.2982         0.7205       112.0348      -36.42504      0.4464837
      4931.0000         0.6225         0.3166         0.7295       110.6998      -35.09004      0.4673431
      4931.5000          0.631           0.33         0.7384       109.3649      -33.75514      0.4882009
      4932.0000         0.6395         0.3425         0.7068       107.7266      -32.11684      0.5137993
      4932.5000         0.6484         0.3549          0.673       105.0996      -29.48985      0.5548462
