#------------------------------------------------------------------------------
# Created by    : vladimir.rabinovich
# Created on    : 09/19/2023 17:20:57
#------------------------------------------------------------------------------
~Version Information Section
VERS.           2.0     :   CWLS log ASCII Standard - VERSION 2.0
WRAP.           NO      :   One line per depth step
~Well Information Section
#MNEM       .UNIT                                         VALUE :DESCRIPTION
#------------------------------------------------------------------------------
STRT        .FT                                             727 :START DEPTH
STOP        .FT                                            8206 :STOP DEPTH
STEP        .FT                                             0.5 :STEP      
NULL        .                                           -999.25 :NULL      
COMP        .                              PHOENIX RESOURCES CO :COMPANY   
WELL        .                                          BLK 335L :WELL      
FLD         .                                 BRAZOS BLOCK 0309 :FIELD     
LOC         .                                                   :LOCATION  
CNTY        .                                BRAZOS LARGE BLOCK :LOCATION  
STAT        .                                             TEXAS :STATE     
CTRY        .                                     UNITED STATES :COUNTRY   
SRVC        .                                                   :SERVICE COMPANY
DATE        .                             9/13/2023 11:18:52 AM :LOG DATE  
API         .                                    42704300210000 :API NUMBER
UWI         .                                    42704300210000 :UNIQUE WELL ID
XCOORD      .                                  898426.347293712 :SURFACE X 
YCOORD      .                                  10460523.5569112 :SURFACE Y 
LAT         .                                        28.8046676 :LATITUDE  
LON         .                                       -95.3172337 :LONGITUDE 
ELEV        .FT                                              70 :ELEVATION VALUE
ELEV_TYPE   .                                                DF :ELEVATION REFERENCE TYPE
~Curve Information Section
#MNEM       .UNIT                                      API CODE :CURVE DESCRIPTION
#------------------------------------------------------------------------------
DEPT        .FT                                                 :DEPTH     
ASN         .OHMM                                               :          
CALI        .IN                                                 :          
DT          .US/F                                               :          
ILD         .OHMM                                               :          
SP          .MV                                                 :          
SP_NORM     .MV                                                 :SP Normalized
VSH_SP      .V/V                                                :Volume of Shale from SP
~A        DEPTH            ASN           CALI             DT            ILD             SP        SP_NORM         VSH_SP
# ...
      1229.5000          2.439        -999.25       175.1257         1.8245       -92.9388      -31.09909              0
      1230.0000         2.4145        -999.25       175.5933         1.8016       -92.0112      -30.19379              0
      1230.5000         2.3785        -999.25       170.6619         1.7788       -90.5714       -28.7763              0
      1231.0000         2.3334        -999.25       175.2297          1.756       -89.0062       -27.2334              0
      1231.5000         2.2883        -999.25       186.4336         1.7331       -87.4862       -25.7357              0
      1232.0000         2.2432        -999.25       194.0281         1.7103       -85.8085      -24.08031     0.03998665
      1232.5000          2.198        -999.25       190.7837         1.6877       -84.0992       -22.3933      0.1133347
      1233.0000          2.152        -999.25       183.3018         1.6717       -82.4213      -20.73771      0.1853168
      1233.5000          2.105        -999.25       177.4314         1.6557        -82.663      -21.00171      0.1738386
      1234.0000         2.0581        -999.25       171.6538         1.6397       -84.2069      -22.56791      0.1057429
      1234.5000         2.0181        -999.25       174.3713         1.6237       -85.4698      -23.85312      0.0498644
      1235.0000         2.0631        -999.25       181.2695         1.6352       -86.3308      -24.73642     0.01146001
      1235.5000         2.1081        -999.25       178.8271         1.6721       -86.2574      -24.68532     0.01368166
      1236.0000         2.1531        -999.25       176.5386         1.7079       -85.4769      -23.92712     0.04664695
      1236.5000         2.1981        -999.25       177.1743         1.7409       -84.1183      -22.59083      0.1047466
      1237.0000         2.2431        -999.25       177.8999         1.7604       -82.4999      -20.99473      0.1741423
      1237.5000         2.2426        -999.25       175.9941         1.7441       -78.9117      -17.42883      0.3291813
      1238.0000         2.2082        -999.25       176.0854         1.7277       -76.2354      -14.77483      0.4445726
      1238.5000          2.133        -999.25       173.2891         1.7157       -75.8354      -14.39714      0.4609939
      1239.0000         2.0578        -999.25       169.8782         1.7126       -78.8103      -17.39434      0.3306808
      1239.5000         1.9826        -999.25       171.4478         1.7095       -81.9998      -20.60614      0.1910374
      1240.0000         1.9414        -999.25       172.9854         1.7064       -83.8252      -22.45385      0.1107024
      1240.5000         2.0104        -999.25       180.1538         1.7033       -81.8953      -20.54625      0.1936415
      1241.0000         2.0768        -999.25       181.9182         1.7002       -79.1313      -17.80455      0.3128456
      1241.5000         2.1412        -999.25       175.4536         1.6971       -76.2617      -14.95725      0.4366412
      1242.0000         2.0836        -999.25       166.0308         1.6913        -71.783      -10.50085      0.6303978
      1242.5000         2.0146        -999.25       161.2007         1.6816       -66.6392      -5.379353      0.8530716
      1243.0000         1.9448        -999.25       160.0732         1.6719       -64.2499       -3.01236      0.9559844
      1243.5000         1.8749        -999.25       163.0103         1.6589       -63.4315      -2.216259      0.9905974
      1244.0000         1.9964        -999.25       166.2405         1.5983       -63.3273      -2.134361      0.9941582
      1244.5000         1.9141        -999.25       170.4001         1.5377       -63.2676      -2.096966      0.9957841
      1245.0000         1.8512        -999.25       172.6479         1.4806       -63.0153      -1.866966              1
      1245.5000         1.8319        -999.25       173.9482         1.4259       -62.5872       -1.46117              1
      1246.0000         1.8147        -999.25       175.0911         1.3713       -61.9138       -0.81007              1
      1246.5000         1.8048        -999.25       175.1184         1.3418       -61.5419     -0.4604759              1
      1247.0000         1.7953        -999.25       174.7576         1.3152       -61.2578     -0.1986771              1
      1247.5000         1.7884        -999.25       174.9229         1.3149        -60.706      0.3308182              1
      1248.0000         1.7827        -999.25       174.9297         1.3162       -60.4189      0.5956192              1
      1248.5000         1.7819        -999.25       174.9253         1.3145       -60.4349      0.5573158              1
      1249.0000         1.7809        -999.25       174.9504         1.3075       -60.4833      0.4866142              1
      1249.5000          1.771        -999.25       175.0537         1.3006       -60.7335      0.2141113              1
      1250.0000         1.7611        -999.25       175.4285         1.2937       -61.2691      -0.343792              1
      1250.5000         1.7513        -999.25       176.0161         1.2867       -61.6405     -0.7374916              1
      1251.0000         1.7375        -999.25       176.7263         1.2798        -61.656     -0.7752953              1
      1251.5000         1.7207        -999.25       176.9377         1.2729       -61.5571     -0.6986961              1
      1252.0000          1.704        -999.25       176.8528         1.2407       -61.3503     -0.5142021              1
      1252.5000         1.6913        -999.25       177.1606         1.2045       -60.9878     -0.1740036              1
      1253.0000          1.682        -999.25       177.7222         1.1801       -60.5715      0.2199936              1
      1253.5000         1.6727        -999.25       177.5786          1.179       -60.1914      0.5777931              1
      1254.0000         1.6638        -999.25       177.3452         1.1779       -59.9238      0.8230858              1
      1254.5000         1.6552        -999.25        177.064         1.1768       -59.7892      0.9353867              1
      1255.0000         1.6529        -999.25       176.7649         1.1756       -59.7379       0.964386              1
      1255.5000          1.663        -999.25       176.4514         1.1811       -59.8111      0.8688812              1
      1256.0000          1.673        -999.25       176.1621         1.1884       -60.2204      0.4372787              1
      1256.5000          1.687        -999.25       175.9055         1.1956       -60.5397     0.09567642              1
      1257.0000         1.7027        -999.25       176.3154         1.2029       -60.4354      0.1776772              1
      1257.5000         1.7184        -999.25       177.5928         1.2101       -60.3798      0.2109718              1
      1258.0000         1.7269        -999.25       179.6467         1.2174       -61.0074     -0.4389305              1
      1258.5000         1.7353        -999.25       182.8662         1.2246       -61.0883     -0.5421333              1
      1259.0000         1.7404        -999.25       187.8442         1.2373       -60.3684      0.1554642              1
      1259.5000         1.7428        -999.25       182.0388         1.2574       -60.0038      0.4977646              1
      1260.0000         1.7479        -999.25       175.1135         1.2774       -60.1533      0.3259583              1
      1260.5000         1.7747        -999.25       174.5713         1.2974       -59.7331      0.7238579              1
      1261.0000         1.8167        -999.25       174.8018         1.3175       -59.8342      0.6004524              1
      1261.5000         1.8902        -999.25       178.6509         1.3375       -60.1686      0.2437553              1
      1262.0000         1.6739        -999.25       182.2187         1.3575       -60.6686     -0.2785492              1
      1262.5000         1.7052        -999.25       181.5898         1.3992       -61.3115     -0.9437523              1
