#------------------------------------------------------------------------------
# Created by    : vladimir.rabinovich
# Created on    : 09/19/2023 17:21:32
#------------------------------------------------------------------------------
~Version Information Section
VERS.           2.0     :   CWLS log ASCII Standard - VERSION 2.0
WRAP.           NO      :   One line per depth step
~Well Information Section
#MNEM       .UNIT                                         VALUE :DESCRIPTION
#------------------------------------------------------------------------------
STRT        .FT                                            4185 :START DEPTH
STOP        .FT                                            8075 :STOP DEPTH
STEP        .FT                                             0.5 :STEP      
NULL        .                                           -999.25 :NULL      
COMP        .                                         HESS CORP :COMPANY   
WELL        .                               OCS G07236 ST00BP00 :WELL      
FLD         .                              GALVESTON BLOCK 0210 :FIELD     
LOC         .                                                   :LOCATION  
CNTY        .                             GALVESTON LARGE BLOCK :LOCATION  
STAT        .                                             TEXAS :STATE     
CTRY        .                                     UNITED STATES :COUNTRY   
SRVC        .                                                   :SERVICE COMPANY
DATE        .                             9/13/2023 11:19:34 AM :LOG DATE  
API         .                                    42706402930000 :API NUMBER
UWI         .                                    42706402930000 :UNIQUE WELL ID
XCOORD      .                                   1127714.7472722 :SURFACE X 
YCOORD      .                                  10563055.4663979 :SURFACE Y 
LAT         .                                         29.097041 :LATITUDE  
LON         .                                        -94.605794 :LONGITUDE 
ELEV        .FT                                              89 :ELEVATION VALUE
ELEV_TYPE   .                                                KB :ELEVATION REFERENCE TYPE
~Curve Information Section
#MNEM       .UNIT                                      API CODE :CURVE DESCRIPTION
#------------------------------------------------------------------------------
DEPT        .FT                                                 :DEPTH     
CALI        .IN                                                 :          
DRHO        .G/CC                                               :          
DT          .US/F                                               :          
ILD         .OHMM                                               :          
ILM         .OHMM                                               :          
NPHI        .%                                                  :          
RFOC        .OHMM                                               :          
RHOB        .G/CC                                               :          
SP          .MV                                                 :          
SP_NORM     .MV                                                 :SP Normalized
VSH_SP      .V/V                                                :Volume of Shale from SP
~A        DEPTH           CALI           DRHO             DT            ILD            ILM           NPHI           RFOC           RHOB             SP        SP_NORM         VSH_SP
# ...
      5512.5000        13.3569         0.0072       120.1707         0.5186         0.5259        31.6884          1.328         2.2744      -112.7054      -47.34202      0.3236855
      5513.0000        13.3677         0.0092       111.5182         0.5738         0.5879        32.6794         1.3056         2.3057       -102.917      -37.55872      0.4634469
      5513.5000        13.3765         0.0102       111.2489         0.6016         0.6064        33.2853         1.2174         2.3245       -98.4904      -33.13721      0.5266112
      5514.0000        13.3849         0.0105       113.4445         0.6116         0.6043        32.6826         1.1554         2.3403       -96.5134      -31.16531      0.5547813
      5514.5000        13.3914         0.0056        112.616         0.6028         0.5952        30.9979         1.1521          2.312       -93.8867      -28.54371      0.5922327
      5515.0000        13.3971          0.002       109.4004         0.5614          0.561        30.8146         1.1979         2.2496       -94.3046      -28.96671      0.5861899
      5515.5000        13.4102         0.0017        107.658         0.5142         0.5091        32.0356         1.2797         2.1982       -97.8843       -32.5515      0.5349786
      5516.0000         13.417         0.0012       109.4211         0.4712         0.4673        34.3035         1.3624          2.138      -107.1707      -41.84299      0.4022429
      5516.5000        13.4205         0.0004       114.1693         0.4258         0.4329        36.2982         1.3589         2.1186      -121.0386      -55.71599      0.2040573
      5517.0000        13.4282         0.0013       116.8088         0.3956         0.4063         37.137         1.2583         2.1197      -128.9973      -63.67979     0.09028865
      5517.5000        13.4336         0.0024       118.3157         0.3797         0.3973        36.8737         1.1389         2.1454       -130.999      -65.68658     0.06162022
      5518.0000        13.4269         0.0033       118.9366         0.3684         0.3975        34.5397         1.0487          2.182      -129.8506      -64.54329     0.07795301
      5518.5000        13.3786         0.0025       119.1663         0.3587         0.3987        33.7915         0.9986         2.2096       -123.929      -58.62679      0.1624745
      5519.0000        13.2849         0.0012       119.4425         0.3547         0.3997        33.8038         0.9698         2.2184      -115.5447      -50.24758      0.2821774
      5519.5000        13.2055         0.0003       120.2665         0.3554         0.4005        34.4162         1.0004         2.1925      -106.2379      -40.94588      0.4150589
      5520.0000        13.1417         0.0004       121.2412         0.3576         0.4012         34.956         1.0795         2.1695      -104.7644      -39.47747      0.4360361
      5520.5000        13.0962         0.0008       121.7566         0.3596         0.4003        35.2609         1.1323         2.1603      -108.8311      -43.54927      0.3778675
      5521.0000        13.1807         0.0008       121.5325         0.3595         0.3986        35.6729         1.0261         2.1515      -114.7656      -49.48887      0.2930162
      5521.5000         13.301         0.0013       120.9564         0.3609         0.3964        36.7781          0.877         2.1453      -117.0193      -51.74767      0.2607476
      5522.0000        13.4289         0.0032       122.3752         0.3673         0.3937        38.3983         0.7071          2.154      -117.1538      -51.88726      0.2587534
      5522.5000        13.5292         0.0061       123.9312         0.3783         0.3945        40.6896         0.6398         2.1703      -107.2115      -41.95007      0.4007134
      5523.0000         13.559         0.0077        122.959         0.3937         0.4048        41.5921         0.6372         2.1787       -92.4006      -27.14426      0.6122249
      5523.5000        13.5258         0.0082       115.4484         0.4175         0.4245        35.1455         0.6683          2.186       -84.0209      -18.76965      0.7318621
      5524.0000        13.3645         0.0089       104.7402         0.4383         0.4506        29.3265         0.7491         2.2076       -86.7428      -21.49665       0.692905
      5524.5000        13.2574         0.0098        89.5272         0.4537         0.4808        27.3412         0.9137          2.248       -94.7787      -29.53765      0.5780336
      5525.0000        13.2302         0.0085        84.2249          0.467          0.496        26.9102          1.121         2.2959       -97.0464      -31.81045       0.545565
      5525.5000        13.1483         0.0041        82.0048         0.4781         0.5035        28.4923         1.1342         2.3062       -90.7095      -25.47865      0.6360193
      5526.0000        13.0791         0.0033        89.0353         0.4858         0.4974        32.5047         0.9719         2.2902       -83.7781      -18.55234      0.7349666
      5526.5000        13.0725         0.0036        96.8075         0.4835         0.4857        37.1245         0.8576         2.2657       -82.4424      -17.22173      0.7539752
      5527.0000        13.0848         0.0033       107.3914         0.4658         0.4674        39.0259         0.8373         2.2276       -85.1234      -19.90783      0.7156025
      5527.5000        13.1019         0.0023       118.2471         0.4411         0.4472        39.0314         0.9121         2.1863       -96.0598      -30.84933      0.5592952
      5528.0000         13.114         0.0011       120.7402          0.416         0.4264        37.4305         1.0464         2.1577       -111.578      -46.37263      0.3375338
      5528.5000         13.117         0.0002       121.5577         0.3901          0.405         36.928         1.1671         2.1381      -122.1609      -56.96062      0.1862768
      5529.0000        13.1132         0.0007       121.9192         0.3674         0.3866        37.1401         1.2499          2.123      -127.6804      -62.48522       0.107354
      5529.5000        13.1023         0.0013       122.4866         0.3437         0.3742        37.2982          1.284         2.1129      -132.9077      -67.71762     0.03260542
      5530.0000        13.0974         0.0015       123.7112         0.3238         0.3644        37.2474         1.2684         2.1069      -136.4465      -71.26152              0
      5530.5000        13.0958         0.0015        125.328         0.3096         0.3542        37.3501         1.2204         2.1043      -138.6982      -73.51831              0
      5531.0000        13.0967         0.0014       126.1333         0.2959         0.3431          37.23         1.1802         2.1037      -139.2932      -74.11841              0
      5531.5000        13.0967         0.0012       126.3431         0.2836         0.3321        36.9649         1.1648         2.1045      -139.3147        -74.145              0
      5532.0000        13.0918         0.0008       126.2448         0.2771          0.326        36.6335         1.1966         2.1087      -138.6526      -73.48801              0
      5532.5000        13.0869         0.0008       126.0348         0.2727         0.3287        36.5258         1.2354         2.1159      -137.4355        -72.276              0
      5533.0000        13.0841         0.0011       125.4788         0.2763         0.3416        36.6669         1.1765         2.1261      -135.1499      -69.99551   0.0000641959
      5533.5000        13.0813         0.0013       124.4127         0.2867         0.3577        36.9642          1.082         2.1442       -131.032       -65.8827      0.0588186
      5534.0000        13.0874         0.0015        122.748         0.3036         0.3766        37.3754         0.9651         2.1606      -124.0212        -58.877         0.1589
      5534.5000        13.0971         0.0022        121.359         0.3247         0.3981        37.9432         0.9087         2.1648      -114.6119      -49.47279      0.2932458
