#------------------------------------------------------------------------------
# Created by    : vladimir.rabinovich
# Created on    : 09/19/2023 17:20:25
#------------------------------------------------------------------------------
~Version Information Section
VERS.           2.0     :   CWLS log ASCII Standard - VERSION 2.0
WRAP.           NO      :   One line per depth step
~Well Information Section
#MNEM       .UNIT                                         VALUE :DESCRIPTION
#------------------------------------------------------------------------------
STRT        .FT                                             293 :START DEPTH
STOP        .FT                                            8505 :STOP DEPTH
STEP        .FT                                             0.5 :STEP      
NULL        .                                           -999.25 :NULL      
COMP        .                                        TEXACO USA :COMPANY   
WELL        .                                     ST TR 00058-L :WELL      
FLD         .                                           WILDCAT :FIELD     
LOC         .                                                   :LOCATION  
CNTY        .                           HIGH ISLAND LARGE BLOCK :LOCATION  
STAT        .                                             TEXAS :STATE     
CTRY        .                                     UNITED STATES :COUNTRY   
SRVC        .                                                   :SERVICE COMPANY
DATE        .                             9/13/2023 11:19:15 AM :LOG DATE  
API         .                                    42708000230000 :API NUMBER
UWI         .                                    42708000230000 :UNIQUE WELL ID
XCOORD      .                                  1179226.38702832 :SURFACE X 
YCOORD      .                                  10699123.4735792 :SURFACE Y 
LAT         .                                        29.4730929 :LATITUDE  
LON         .                                        -94.449778 :LONGITUDE 
ELEV        .FT                                              80 :ELEVATION VALUE
ELEV_TYPE   .                                                KB :ELEVATION REFERENCE TYPE
~Curve Information Section
#MNEM       .UNIT                                      API CODE :CURVE DESCRIPTION
#------------------------------------------------------------------------------
DEPT        .FT                                                 :DEPTH     
ASN         .OHMM                                               :          
CILD        .MMHO                                               :          
ILD         .OHMM                                               :          
LAT         .OHMM                                               :          
LN          .OHMM                                               :          
SP          .MV                                                 :          
SP_NORM     .MV                                                 :SP Normalized
VSH_SP      .V/V                                                :Volume of Shale from SP
~A        DEPTH            ASN           CILD            ILD            LAT             LN             SP        SP_NORM         VSH_SP
# ...
      7933.5000         0.6562       1603.729         0.5081        -999.25        -999.25       -46.0563       2.464348              1
      7934.0000          0.648       1621.422         0.5119        -999.25        -999.25       -46.1998       2.304588              1
      7934.5000         0.6714       1642.082         0.5157        -999.25        -999.25       -47.3013       1.186821              1
      7935.0000          0.705       1664.895         0.5195        -999.25        -999.25       -48.4039     0.06795883              1
      7935.5000         0.7386       1687.709         0.5233        -999.25        -999.25       -52.3613      -3.905708      0.9719748
      7936.0000         0.7771       1710.543         0.5271        -999.25        -999.25       -56.9447      -8.505367      0.9043328
      7936.5000         0.8245       1691.203         0.5407        -999.25        -999.25       -61.7543      -13.33123      0.8333642
      7937.0000         0.8425       1662.807         0.5558        -999.25        -999.25       -66.8076       -18.4008      0.7588118
      7937.5000         0.7952        1634.41         0.5707        -999.25        -999.25       -67.8248      -19.43426      0.7436138
      7938.0000         0.7478       1606.014         0.5857        -999.25        -999.25       -66.0229      -17.64863      0.7698731
      7938.5000         0.6842       1577.443         0.6007        -999.25        -999.25       -64.2167      -15.85868      0.7961958
      7939.0000         0.6695       1548.738         0.6157        -999.25        -999.25       -62.4125      -14.07075       0.822489
      7939.5000         0.6867        1520.08         0.6293        -999.25        -999.25       -60.6062      -12.28072       0.848813
      7940.0000          0.708       1489.969         0.6385        -999.25        -999.25       -58.7998      -10.49058      0.8751385
      7940.5000         0.7294       1458.188         0.6477        -999.25        -999.25       -57.0633      -8.770344      0.9004361
      7941.0000         0.7507       1426.363         0.6568        -999.25        -999.25       -56.3862      -8.109509      0.9101543
      7941.5000         0.7691       1397.109         0.6661        -999.25        -999.25        -55.708      -7.447571      0.9198887
      7942.0000         0.7786       1379.352         0.6753        -999.25        -999.25       -55.0309      -6.786732      0.9296069
      7942.5000          0.788       1361.594         0.6843        -999.25        -999.25       -54.3538        -6.1259       0.939325
      7943.0000         0.7974       1343.834         0.6791        -999.25        -999.25       -53.5293      -5.317661      0.9512109
      7943.5000         0.8061       1326.098         0.6739        -999.25        -999.25       -52.6306      -4.435226      0.9641879
      7944.0000         0.8054       1309.373         0.6687        -999.25        -999.25       -51.7318      -3.552689      0.9771664
      7944.5000         0.8048       1292.646         0.6635        -999.25        -999.25       -50.8331      -2.670254      0.9901433
      7945.0000         0.8041       1296.119         0.6583        -999.25        -999.25       -50.4693      -2.322716      0.9952542
      7945.5000         0.8033       1308.207         0.6531        -999.25        -999.25       -50.1862      -2.055878      0.9991783
      7946.0000         0.7967       1318.582         0.6479        -999.25        -999.25        -49.903      -1.788944              1
      7946.5000         0.7902       1328.967         0.6447        -999.25        -999.25       -50.2491      -2.151306      0.9977749
      7947.0000         0.7836       1339.352         0.6457        -999.25        -999.25       -50.7018      -2.620274      0.9908783
      7947.5000         0.7771       1349.736         0.6468        -999.25        -999.25       -51.1545      -3.089233      0.9839818
      7948.0000         0.7705       1360.121         0.6479        -999.25        -999.25       -51.3113      -3.262299      0.9814368
      7948.5000          0.764       1366.236         0.6489        -999.25        -999.25       -51.0489      -3.016163      0.9850564
      7949.0000         0.7594        1370.73           0.65        -999.25        -999.25       -50.7866      -2.770123      0.9886746
      7949.5000         0.7558       1375.225         0.6511        -999.25        -999.25       -50.5245      -2.524292      0.9922898
      7950.0000         0.7522       1379.719         0.6521        -999.25        -999.25       -50.2621      -2.278152      0.9959095
      7950.5000         0.7554       1384.209         0.6532        -999.25        -999.25            -50      -2.032318      0.9995247
      7951.0000         0.7625       1388.703         0.6536        -999.25        -999.25       -49.6917       -1.74028              1
      7951.5000         0.7695       1389.221         0.6538        -999.25        -999.25        -49.383      -1.447845              1
      7952.0000         0.7766       1376.473         0.6541        -999.25        -999.25       -49.0744       -1.15551              1
      7952.5000         0.7836       1363.703         0.6543        -999.25        -999.25       -48.7652     -0.8625717              1
      7953.0000         0.7907       1350.955         0.6546        -999.25        -999.25       -48.4566     -0.5702362              1
      7953.5000         0.7977       1338.207         0.6548        -999.25        -999.25       -48.1479     -0.2777977              1
      7954.0000          0.805       1325.439          0.655        -999.25        -999.25       -47.8393     0.01453781              1
      7954.5000         0.8126       1312.691         0.6553        -999.25        -999.25        -47.595      0.2425728              1
      7955.0000         0.8203       1303.846         0.6555        -999.25        -999.25       -47.6844      0.1369095              1
      7955.5000         0.8122       1296.746         0.6558        -999.25        -999.25       -47.7739       0.031147              1
      7956.0000         0.8019       1301.197          0.656        -999.25        -999.25       -47.8634    -0.07461548              1
      7956.5000         0.7916       1317.197         0.6563        -999.25        -999.25       -47.9529     -0.1803818              1
      7957.0000         0.7813       1333.197         0.6549        -999.25        -999.25       -48.0424     -0.2861443              1
      7957.5000          0.773       1349.197           0.65        -999.25        -999.25       -48.1319     -0.3919106              1
      7958.0000         0.7648       1365.197         0.6451        -999.25        -999.25       -48.2214      -0.497673              1
      7958.5000         0.7566       1381.197         0.6402        -999.25        -999.25       -48.2313      -0.523838              1
      7959.0000         0.7484       1397.418         0.6353        -999.25        -999.25       -48.0543     -0.3630981              1
      7959.5000         0.7402       1415.572         0.6304        -999.25        -999.25        -47.877     -0.2020607              1
      7960.0000          0.732       1433.727         0.6255        -999.25        -999.25          -47.7    -0.04132843              1
      7960.5000         0.7238       1451.902         0.6206        -999.25        -999.25       -47.5229      0.1195107              1
      7961.0000         0.7156       1470.057         0.6157        -999.25        -999.25       -47.3459      0.2802429              1
      7961.5000         0.7074       1488.211         0.6108        -999.25        -999.25       -47.0641       0.545784              1
      7962.0000         0.7008       1498.541         0.6106        -999.25        -999.25       -46.7306       0.863018              1
      7962.5000         0.6978       1508.254         0.6116        -999.25        -999.25       -46.3976       1.179756              1
