#------------------------------------------------------------------------------
# Created by    : vladimir.rabinovich
# Created on    : 09/19/2023 17:20:04
#------------------------------------------------------------------------------
~Version Information Section
VERS.           2.0     :   CWLS log ASCII Standard - VERSION 2.0
WRAP.           NO      :   One line per depth step
~Well Information Section
#MNEM       .UNIT                                         VALUE :DESCRIPTION
#------------------------------------------------------------------------------
STRT        .FT                                             723 :START DEPTH
STOP        .FT                                            8219 :STOP DEPTH
STEP        .FT                                             0.5 :STEP      
NULL        .                                           -999.25 :NULL      
COMP        .                                    MOBIL OIL CORP :COMPANY   
WELL        .                               OCS G02338 ST00BP00 :WELL      
FLD         .                                           WILDCAT :FIELD     
LOC         .                                                   :LOCATION  
CNTY        .                             GALVESTON LARGE BLOCK :LOCATION  
STAT        .                                             TEXAS :STATE     
CTRY        .                                     UNITED STATES :COUNTRY   
SRVC        .                                                   :SERVICE COMPANY
DATE        .                             9/13/2023 11:18:53 AM :LOG DATE  
API         .                                    42706400200000 :API NUMBER
UWI         .                                    42706400200000 :UNIQUE WELL ID
XCOORD      .                                  941616.333010477 :SURFACE X 
YCOORD      .                                  10405518.1254327 :SURFACE Y 
LAT         .                                         28.655687 :LATITUDE  
LON         .                                        -95.179294 :LONGITUDE 
ELEV        .FT                                              84 :ELEVATION VALUE
ELEV_TYPE   .                                                KB :ELEVATION REFERENCE TYPE
~Curve Information Section
#MNEM       .UNIT                                      API CODE :CURVE DESCRIPTION
#------------------------------------------------------------------------------
DEPT        .FT                                                 :DEPTH     
ASFL        .OHMM                                               :          
CALI        .IN                                                 :          
CILD        .MMHO                                               :          
DPHI        .%                                                  :          
DT          .US/F                                               :          
GR          .GAPI                                               :          
GR_1        .GAPI                                               :          
GR_NORM     .GAPI                                               :GammaRay Normalized
ILD         .OHMM                                               :          
NPHI        .DEC                                                :          
SP          .MV                                                 :          
SP_NORM     .MV                                                 :SP Normalized
VSH_GR      .V/V                                                :Volume of Shale from GR
VSH_SP      .V/V                                                :Volume of Shale from SP
~A        DEPTH           ASFL           CALI           CILD           DPHI             DT             GR           GR_1        GR_NORM            ILD           NPHI             SP        SP_NORM         VSH_GR         VSH_SP
# ...
      2235.0000          1.025         9.9413         1068.9        -999.25       123.2812       103.1566        -999.25       88.61818         1.0128        -999.25        80.9811      -2.037773              1      0.9832617
      2235.5000         1.0248        10.8242       1072.064        -999.25       123.7957       103.4794        -999.25       88.93303         1.0125        -999.25        81.1013      -1.917572              1      0.9852005
      2236.0000          1.025        11.5708        1079.82        -999.25       124.2991       103.8022        -999.25       89.24789         1.0122        -999.25        81.5389      -1.479973              1      0.9922585
      2236.5000         1.0257        11.7851       1087.578        -999.25       124.7876       104.1251        -999.25       89.56284          1.012        -999.25        82.1429     -0.8759766              1              1
      2237.0000         1.0265         11.915       1095.336        -999.25       125.1873       104.4481        -999.25       89.87788         1.0117        -999.25        83.2546      0.2357254              1              1
      2237.5000         1.0273        11.9472       1102.811        -999.25       125.4043       104.7583        -999.25       90.18015         1.0114        -999.25        81.9401      -1.078773              1      0.9987295
      2238.0000          1.028        11.9726       1108.129        -999.25       125.1525       105.0415        -999.25       90.45539         1.0111        -999.25        80.7183      -2.300575              1       0.979023
      2238.5000         1.0288        11.9914       1098.873        -999.25       124.8157       105.3248        -999.25       90.73074         1.0108        -999.25        81.5778      -1.441078              1      0.9928858
      2239.0000         1.0295        12.0103       1084.965        -999.25       124.7793        105.608        -999.25         91.006         1.0112        -999.25        82.5608     -0.4580765              1              1
      2239.5000         1.0313        12.0292       1071.051        -999.25         124.99       105.8914        -999.25       91.28146         1.0125        -999.25        82.0695     -0.9493713              1              1
      2240.0000         1.0335        12.0166       1057.949        -999.25       125.6847       106.1746        -999.25        91.5567         1.0138        -999.25         80.905      -2.113876              1      0.9820343
      2240.5000         1.0357        12.0022       1052.447        -999.25        127.307       106.4578        -999.25       91.83196         1.0152        -999.25        80.8414      -2.177475              1      0.9810085
      2241.0000         1.0379        11.9878       1046.945        -999.25       131.3423       106.6915        -999.25       92.05771         1.0165        -999.25        81.8591      -1.159775              1       0.997423
      2241.5000         1.0402        11.9734       1041.443        -999.25       136.5623       106.9209        -999.25       92.27916         1.0178        -999.25        82.4557     -0.5631714              1              1
      2242.0000         1.0424        11.9583       1035.941        -999.25       128.1824       107.1504        -999.25       92.50072         1.0191        -999.25        82.2649     -0.7539749              1              1
      2242.5000         1.0445        11.9431       1032.924        -999.25       120.8213       107.3798        -999.25       92.72217         1.0203        -999.25        82.1104     -0.9084778              1              1
      2243.0000         1.0449        11.9352       1042.713        -999.25       120.7311       107.6093        -999.25       92.94372         1.0206        -999.25         82.024      -0.994873              1              1
      2243.5000         1.0454        11.9371       1052.502        -999.25       121.3232       107.8387        -999.25       93.16518         1.0209        -999.25        81.9343      -1.084572              1      0.9986359
      2244.0000         1.0458        11.8966       1062.287        -999.25       122.0553       108.0682        -999.25       93.38673         1.0212        -999.25        81.7268      -1.292076              1      0.9952891
      2244.5000         1.0463        11.7937       1071.695        -999.25       123.1844       108.2977        -999.25       93.60828         1.0215        -999.25        81.5413      -1.477577              1      0.9922971
      2245.0000         1.0468        11.6819       1079.305        -999.25       125.5575       108.3914        -999.25       93.69404         1.0218        -999.25        81.3239      -1.694977              1      0.9887907
      2245.5000         1.0472        11.5403       1086.912        -999.25       130.2187       108.4661        -999.25       93.76079         1.0221        -999.25         80.161      -2.857872              1      0.9700343
      2246.0000         1.0477         11.381        1094.52        -999.25       129.0876       108.5408        -999.25       93.82754         1.0212        -999.25        80.2015      -2.817375              1      0.9706875
      2246.5000         1.0476        11.2216       1102.127        -999.25       125.7184       108.6155        -999.25       93.89429         1.0188        -999.25        81.1089      -1.909973              1       0.985323
      2247.0000         1.0469          11.16       1109.738        -999.25       125.4728       108.6902        -999.25       93.96104         1.0164        -999.25        81.3081      -1.710777              1      0.9885358
      2247.5000         1.0462        11.1025       1117.346        -999.25       125.6117        108.765        -999.25       94.02789         1.0141        -999.25        80.6969      -2.321976              1      0.9786778
      2248.0000         1.0455        11.0731       1123.982        -999.25       125.9841       108.8397        -999.25       94.09465         1.0117        -999.25        79.8824      -3.136475              1      0.9655407
      2248.5000         1.0448         10.996       1129.455        -999.25       126.3669        108.861        -999.25         94.108         1.0094        -999.25        79.7949      -3.223976              1      0.9641294
      2249.0000         1.0441        11.1857       1134.926        -999.25       126.5958       108.7324        -999.25       93.97145         1.0062        -999.25        79.9382      -3.080673              1      0.9664407
      2249.5000         1.0434         11.537       1140.396        -999.25       126.5959       108.6038        -999.25       93.83491         1.0028        -999.25        79.4669      -3.551971              1      0.9588392
      2250.0000         1.0427        11.9057       1145.867        -999.25       126.3483       108.4752        -999.25       93.69836         0.9994        -999.25        79.2355      -3.783379              1      0.9551068
      2250.5000         1.0428        11.9253       1151.336        -999.25       125.7899       108.3466        -999.25       93.56181          0.996        -999.25        79.4329      -3.585976              1      0.9582907
      2251.0000         1.0429        11.8658       1152.154        -999.25        125.439       108.1666        -999.25       93.37387         0.9926        -999.25        79.5698      -3.449074              1      0.9604988
      2251.5000         1.0429        11.7561        1146.99        -999.25        125.575       107.6478        -999.25       92.84711         0.9892        -999.25        79.7069      -3.311974              1      0.9627101
      2252.0000          1.043        11.4735       1141.824        -999.25       125.2921       107.1292        -999.25       92.32057         0.9865        -999.25        79.8289      -3.189972              1      0.9646779
      2252.5000          1.043        11.1339       1136.658        -999.25       125.0093       106.6104        -999.25       91.79382         0.9849        -999.25        79.9266      -3.092278              1      0.9662536
