#------------------------------------------------------------------------------
# Created by    : vladimir.rabinovich
# Created on    : 09/19/2023 17:20:24
#------------------------------------------------------------------------------
~Version Information Section
VERS.           2.0     :   CWLS log ASCII Standard - VERSION 2.0
WRAP.           NO      :   One line per depth step
~Well Information Section
#MNEM       .UNIT                                         VALUE :DESCRIPTION
#------------------------------------------------------------------------------
STRT        .FT                                            1590 :START DEPTH
STOP        .FT                                            8991 :STOP DEPTH
STEP        .FT                                             0.5 :STEP      
NULL        .                                           -999.25 :NULL      
COMP        .                                 C & K OFFSHORE CO :COMPANY   
WELL        .                                OCS 00507 ST00BP00 :WELL      
FLD         .                                           WILDCAT :FIELD     
LOC         .                                                   :LOCATION  
CNTY        .                           HIGH ISLAND LARGE BLOCK :LOCATION  
STAT        .                                             TEXAS :STATE     
CTRY        .                                     UNITED STATES :COUNTRY   
SRVC        .                                                   :SERVICE COMPANY
DATE        .                             9/13/2023 11:19:15 AM :LOG DATE  
API         .                                    42708300260000 :API NUMBER
UWI         .                                    42708300260000 :UNIQUE WELL ID
XCOORD      .                                  1287575.74118613 :SURFACE X 
YCOORD      .                                  10681645.7296129 :SURFACE Y 
LAT         .                                         29.428295 :LATITUDE  
LON         .                                        -94.108714 :LONGITUDE 
ELEV        .FT                                              73 :ELEVATION VALUE
ELEV_TYPE   .                                                KB :ELEVATION REFERENCE TYPE
~Curve Information Section
#MNEM       .UNIT                                      API CODE :CURVE DESCRIPTION
#------------------------------------------------------------------------------
DEPT        .FT                                                 :DEPTH     
ASN         .OHMM                                               :          
CALI        .IN                                                 :          
CILD        .MMHO                                               :          
DT          .US/F                                               :          
GR          .GAPI                                               :          
GR_NORM     .GAPI                                               :GammaRay Normalized
ILD         .OHMM                                               :          
SP          .MV                                                 :          
SP_NORM     .MV                                                 :SP Normalized
VSH_GR      .V/V                                                :Volume of Shale from GR
VSH_SP      .V/V                                                :Volume of Shale from SP
~A        DEPTH            ASN           CALI           CILD             DT             GR        GR_NORM            ILD             SP        SP_NORM         VSH_GR         VSH_SP
      1590.0000              0        10.4826       1997.262       232.4976        33.5863       40.85307         0.1681      -122.5726      -84.11106      0.1670865              0
      1590.5000         0.0145        10.4891       1997.484       246.0295        34.9214       42.52194         0.2414      -121.8766      -83.41506      0.2025944              0
      1591.0000         0.0678        10.4861       1997.113       258.7192        37.3127       45.51106         0.3574      -121.1805      -82.71896      0.2661928              0
      1591.5000         0.1438         10.483       1996.766       226.2144        39.3542       48.06294         0.4643      -120.5149      -82.05336      0.3204881              0
      1592.0000         0.1976        10.4837       1996.502       224.9429        38.6547       47.18857         0.5332      -119.8639      -81.40236      0.3018844              0
      1592.5000         0.2498        10.4926       1996.238       214.7976        37.2202       45.39544         0.5675       -119.213      -80.75146      0.2637328              0
      1593.0000         0.3907        10.5644         1993.1       220.5815        35.6107       43.38356         0.5611       -94.4919      -56.03036      0.2209269      0.1995663
      1593.5000         0.6014        10.8848       1978.545       227.4631         34.018       41.39269         0.5547       -89.3435      -50.88196      0.1785679      0.2731149
      1594.0000         0.6566        12.4019        1963.99       175.6846        33.2483       40.43056         0.5402       -78.8341      -40.37256      0.1580971      0.4232492
      1594.5000         0.8543         13.139       1940.322       175.5134        33.7042       41.00044         0.5237       -76.3917      -37.93016      0.1702222      0.4581406
      1595.0000         0.8627        13.1779       1902.055       175.3425        36.2852       44.22669         0.5072       -76.7209      -38.25936      0.2388657      0.4534377
      1595.5000         0.8536        13.2427       1735.814       175.1714        38.2899       46.73257         0.4907         -77.05      -38.58846      0.2921823      0.4487363
      1596.0000         0.8575         13.527       1936.805       168.9211        38.9047       47.50107         0.4787       -77.3793      -38.91776      0.3085334       0.444032
      1596.5000         0.8673        13.6135       1964.418       167.0205        39.3637       48.07482         0.4697       -77.7085      -39.24696      0.3207408      0.4393291
      1597.0000          0.877        13.5612       1983.898       163.8567        39.2795       47.96957         0.4607       -77.9564      -39.49486      0.3185014      0.4357877
      1597.5000         0.8874        13.6831       1994.752       165.3572         37.642       45.92269         0.4527       -78.0801      -39.61856      0.2749509      0.4340205
      1598.0000         0.8978        13.5942       2163.594       169.2271        35.5488       43.30619          0.446       -78.2039      -39.74236      0.2192807       0.432252
      1598.5000         0.9082        13.6714       2233.617       163.4912          35.34       43.04519         0.4392       -78.3275      -39.86596      0.2137275      0.4304863
      1599.0000         0.9184        13.7177       2257.688       161.5347        36.2333       44.16182         0.4324       -78.4512      -39.98966      0.2374854      0.4287191
      1599.5000         0.9269        13.6932       2259.703       160.6704        38.3661       46.82782         0.4325       -78.3688      -39.90726      0.2942089      0.4298963
      1600.0000         0.9355        13.6867       2215.957       159.9575        39.1375       47.79207         0.4342        -78.286      -39.82446      0.3147249      0.4310791
      1600.5000          0.944        13.6987       2173.813       159.7722        39.0842       47.72544         0.4358       -78.2032      -39.74166      0.3133073       0.432262
      1601.0000         0.9527        13.7258       2171.688       159.4138        38.9935       47.61207         0.4375       -78.1631      -39.70156      0.3108951      0.4328348
      1601.5000         0.9623        13.7206       2183.957        158.439        39.5137       48.26231         0.4391       -78.2549      -39.79336      0.3247301      0.4315235
      1602.0000         0.9687        13.5566       2192.168       157.0288        38.9024       47.49819         0.4408       -78.3466      -39.88506      0.3084722      0.4302134
      1602.5000         0.9714        13.2708       2185.305       157.4951        36.9666       45.07844         0.4428       -78.4384      -39.97686       0.256988       0.428902
      1603.0000         0.9731        13.5898       2177.727       168.0024        34.5852       42.10169         0.4449        -78.525      -40.06346       0.193653      0.4276648
      1603.5000         0.9748        14.0463       2167.816       174.9563        31.3573       38.06682         0.4469       -78.5981      -40.13656      0.1078046      0.4266206
      1604.0000         0.9764         14.115       2168.641       173.2302        29.7113       36.00932          0.449       -78.6711      -40.20956     0.06402799      0.4255778
      1604.5000          0.978        13.8624       2187.047       169.6921        31.7692       38.58169          0.451       -78.7449      -40.28336      0.1187594      0.4245234
      1605.0000         0.9795        13.7671       2212.289       160.5481        35.2676       42.95469          0.453       -78.8192      -40.35766       0.211802       0.423462
      1605.5000         0.9859        13.6727       2239.414       156.9895        37.5315       45.78457         0.4549       -78.8317      -40.37016      0.2720121      0.4232834
      1606.0000         0.9949        13.6084       2171.996        157.604          37.87       46.20769         0.4568        -78.696      -40.23446      0.2810147       0.425222
      1606.5000         1.0039        13.6008       2132.285       157.5791        36.4548       44.43869         0.4587       -78.5603      -40.09876      0.2433764      0.4271605
      1607.0000         1.0129        13.6276        2040.75       157.9861        36.5153       44.51432         0.4659       -77.9814      -39.51986      0.2449855      0.4354306
      1607.5000         1.0219        13.8966       1880.732       159.9211        35.9949       43.86382         0.4908       -77.1979      -38.73636       0.231145      0.4466234
      1608.0000          1.031         14.347       1812.523       163.6675        36.4978       44.49244         0.5238       -76.4108      -37.94926        0.24452      0.4578678
      1608.5000         1.0401         13.918       1775.826         163.75        36.2573       44.19182         0.5588       -75.6091      -37.14756      0.2381238      0.4693206
      1609.0000         1.0379         13.245       1750.471       163.0188        35.4357       43.16482         0.5664       -74.8074      -36.34586      0.2162727      0.4807734
      1609.5000          1.029        12.8566       1770.898       160.7678        34.9664       42.57819          0.547       -71.2566      -32.79506      0.2037914      0.5314991
      1610.0000           1.02        12.8247       1810.277       156.1833        38.0168       46.39119          0.522       -69.9885      -31.52696      0.2849189      0.5496148
      1610.5000         1.0013        12.7513       1847.732        155.646        40.9177       50.01732          0.497       -70.2555      -31.79396      0.3620706      0.5458006
      1611.0000          0.985        12.7845        1875.24       154.8357        41.7474       51.05444          0.498       -70.9344      -32.47286       0.384137       0.536102
      1611.5000         0.9765        12.8475       1897.506       156.0698        42.9576       52.56719         0.5005       -71.7166      -33.25506      0.4163232      0.5249277
      1612.0000         0.9676        12.7892       1929.904       156.6042        44.5473       54.55431         0.5031       -73.3549      -34.89336      0.4586024      0.5015235
