#------------------------------------------------------------------------------
# Created by    : vladimir.rabinovich
# Created on    : 09/19/2023 17:20:23
#------------------------------------------------------------------------------
~Version Information Section
VERS.           2.0     :   CWLS log ASCII Standard - VERSION 2.0
WRAP.           NO      :   One line per depth step
~Well Information Section
#MNEM       .UNIT                                         VALUE :DESCRIPTION
#------------------------------------------------------------------------------
STRT        .FT                                            3094 :START DEPTH
STOP        .FT                                           15705 :STOP DEPTH
STEP        .FT                                             0.5 :STEP      
NULL        .                                           -999.25 :NULL      
COMP        .                                       MONSANTO CO :COMPANY   
WELL        .                                     ST TR 00011-L :WELL      
FLD         .                                           WILDCAT :FIELD     
LOC         .                                                   :LOCATION  
CNTY        .                           HIGH ISLAND LARGE BLOCK :LOCATION  
STAT        .                                             TEXAS :STATE     
CTRY        .                                     UNITED STATES :COUNTRY   
SRVC        .                                                   :SERVICE COMPANY
DATE        .                             9/13/2023 11:19:15 AM :LOG DATE  
API         .                                    42708300660000 :API NUMBER
UWI         .                                    42708300660000 :UNIQUE WELL ID
XCOORD      .                                  1343190.12128624 :SURFACE X 
YCOORD      .                                   10724936.940093 :SURFACE Y 
LAT         .                                        29.5487141 :LATITUDE  
LON         .                                       -93.9350737 :LONGITUDE 
ELEV        .FT                                              49 :ELEVATION VALUE
ELEV_TYPE   .                                                KB :ELEVATION REFERENCE TYPE
~Curve Information Section
#MNEM       .UNIT                                      API CODE :CURVE DESCRIPTION
#------------------------------------------------------------------------------
DEPT        .FT                                                 :DEPTH     
ASN         .OHMM                                               :          
CILD        .MMHO                                               :          
ILD         .OHMM                                               :          
SP_NORM     .MV                                                 :SP Normalized
VSH_SP      .V/V                                                :Volume of Shale from SP
~A        DEPTH            ASN           CILD            ILD        SP_NORM         VSH_SP
# ...
     11498.0000         0.4684       2404.902         0.4606      -2.230522      0.9801528
     11498.5000         0.4662       2421.727         0.4591      -2.367943      0.9779364
     11499.0000          0.464       2438.578         0.4576      -2.493565      0.9759102
     11499.5000          0.462       2450.477          0.456      -2.547791      0.9750356
     11500.0000         0.4618       2460.867         0.4545      -2.602013      0.9741611
     11500.5000         0.4647       2457.332          0.453      -2.659733      0.9732301
     11501.0000         0.4676       2347.973         0.4515      -2.830357      0.9704781
     11501.5000         0.4705       2324.719           0.45      -3.001076      0.9677246
     11502.0000         0.4733       2377.984         0.4485        -3.5867       0.958279
     11502.5000         0.4735       2405.273         0.4469       -4.66312      0.9409174
     11503.0000         0.4704       2448.523         0.4454       -5.27594      0.9310333
     11503.5000         0.4673       2469.059         0.4439      -4.285564       0.947007
     11504.0000         0.4643       2489.199         0.4424      -3.524586      0.9592808
     11504.5000         0.4616       2508.148         0.4409       -2.97451      0.9681531
     11505.0000         0.4589       2520.223         0.4413      -2.770931      0.9714366
     11505.5000         0.4562       2532.273         0.4431      -3.005753      0.9676492
     11506.0000         0.4535        2537.98         0.4448      -3.239975      0.9638714
     11506.5000         0.4508       2535.926         0.4466      -3.474796      0.9600839
     11507.0000         0.4504       2533.875         0.4483       -3.70892      0.9563078
     11507.5000         0.4506       2531.258         0.4501      -3.943741      0.9525203
     11508.0000         0.4508       2519.207         0.4518      -4.104061      0.9499345
     11508.5000         0.4511       2507.184         0.4536      -4.123581      0.9496197
     11509.0000         0.4513       2495.137         0.4554      -4.143108      0.9493047
     11509.5000         0.4515       2499.234         0.4571      -4.162529      0.9489915
     11510.0000         0.4518       2503.734         0.4589      -4.182049      0.9486766
     11510.5000          0.452        2508.23         0.4622      -4.070072      0.9504827
     11511.0000         0.4522       2512.004         0.4665      -3.951893      0.9523888
     11511.5000         0.4526         2513.5         0.4707      -3.833714      0.9542949
     11512.0000         0.4561       2512.949         0.4749      -3.764137      0.9554172
     11512.5000         0.4595       2482.121         0.4792      -3.793957      0.9549362
     11513.0000          0.463       2451.293         0.4834       -3.82378      0.9544551
     11513.5000         0.4665       2420.418         0.4876        -3.7062      0.9563516
     11514.0000           0.47       2389.094         0.4919      -3.462029      0.9602898
     11514.5000         0.4753       2357.723         0.4961      -3.217648      0.9642315
     11515.0000         0.4811       2326.152         0.5003       -2.85997      0.9700005
     11515.5000         0.4869       2294.234         0.5046      -2.383892      0.9776791
     11516.0000         0.4927       2272.266         0.5088      -2.216011      0.9803869
     11516.5000         0.4963       2254.477          0.513      -2.468735      0.9763107
     11517.0000         0.4998       2236.688         0.5174      -2.717457      0.9722991
     11517.5000         0.5033        2233.02         0.5219      -2.912178      0.9691584
     11518.0000         0.5068       2229.383         0.5264      -3.106899      0.9660178
     11518.5000         0.5103       2225.746         0.5309      -3.301624       0.962877
     11519.0000         0.5138       2214.297         0.5354      -3.496346      0.9597363
     11519.5000         0.5173        2202.77         0.5399      -3.691067      0.9565957
     11520.0000         0.5209       2191.215         0.5443      -3.787689      0.9550373
     11520.5000         0.5244       2176.863         0.5488      -3.699909      0.9564531
     11521.0000          0.528       2155.637         0.5533      -3.580032      0.9583866
     11521.5000         0.5317       2134.457         0.5578      -3.259953      0.9635491
     11522.0000         0.5354       2115.355         0.5623      -2.939175       0.968723
     11522.5000          0.539        2100.09         0.5658      -2.680695       0.972892
     11523.0000         0.5427       2084.852         0.5674       -3.20842      0.9643803
     11523.5000         0.5464        2069.66         0.5691      -3.736145      0.9558686
     11524.0000           0.55       2056.523         0.5707      -4.632465      0.9414119
     11524.5000         0.5536       2043.361         0.5724      -6.162685      0.9167309
     11525.0000         0.5572       2030.693          0.574      -7.075706      0.9020047
     11525.5000         0.5608       2020.523         0.5756      -7.505829      0.8950673
     11526.0000         0.5644       2010.381         0.5773      -7.571552      0.8940072
     11526.5000         0.5676       2000.211         0.5789      -7.637272      0.8929473
     11527.0000         0.5708       1990.982         0.5805      -7.702892      0.8918889
     11527.5000          0.574       1984.266         0.5793      -7.768715      0.8908272
     11528.0000         0.5707       1978.488         0.5781      -7.834442      0.8897671
     11528.5000         0.5665       1990.389         0.5769      -7.900063      0.8887087
     11529.0000         0.5623       2014.563         0.5756      -7.979084      0.8874341
     11529.5000         0.5582       2065.527         0.5744      -8.100105      0.8854822
     11530.0000          0.554       2112.934         0.5732      -8.221127      0.8835302
     11530.5000         0.5498       2140.641         0.5719      -8.342247      0.8815767
     11531.0000         0.5394       2140.297         0.5707      -8.463268      0.8796247
     11531.5000         0.5434       2118.129         0.5695      -8.517693      0.8787469
     11532.0000         0.5473        2095.91         0.5682      -8.410412      0.8804772
     11532.5000         0.5489       2079.629          0.567      -8.222137      0.8835139
     11533.0000         0.5488       2067.457         0.5658       -7.94696      0.8879523
     11533.5000         0.5488       2055.285         0.5645       -7.67128      0.8923987
     11534.0000          0.545       2043.113          0.562      -7.396202      0.8968354
     11534.5000         0.5388       2052.145         0.5581      -7.200924      0.8999851
     11535.0000         0.5326       2081.758         0.5542      -7.318645      0.8980864
     11535.5000         0.5264        2117.98         0.5504      -7.436268      0.8961892
     11536.0000         0.5202       2172.113         0.5465      -7.591587      0.8936841
     11536.5000         0.5148       2331.547         0.5426      -7.755409      0.8910418
     11537.0000         0.5096        2352.18         0.5387      -7.919037      0.8884026
     11537.5000         0.5044       2370.008         0.5348      -8.041557      0.8864265
     11538.0000         0.4993       2375.238         0.5309      -8.142578      0.8847972
     11538.5000         0.4961       2363.563         0.5271        -8.2435      0.8831694
     11539.0000         0.4955       2347.898         0.5232      -8.016621      0.8868287
     11539.5000          0.495       2323.926         0.5193      -7.568844      0.8940509
     11540.0000          0.494        2299.48         0.5154      -7.092766      0.9017296
     11540.5000         0.4924       2275.035         0.5115      -6.616688      0.9094083
     11541.0000         0.4909       2255.688         0.5076      -6.389008      0.9130805
     11541.5000         0.4894       2265.934         0.5038      -6.672531      0.9085076
