#------------------------------------------------------------------------------
# Created by    : vladimir.rabinovich
# Created on    : 09/19/2023 17:20:25
#------------------------------------------------------------------------------
~Version Information Section
VERS.           2.0     :   CWLS log ASCII Standard - VERSION 2.0
WRAP.           NO      :   One line per depth step
~Well Information Section
#MNEM       .UNIT                                         VALUE :DESCRIPTION
#------------------------------------------------------------------------------
STRT        .FT                                            2998 :START DEPTH
STOP        .FT                                           12526 :STOP DEPTH
STEP        .FT                                             0.5 :STEP      
NULL        .                                           -999.25 :NULL      
COMP        .                                 CALIFORNIA CO THE :COMPANY   
WELL        .                               OCS G01117 ST00BP00 :WELL      
FLD         .                                       HIGH ISLAND :FIELD     
LOC         .                                                   :LOCATION  
CNTY        .                           HIGH ISLAND LARGE BLOCK :LOCATION  
STAT        .                                             TEXAS :STATE     
CTRY        .                                     UNITED STATES :COUNTRY   
SRVC        .                                                   :SERVICE COMPANY
DATE        .                             9/13/2023 11:19:15 AM :LOG DATE  
API         .                                    42708000660000 :API NUMBER
UWI         .                                    42708000660000 :UNIQUE WELL ID
XCOORD      .                                  1214371.69372255 :SURFACE X 
YCOORD      .                                  10618355.5582238 :SURFACE Y 
LAT         .                                         29.252113 :LATITUDE  
LON         .                                        -94.336419 :LONGITUDE 
ELEV        .FT                                              77 :ELEVATION VALUE
ELEV_TYPE   .                                                KB :ELEVATION REFERENCE TYPE
~Curve Information Section
#MNEM       .UNIT                                      API CODE :CURVE DESCRIPTION
#------------------------------------------------------------------------------
DEPT        .FT                                                 :DEPTH     
ASN         .OHMM                                               :          
CILD        .OHMM                                               :          
ILD         .OHMM                                               :          
SP          .MV                                                 :          
SP_NORM     .MV                                                 :SP Normalized
VSH_SP      .V/V                                                :Volume of Shale from SP
~A        DEPTH            ASN           CILD            ILD             SP        SP_NORM         VSH_SP
# ...
      5544.0000         1.2174       2008.871         0.4455      -112.1062      -55.34486      0.2452103
      5544.5000         1.1844       2007.455         0.4334      -111.3145      -54.55168      0.2562267
      5545.0000         1.1232       2004.072         0.4213      -110.5222      -53.75792      0.2672512
      5545.5000         1.0254       2000.514         0.4093      -108.5149      -51.74914      0.2951508
      5546.0000         0.8343       1996.953         0.3972      -105.8164      -49.04917      0.3326505
      5546.5000         0.8027       1992.893          0.423      -103.1205       -46.3518       0.370114
      5547.0000         0.8068       1987.916         0.4615       -97.8368      -41.06662      0.4435191
      5547.5000         0.8354       1957.217         0.4999       -92.3955      -35.62385      0.5191132
      5548.0000          0.864       1854.764         0.5384       -87.2006      -30.42748       0.591285
      5548.5000         0.8926         1651.9         0.5768       -83.1245      -26.34991       0.647918
      5549.0000         0.9212       1474.541         0.6153       -80.2263      -23.45024      0.6881911
      5549.5000           0.95       1297.182         0.6579       -77.3406      -20.56306      0.7282908
      5550.0000         0.9792       1195.408         0.7077       -74.5115      -17.73249      0.7676043
      5550.5000         1.0084       1151.701         0.7575       -71.6824      -14.90193      0.8069177
      5551.0000         1.0377       1107.945         0.8074       -68.8508      -12.06885       0.846266
      5551.5000         1.0669       1185.627         0.8572       -68.3037      -11.52028      0.8538849
      5552.0000         1.0962       1272.846         0.8084       -70.7681       -13.9832      0.8196777
      5552.5000         1.1043       1454.877         0.7308        -73.474      -16.68763      0.7821162
      5553.0000         1.1086       1737.951         0.6531       -77.6979      -20.91006      0.7234714
      5553.5000         1.1128       1978.955         0.5754       -81.9219      -25.13259      0.6648251
      5554.0000          1.117       1986.803         0.5149       -86.1508      -29.36002      0.6061108
      5554.5000           1.12        1994.65         0.4632       -90.3746      -33.58235      0.5474674
      5555.0000         1.1224        1998.41         0.4116       -94.5986      -37.80488      0.4888211
      5555.5000         1.1248       1998.781           0.36       -98.6156       -41.8204      0.4330499
      5556.0000         1.1272       1999.152         0.3083      -102.6177      -45.82103      0.3774856
      5556.5000         1.1297       1999.523         0.3089       -105.989      -49.19086      0.3306825
      5557.0000         1.1348       1994.299         0.3525      -109.0596      -52.25999      0.2880557
      5557.5000          1.146           1989         0.3961      -106.8785      -50.07742      0.3183692
      5558.0000         1.1896       1793.242         0.4396      -102.0459      -45.24334      0.3855091
      5558.5000         1.2367       1705.975         0.4832       -96.0822      -39.27818      0.4683587
      5559.0000         1.2725       1663.191         0.5268       -90.1233       -33.3178      0.5511416
      5559.5000         1.2559        1620.41         0.5615       -84.9235      -28.11653      0.6233815
      5560.0000         1.2115       1577.627         0.5895       -80.6749      -23.86646      0.6824104
      5560.5000          1.167       1534.941         0.6174       -76.4214      -19.61149      0.7415071
      5561.0000         1.1225       1584.197         0.6454       -72.5696      -15.75822      0.7950248
      5561.5000         1.0882       1633.502         0.6433       -69.9253      -13.11245      0.8317716
      5562.0000         1.0565       1682.758         0.6195        -72.476      -15.66167      0.7963657
      5562.5000         1.0396       1732.014         0.5957       -75.2089       -18.3931      0.7584292
      5563.0000         1.0613       1825.852         0.5719       -79.6743      -22.85703      0.6964301
      5563.5000         1.0829       1950.549         0.5481       -84.1448      -27.32605      0.6343604
      5564.0000         1.1046       2003.838         0.5243       -90.2072      -33.38699      0.5501807
      5564.5000         1.1122       2007.719         0.5004       -99.7985      -42.97681      0.4169887
      5565.0000         1.1123       2011.602         0.4845      -105.2448      -48.42164      0.3413661
      5565.5000         1.1046       2012.346         0.4776      -110.3854      -53.56077      0.2699893
      5566.0000         1.0757       2008.352         0.4706      -111.7938       -54.9677      0.2504486
      5566.5000         1.0469       2005.055         0.4637      -112.8337      -56.00613       0.236026
      5567.0000         1.0759       2002.742         0.4567      -111.7655      -54.93646      0.2508825
      5567.5000         1.1084       2000.428         0.4498      -110.5999      -53.76938      0.2670919
      5568.0000         1.1409       1998.113         0.4429      -109.4354      -52.60341      0.2832859
      5568.5000         1.1699       1996.043         0.4359       -108.271      -51.43754      0.2994786
      5569.0000          1.158       1994.666          0.429      -107.1066      -50.27166      0.3156713
      5569.5000         1.1459       1993.289         0.4323      -105.9409       -49.1045      0.3318819
      5570.0000         1.1321       1993.273         0.4362       -104.493      -47.65512      0.3520122
      5570.5000         1.1183       1993.439           0.44      -102.2899      -45.45055      0.3826312
      5571.0000         1.1045       1993.605         0.4439      -100.0892      -43.24838      0.4132169
      5571.5000         1.0907       1993.771         0.4477       -97.8861      -41.04381       0.443836
      5572.0000         1.0768       1993.936         0.4515       -95.6854      -38.84164      0.4744217
      5572.5000         1.0676       1994.102         0.4554       -93.6967      -36.85147       0.502063
      5573.0000         1.0595       1994.268         0.4592       -91.7794       -34.9327      0.5287125
      5573.5000         1.0513       1994.434         0.4631       -89.8621      -33.01392      0.5553622
      5574.0000         1.0431       1994.598         0.4698       -87.9448      -31.09515      0.5820118
      5574.5000         1.0349       1994.764         0.4772       -86.0275      -29.17637      0.6086615
      5575.0000          1.002        1994.93         0.4846       -84.0955       -27.2429      0.6355152
      5575.5000         0.9586       1995.094          0.492       -82.1166      -25.26254      0.6630204
      5576.0000         0.9287        1995.26         0.4993       -80.1377      -23.28217      0.6905255
      5576.5000         0.9088         1995.9         0.5067       -78.1613      -21.30429      0.7179959
      5577.0000         0.9215       1997.148         0.5154       -76.8785      -20.02002       0.735833
      5577.5000          0.934       1993.818          0.539       -76.6309      -19.77094      0.7392924
      5578.0000         0.9493        1927.77         0.5626       -77.3301      -20.46868      0.7296017
      5578.5000         0.9732       1829.551         0.5861         -78.03       -21.1671      0.7199013
      5579.0000         0.9971       1712.252         0.6097       -78.3942      -21.52983      0.7148634
      5579.5000          1.021       1657.059         0.6332       -77.0905      -20.22466      0.7329909
      5580.0000          1.045       1606.781         0.6568       -75.7855      -18.91819      0.7511363
      5580.5000         1.0689       1559.992         0.6686       -74.1591      -17.29032      0.7737455
      5581.0000         1.0328       1555.996         0.6551       -70.2999      -13.42964      0.8273661
      5581.5000         0.9952       1570.131         0.6417       -66.4358      -9.564072      0.8810546
