#------------------------------------------------------------------------------
# Created by    : vladimir.rabinovich
# Created on    : 09/19/2023 17:20:12
#------------------------------------------------------------------------------
~Version Information Section
VERS.           2.0     :   CWLS log ASCII Standard - VERSION 2.0
WRAP.           NO      :   One line per depth step
~Well Information Section
#MNEM       .UNIT                                         VALUE :DESCRIPTION
#------------------------------------------------------------------------------
STRT        .FT                                             309 :START DEPTH
STOP        .FT                                            9124 :STOP DEPTH
STEP        .FT                                             0.5 :STEP      
NULL        .                                           -999.25 :NULL      
COMP        .                         SONAT EXPLORATION GOM INC :COMPANY   
WELL        .                               OCS G03084 ST00BP00 :WELL      
FLD         .                                           WILDCAT :FIELD     
LOC         .                                                   :LOCATION  
CNTY        .                      MATAGORDA ISLAND LARGE BLOCK :LOCATION  
STAT        .                                             TEXAS :STATE     
CTRY        .                                     UNITED STATES :COUNTRY   
SRVC        .                                                   :SERVICE COMPANY
DATE        .                             9/13/2023 11:12:09 AM :LOG DATE  
API         .                                    42703400260000 :API NUMBER
UWI         .                                    42703400260000 :UNIQUE WELL ID
XCOORD      .                                  563826.313549269 :SURFACE X 
YCOORD      .                                  10238444.2560225 :SURFACE Y 
LAT         .                                         28.172716 :LATITUDE  
LON         .                                        -96.341662 :LONGITUDE 
ELEV        .FT                                              97 :ELEVATION VALUE
ELEV_TYPE   .                                                KB :ELEVATION REFERENCE TYPE
~Curve Information Section
#MNEM       .UNIT                                      API CODE :CURVE DESCRIPTION
#------------------------------------------------------------------------------
DEPT        .FT                                                 :DEPTH     
ASFL        .OHMM                                               :          
CILD        .MMHO                                               :          
DT          .US/F                                               :          
GR          .GAPI                                               :          
GR_NORM     .GAPI                                               :GammaRay Normalized
ILD         .OHMM                                               :          
SP          .MV                                                 :          
SP_NORM     .MV                                                 :SP Normalized
VSH_GR      .V/V                                                :Volume of Shale from GR
VSH_SP      .V/V                                                :Volume of Shale from SP
~A        DEPTH           ASFL           CILD             DT             GR        GR_NORM            ILD             SP        SP_NORM         VSH_GR         VSH_SP
# ...
      1485.0000          0.698       1374.949       137.2507        39.3577       48.36407         0.5945       -98.9463      -4.763733      0.3268951       0.731162
      1485.5000          0.688       1335.521       136.4526        39.4354       48.49664         0.5922       -98.6079      -4.420959      0.3297156      0.7556458
      1486.0000         0.6781        1307.33       138.0386        39.6142       48.79507         0.5899        -98.228      -4.036667      0.3360653      0.7830952
      1486.5000         0.6681       1301.867       139.2712        40.3696       50.03941         0.5876        -97.881       -3.68528      0.3625406      0.8081943
      1487.0000         0.6673       1306.143       138.9209        41.1251       51.28391         0.5853       -97.4801      -3.280006      0.3890194      0.8371424
      1487.5000         0.6673       1310.549       138.1824        41.7964        52.3903          0.583       -97.1858      -2.981316      0.4125595      0.8584775
      1488.0000         0.6673       1318.504       136.6746        42.3124       53.24191         0.5807       -96.9086       -2.69973      0.4306788      0.8785907
      1488.5000         0.6674       1326.457       134.3264        42.8286       54.09385         0.5784       -96.6896      -2.476349      0.4488052      0.8945465
      1489.0000         0.6607       1334.586       133.0967        43.2123        54.7284         0.5753       -96.5979      -2.380264      0.4623065      0.9014097
      1489.5000         0.6535       1348.094       134.6313         43.576       55.33017          0.572       -96.5254      -2.303375      0.4751099      0.9069018
      1490.0000         0.6463       1361.922        138.083        43.8651       55.80954         0.5686        -96.595      -2.368599      0.4853095       0.902243
      1490.5000         0.6392       1388.271       142.4187        44.0085       56.04988         0.5653       -96.6646      -2.433807       0.490423      0.8975852
      1491.0000         0.6356       1423.629       146.6052        43.8953       55.86931          0.562       -96.7341      -2.498924       0.486581       0.892934
      1491.5000         0.6357        1484.73       150.1428         43.454       55.15047         0.5587       -97.1157      -2.876144      0.4712865      0.8659897
      1492.0000         0.6357       1532.723       153.2322        43.0006       54.41176         0.5554       -97.6145       -3.37056      0.4555693      0.8306743
      1492.5000         0.6357       1587.434       155.7441        41.0851       51.27448         0.5521         -98.87      -4.621674      0.3888187       0.741309
      1493.0000         0.6358       1631.182       157.7568        40.0558       49.59102         0.5488       -99.4989      -5.246193      0.3530004      0.6967005
      1493.5000         0.6341       1631.152       158.9937        39.1542       48.11704         0.5455      -100.0691      -5.812004      0.3216392      0.6562854
      1494.0000          0.631       1630.762       158.2974        38.2808       46.68934         0.5424      -100.6819      -6.420418      0.2912625      0.6128273
      1494.5000         0.6278       1627.793       158.1052        37.1162       44.78392         0.5395      -101.3069      -7.041039      0.2507216      0.5684972
      1495.0000         0.6246       1624.824       159.2227        36.1968       43.28075         0.5367      -101.9279      -7.657654      0.2187393      0.5244533
      1495.5000         0.6263       1621.855        159.554        35.5764       42.26809         0.5339      -102.4358      -8.161163      0.1971934      0.4884883
      1496.0000         0.6324       1618.887       158.6162        35.6862       42.45332          0.531      -102.8545      -8.575485      0.2011345      0.4588939
      1496.5000         0.6384       1615.918       157.4443         35.796       42.63856         0.5282      -103.2618      -8.978401      0.2050757      0.4301142
      1497.0000         0.6445       1613.523       159.9966         35.916       42.84052         0.5254      -103.6605      -9.372711      0.2093728      0.4019492
      1497.5000         0.6505       1614.498       165.4126        36.0383       43.04626         0.5225      -103.9202      -9.628029      0.2137502      0.3837122
      1498.0000         0.6495       1615.471       168.8474        36.1607       43.25217         0.5197      -103.9459      -9.649345      0.2181312      0.3821896
      1498.5000         0.6462       1616.443       166.9783        36.2831       43.45808         0.5172      -103.9717      -9.670761      0.2225123      0.3806599
      1499.0000         0.6408       1617.416       164.5237        36.3815       43.62461         0.5181      -103.9547      -9.649376      0.2260555      0.3821874
      1499.5000         0.6336       1620.588        163.813        36.3948       43.65153         0.5191      -103.8683      -9.558594      0.2266282      0.3886719
      1500.0000         0.6265       1627.746       165.0808        36.4082       43.67862         0.5201      -103.7819      -9.467812      0.2272047      0.3951563
      1500.5000          0.622        1638.23       167.0623         36.401       43.67192          0.521      -103.6954      -9.376923      0.2270622      0.4016484
      1501.0000         0.6223       1654.768        168.676        35.6689       42.47601          0.521       -103.609       -9.28614      0.2016173      0.4081328
      1501.5000         0.6227       1671.305       169.6436        34.4313       40.45085         0.5185      -103.5226      -9.195358      0.1585287      0.4146173
      1502.0000         0.6231       1686.289       169.0977        33.3318       38.65221          0.516       -103.436       -9.10437      0.1202597      0.4211164
      1502.5000         0.6235       1701.182        162.731        31.8439       36.21641         0.5134      -103.4974      -9.161385     0.06843421       0.417044
      1503.0000          0.623       1716.072       158.3665        30.7027       34.34938         0.5109      -103.7837      -9.443306     0.02871022      0.3969067
      1503.5000         0.6224       1729.066       158.9436        29.4743       32.33928         0.5084      -104.0698      -9.725021              0      0.3767842
      1504.0000         0.6217       1741.352       161.9058        28.2593       30.35118         0.5095       -104.277      -9.927834              0      0.3622976
      1504.5000         0.6196       1731.654       163.2612        34.5947       40.74954         0.5185      -104.1798      -9.826256      0.1648838      0.3695531
      1505.0000         0.6151       1701.865       155.6033        36.7095       44.22398         0.5276      -104.0825      -9.724564      0.2388081      0.3768169
      1505.5000         0.6106       1667.688       149.0266         38.329       46.88588         0.5367      -103.9852      -9.622879      0.2954443      0.3840801
      1506.0000         0.6134       1631.455       145.5225        36.8713       44.49963         0.5458      -103.8881        -9.5214       0.244673      0.3913285
      1506.5000         0.6385        1592.49       144.4919        35.7294       42.63145         0.5549      -103.7908      -9.419716      0.2049245      0.3985917
      1507.0000          0.685       1557.051       145.5173        37.3356       45.27153          0.564      -103.6014      -9.225929      0.2610963      0.4124336
      1507.5000         0.7007       1526.568       151.0186        38.8589       47.77561          0.573      -103.2847      -8.904846      0.3143747      0.4353681
      1508.0000         0.7233       1496.154       152.8398        40.6747       50.75954         0.5869      -102.9679      -8.583664      0.3778626      0.4583097
      1508.5000         0.7474       1466.908       151.5601         41.709       52.46143         0.6025      -102.6511      -8.262474      0.4140731      0.4812519
      1509.0000          0.768       1436.314         150.28         41.998       52.94065         0.6153      -102.3344      -7.941391      0.4242692      0.5041863
