#------------------------------------------------------------------------------
# Created by    : vladimir.rabinovich
# Created on    : 09/19/2023 17:22:52
#------------------------------------------------------------------------------
~Version Information Section
VERS.           2.0     :   CWLS log ASCII Standard - VERSION 2.0
WRAP.           NO      :   One line per depth step
~Well Information Section
#MNEM       .UNIT                                         VALUE :DESCRIPTION
#------------------------------------------------------------------------------
STRT        .FT                                            1126 :START DEPTH
STOP        .FT                                            9906 :STOP DEPTH
STEP        .FT                                             0.5 :STEP      
NULL        .                                           -999.25 :NULL      
COMP        .                                        EXXON CORP :COMPANY   
WELL        .                               OCS G06053 ST00BP00 :WELL      
FLD         .                                           WILDCAT :FIELD     
LOC         .                                                   :LOCATION  
CNTY        .                      MATAGORDA ISLAND LARGE BLOCK :LOCATION  
STAT        .                                             TEXAS :STATE     
CTRY        .                                     UNITED STATES :COUNTRY   
SRVC        .                                                   :SERVICE COMPANY
DATE        .                             9/13/2023 11:12:11 AM :LOG DATE  
API         .                                    42703402640000 :API NUMBER
UWI         .                                    42703402640000 :UNIQUE WELL ID
XCOORD      .                                  440255.018680432 :SURFACE X 
YCOORD      .                                  10152284.9344853 :SURFACE Y 
LAT         .                                         27.926249 :LATITUDE  
LON         .                                        -96.716438 :LONGITUDE 
ELEV        .FT                                              94 :ELEVATION VALUE
ELEV_TYPE   .                                                KB :ELEVATION REFERENCE TYPE
~Curve Information Section
#MNEM       .UNIT                                      API CODE :CURVE DESCRIPTION
#------------------------------------------------------------------------------
DEPT        .FT                                                 :DEPTH     
GR          .GAPI                                               :          
GR_NORM     .GAPI                                               :GammaRay Normalized
ILD         .OHMM                                               :          
SP          .MV                                                 :          
SP_NORM     .MV                                                 :SP Normalized
VSH_GR      .V/V                                                :Volume of Shale from GR
VSH_SP      .V/V                                                :Volume of Shale from SP
~A        DEPTH             GR        GR_NORM            ILD             SP        SP_NORM         VSH_GR         VSH_SP
# ...
      8127.5000        59.3692       82.01376         0.9241        -45.267      -4.501873              1      0.9492482
      8128.0000        59.9532       83.23867         0.9212       -44.6178      -3.864117              1      0.9584911
      8128.5000          59.04       81.31771         0.9213       -43.9018      -3.159554              1      0.9687021
      8129.0000          57.93       78.98318         0.9236       -42.8329      -2.102097      0.9783655      0.9840276
      8129.5000        57.8817       78.87954         0.9259       -43.0144      -2.295036      0.9761604      0.9812313
      8130.0000        57.9314       78.98181         0.9279       -43.1063      -2.398376      0.9783364      0.9797336
      8130.5000        58.1887       79.52025         0.9299        -43.414      -2.717518      0.9897925      0.9751084
      8131.0000        59.3546       81.96789         0.9318       -43.9585      -3.273453              1      0.9670514
      8131.5000        60.6945       84.78111         0.9337       -44.7129      -4.039291              1      0.9559523
      8132.0000        61.8307       87.16632         0.9354       -43.9987      -3.336533              1      0.9661372
      8132.5000        62.6537       88.89344         0.9371       -41.1641     -0.5133743              1              1
      8133.0000        62.5641       88.70303         0.9279       -39.6682      0.9710846              1              1
      8133.5000        61.5089       86.48366         0.9168       -39.4889       1.138947              1              1
      8134.0000        60.0556       83.42784         0.9052        -40.546     0.07040405              1              1
      8134.5000        58.5657       80.29511          0.893       -41.4786     -0.8736343              1              1
      8135.0000        57.2831       77.59794         0.9225       -41.8469      -1.253376      0.9488923      0.9963279
      8135.5000        55.9932       74.88544         0.9657       -41.6339      -1.051811      0.8911795      0.9992491
      8136.0000        55.3748       73.58389         1.0136        -42.095      -1.524353      0.8634869      0.9924007
      8136.5000        56.4224       75.78294         1.0655       -40.1436      0.4156075      0.9102754              1
      8137.0000        56.2297       75.37588         1.1177       -37.8686       2.679169      0.9016144              1
      8137.5000        54.4363       71.60542         1.1641       -36.0672       4.469128      0.8213918              1
      8138.0000        54.6813       72.11805         1.1956       -34.9462       5.578686      0.8322989              1
      8138.5000        55.9639       74.81089         1.2145       -37.6528       2.860645      0.8895934              1
      8139.0000        57.1868       77.37827         1.2181       -40.2131      0.2889061      0.9442184              1
      8139.5000         58.367       79.85591         1.1837       -41.8782      -1.387634      0.9969343      0.9943821
      8140.0000         59.535       82.30792         1.1304       -41.7601      -1.280972              1      0.9959279
      8140.5000        60.2263       83.75833         1.0734       -41.7997      -1.332012              1      0.9951882
      8141.0000        60.1769       83.65236         1.0259        -42.629      -2.172752              1      0.9830036
      8141.5000        59.2338       81.66856         0.9836       -44.1231      -3.678291              1      0.9611842
      8142.0000        57.3746       77.75984         0.9669        -44.362      -3.928631      0.9523371      0.9575561
      8142.5000        56.5016       75.92336         0.9521       -42.4333      -2.011372      0.9132629      0.9853424
      8143.0000        56.2455       75.38305         0.9542       -38.4465       1.963989       0.901767              1
      8143.5000        56.8527       76.65675         0.9563       -35.0851        5.31395      0.9288669              1
      8144.0000        57.4421       77.89301          0.958       -35.2424        5.14521      0.9551703              1
      8144.5000        57.4233       77.85136         0.9595       -40.5898     -0.2136307      0.9542842              1
      8145.0000        56.5955        76.1098         0.9541       -43.9348      -3.570068      0.9172298      0.9627526
      8145.5000        55.3153       73.41767         0.9452       -44.2438      -3.890511      0.8599504      0.9581085
      8146.0000        55.2668       73.31364         0.9331         -41.72      -1.378151      0.8577369      0.9945195
      8146.5000        56.9052       76.75407         0.9149       -41.5614      -1.230991      0.9309376      0.9966523
      8147.0000        58.0049       79.06256         0.8926       -44.0244      -3.705429      0.9800545      0.9607909
      8147.5000        58.0414        79.1371         0.8665       -45.7745      -5.466972      0.9816405      0.9352612
      8148.0000        57.2344       77.43927         0.8452       -44.3133      -4.017212      0.9455164      0.9562723
      8148.5000        57.1045       77.16416         0.8259       -41.4019      -1.117249       0.939663      0.9983007
      8149.0000        57.6964       78.40568         0.8149       -39.3024      0.9708138      0.9660782              1
      8149.5000        58.3552       79.78779         0.8062       -40.3503    -0.08852768      0.9954849              1
      8150.0000        57.7781       78.57301         0.7989       -41.9011      -1.650768      0.9696384      0.9905686
      8150.5000        56.5052       75.89623         0.7937       -42.9728       -2.73391      0.9126858      0.9748709
      8151.0000        55.6909       74.18307         0.7888       -41.4841      -1.256649      0.8762357      0.9962804
      8151.5000        56.3236       75.51033         0.7867       -39.9973      0.2187119      0.9044751              1
      8152.0000        57.0527       77.04013         0.7846       -39.5364      0.6681709      0.9370241              1
      8152.5000        57.0088       76.94575         0.7955       -41.3543      -1.161167      0.9350159      0.9976643
      8153.0000        55.8987       74.61102         0.8112       -42.9984      -2.816708      0.8853408      0.9736709
      8153.5000        55.4376       73.63999          0.829        -44.017      -3.846745      0.8646806      0.9587429
      8154.0000        55.2617       73.26824         0.8519       -44.0825      -3.923687      0.8567711      0.9576277
      8154.5000        54.7685       72.22976         0.8755       -43.5077      -3.360329      0.8346757      0.9657924
      8155.0000        54.8776       72.45681         0.9028        -42.714      -2.578068      0.8395066      0.9771295
      8155.5000        56.1614       75.15218         0.9312       -43.4885      -3.364006      0.8968548      0.9657391
      8156.0000        58.0341       79.08489         0.9444       -43.0989      -2.985847      0.9805296      0.9712196
      8156.5000        59.4923       82.14668         0.9527        -41.336      -1.234386              1      0.9966031
      8157.0000        60.6555       84.58862         0.9465       -39.7449      0.3452759              1              1
      8157.5000        60.5018       84.26353         0.9363       -41.9541      -1.875366              1      0.9873135
      8158.0000        58.8364       80.76202           0.92       -42.9883      -2.921005              1      0.9721593
      8158.5000          58.89       80.87251            0.9        -43.493      -3.437145              1      0.9646791
      8159.0000        60.9773       85.25611         0.8897       -42.6317      -2.587284              1      0.9769959
      8159.5000        63.1182       89.75242         0.8853       -41.8234      -1.790424              1      0.9885446
      8160.0000        64.0448       91.69723         0.8859       -42.7296      -2.708065              1      0.9752454
      8160.5000        62.5916       88.64159         0.8845       -44.0152      -4.005108              1      0.9564477
