#------------------------------------------------------------------------------
# Created by    : vladimir.rabinovich
# Created on    : 09/19/2023 17:20:24
#------------------------------------------------------------------------------
~Version Information Section
VERS.           2.0     :   CWLS log ASCII Standard - VERSION 2.0
WRAP.           NO      :   One line per depth step
~Well Information Section
#MNEM       .UNIT                                         VALUE :DESCRIPTION
#------------------------------------------------------------------------------
STRT        .FT                                            2124 :START DEPTH
STOP        .FT                                            8264 :STOP DEPTH
STEP        .FT                                             0.5 :STEP      
NULL        .                                           -999.25 :NULL      
COMP        .                               SUPERIOR OIL CO THE :COMPANY   
WELL        .                                     ST TR 00009-L :WELL      
FLD         .                                           WILDCAT :FIELD     
LOC         .                                                   :LOCATION  
CNTY        .                           HIGH ISLAND LARGE BLOCK :LOCATION  
STAT        .                                             TEXAS :STATE     
CTRY        .                                     UNITED STATES :COUNTRY   
SRVC        .                                                   :SERVICE COMPANY
DATE        .                             9/13/2023 11:19:15 AM :LOG DATE  
API         .                                    42708300270000 :API NUMBER
UWI         .                                    42708300270000 :UNIQUE WELL ID
XCOORD      .                                  1318170.30554107 :SURFACE X 
YCOORD      .                                  10738395.6931535 :SURFACE Y 
LAT         .                                        29.5851559 :LATITUDE  
LON         .                                       -94.0141459 :LONGITUDE 
ELEV        .FT                                              72 :ELEVATION VALUE
ELEV_TYPE   .                                                KB :ELEVATION REFERENCE TYPE
~Curve Information Section
#MNEM       .UNIT                                      API CODE :CURVE DESCRIPTION
#------------------------------------------------------------------------------
DEPT        .FT                                                 :DEPTH     
ASN         .OHMM                                               :          
CILD        .MMHO                                               :          
ILD         .OHMM                                               :          
SN          .OHMM                                               :          
SP          .MV                                                 :          
SP_NORM     .MV                                                 :SP Normalized
VSH_SP      .V/V                                                :Volume of Shale from SP
~A        DEPTH            ASN           CILD            ILD             SN             SP        SP_NORM         VSH_SP
# ...
      4569.5000         0.8006       1436.303         0.8127         0.8133       -58.0659      -4.396694       0.948535
      4570.0000         0.8241       1452.133         0.7953         0.8183       -62.2645      -8.597927      0.8848799
      4570.5000         0.8682       1468.227         0.7784         0.8519       -66.5209      -12.85696      0.8203491
      4571.0000         0.9066       1484.869         0.7567         0.8976       -74.2367       -20.5754       0.703403
      4571.5000         0.9259       1518.479         0.7375         0.9435        -75.903      -22.24434      0.6781161
      4572.0000          0.919         1583.4         0.7169         0.9366       -75.6163      -21.96027      0.6824201
      4572.5000         0.9018       1706.752         0.6931         0.9038       -74.7992      -21.14581      0.6947604
      4573.0000         0.8814       1844.586         0.6572         0.8759       -73.7521      -20.10134      0.7105857
      4573.5000         0.8618       1977.176         0.6068         0.8366       -74.0229      -20.37478      0.7064427
      4574.0000         0.8362       2274.375         0.5476         0.8073       -77.0928      -23.44731      0.6598892
      4574.5000         0.8133       2596.887         0.4829         0.7891       -81.8142      -28.17135      0.5883129
      4575.0000         0.7877       2887.738         0.4186          0.775        -89.432      -35.79179      0.4728517
      4575.5000         0.7654       3280.664         0.3781         0.7625       -97.9901      -44.35252      0.3431436
      4576.0000         0.7638       3653.816         0.3603         0.7631      -105.8492      -52.21426      0.2240264
      4576.5000         0.7704        -999.25         0.3585         0.7635      -111.2848      -57.65249       0.141629
      4577.0000         0.7298        -999.25         0.3581         0.7154       -114.386      -60.75633     0.09460108
      4577.5000         0.6717        -999.25         0.3595         0.6667      -115.4281      -61.80106     0.07877176
      4578.0000         0.6489        -999.25         0.3608          0.643      -115.9535       -62.3291     0.07077125
      4578.5000         0.6548        -999.25         0.3649         0.6458      -115.2924      -61.67063     0.08074801
      4579.0000         0.6564       3768.379         0.3709         0.6628      -113.6191      -59.99997       0.106061
      4579.5000         0.6802        3607.07           0.38         0.6813      -111.6884      -58.07191      0.1352741
      4580.0000         0.7022       3484.219         0.3905         0.6919      -111.6091      -57.99524      0.1364357
      4580.5000         0.7094       3359.121         0.3999         0.6994      -112.5731      -58.96188      0.1217898
      4581.0000         0.7131       3273.922          0.409         0.7082      -112.1742      -58.56562      0.1277937
      4581.5000         0.7158       3222.184         0.4112         0.7257      -110.3333      -56.72735      0.1556462
      4582.0000         0.7493       3195.094         0.4109         0.7577      -108.5632      -54.95989      0.1824259
      4582.5000         0.7767        3164.43         0.4096         0.7746      -107.2043      -53.60362      0.2029755
      4583.0000         0.7812        3123.43         0.4075         0.7746      -105.7889      -52.19086       0.224381
      4583.5000         0.7756       3085.473         0.4089         0.7821       -105.248      -51.65259      0.2325365
      4584.0000         0.7924       3056.461         0.4186         0.7718      -105.4843      -51.89153      0.2289163
      4584.5000         0.7851       3044.758         0.4273         0.7687       -105.536      -51.94587      0.2280929
      4585.0000         0.7682         3065.5         0.4338         0.7644      -104.7871       -51.1996         0.2394
      4585.5000          0.759       3100.281         0.4353         0.7615      -103.7572      -50.17234      0.2549646
      4586.0000         0.7601       3080.605         0.4325           0.75      -103.6586      -50.07637      0.2564186
      4586.5000           0.75       3004.695          0.438         0.7424      -104.4608      -50.88121      0.2442241
      4587.0000         0.7316       2922.996         0.4472         0.7336      -105.4532      -51.87624      0.2291478
      4587.5000         0.7323       2813.426         0.4648         0.7285      -104.1346      -50.56028      0.2490867
      4588.0000         0.7405       2655.219         0.4893          0.732      -100.0466      -46.47491      0.3109861
      4588.5000         0.7492       2514.586         0.5223         0.7436       -95.4709      -41.90185       0.380275
      4589.0000         0.7503       2314.027         0.5553         0.7258       -88.6729      -35.10648      0.4832352
      4589.5000         0.6983       2182.484         0.5882          0.681       -78.5309      -24.96712      0.6368619
      4590.0000         0.6375       2055.141         0.6213         0.6253       -70.0784      -16.51725      0.7648901
      4590.5000         0.6006       2011.443         0.6008         0.5892       -64.1802      -10.62169      0.8542168
      4591.0000         0.5988       2162.512         0.5586         0.6252       -62.3223      -8.766426      0.8823269
      4591.5000         0.6393       2330.809         0.5189         0.6837       -71.1041      -17.55087      0.7492293
      4592.0000         0.7521       2618.859         0.4843         0.7484       -82.4126        -28.862      0.5778486
      4592.5000         0.8039       2901.922         0.4597         0.8028       -97.8041      -44.25613       0.344604
      4593.0000          0.825       3094.488         0.4365         0.7614       -103.667      -50.12167      0.2557323
      4593.5000         0.7421        3267.68         0.4177         0.6912      -106.7478      -53.20511      0.2090135
      4594.0000         0.6959       3404.016         0.3992         0.6618      -105.8442      -52.30414      0.2226645
      4594.5000         0.6807       3447.961         0.3989         0.6824      -103.8632      -50.32578      0.2526398
      4595.0000         0.7178        3358.77         0.4012          0.724      -105.4999      -51.96511      0.2278014
      4595.5000           0.77       3270.578         0.4163         0.7746      -107.5488      -54.01664      0.1967175
      4596.0000         0.7814       3151.719         0.4313         0.7519      -104.6652      -51.13568      0.2403685
      4596.5000          0.718       2965.844         0.4461         0.6884       -99.6947      -46.16782      0.3156391
      4597.0000         0.6807       2787.457         0.4609         0.6495       -89.4521      -35.92786      0.4707901
      4597.5000         0.6525       2619.461         0.4809         0.6584       -79.0437      -25.52209      0.6284532
      4598.0000          0.692       2452.262         0.5037          0.702       -77.1531      -23.63412      0.6570587
      4598.5000         0.7634       2309.133         0.5356         0.7787       -82.2241      -28.70776      0.5801855
      4599.0000         0.7867       2203.063         0.5716         0.7937       -83.5062       -29.9925      0.5607197
      4599.5000          0.761       2071.188         0.6177         0.7706       -78.9104      -25.39933      0.6303131
      4600.0000         0.7478       1912.105         0.6756         0.7631       -74.8878      -21.37937      0.6912217
      4600.5000         0.7982       1606.572         0.7425         0.8317       -73.6031      -20.09731      0.7106468
      4601.0000         0.8892       1478.027         0.8178         0.9155       -76.3058      -22.80264      0.6696569
      4601.5000         0.9498       1319.918         0.8948         0.9729       -78.4391      -24.93858      0.6372943
      4602.0000         0.9847       1190.873           0.97         1.0129       -73.1003      -19.60241      0.7181453
      4602.5000         1.0276       1068.121         1.0395         1.0592       -64.2758      -10.78055      0.8518099
