#------------------------------------------------------------------------------
# Created by    : vladimir.rabinovich
# Created on    : 09/19/2023 17:20:01
#------------------------------------------------------------------------------
~Version Information Section
VERS.           2.0     :   CWLS log ASCII Standard - VERSION 2.0
WRAP.           NO      :   One line per depth step
~Well Information Section
#MNEM       .UNIT                                         VALUE :DESCRIPTION
#------------------------------------------------------------------------------
STRT        .FT                                            3470 :START DEPTH
STOP        .FT                                           12708 :STOP DEPTH
STEP        .FT                                             0.5 :STEP      
NULL        .                                           -999.25 :NULL      
COMP        .                                     INEXCO OIL CO :COMPANY   
WELL        .                                     ST TR 00794-L :WELL      
FLD         .                                       BLOCK 794-L :FIELD     
LOC         .                                                   :LOCATION  
CNTY        .                        MUSTANG ISLAND LARGE BLOCK :LOCATION  
STAT        .                                             TEXAS :STATE     
CTRY        .                                     UNITED STATES :COUNTRY   
SRVC        .                                                   :SERVICE COMPANY
DATE        .                             9/13/2023 11:18:55 AM :LOG DATE  
API         .                                    42702301710000 :API NUMBER
UWI         .                                    42702301710000 :UNIQUE WELL ID
XCOORD      .                                  319607.894357718 :SURFACE X 
YCOORD      .                                   10038241.944616 :SURFACE Y 
LAT         .                                        27.6026524 :LATITUDE  
LON         .                                       -97.0775955 :LONGITUDE 
ELEV        .FT                                               0 :ELEVATION VALUE
ELEV_TYPE   .                                                GL :ELEVATION REFERENCE TYPE
~Curve Information Section
#MNEM       .UNIT                                      API CODE :CURVE DESCRIPTION
#------------------------------------------------------------------------------
DEPT        .FT                                                 :DEPTH     
ASFL        .OHMM                                               :          
CILD        .MMHO                                               :          
DT          .US/F                                               :          
GR          .GAPI                                               :          
GR_NORM     .GAPI                                               :GammaRay Normalized
ILD         .OHMM                                               :          
ILM         .OHMM                                               :          
SP          .MV                                                 :          
SP_NORM     .MV                                                 :SP Normalized
VSH_GR      .V/V                                                :Volume of Shale from GR
VSH_SP      .V/V                                                :Volume of Shale from SP
~A        DEPTH           ASFL           CILD             DT             GR        GR_NORM            ILD            ILM             SP        SP_NORM         VSH_GR         VSH_SP
# ...
      7182.5000         0.8913       1214.074        98.1565        54.1454       76.80889          0.799         0.8096       -50.0215      0.2708969      0.9321041              1
      7183.0000         0.9178        1243.98        99.0627        54.7272       77.71815         0.7995         0.8023       -50.2606      0.0317955      0.9514501              1
      7183.5000          0.936       1273.936        100.599        55.5018       78.91888         0.8091         0.8026       -50.7002     -0.4078026      0.9769976              1
      7184.0000         0.9541       1289.445       102.2887        56.7464       80.83022         0.8274         0.8112       -51.1525     -0.8601036              1              1
      7184.5000         0.9696        1242.82       102.5042        58.2618       83.15099         0.8456         0.8241       -51.9774      -1.685005              1      0.9892968
      7185.0000         0.9821       1190.932       100.7451        61.1863       87.60213         0.8639         0.8407       -52.8021      -2.509705              1      0.9764109
      7185.5000         0.9945       1136.287        97.5898         63.015       90.39657         0.8821          0.867       -53.6899      -3.397503              1       0.962539
      7186.0000         1.0158       1052.268        93.2318        64.5461       92.74107         0.9004         0.9067        -54.591      -4.298603              1      0.9484593
      7186.5000         1.0704       1022.071        90.4952        65.8752       94.78014         0.9186         0.9553       -55.5924      -5.300003              1      0.9328125
      7187.0000         1.1491        991.874        88.7155        67.2964        96.9585         0.9357         0.9991       -56.2491      -5.956703              1      0.9225515
      7187.5000         1.2032       961.6777         87.425        65.2451       93.88681         0.9516         1.0382        -56.777      -6.484604              1      0.9143031
      7188.0000          1.132       930.6113        86.9591        64.4227       92.67306         0.9674         1.0812       -57.1665      -6.874104              1      0.9082171
      7188.5000         1.0656       897.4678        86.8058         63.668       91.56168         0.9817         1.1353         -57.53      -7.237602              1      0.9025375
      7189.0000         1.0806       864.3232        86.9792        62.9133       90.45029         0.9935         1.1811       -58.0947      -7.802303              1       0.893714
      7189.5000            1.1       831.1797        87.2218        61.7607       88.73734         0.9705         1.2134       -58.6699      -8.377502              1      0.8847265
      7190.0000          1.123        853.501        87.7008        60.3179       86.58562         0.9302         1.2152       -59.4529      -9.160503              1      0.8724921
      7190.5000         1.1908       883.8906        88.4038        58.1989       83.41158           0.89         1.1779       -60.1182      -9.825802              1      0.8620968
      7191.0000          1.095       914.2813        89.3582        56.9568       81.56331         0.8671         1.1398        -60.412       -10.1196              1      0.8575062
      7191.5000         1.0212       944.6709         90.746        56.2499       80.52419         0.8448         1.0967       -60.4604        -10.168              1        0.85675
      7192.0000         0.9808       987.2363        91.9559        55.6186       79.59938         0.8225         1.0518       -60.3942       -10.1018      0.9914762      0.8577843
      7192.5000         0.9506       1032.266        93.6383        54.9896       78.67805         0.8001         1.0178       -60.0825      -9.790104      0.9718735      0.8626546
      7193.0000         0.9309       1085.363        96.4017        54.3783       77.78349         0.7821         0.9725       -59.6162      -9.323803      0.9528403      0.8699406
      7193.5000         0.9162       1177.645        99.1334        53.7675       76.88965         0.7727         0.9231       -59.1494      -8.857002      0.9338223      0.8772343
      7194.0000         0.9025       1270.506       101.8018        53.1561       75.99493         0.7632         0.8702       -58.5906      -8.298203      0.9147858      0.8859656
      7194.5000         0.8945       1320.994       104.5237        52.7292       75.37914         0.7538         0.8281       -57.6194      -7.327003      0.9016837      0.9011406
      7195.0000         0.8873       1342.904        108.653        52.3434       74.82549         0.7444         0.7912       -56.6694      -6.377003      0.8899041      0.9159843
      7195.5000         0.8913       1327.564       122.5013         51.957       74.27094         0.7446         0.7592       -56.0774      -5.785004      0.8781052      0.9252343
      7196.0000          0.898       1298.334       150.2759         51.761       74.00426         0.7451         0.7464       -55.4854      -5.193005      0.8724312      0.9344843
      7196.5000          0.909       1266.785       169.2517        51.6688       73.89449         0.7455           0.76       -54.8649      -4.572502      0.8700954      0.9441797
      7197.0000         0.9395         1233.4       170.2969        51.5766       73.78474          0.746         0.7796       -54.7131      -4.420704      0.8677605      0.9465515
      7197.5000         0.9849       1200.014       169.6011        51.4972       73.69431         0.7465         0.7916       -54.9197      -4.627304      0.8658364      0.9433234
      7198.0000         1.0497       1166.629       167.7788        51.5865       73.85899         0.7469          0.813       -55.0806      -4.788204      0.8693403      0.9408093
      7198.5000         1.0897       1139.113       165.9893        51.6761       74.02411         0.7485         0.8393       -55.2263      -4.933903      0.8728534      0.9385328
      7199.0000         1.1247       1120.803       164.8706        51.7908       74.22715         0.7575         0.8706       -55.3718      -5.079403      0.8771734      0.9362593
      7199.5000         1.0914       1102.467       164.4287        51.9131       74.44171         0.7664         0.9089       -55.5174      -5.225002      0.8817385      0.9339843
      7200.0000         1.0616       1246.771       165.9746        52.0356       74.65656         0.7754         0.9345       -55.6631      -5.370705      0.8863097      0.9317077
      7200.5000         1.0344       1218.814       170.6541        52.1579       74.87111         0.7843         0.9435       -55.8087      -5.516304      0.8908747      0.9294327
      7201.0000         1.0072       1178.969       173.4492        52.2802       75.08565         0.7932         0.9392       -55.8362      -5.543804      0.8954393      0.9290031
      7201.5000         0.9887       1133.348       174.9902        52.5127       75.46678         0.8022         0.9303       -55.8594      -5.567005      0.9035485      0.9286405
      7202.0000         0.9713       1072.166       176.1089        52.7531       75.85991         0.8136         0.9417        -55.873      -5.580605       0.911913      0.9284281
      7202.5000          0.971       1067.262       176.7354        52.9883       76.24512         0.8334         0.9553       -55.6151      -5.322704      0.9201089      0.9324577
      7203.0000         0.9923         1078.9       177.1064        53.2115       76.61224         0.8532         0.9421        -55.186      -4.893604      0.9279201      0.9391624
      7203.5000         1.0135       1080.037       176.7488        53.4349       76.97962         0.8731         0.9344       -54.4543      -4.161903      0.9357367      0.9505953
      7204.0000         1.0315       1079.971       176.0859         53.707       77.42065         0.8929         0.9369       -53.7576      -3.465202      0.9451202      0.9614812
      7204.5000          1.049       1071.658       175.9983        54.0826       78.01815         0.9128         0.9426       -53.2921      -2.999702       0.957833      0.9687546
