#------------------------------------------------------------------------------
# Created by    : vladimir.rabinovich
# Created on    : 09/19/2023 17:22:16
#------------------------------------------------------------------------------
~Version Information Section
VERS.           2.0     :   CWLS log ASCII Standard - VERSION 2.0
WRAP.           NO      :   One line per depth step
~Well Information Section
#MNEM       .UNIT                                         VALUE :DESCRIPTION
#------------------------------------------------------------------------------
STRT        .FT                                              10 :START DEPTH
STOP        .FT                                            7932 :STOP DEPTH
STEP        .FT                                             0.5 :STEP      
NULL        .                                           -999.25 :NULL      
COMP        .                                       ALLIED CORP :COMPANY   
WELL        .                               OCS G04069 ST00BP00 :WELL      
FLD         .                                           WILDCAT :FIELD     
LOC         .                                                   :LOCATION  
CNTY        .                             GALVESTON LARGE BLOCK :LOCATION  
STAT        .                                             TEXAS :STATE     
CTRY        .                                     UNITED STATES :COUNTRY   
SRVC        .                                                   :SERVICE COMPANY
DATE        .                             9/13/2023 11:18:53 AM :LOG DATE  
API         .                                    42706400790000 :API NUMBER
UWI         .                                    42706400790000 :UNIQUE WELL ID
XCOORD      .                                  993545.470392299 :SURFACE X 
YCOORD      .                                  10396443.6120929 :SURFACE Y 
LAT         .                                         28.633244 :LATITUDE  
LON         .                                        -95.016955 :LONGITUDE 
ELEV        .FT                                              82 :ELEVATION VALUE
ELEV_TYPE   .                                                KB :ELEVATION REFERENCE TYPE
~Curve Information Section
#MNEM       .UNIT                                      API CODE :CURVE DESCRIPTION
#------------------------------------------------------------------------------
DEPT        .FT                                                 :DEPTH     
CALI        .IN                                                 :          
CILD        .MMHO                                               :          
DPHI        .B                                                  :          
DRHO        .G/C3                                               :          
DT          .US/F                                               :          
GR          .GAPI                                               :          
GR_1        .GAPI                                               :          
GR_NORM     .GAPI                                               :GammaRay Normalized
ILD         .OHMM                                               :          
ILM         .OHMM                                               :          
NPHI        .%                                                  :          
SFL         .OHMM                                               :          
SP          .MV                                                 :          
SP_NORM     .MV                                                 :SP Normalized
VSH_GR      .V/V                                                :Volume of Shale from GR
VSH_SP      .V/V                                                :Volume of Shale from SP
~A        DEPTH           CALI           CILD           DPHI           DRHO             DT             GR           GR_1        GR_NORM            ILD            ILM           NPHI            SFL             SP        SP_NORM         VSH_GR         VSH_SP
# ...
      3370.0000        16.4983       974.0049        42.5353        -0.0668       153.5286        76.0315        68.4998       75.14291         1.0151         0.9821        59.8446         1.1826       -66.4972       1.747726      0.8966578              1
      3370.5000        16.5669       983.8311        42.5999        -0.0705       155.3862        77.2969        66.8463       76.72092         1.0211         0.9811        55.6231         1.1897       -67.0096       1.229294      0.9302323              1
      3371.0000        16.6385       997.0781        42.7898        -0.0663       157.1423         78.288        66.9896       77.95605         1.0146         0.9769        50.6022         1.2023       -67.9263      0.3065643      0.9565116              1
      3371.5000        16.6744        1013.67        43.4128        -0.0641       158.4727         75.338        67.4396       74.26479         1.0011         0.9685        49.8256         1.1878       -67.9934       0.233429      0.8779743              1
      3372.0000        16.6707       1030.273        43.6838        -0.0639       158.4438        71.0851        68.3607       68.94492         0.9878         0.9597        53.1348         1.1678       -67.7589      0.4618988      0.7647856              1
      3372.5000        16.6479        1045.98         42.866        -0.0658       157.9624        69.0597        69.3152       66.40944          0.962         0.9504        53.6093         1.1402       -67.3518      0.8629684      0.7108392              1
      3373.0000        16.6107       1060.225        42.8906        -0.0727        157.387        68.5345        69.0237       65.74919         0.9368         0.9461        52.2549         1.1187        -66.937       1.271744      0.6967913              1
      3373.5000        16.5778       1074.463        44.3331        -0.0751       156.8113         70.089        66.7032       67.68856         0.9122         0.9495        50.8823         1.1062       -66.4146       1.788116      0.7380545              1
      3374.0000         16.556       1073.326         44.626        -0.0703       155.3228        76.2921        64.1814       75.43869         0.8926         0.9529        50.2914         1.0937       -65.9907       2.205978      0.9029509              1
      3374.5000        16.5776       1069.107        45.2151        -0.0691       153.6313        78.8279        63.3971        78.6047         0.8923         0.9564        53.7491         1.0998       -65.8162       2.374451      0.9703127              1
      3375.0000        16.5975       1061.359        46.5717        -0.0859       152.1594        80.2968        65.1019       80.43707         0.8921          0.964        -999.25         1.1123       -65.6416       2.543015              1              1
      3375.5000        16.6151       1050.256        47.6823         -0.103       151.0522        81.4352        67.4161       81.85634         0.8918         0.9723        -999.25         1.1249       -65.6168        2.56179              1              1
      3376.0000        16.6292       1039.158        47.4828        -0.1144       150.1494        79.9904         65.391       80.04659         0.8916         0.9798        56.8647         1.1396       -65.7628       2.409752              1              1
      3376.5000        16.6419       1032.486        44.9044        -0.0908       149.1936        76.7766        63.7218       76.02559         0.9157         0.9778        54.3611         1.1551       -65.9062        2.26033      0.9154381              1
      3377.0000        16.6441       1028.484        41.4984        -0.0556        148.427        74.6045        63.8058       73.30672         0.9424         0.9672        50.5811         1.1708       -66.0634       2.097092      0.8575897              1
      3377.5000        16.6393       1024.479        39.6432        -0.0391       147.8918        74.2719        66.1361       72.88721         0.9699         0.9794        47.5353         1.1771       -66.2915       1.862968       0.848664              1
      3378.0000        16.6219       1020.477        39.3675        -0.0372       147.8582        76.5042         66.942       75.67386         0.9846         0.9625        50.8853         1.1715       -66.3623        1.78614      0.9079545              1
      3378.5000        16.5953       1021.456        40.7167        -0.0451       147.8867        79.7253        67.5471       79.69649         0.9879         0.9537        54.2825         1.1659       -66.2487         1.8937      0.9935423              1
      3379.0000        16.5669         1022.7        42.4437        -0.0677       148.1079        79.6428        69.8218       79.58961         0.9912         0.9511        53.6799         1.1516       -66.0771       2.059273      0.9912682              1
      3379.5000        16.5422       1022.756        45.3716        -0.0996       148.2053        76.9258        72.2645       76.18961         0.9945         0.9525         52.728         1.1325       -65.6432       2.487137      0.9189278              1
      3380.0000        16.5355       1022.092        47.2249        -0.1187       148.1174        73.5793        71.3737       72.00273         0.9792          0.953        55.1915         1.1137       -65.2092       2.915115      0.8298454              1
      3380.5000         16.537       1021.427        47.7258        -0.1271       147.9658        73.7416        69.4882       72.20186         0.9642          0.954        56.1879         1.1023        -64.926       3.192276      0.8340821              1
      3381.0000        16.5431       1017.723        47.7356        -0.1253       148.0464        76.4548        67.4408       75.58963         0.9494         0.9565        54.0613         1.1072       -64.6882       3.424049      0.9061623              1
      3381.5000        16.5503       1012.818        46.2639        -0.1024       148.8809        82.2882        65.4404       82.87762         0.9399         0.9589        50.6844          1.112       -64.7251       3.381119              1              1
      3382.0000        16.5588       1007.911        40.5682         -0.068       149.0701         83.632        63.8762       84.55363         0.9434         0.9599        52.0923         1.1187       -65.2616       2.838593              1              1
      3382.5000        16.5635       1003.004        39.2211        -0.0457       148.8477        81.2072        64.1073       81.51888         0.9469         0.9604        52.7183         1.1337       -65.8312       2.262962              1              1
      3383.0000        16.5778       998.3213        39.9948        -0.0369       148.3682        78.7527        67.8301       78.44701         0.9512         0.9633        52.5074         1.1489       -66.4266        1.66153      0.9669576              1
      3383.5000        16.5985       996.2754        41.7407        -0.0577       148.4136        77.1952        69.3733       76.49639         0.9682         0.9666        50.0061         1.1635       -67.0182       1.063896      0.9254552              1
      3384.0000        16.6244       994.2295        42.6504        -0.0757       148.8672        75.9371         66.629       74.92003         0.9856         0.9669        44.4982         1.1699       -67.3695      0.7065659      0.8919155              1
      3384.5000        16.6518       992.1836        42.4721        -0.0673       149.5037        75.2539        63.5167       74.06227         1.0032         0.9638        42.9454         1.1764       -67.7208      0.3492355      0.8736653              1
      3385.0000        16.6812       992.6416        40.8652        -0.0537       150.5486        76.7729        62.3753       75.95728         1.0093         0.9608        43.2552         1.1789       -67.9584      0.1056061      0.9139846              1
      3385.5000        16.7083       993.7813        39.8073        -0.0444        151.364        81.5634        64.9487       81.94165         1.0083         0.9582         45.833         1.1786        -68.007     0.05097198              1              1
