#------------------------------------------------------------------------------
# Created by    : vladimir.rabinovich
# Created on    : 09/19/2023 17:22:39
#------------------------------------------------------------------------------
~Version Information Section
VERS.           2.0     :   CWLS log ASCII Standard - VERSION 2.0
WRAP.           NO      :   One line per depth step
~Well Information Section
#MNEM       .UNIT                                         VALUE :DESCRIPTION
#------------------------------------------------------------------------------
STRT        .FT                                            2600 :START DEPTH
STOP        .FT                                            8208 :STOP DEPTH
STEP        .FT                                             0.5 :STEP      
NULL        .                                           -999.25 :NULL      
COMP        .                          SEAGULL ENERGY E & P INC :COMPANY   
WELL        .                               OCS G09039 ST00BP00 :WELL      
FLD         .                              GALVESTON BLOCK 0273 :FIELD     
LOC         .                                                   :LOCATION  
CNTY        .                             GALVESTON LARGE BLOCK :LOCATION  
STAT        .                                             TEXAS :STATE     
CTRY        .                                     UNITED STATES :COUNTRY   
SRVC        .                                                   :SERVICE COMPANY
DATE        .                             9/13/2023 11:19:54 AM :LOG DATE  
API         .                                    42706403220000 :API NUMBER
UWI         .                                    42706403220000 :UNIQUE WELL ID
XCOORD      .                                  1018306.80056624 :SURFACE X 
YCOORD      .                                  10490966.5196098 :SURFACE Y 
LAT         .                                         28.894284 :LATITUDE  
LON         .                                        -94.944599 :LONGITUDE 
ELEV        .FT                                             103 :ELEVATION VALUE
ELEV_TYPE   .                                                KB :ELEVATION REFERENCE TYPE
~Curve Information Section
#MNEM       .UNIT                                      API CODE :CURVE DESCRIPTION
#------------------------------------------------------------------------------
DEPT        .FT                                                 :DEPTH     
DCAL        .IN                                                 :          
DPHI        .%                                                  :          
DTL         .US/F                                               :          
GR          .GAPI                                               :          
GR_1        .GAPI                                               :          
GR_NORM     .GAPI                                               :GammaRay Normalized
ILD         .OHMM                                               :          
ILM         .OHMM                                               :          
NPHI        .%                                                  :          
SFL         .OHMM                                               :          
SP          .MV                                                 :          
SP_NORM     .MV                                                 :SP Normalized
VSH_GR      .V/V                                                :Volume of Shale from GR
VSH_SP      .V/V                                                :Volume of Shale from SP
~A        DEPTH           DCAL           DPHI            DTL             GR           GR_1        GR_NORM            ILD            ILM           NPHI            SFL             SP        SP_NORM         VSH_GR         VSH_SP
# ...
      3446.0000        -999.25        -999.25        -999.25        16.9438        -999.25       36.81931         0.4442         0.5147        -999.25         0.5599       -71.1628      -34.82478     0.08126182      0.3035043
      3446.5000        -999.25        -999.25        -999.25        17.9625        -999.25       37.86111          0.437         0.5111        -999.25         0.5459       -71.5646      -35.25945       0.103428      0.2948111
      3447.0000        -999.25        -999.25        -999.25        18.7082        -999.25       38.62373          0.423         0.5024        -999.25         0.5205       -71.6161      -35.31687      0.1196537      0.2936626
      3447.5000        -999.25        -999.25        -999.25        17.8023        -999.25       37.69728         0.4091         0.4897        -999.25         0.4942       -71.6094      -35.31162     0.09994207      0.2937676
      3448.0000        -999.25        -999.25        -999.25        16.2583        -999.25       36.11825         0.3989         0.4721        -999.25         0.4702       -71.6288      -35.33447     0.06634578      0.2933106
      3448.5000        -999.25        -999.25        -999.25        15.0223        -999.25       34.85421         0.3934         0.4551        -999.25         0.4518       -71.7964      -35.51693     0.03945136      0.2896614
      3449.0000        -999.25        -999.25        -999.25        14.6358        -999.25       34.45894         0.4003         0.4477        -999.25         0.4435       -72.1539      -35.90389     0.03104133      0.2819222
      3449.5000        -999.25        -999.25        -999.25        15.0248        -999.25       34.85677         0.4161         0.4539        -999.25         0.4404       -72.4603      -36.23582     0.03950565      0.2752837
      3450.0000        -999.25        -999.25        -999.25        16.1447        -999.25       36.00208         0.4346         0.4675        -999.25         0.4388       -72.7283       -36.5264     0.06387394       0.269472
      3450.5000        -999.25        -999.25        -999.25        15.5421        -999.25        35.3858         0.4505          0.473        -999.25         0.4304       -72.8422      -36.65102     0.05076177      0.2669795
      3451.0000        -999.25        -999.25        -999.25        14.2522        -999.25       34.06665         0.4469         0.4692        -999.25         0.4206       -72.8176      -36.62649     0.02269461      0.2674702
      3451.5000        -999.25        -999.25        -999.25        12.9205        -999.25       32.70473         0.4313          0.456        -999.25         0.4133       -72.7329      -36.53724              0      0.2692552
      3452.0000        -999.25        -999.25        -999.25         12.281        -999.25       32.05072         0.4185         0.4424        -999.25         0.4197       -72.6118      -36.40879              0      0.2718243
      3452.5000        -999.25        -999.25        -999.25        12.3663        -999.25       32.13796         0.4086         0.4285        -999.25         0.4209       -72.4906      -36.28023              0      0.2743954
      3453.0000        -999.25        -999.25        -999.25        13.2236        -999.25       33.01471          0.403         0.4183        -999.25         0.4188       -72.3319      -36.11128   0.0003130487      0.2777744
      3453.5000        -999.25        -999.25        -999.25        14.4252        -999.25       34.24357         0.4054         0.4119        -999.25         0.4133       -72.1711      -35.94007      0.0264589      0.2811987
      3454.0000        -999.25        -999.25        -999.25        15.3666        -999.25       35.20632         0.4105          0.418        -999.25         0.4106       -71.9788      -35.73494     0.04694302      0.2853012
      3454.5000        -999.25        -999.25        -999.25        16.4338        -999.25       36.29773         0.4214         0.4293        -999.25         0.4165       -71.7726      -35.51484     0.07016454      0.2897032
      3455.0000        -999.25        -999.25        -999.25        18.0208        -999.25       37.92073         0.4335          0.445        -999.25         0.4316       -71.6013      -35.33233      0.1046965      0.2933533
      3455.5000        -999.25        -999.25        -999.25        19.4408        -999.25       39.37294         0.4471         0.4614        -999.25         0.4439       -71.4154      -35.13409      0.1355945      0.2973183
      3456.0000        -999.25        -999.25        -999.25        18.6639        -999.25       38.57842         0.4612         0.4788        -999.25         0.4519       -71.1436      -34.84335      0.1186898      0.3031331
      3456.5000        -999.25        -999.25        -999.25        15.6802        -999.25       35.52703         0.4739          0.494        -999.25          0.455       -71.0642       -34.7598      0.0537667       0.304804
      3457.0000        -999.25        -999.25        -999.25        12.4792        -999.25       32.25343         0.4783         0.4965        -999.25         0.4532       -71.0857      -34.78492              0      0.3043017
      3457.5000        -999.25        -999.25        -999.25        10.9156        -999.25       30.65435         0.4672          0.491        -999.25           0.45       -71.1736      -34.88154              0      0.3023692
      3458.0000        -999.25        -999.25        -999.25        11.3243        -999.25       31.07232         0.4504         0.4735        -999.25         0.4418       -71.3796      -35.10535              0      0.2978931
      3458.5000        -999.25        -999.25        -999.25        12.6007        -999.25       32.37768         0.4316         0.4577        -999.25         0.4256       -71.6072      -35.35242              0      0.2929517
      3459.0000        -999.25        -999.25        -999.25        14.9683        -999.25       34.79899         0.4162         0.4444        -999.25         0.4118       -71.7318      -35.48856     0.03827635      0.2902288
      3459.5000        -999.25        -999.25        -999.25        17.3445        -999.25       37.22909         0.4084         0.4408        -999.25         0.4159       -71.8447      -35.61211     0.08998059      0.2877577
      3460.0000        -999.25        -999.25        -999.25        18.8232        -999.25       38.74134         0.4195         0.4456        -999.25         0.4341       -71.8838      -35.65618      0.1221561      0.2868764
      3460.5000        -999.25        -999.25        -999.25        17.6587        -999.25       37.55042          0.441         0.4502        -999.25         0.4486       -71.8776      -35.65146     0.09681742      0.2869707
      3461.0000        -999.25        -999.25        -999.25        15.6888        -999.25       35.53584         0.4311         0.4524        -999.25         0.4375        -71.759      -35.52571     0.05395394      0.2894858
      3461.5000        -999.25        -999.25        -999.25        14.5215        -999.25       34.34205         0.4214         0.4524        -999.25         0.4222       -71.5927      -35.34857     0.02855431      0.2930286
      3462.0000        -999.25        -999.25        -999.25         15.234        -999.25       35.07072         0.4162         0.4539        -999.25         0.4226       -71.2656      -34.99828     0.04405781      0.3000345
      3462.5000        -999.25        -999.25        -999.25        17.6783        -999.25       37.57047         0.4251         0.4569        -999.25         0.4554       -70.7659       -34.4621     0.09724393      0.3107581
      3463.0000        -999.25        -999.25        -999.25        19.8728        -999.25       39.81475         0.4503          0.467        -999.25         0.4998       -70.0134      -33.65367      0.1449947      0.3269266
      3463.5000        -999.25        -999.25        -999.25        18.5755        -999.25       38.48802         0.4599         0.4725        -999.25         0.5037       -68.9285      -32.48728      0.1167664      0.3502544
