#------------------------------------------------------------------------------
# Created by    : vladimir.rabinovich
# Created on    : 09/19/2023 17:22:28
#------------------------------------------------------------------------------
~Version Information Section
VERS.           2.0     :   CWLS log ASCII Standard - VERSION 2.0
WRAP.           NO      :   One line per depth step
~Well Information Section
#MNEM       .UNIT                                         VALUE :DESCRIPTION
#------------------------------------------------------------------------------
STRT        .FT                                            2981 :START DEPTH
STOP        .FT                                           10477 :STOP DEPTH
STEP        .FT                                             0.5 :STEP      
NULL        .                                           -999.25 :NULL      
COMP        .                          SEAGULL ENERGY E & P INC :COMPANY   
WELL        .                               OCS G13783 ST00BP00 :WELL      
FLD         .                                           WILDCAT :FIELD     
LOC         .                                                   :LOCATION  
CNTY        .                             GALVESTON LARGE BLOCK :LOCATION  
STAT        .                                             TEXAS :STATE     
CTRY        .                                     UNITED STATES :COUNTRY   
SRVC        .                                                   :SERVICE COMPANY
DATE        .                             9/13/2023 11:19:39 AM :LOG DATE  
API         .                                    42706403890000 :API NUMBER
UWI         .                                    42706403890000 :UNIQUE WELL ID
XCOORD      .                                  1047250.65699841 :SURFACE X 
YCOORD      .                                  10470150.2239286 :SURFACE Y 
LAT         .                                         28.838318 :LATITUDE  
LON         .                                         -94.85315 :LONGITUDE 
ELEV        .FT                                              94 :ELEVATION VALUE
ELEV_TYPE   .                                                KB :ELEVATION REFERENCE TYPE
~Curve Information Section
#MNEM       .UNIT                                      API CODE :CURVE DESCRIPTION
#------------------------------------------------------------------------------
DEPT        .FT                                                 :DEPTH     
CILD        .MMHO                                               :          
CNC         .%                                                  :          
DT24        .US/F                                               :          
GR          .GAPI                                               :          
GR_NORM     .GAPI                                               :GammaRay Normalized
PORZ        .%                                                  :          
RFOC        .OHMM                                               :          
RILD        .OHMM                                               :          
RILM        .OHMM                                               :          
RWAZ        .OHMM                                               :          
SP          .MV                                                 :          
SP_NORM     .MV                                                 :SP Normalized
TEN         .LBF                                                :          
VSH_GR      .V/V                                                :Volume of Shale from GR
VSH_SP      .V/V                                                :Volume of Shale from SP
ZCOR        .G/C3                                               :          
ZDEN        .G/C3                                               :          
~A        DEPTH           CILD            CNC           DT24             GR        GR_NORM           PORZ           RFOC           RILD           RILM           RWAZ             SP        SP_NORM            TEN         VSH_GR         VSH_SP           ZCOR           ZDEN
# ...
      4466.0000       4243.938        -999.25       114.9969          44.49       34.81657        -999.25          0.724          0.236          0.314        -999.25        -63.764      -61.03016        -20.478     0.03865043      0.1281406        -999.25        -999.25
      4466.5000       3971.461        -999.25        117.012         45.629       36.18337        -999.25          0.727          0.252          0.343        -999.25        -62.876      -60.14268         -4.388     0.06773125      0.1408189        -999.25        -999.25
      4467.0000       3604.813        -999.25        118.527         49.149       40.40736        -999.25           0.74          0.277          0.375        -999.25        -60.745       -58.0122          9.196      0.1576035      0.1712544        -999.25        -999.25
      4467.5000       3172.457        -999.25       118.8539        53.5519       45.69085        -999.25          0.763          0.315          0.409        -999.25        -55.358      -52.62572         -0.874       0.270018       0.248204        -999.25        -999.25
      4468.0000       2732.105        -999.25       118.3579         56.899       49.70736        -999.25           0.81          0.366          0.455        -999.25       -46.3329      -43.60114        -26.482      0.3554758      0.3771266        -999.25        -999.25
      4468.5000       2333.078        -999.25        116.324        60.2209       53.69365        -999.25          0.889          0.429          0.516        -999.25        -36.493      -33.76176        -30.453      0.4402904      0.5176892        -999.25        -999.25
      4469.0000       1991.326        -999.25       115.6019         63.912       58.12297        -999.25          0.974          0.502          0.584        -999.25         -28.64      -25.90928         -5.393      0.5345312      0.6298675        -999.25        -999.25
      4469.5000       1713.889        -999.25       117.4419        66.4969       61.22485        -999.25          1.002          0.584          0.648        -999.25        -22.916       -20.1858         13.877      0.6005287      0.7116315        -999.25        -999.25
      4470.0000       1516.125        -999.25        117.262        68.3369       63.43285        -999.25          0.975           0.66          0.701        -999.25        -18.443      -15.71332          7.112      0.6475074       0.775524        -999.25        -999.25
      4470.5000       1409.787        -999.25       114.7169          69.47       64.79257        -999.25          0.962          0.709           0.73        -999.25        -15.257      -12.52784         -9.649      0.6764377      0.8210309        -999.25        -999.25
      4471.0000        1390.58        -999.25       112.6639        68.8539       64.05325        -999.25           0.99          0.719          0.728        -999.25        -14.038      -11.30936        -11.511      0.6607074      0.8384377        -999.25        -999.25
      4471.5000       1436.178        -999.25       111.2909         67.188       62.05417        -999.25           1.02          0.696          0.705        -999.25        -15.161      -12.43288          3.045      0.6181738      0.8223875        -999.25        -999.25
      4472.0000       1516.041        -999.25        113.427        64.7119       59.08284        -999.25          1.002           0.66          0.675        -999.25          -17.6       -14.8724          3.303      0.5549541      0.7875372        -999.25        -999.25
      4472.5000       1605.848        -999.25       118.0909         62.561       56.50177        -999.25          0.943          0.623           0.65        -999.25        -19.686      -16.95892        -27.568      0.5000376      0.7577297        -999.25        -999.25
      4473.0000       1687.074        -999.25       120.2889         63.667       57.82897        -999.25          0.902          0.593          0.632        -999.25        -21.514      -18.78744        -43.835      0.5282759       0.731608        -999.25        -999.25
      4473.5000        1744.07        -999.25       121.7179        67.4099       62.32044        -999.25          0.905          0.573          0.624        -999.25        -23.647      -20.92096          6.249      0.6238392      0.7011292        -999.25        -999.25
      4474.0000       1774.057        -999.25        120.703          69.25       64.52857        -999.25          0.928          0.564          0.626        -999.25        -24.547      -21.82148        80.4299      0.6708207      0.6882645        -999.25        -999.25
      4474.5000       1783.633        -999.25       118.7549        69.2109       64.48164        -999.25          0.948          0.561          0.637        -999.25        -22.799        -20.074        87.1609      0.6698222      0.7132286        -999.25        -999.25
      4475.0000       1774.016        -999.25       118.5649         68.704       63.87337        -999.25           0.98          0.564          0.653        -999.25        -19.692      -16.96752         24.272      0.6568803      0.7576069        -999.25        -999.25
      4475.5000       1746.811        -999.25        116.606         67.137       61.99297        -999.25          1.022          0.572          0.668        -999.25        -17.053      -14.32904        -27.393      0.6168717      0.7952995        -999.25        -999.25
      4476.0000       1710.521        -999.25       115.4449        65.3109       59.80164        -999.25          1.038          0.585          0.683        -999.25         -15.42      -12.69656        -28.757      0.5702477      0.8186206        -999.25        -999.25
      4476.5000       1674.131        -999.25       115.1499        65.5569       60.09685        -999.25          1.025          0.597          0.694        -999.25        -15.207      -12.48408        -11.816      0.5765287       0.821656        -999.25        -999.25
      4477.0000       1647.301        -999.25       114.0699        66.0359       60.67164        -999.25          1.013          0.607          0.699        -999.25         -16.44       -13.7176         -8.189      0.5887583      0.8040343        -999.25        -999.25
      4477.5000       1641.385        -999.25       112.8099        64.5609       58.90164        -999.25          1.011          0.609          0.699        -999.25        -18.176      -15.45412        -14.744      0.5510988      0.7792269        -999.25        -999.25
      4478.0000        1660.65        -999.25        110.683         62.834       56.82936        -999.25          1.021          0.602          0.693        -999.25        -19.757      -17.03564        -17.842      0.5070078      0.7566338        -999.25        -999.25
      4478.5000       1698.484        -999.25        111.776        62.7549       56.73445        -999.25          1.054          0.589           0.68        -999.25        -21.305      -18.58416        -13.635      0.5049883       0.734512        -999.25        -999.25
      4479.0000       1744.357        -999.25        115.188          64.58       58.92457        -999.25          1.092          0.573          0.663        -999.25        -22.544      -19.82368         -7.251      0.5515866      0.7168046        -999.25        -999.25
      4479.5000       1788.105        -999.25       119.0049         68.559       63.69936        -999.25          1.086          0.559          0.645        -999.25        -22.707       -19.9872         -2.338       0.653178      0.7144686        -999.25        -999.25
      4480.0000       1821.336        -999.25        123.896          73.33       69.42457        -999.25          1.032          0.549           0.63        -999.25        -21.673      -18.95372           0.76      0.7749908      0.7292325        -999.25        -999.25
      4480.5000        1842.52        -999.25        124.923        76.3419       73.03885        -999.25          0.968          0.543          0.622        -999.25        -20.298      -17.57924          0.327      0.8518904       0.748868        -999.25        -999.25
