#------------------------------------------------------------------------------
# Created by    : vladimir.rabinovich
# Created on    : 09/19/2023 17:20:05
#------------------------------------------------------------------------------
~Version Information Section
VERS.           2.0     :   CWLS log ASCII Standard - VERSION 2.0
WRAP.           NO      :   One line per depth step
~Well Information Section
#MNEM       .UNIT                                         VALUE :DESCRIPTION
#------------------------------------------------------------------------------
STRT        .FT                                             712 :START DEPTH
STOP        .FT                                            9469 :STOP DEPTH
STEP        .FT                                             0.5 :STEP      
NULL        .                                           -999.25 :NULL      
COMP        .                                 MESA PETROLEUM CO :COMPANY   
WELL        .                                ST TR 00279-L SW/4 :WELL      
FLD         .                                           WILDCAT :FIELD     
LOC         .                                                   :LOCATION  
CNTY        .                             GALVESTON LARGE BLOCK :LOCATION  
STAT        .                                             TEXAS :STATE     
CTRY        .                                     UNITED STATES :COUNTRY   
SRVC        .                                                   :SERVICE COMPANY
DATE        .                             9/13/2023 11:18:53 AM :LOG DATE  
API         .                                    42706300950000 :API NUMBER
UWI         .                                    42706300950000 :UNIQUE WELL ID
XCOORD      .                                  947289.050530544 :SURFACE X 
YCOORD      .                                  10490529.0152507 :SURFACE Y 
LAT         .                                         28.889695 :LATITUDE  
LON         .                                        -95.166438 :LONGITUDE 
ELEV        .FT                                              84 :ELEVATION VALUE
ELEV_TYPE   .                                                KB :ELEVATION REFERENCE TYPE
~Curve Information Section
#MNEM       .UNIT                                      API CODE :CURVE DESCRIPTION
#------------------------------------------------------------------------------
DEPT        .FT                                                 :DEPTH     
ASFL        .OHMM                                               :          
CILD        .MMHO                                               :          
GR          .GAPI                                               :          
GR_NORM     .GAPI                                               :GammaRay Normalized
ILD         .OHMM                                               :          
SP          .MV                                                 :          
SP_NORM     .MV                                                 :SP Normalized
VSH_GR      .V/V                                                :Volume of Shale from GR
VSH_SP      .V/V                                                :Volume of Shale from SP
~A        DEPTH           ASFL           CILD             GR        GR_NORM            ILD             SP        SP_NORM         VSH_GR         VSH_SP
# ...
      7098.5000         1.0681       1857.439        62.4194       58.12033         0.4409       -76.3489      -43.15827      0.5344751      0.4245564
      7099.0000         1.0461       1868.381        63.1785       59.08106         0.4314       -76.3081      -43.11641      0.5549162      0.4251145
      7099.5000         1.0242       1875.223        63.9375       60.04154         0.4236       -73.7089      -40.51617       0.575352      0.4597844
      7100.0000         0.9912       1876.129        64.6965       61.00214         0.4613       -71.1134      -37.91962      0.5957903      0.4944051
      7100.5000         1.0193       1877.033        65.5135       62.03598         0.4639       -63.1862      -29.99136      0.6177869      0.6001152
      7101.0000         1.0488       1877.939        66.4071       63.16642         0.4659       -44.5325      -11.33661      0.6418387      0.8488452
      7101.5000         1.0787       1878.844        67.3007       64.29697         0.4577       -42.3119      -9.114956      0.6658929      0.8784673
      7102.0000         1.1086       1865.096        68.3929       65.67815         0.4728       -41.7944      -8.596401      0.6952799      0.8853813
      7102.5000         1.1371        1819.75        69.5568       67.14999         0.4999        -41.277      -8.077953      0.7265956      0.8922939
      7103.0000         1.1654       1774.354        70.5022       68.34595         0.5274       -40.6365      -7.436401      0.7520416       0.900848
      7103.5000         1.1862       1708.705        71.3217       69.38284         0.5551       -39.9089      -6.707748      0.7741029      0.9105633
      7104.0000         1.1583        1624.73         71.803       69.99281         0.5827       -39.1823      -5.980095      0.7870809      0.9202654
      7104.5000         1.1197        1564.17          72.14       70.42046         0.6103       -38.4482      -5.244942      0.7961799      0.9300674
      7105.0000         1.0523       1524.455        72.4769       70.84811         0.6379       -37.6254      -4.421093      0.8052788      0.9410521
      7105.5000         1.0009       1484.789        72.8953       71.37865         0.6595       -36.8015      -3.596138      0.8165671      0.9520515
      7106.0000         1.0065        1445.52         73.684       72.37664         0.6727       -35.9786      -2.772186      0.8378009      0.9630375
      7106.5000         0.9654       1406.988        74.4725        73.3745         0.6858       -35.2316      -2.024136      0.8590319      0.9730116
      7107.0000          0.918        1368.51         75.035       74.08687         0.6989       -34.8104      -1.601879      0.8741887      0.9786416
      7107.5000         0.8829       1344.008        75.3473       74.48346          0.712       -34.3893      -1.179729      0.8826268      0.9842703
      7108.0000         0.8554       1324.102        75.4504       74.61591         0.7252       -33.9677     -0.7570801      0.8854449      0.9899056
      7108.5000         0.8442        1317.59         75.111       74.18952         0.7305       -33.5464     -0.3347244      0.8763728       0.995537
      7109.0000         0.8468       1315.213        74.7716       73.76326         0.7349       -33.7395     -0.5267715      0.8673034      0.9929764
      7109.5000         0.8327       1312.836        74.8743       73.89508         0.7393       -34.2167      -1.002922      0.8701081      0.9866277
      7110.0000         0.8186         1311.1         75.272        74.3995         0.7437       -34.6943      -1.479469      0.8808404      0.9802737
      7110.5000         0.8045       1310.396        75.1975        74.3077          0.746       -35.1714      -1.955517      0.8788872      0.9739264
      7111.0000         0.8064       1309.695        74.9799        74.0351         0.7342       -35.6491      -2.432167      0.8730873      0.9675711
      7111.5000         0.8085       1311.416        74.6599       73.63334         0.7225       -36.0931      -2.875114      0.8645391      0.9616652
      7112.0000         0.8107       1318.545          74.34       73.23156         0.7107       -36.2556       -3.03656      0.8559906      0.9595125
      7112.5000         0.8103       1346.156        75.5143       74.71655         0.6989       -36.4181      -3.198006      0.8875861      0.9573599
      7113.0000         0.8061       1373.795        76.6967       76.21175         0.6881        -36.176      -2.954853      0.9193988       0.960602
      7113.5000         0.8019       1401.408         77.879       77.70669          0.678        -35.903      -2.680805      0.9512061      0.9642559
      7114.0000         0.7977        1423.76        78.7688       78.83245         0.6679       -35.6294      -2.406151      0.9751585       0.967918
      7114.5000          0.793        1439.27        78.4406        78.4202         0.6579       -35.3559      -2.131599      0.9663873      0.9715787
      7115.0000         0.7866       1454.805        77.2507       76.92007         0.6478       -35.7981      -2.572746      0.9344696      0.9656967
      7115.5000         0.7801       1470.342        75.2316       74.37299           0.64       -36.4155      -3.189095      0.8802763      0.9574788
      7116.0000         0.7737       1485.852         73.252       71.87563         0.6324        -37.007      -3.779545       0.827141      0.9496061
      7116.5000         0.7672       1491.631         71.803       70.04836         0.6247       -37.5605      -4.331993       0.788263      0.9422401
      7117.0000         0.7608       1495.928        70.3541       68.22121         0.6204       -38.1141      -4.884541      0.7493876      0.9348728
      7117.5000         0.7548       1479.059        68.5941       66.00114         0.6196       -38.6685      -5.437885      0.7021518      0.9274949
      7118.0000         0.7651       1452.262        68.0906       65.36768         0.6364       -39.2221      -5.990433       0.688674      0.9201276
      7118.5000         0.7749       1425.463        69.0249        66.5495         0.6532       -39.7756      -6.542881      0.7138191      0.9127616
      7119.0000         0.7712       1398.666        69.9702       67.74533         0.6699        -40.127       -6.89323      0.7392623      0.9080902
      7119.5000         0.7675       1371.867        70.9144       68.93964         0.6905       -40.2013       -6.96648      0.7646733      0.9071136
      7120.0000         0.7625       1345.465        71.8647       70.14178          0.712       -40.2756      -7.039726      0.7902507       0.906137
      7120.5000         0.7568       1320.025        72.8484       71.38612         0.7335         -40.35      -7.113071      0.8167259      0.9051591
      7121.0000         0.7511        1308.27         73.832       72.63017         0.7443       -40.4243      -7.186321      0.8431951      0.9041824
      7121.5000         0.7559       1326.373        74.1801       73.07197         0.7275       -40.2523      -7.013271      0.8525951      0.9064897
      7122.0000         0.7625       1344.453        73.7129       72.48434         0.7108       -39.9631      -6.723019      0.8400924      0.9103597
      7122.5000         0.7692       1362.531        73.2458       71.89672          0.694       -39.6738      -6.432667      0.8275898      0.9142311
      7123.0000         0.7805        1373.77        72.7781       71.30846         0.6773        -39.385      -6.142811      0.8150737      0.9180958
      7123.5000         0.7925       1382.563        72.5714       71.04962         0.6763       -39.0573       -5.81406      0.8095664      0.9224792
      7124.0000         0.8044       1391.367         72.512       70.97689         0.6776       -38.5264      -5.282108      0.8080189      0.9295719
      7124.5000         0.8163        1400.16        72.4524       70.90392          0.679       -37.9956      -4.750259      0.8064663      0.9366632
