#------------------------------------------------------------------------------
# Created by    : vladimir.rabinovich
# Created on    : 09/19/2023 17:20:40
#------------------------------------------------------------------------------
~Version Information Section
VERS.           2.0     :   CWLS log ASCII Standard - VERSION 2.0
WRAP.           NO      :   One line per depth step
~Well Information Section
#MNEM       .UNIT                                         VALUE :DESCRIPTION
#------------------------------------------------------------------------------
STRT        .FT                                             400 :START DEPTH
STOP        .FT                                           11002 :STOP DEPTH
STEP        .FT                                             0.5 :STEP      
NULL        .                                           -999.25 :NULL      
COMP        .                            STANOLIND OIL & GAS CO :COMPANY   
WELL        .                                     ST TR 00245-L :WELL      
FLD         .                              GALVESTON BLOCK 0245 :FIELD     
LOC         .                                                   :LOCATION  
CNTY        .                             GALVESTON LARGE BLOCK :LOCATION  
STAT        .                                             TEXAS :STATE     
CTRY        .                                     UNITED STATES :COUNTRY   
SRVC        .                                                   :SERVICE COMPANY
DATE        .                             9/13/2023 11:19:42 AM :LOG DATE  
API         .                                    42706000160000 :API NUMBER
UWI         .                                    42706000160000 :UNIQUE WELL ID
XCOORD      .                                  1024804.26554262 :SURFACE X 
YCOORD      .                                  10549089.4715911 :SURFACE Y 
LAT         .                                        29.0543948 :LATITUDE  
LON         .                                       -94.9272588 :LONGITUDE 
ELEV        .FT                                              11 :ELEVATION VALUE
ELEV_TYPE   .                                                KB :ELEVATION REFERENCE TYPE
~Curve Information Section
#MNEM       .UNIT                                      API CODE :CURVE DESCRIPTION
#------------------------------------------------------------------------------
DEPT        .FT                                                 :DEPTH     
ASN         .OHMM                                               :          
LAT         .OHMM                                               :          
LN          .OHMM                                               :          
SP          .MV                                                 :          
SP_NORM     .MV                                                 :SP Normalized
VSH_SP      .V/V                                                :Volume of Shale from SP
~A        DEPTH            ASN            LAT             LN             SP        SP_NORM         VSH_SP
# ...
     10242.0000         0.3183         0.4517         0.3168       -45.4183      -2.017162       0.999805
     10242.5000         0.3167          0.453         0.3174       -45.2968      -1.899189              1
     10243.0000         0.3168         0.4543         0.3179       -45.1755      -1.781418              1
     10243.5000         0.3169         0.4556         0.3184       -45.2629      -1.872349              1
     10244.0000         0.3171          0.457         0.3162        -45.371      -1.983974              1
     10244.5000         0.3184         0.4583         0.3095       -45.4412      -2.057705      0.9993443
     10245.0000         0.3196         0.4596          0.307        -45.439      -2.059032      0.9993291
     10245.5000         0.3233         0.4609         0.3106       -45.4369      -2.060463      0.9993129
     10246.0000         0.3288         0.4623         0.3139       -45.3729      -1.999992              1
     10246.5000         0.3341         0.4636         0.3126       -45.2911      -1.921722              1
     10247.0000         0.3381         0.4649         0.3113       -45.2175       -1.85165              1
     10247.5000         0.3415         0.4663           0.31       -45.1418       -1.77948              1
     10248.0000         0.3452         0.4676         0.3085       -44.9805      -1.621708              1
     10248.5000         0.3514         0.4689          0.305       -44.6581      -1.302837              1
     10249.0000         0.3599         0.4702         0.3082       -43.8415     -0.4897652              1
     10249.5000         0.3725         0.4716         0.3243       -43.6612     -0.3129997              1
     10250.0000         0.3855         0.4729         0.3448       -43.5875     -0.2428284              1
     10250.5000         0.3729         0.4716         0.3617        -43.973      -0.631855              1
     10251.0000         0.3628         0.4701         0.3622       -44.6371      -1.299484              1
     10251.5000         0.3531         0.4687         0.3628       -45.2747      -1.940613              1
     10252.0000          0.346         0.4672         0.3633       -44.8559      -1.525341              1
     10252.5000         0.3442         0.4671         0.3639       -44.4376      -1.110569              1
     10253.0000         0.3426         0.4673          0.366       -44.5388      -1.215298              1
     10253.5000         0.3413          0.469         0.3689       -44.6669      -1.346931              1
     10254.0000         0.3399         0.4725         0.3719       -45.0051       -1.68866              1
     10254.5000         0.3385         0.4752         0.3716       -45.4051       -2.09219      0.9989524
     10255.0000         0.3371         0.4754           0.37       -46.1223      -2.812916      0.9907623
     10255.5000         0.3356         0.4757         0.3684       -46.9609      -3.655045      0.9811926
     10256.0000          0.336         0.4759         0.3656       -46.8621      -3.559772      0.9822753
     10256.5000          0.337         0.4704         0.3605       -46.5919      -3.293102      0.9853057
     10257.0000         0.3381         0.4641         0.3555       -46.3211      -3.025833      0.9883428
     10257.5000         0.3421         0.4638         0.3549       -45.5874      -2.295662      0.9966402
     10258.0000          0.347         0.4659         0.3555       -44.8492      -1.560993              1
     10258.5000          0.352         0.4681          0.362       -44.3763      -1.091621              1
     10259.0000         0.3569         0.4702         0.3698       -44.2313     -0.9501495              1
     10259.5000         0.3638         0.4706         0.3748       -44.1321     -0.8544769              1
     10260.0000         0.3719         0.4708         0.3799       -44.3453      -1.071205              1
     10260.5000         0.3802         0.4711         0.3895       -44.5435      -1.272934              1
     10261.0000         0.3896         0.4726         0.4074       -44.6606      -1.393566              1
     10261.5000         0.4022         0.4761         0.4334        -44.778      -1.514496              1
     10262.0000         0.4218         0.4798         0.4632       -44.8954      -1.635426              1
     10262.5000         0.4472         0.4841         0.4959       -45.0194      -1.762955              1
     10263.0000         0.4707         0.4905         0.5318       -45.1476       -1.89468              1
     10263.5000         0.5715         0.4998         0.5686       -45.4935       -2.24411       0.997226
     10264.0000         0.5736         0.5047          0.605       -46.1212       -2.87534      0.9900529
     10264.5000         0.5645         0.5089         0.6015       -46.7565      -3.514172      0.9827935
     10265.0000         0.5427         0.5132         0.5932        -47.288      -4.049198      0.9767137
     10265.5000         0.5205         0.5177         0.5693       -46.7864      -3.551128      0.9823735
     10266.0000         0.5044         0.5227         0.5416       -46.2604      -3.028656      0.9883108
     10266.5000         0.4874         0.5278          0.513       -45.5946      -2.366386      0.9958365
     10267.0000         0.4669         0.5285         0.4823       -45.2946      -2.069916      0.9992055
     10267.5000          0.454         0.5207          0.458       -44.9946      -1.773441              1
     10268.0000         0.4464         0.5175         0.4326       -44.9997       -1.78207              1
     10268.5000         0.4432         0.5177         0.4021       -45.1078      -1.893703              1
     10269.0000           0.44         0.5166            0.4       -45.2239      -2.013332      0.9998485
     10269.5000         0.4356         0.5132         0.3979       -45.3755      -2.168461      0.9980857
     10270.0000         0.4315         0.5114         0.4004       -45.5269      -2.323391      0.9963251
     10270.5000          0.428         0.5116         0.4094       -45.6137      -2.413719      0.9952986
     10271.0000         0.4204         0.5126         0.4185       -45.6116      -2.415146      0.9952824
     10271.5000         0.4065         0.5334         0.4271       -45.6095      -2.416576      0.9952662
     10272.0000         0.4017         0.5467         0.4277        -45.585      -2.395603      0.9955045
     10272.5000         0.4127         0.5559         0.4282       -45.5487      -2.362835      0.9958768
     10273.0000         0.4363         0.5601         0.4288       -45.5125      -2.330166      0.9962481
     10273.5000         0.4597         0.5514         0.4314       -45.4763      -2.297493      0.9966194
     10274.0000         0.4697         0.5186          0.435       -45.2918      -2.116524      0.9986759
     10274.5000         0.4771         0.5099         0.4429       -44.9647       -1.79295              1
     10275.0000         0.4842         0.5149          0.459       -44.6658      -1.497578              1
     10275.5000         0.4905           0.52         0.4776       -44.4255      -1.260807              1
     10276.0000         0.4949         0.5368         0.4963       -44.1851      -1.023941              1
     10276.5000           0.49         0.5642         0.4924        -44.105     -0.9473686              1
     10277.0000         0.4751         0.6036         0.4884       -44.0312     -0.8770981              1
     10277.5000         0.4521         0.6346         0.4844       -43.9576     -0.8070259              1
     10278.0000         0.4377         0.6272          0.475       -43.8842     -0.7371559              1
     10278.5000         0.4248         0.6197         0.4646       -43.8223     -0.6787834              1
     10279.0000          0.413         0.6037         0.4613       -43.7605     -0.6205139              1
     10279.5000         0.4083         0.5759         0.4591       -43.6713     -0.5348396              1
