#------------------------------------------------------------------------------
# Created by    : vladimir.rabinovich
# Created on    : 09/19/2023 17:19:38
#------------------------------------------------------------------------------
~Version Information Section
VERS.           2.0     :   CWLS log ASCII Standard - VERSION 2.0
WRAP.           NO      :   One line per depth step
~Well Information Section
#MNEM       .UNIT                                         VALUE :DESCRIPTION
#------------------------------------------------------------------------------
STRT        .FT                                            9400 :START DEPTH
STOP        .FT                                           17100 :STOP DEPTH
STEP        .FT                                             0.5 :STEP      
NULL        .                                           -999.25 :NULL      
COMP        .                                   FOREST OIL CORP :COMPANY   
WELL        .                               OCS G18937 ST00BP00 :WELL      
FLD         .                            HIGH ISLAND BLOCK 0116 :FIELD     
LOC         .                                                   :LOCATION  
CNTY        .                           HIGH ISLAND LARGE BLOCK :LOCATION  
STAT        .                                             TEXAS :STATE     
CTRY        .                                     UNITED STATES :COUNTRY   
SRVC        .                                                   :SERVICE COMPANY
DATE        .                             9/13/2023 11:19:48 AM :LOG DATE  
API         .                                    42708405250000 :API NUMBER
UWI         .                                    42708405250000 :UNIQUE WELL ID
XCOORD      .                                  1337259.97993026 :SURFACE X 
YCOORD      .                                  10628189.4209318 :SURFACE Y 
LAT         .                                         29.282461 :LATITUDE  
LON         .                                        -93.951246 :LONGITUDE 
ELEV        .FT                                              93 :ELEVATION VALUE
ELEV_TYPE   .                                                KB :ELEVATION REFERENCE TYPE
~Curve Information Section
#MNEM       .UNIT                                      API CODE :CURVE DESCRIPTION
#------------------------------------------------------------------------------
DEPT        .FT                                                 :DEPTH     
AHT10       .OHMM                                               :          
AHT20       .OHMM                                               :          
AHT30       .OHMM                                               :          
AHT60       .OHMM                                               :          
AHT90       .OHMM                                               :          
CALI        .IN                                                 :          
COND        .MMHO                                               :          
DTCO        .US/F                                               :          
GR          .GAPI                                               :          
GR_NORM     .GAPI                                               :GammaRay Normalized
HDRA        .G/CC                                               :          
NPOR        .FRAC                                               :          
RHOZ        .G/CC                                               :          
VSH_GR      .V/V                                                :Volume of Shale from GR
~A        DEPTH          AHT10          AHT20          AHT30          AHT60          AHT90           CALI           COND           DTCO             GR        GR_NORM           HDRA           NPOR           RHOZ         VSH_GR
# ...
     16060.0000          2.028          1.456          1.346          1.171          1.131          6.362       884.1733           85.3         74.859       64.99345         -0.051          0.225          2.576      0.6807118
     16060.5000          1.747          1.323          1.274          1.113          1.077          6.406       928.5051           93.1         84.624        75.2467         -0.048          0.212          2.578      0.8988661
     16061.0000          1.803          1.325          1.236          1.065          1.031          6.347       969.9321           86.7          86.09         76.786         -0.043          0.211          2.602      0.9316171
     16061.5000          2.081          1.413          1.286          1.086           1.05           6.32        952.381         85.217         78.678       69.00341         -0.033          0.191          2.631        0.76603
     16062.0000          2.566          1.644          1.446          1.186          1.142          6.319       875.6568         83.733         68.612        58.4341         -0.031          0.189          2.641      0.5411512
     16062.5000          3.406          1.994           1.63          1.309          1.255          6.338       796.8127          82.25         59.601       48.97255         -0.036          0.173          2.637      0.3398415
     16063.0000          3.582          2.054          1.642          1.325          1.268          6.338       788.6436         80.767         64.093       53.68916         -0.045           0.12          2.606      0.4401948
     16063.5000          2.687          1.766          1.386          1.151          1.106           6.39       904.1592         79.283         75.399       65.56046         -0.048          0.089          2.579      0.6927757
     16064.0000          1.814          1.403          1.159          0.991          0.957          6.417       1044.932           77.8         86.139       76.83746         -0.056          0.187          2.543      0.9327118
     16064.5000          1.371          1.112           1.05          0.914          0.886          6.434       1128.668           85.8          91.85       82.83401         -0.055          0.362           2.54              1
     16065.0000          1.224          0.996          1.003           0.88          0.854          6.438        1170.96             88         91.051       81.99506          -0.05          0.319          2.545              1
     16065.5000          1.235          0.995          1.011          0.896          0.869          6.468       1150.748          100.6         94.102        85.1986         -0.045          0.253          2.554              1
     16066.0000           1.29          1.017          0.988          0.907           0.88          6.527       1136.364          100.3         93.726        84.8038         -0.045          0.258          2.557              1
     16066.5000          1.284          1.017          0.973          0.912          0.887          6.573       1127.396           99.1          96.34       87.54849         -0.048          0.265          2.556              1
     16067.0000           1.26          0.998           0.94          0.899          0.875           6.64       1142.857           94.3         93.959       85.04845         -0.048          0.268          2.549              1
     16067.5000          1.235           0.98          0.906          0.881           0.86          6.595       1162.791           93.9         90.367       81.27686         -0.048          0.254          2.551              1
     16068.0000          1.147          0.954          0.875          0.867          0.849          6.595       1177.856             97         89.439       80.30246         -0.045           0.25          2.558              1
     16068.5000          1.059          0.913           0.85          0.851          0.834          6.594       1199.041           96.8         89.333       80.19115         -0.038          0.255          2.574              1
     16069.0000          0.994          0.848          0.828          0.826          0.811          6.598       1233.046           97.4         93.635       84.70825         -0.036          0.252          2.575              1
     16069.5000          0.949          0.797          0.804          0.794          0.781          6.614        1280.41           93.8         91.091       82.03706         -0.036          0.261          2.581              1
     16070.0000          0.942          0.788          0.777          0.756          0.745          6.621       1342.282           98.2         92.069       83.06396         -0.034          0.274          2.583              1
     16070.5000          0.948          0.793          0.759          0.726          0.715          6.626       1398.601           94.4         94.758       85.88741         -0.032          0.284          2.584              1
     16071.0000          0.949          0.799          0.759          0.713          0.703          6.624       1422.475           99.2          95.92        87.1075         -0.036          0.257           2.57              1
     16071.5000          0.955          0.804          0.768          0.717          0.706          6.641       1416.431           97.6         95.397       86.55835         -0.035          0.247          2.571              1
     16072.0000          0.985          0.819          0.791          0.738          0.726           6.65        1377.41           91.3          91.68        82.6555         -0.034           0.25          2.577              1
     16072.5000           1.03          0.853          0.821          0.767          0.754          6.679        1326.26          103.6         91.389       82.34996         -0.032          0.255          2.587              1
     16073.0000          1.066          0.882          0.841          0.789          0.775          6.672       1290.323             87         91.317       82.27435         -0.033          0.255           2.58              1
     16073.5000          1.069          0.883          0.844          0.792          0.776          6.573        1288.66           92.2         91.334       82.29221         -0.036          0.239          2.575              1
     16074.0000          1.067          0.893          0.846          0.791          0.775          6.548       1290.323           93.7         89.285       80.14076         -0.037          0.245          2.573              1
     16074.5000          1.094           0.93           0.86          0.799          0.782          6.549       1278.772           92.3         85.217       75.86936         -0.031          0.255          2.593      0.9121141
     16075.0000          1.145           0.96          0.876           0.81          0.793            6.6       1261.034           90.4         78.949       69.28795          -0.03          0.247          2.603       0.772084
     16075.5000          1.206          0.989          0.909          0.833          0.814          6.494       1228.501           90.1         78.818       69.15041         -0.032          0.239          2.595      0.7691576
     16076.0000          1.226          0.999          0.932          0.852          0.833           6.51        1200.48           90.4         81.165       71.61476         -0.031          0.202          2.592      0.8215907
     16076.5000          1.218          0.985          0.937          0.864          0.846           6.59       1182.033           88.8         81.819       72.30147         -0.031          0.218          2.591      0.8362014
     16077.0000          1.232          0.994          0.943          0.871          0.854          6.646        1170.96           90.7         79.784        70.1647         -0.038          0.219          2.586      0.7907383
     16077.5000          1.242          1.005          0.942          0.868          0.854           6.65        1170.96           91.4         80.212        70.6141          -0.04          0.224          2.578      0.8002999
