#------------------------------------------------------------------------------
# Created by    : vladimir.rabinovich
# Created on    : 09/19/2023 17:20:35
#------------------------------------------------------------------------------
~Version Information Section
VERS.           2.0     :   CWLS log ASCII Standard - VERSION 2.0
WRAP.           NO      :   One line per depth step
~Well Information Section
#MNEM       .UNIT                                         VALUE :DESCRIPTION
#------------------------------------------------------------------------------
STRT        .FT                                             501 :START DEPTH
STOP        .FT                                            8659 :STOP DEPTH
STEP        .FT                                             0.5 :STEP      
NULL        .                                           -999.25 :NULL      
COMP        .                                      SHELL OIL CO :COMPANY   
WELL        .                                OCS 00705 ST00BP00 :WELL      
FLD         .                                           WILDCAT :FIELD     
LOC         .                                                   :LOCATION  
CNTY        .                             GALVESTON LARGE BLOCK :LOCATION  
STAT        .                                             TEXAS :STATE     
CTRY        .                                     UNITED STATES :COUNTRY   
SRVC        .                                                   :SERVICE COMPANY
DATE        .                             9/13/2023 11:19:25 AM :LOG DATE  
API         .                                    42706000440000 :API NUMBER
UWI         .                                    42706000440000 :UNIQUE WELL ID
XCOORD      .                                  1104214.94625617 :SURFACE X 
YCOORD      .                                  10500066.5450575 :SURFACE Y 
LAT         .                                         28.922918 :LATITUDE  
LON         .                                        -94.676571 :LONGITUDE 
ELEV        .FT                                              41 :ELEVATION VALUE
ELEV_TYPE   .                                                KB :ELEVATION REFERENCE TYPE
~Curve Information Section
#MNEM       .UNIT                                      API CODE :CURVE DESCRIPTION
#------------------------------------------------------------------------------
DEPT        .FT                                                 :DEPTH     
ASN         .OHMM                                               :          
CILD        .MMHO                                               :          
DT          .US/F                                               :          
ILD         .OHMM                                               :          
LAT         .OHMM                                               :          
SP          .MV                                                 :          
SP_NORM     .MV                                                 :SP Normalized
VSH_SP      .V/V                                                :Volume of Shale from SP
~A        DEPTH            ASN           CILD             DT            ILD            LAT             SP        SP_NORM         VSH_SP
# ...
      8643.0000         1.6176       863.3906        96.9224         1.1969        -999.25       -42.8447      -3.820309      0.9276844
      8643.5000         1.6068       875.1094        98.2885         1.1739        -999.25       -42.6019      -3.577507      0.9339101
      8644.0000          1.596       886.4707        97.8012         1.1578        -999.25       -42.3587      -3.334309      0.9401459
      8644.5000         1.5802       896.3662        94.0446         1.1455        -999.25       -42.1714      -3.147007      0.9449486
      8645.0000         1.5572       906.2627         90.288         1.1331        -999.25       -42.1798      -3.155407      0.9447331
      8645.5000         1.5342       916.1592         88.022         1.1208        -999.25       -42.1883       -3.16391      0.9445151
      8646.0000         1.5112       926.0439        86.9838         1.1084        -999.25       -42.1967       -3.17231      0.9442998
      8646.5000         1.4925       932.9209        90.8544         1.0967        -999.25       -42.4124      -3.388008       0.938769
      8647.0000          1.474       919.6143        93.8058         1.0892        -999.25       -42.8238      -3.799408      0.9282203
      8647.5000         1.4554       905.1895        93.7923         1.0817        -999.25       -43.9117       -4.88731      0.9003254
      8648.0000         1.4446       890.7646        92.9482         1.0835        -999.25        -52.103      -13.07861      0.6902921
      8648.5000         1.4577       871.3975        92.0574         1.1102        -999.25        -53.811      -14.78661      0.6464972
      8649.0000         1.4878        851.918        92.1281         1.1497        -999.25       -55.3176      -16.29321      0.6078664
      8649.5000         1.5178       832.4609        92.1991         1.1952        -999.25       -56.4572      -17.43281      0.5786459
      8650.0000         1.5477       816.0459        92.1969         1.2408        -999.25        -57.572      -18.54761      0.5500613
      8650.5000         1.5765       802.8291         92.195         1.2732        -999.25       -58.6365      -19.61211      0.5227664
      8651.0000         1.6053       789.5898        -999.25         1.2887        -999.25       -57.9257      -18.90131      0.5409921
      8651.5000         1.6345       776.3721        -999.25         1.2926        -999.25       -56.5735      -17.54911      0.5756639
      8652.0000          1.669       763.2666        -999.25         1.2965        -999.25       -55.0893      -16.06491      0.6137204
      8652.5000         1.6994        751.749        -999.25         1.3004        -999.25       -53.3454      -14.32101      0.6584356
      8653.0000         1.7098         744.21        -999.25         1.3043        -999.25       -51.6015      -12.57711       0.703151
      8653.5000         1.7026       742.7256        -999.25         1.3081        -999.25       -46.4638      -7.439407       0.834887
      8654.0000         1.6914       742.8828        -999.25         1.3106        -999.25       -46.0301      -7.005711      0.8460074
      8654.5000         1.6612       743.0391        -999.25         1.3131        -999.25       -45.8636      -6.839211      0.8502766
      8655.0000          1.631       743.1963        -999.25         1.3156        -999.25       -45.6971       -6.67271      0.8545459
      8655.5000         1.5984       743.3525        -999.25         1.3181        -999.25       -45.5306       -6.50621      0.8588151
      8656.0000         1.5435       743.5088        -999.25         1.3206        -999.25       -45.3641       -6.33971      0.8630844
      8656.5000         1.4845        743.666        -999.25         1.3231        -999.25       -45.1976       -6.17321      0.8673536
      8657.0000         1.3892       743.8223        -999.25         1.3255        -999.25       -44.9516      -5.927208      0.8736613
      8657.5000         1.3419       743.9795        -999.25          1.328        -999.25       -44.4955      -5.471107      0.8853562
      8658.0000         1.3397       744.1357        -999.25         1.3302        -999.25       -44.0388      -5.014408      0.8970665
      8658.5000         1.3441        744.293        -999.25          1.332        -999.25       -43.5826      -4.558208      0.9087639
      8659.0000         1.3485       744.4492        -999.25         1.3339        -999.25       -43.1265      -4.102108      0.9204588
