#------------------------------------------------------------------------------
# Created by    : vladimir.rabinovich
# Created on    : 09/19/2023 17:21:32
#------------------------------------------------------------------------------
~Version Information Section
VERS.           2.0     :   CWLS log ASCII Standard - VERSION 2.0
WRAP.           NO      :   One line per depth step
~Well Information Section
#MNEM       .UNIT                                         VALUE :DESCRIPTION
#------------------------------------------------------------------------------
STRT        .FT                                            4185 :START DEPTH
STOP        .FT                                            8075 :STOP DEPTH
STEP        .FT                                             0.5 :STEP      
NULL        .                                           -999.25 :NULL      
COMP        .                                         HESS CORP :COMPANY   
WELL        .                               OCS G07236 ST00BP00 :WELL      
FLD         .                              GALVESTON BLOCK 0210 :FIELD     
LOC         .                                                   :LOCATION  
CNTY        .                             GALVESTON LARGE BLOCK :LOCATION  
STAT        .                                             TEXAS :STATE     
CTRY        .                                     UNITED STATES :COUNTRY   
SRVC        .                                                   :SERVICE COMPANY
DATE        .                             9/13/2023 11:19:34 AM :LOG DATE  
API         .                                    42706402930000 :API NUMBER
UWI         .                                    42706402930000 :UNIQUE WELL ID
XCOORD      .                                   1127714.7472722 :SURFACE X 
YCOORD      .                                  10563055.4663979 :SURFACE Y 
LAT         .                                         29.097041 :LATITUDE  
LON         .                                        -94.605794 :LONGITUDE 
ELEV        .FT                                              89 :ELEVATION VALUE
ELEV_TYPE   .                                                KB :ELEVATION REFERENCE TYPE
~Curve Information Section
#MNEM       .UNIT                                      API CODE :CURVE DESCRIPTION
#------------------------------------------------------------------------------
DEPT        .FT                                                 :DEPTH     
CALI        .IN                                                 :          
DRHO        .G/CC                                               :          
DT          .US/F                                               :          
ILD         .OHMM                                               :          
ILM         .OHMM                                               :          
NPHI        .%                                                  :          
RFOC        .OHMM                                               :          
RHOB        .G/CC                                               :          
SP          .MV                                                 :          
SP_NORM     .MV                                                 :SP Normalized
VSH_SP      .V/V                                                :Volume of Shale from SP
~A        DEPTH           CALI           DRHO             DT            ILD            ILM           NPHI           RFOC           RHOB             SP        SP_NORM         VSH_SP
# ...
      4770.0000         14.306         0.0018       141.6516          0.301         0.3362        38.1503         1.0984         2.0253      -137.0459      -64.11324     0.08409653
      4770.5000        14.3675         0.0015       142.2288         0.3019         0.3379        36.6714         1.0927         2.0256      -137.4648      -64.53724     0.07803944
      4771.0000        14.4248          0.001       142.5774         0.3028         0.3395        36.2714         1.0948         2.0283       -137.511      -64.58854     0.07730658
      4771.5000        14.4624         0.0007       142.2341         0.3037         0.3406        37.2793          1.105         2.0334       -137.261      -64.34364      0.0808052
      4772.0000        14.4853         0.0004       141.2209         0.3042         0.3409        37.8444         1.1193         2.0413      -137.1211      -64.20882     0.08273108
      4772.5000        14.4868         0.0002       140.0906         0.3043         0.3416        37.1571          1.133          2.047      -137.2344      -64.32723     0.08103954
      4773.0000         14.446              0       139.1362         0.3036         0.3428        36.8368         1.1418         2.0496      -137.5054      -64.60332     0.07709536
      4773.5000        14.3517              0       138.6355         0.3029          0.345        36.9763         1.1398         2.0514      -137.8701      -64.97312     0.07181255
      4774.0000        14.2385         0.0001       138.3635         0.3031         0.3475         37.391         1.1337         2.0554      -138.0222      -65.13032     0.06956689
      4774.5000         14.219         0.0002       137.9441          0.304         0.3504        37.8296         1.1256         2.0623      -138.0398      -65.15302     0.06924264
      4775.0000        14.3388         0.0003       137.1062         0.3059         0.3542        38.2304         1.1155         2.0676      -137.9717      -65.09001     0.07014269
      4775.5000        14.4478         0.0004       135.9873         0.3089         0.3579         38.374          1.103         2.0674      -137.6204      -64.74382     0.07508828
      4776.0000        14.4983         0.0005       134.9236         0.3124         0.3614        38.2426          1.104         2.0669      -137.1406       -64.2691     0.08186994
      4776.5000        14.5034         0.0006       133.9883         0.3163         0.3663        38.3608         1.1104         2.0669      -135.9851      -63.11871     0.09830409
      4777.0000         14.493         0.0009        133.248          0.321         0.3722        38.8134           1.12         2.0686      -134.5388      -61.67751      0.1188928
      4777.5000        14.4818         0.0012       132.4204         0.3282         0.3797        39.9677         1.1344         2.0756      -133.5208       -60.6646      0.1333629
      4778.0000         14.477         0.0014       130.5059         0.3385         0.3888        40.7958         1.1674         2.0889      -133.0432      -60.19209       0.140113
      4778.5000        14.4836         0.0015       124.8966         0.3512         0.3993        41.1075         1.1701         2.0949      -133.1057      -60.25969      0.1391473
      4779.0000        14.5384         0.0013       120.9348         0.3656         0.4109        41.0208         1.1612         2.0976      -132.9082      -60.06729      0.1418958
      4779.5000        14.6265          0.001       116.7628         0.3811         0.4248        40.3927          1.151         2.0992      -132.5054      -59.66959      0.1475772
      4780.0000        14.6799         0.0006       114.3345         0.3972         0.4423        39.4322         1.1507         2.1022      -131.9929      -59.16219      0.1548258
      4780.5000        14.6884         0.0007       113.1287         0.4122         0.4621        38.3207         1.1653         2.1094      -131.4502      -58.62458       0.162506
      4781.0000        14.6595         0.0011       113.2162         0.4289          0.487        37.0699         1.2194         2.1195      -131.1582      -58.33768      0.1666045
      4781.5000        14.6254         0.0015       115.8989         0.4578          0.522        35.9592          1.284         2.1288      -131.3428      -58.52738      0.1638945
      4782.0000        14.5851         0.0016       117.4336         0.5005         0.5593        35.1451         1.3378         2.1395      -131.1292      -58.31887      0.1668733
      4782.5000        14.3355         0.0016       117.1783         0.5592          0.596        34.5827         1.3854         2.1512      -130.1304      -57.32517       0.181069
      4783.0000         13.741         0.0016       115.4786         0.6612         0.6373        34.2922         1.4643          2.164      -129.3699      -56.56977      0.1918604
      4783.5000        13.3182         0.0014       112.0953         0.7608         0.7113        34.1252         1.5763         2.1778      -127.1709      -54.37586       0.223202
      4784.0000         13.392         0.0014       105.2875         0.8673         0.8307        33.9988         1.6682         2.1947      -124.9038      -52.11386      0.2555163
      4784.5000        13.7359         0.0022         98.656         1.0113         1.0001        32.3438          1.683         2.2149      -123.0406      -50.25576      0.2820606
      4785.0000        14.0136         0.0037        91.3447         1.1716         1.1799        29.4391          1.647         2.2479      -121.8828      -49.10306      0.2985277
      4785.5000        14.1865         0.0049        85.5693          1.405         1.3971        22.8636           1.66         2.3014      -118.0642      -45.28956      0.3530063
      4786.0000         14.216         0.0053        73.7853         1.8132          1.665        17.3482            1.8         2.3712      -113.1377      -40.36816       0.423312
      4786.5000        14.1777         0.0054        67.8724         2.1625         1.8482        17.4002         2.0724          2.459      -107.6316      -34.86715      0.5018979
      4787.0000        14.1608         0.0072        64.4061         2.4477         2.0338        17.5795         2.6946          2.509       -102.005      -29.24564      0.5822051
      4787.5000        14.2981         0.0104        61.0256         2.6189         2.2916        17.5562         3.2355         2.5456      -101.4452      -28.69094      0.5901294
      4788.0000        14.5327          0.012        59.6312         2.7283         2.3619        17.2198         3.3395         2.5675      -102.0588      -29.30964      0.5812909
      4788.5000        14.6923         0.0103        59.5954         2.7672         2.3561        16.3909         3.3087         2.5566      -102.3983      -29.65424       0.576368
      4789.0000        14.9925         0.0072        61.7028         2.7765          2.274        15.7421         3.2685         2.5063      -102.5641      -29.82513      0.5739266
      4789.5000        15.3964         0.0044        62.8936         2.7093          2.117        16.3691         3.3347         2.4459      -102.1312      -29.39733      0.5800381
      4790.0000        15.5246         0.0027        64.6604         2.5628         1.9277        20.2203         3.5962         2.3324      -101.7618      -29.03303      0.5852425
      4790.5000        15.5469         0.0015        70.4695         2.3821         1.7172        23.2278         3.4326         2.2998      -102.1062      -29.38253      0.5802495
      4791.0000        15.5541         0.0011        82.1343         2.1131         1.5104        26.4284         2.8426         2.2925      -105.0952      -32.37663      0.5374768
      4791.5000        15.6024         0.0021        91.8792         1.7904         1.3177        30.9272         2.4221         2.2824      -107.7355      -35.02202      0.4996854
      4792.0000        15.7267         0.0049       108.5358         1.2888         1.1647        33.4646         2.0156         2.2621      -108.0547      -35.34632      0.4950525
