#------------------------------------------------------------------------------
# Created by    : vladimir.rabinovich
# Created on    : 09/19/2023 17:20:40
#------------------------------------------------------------------------------
~Version Information Section
VERS.           2.0     :   CWLS log ASCII Standard - VERSION 2.0
WRAP.           NO      :   One line per depth step
~Well Information Section
#MNEM       .UNIT                                         VALUE :DESCRIPTION
#------------------------------------------------------------------------------
STRT        .FT                                             400 :START DEPTH
STOP        .FT                                           11002 :STOP DEPTH
STEP        .FT                                             0.5 :STEP      
NULL        .                                           -999.25 :NULL      
COMP        .                            STANOLIND OIL & GAS CO :COMPANY   
WELL        .                                     ST TR 00245-L :WELL      
FLD         .                              GALVESTON BLOCK 0245 :FIELD     
LOC         .                                                   :LOCATION  
CNTY        .                             GALVESTON LARGE BLOCK :LOCATION  
STAT        .                                             TEXAS :STATE     
CTRY        .                                     UNITED STATES :COUNTRY   
SRVC        .                                                   :SERVICE COMPANY
DATE        .                             9/13/2023 11:19:42 AM :LOG DATE  
API         .                                    42706000160000 :API NUMBER
UWI         .                                    42706000160000 :UNIQUE WELL ID
XCOORD      .                                  1024804.26554262 :SURFACE X 
YCOORD      .                                  10549089.4715911 :SURFACE Y 
LAT         .                                        29.0543948 :LATITUDE  
LON         .                                       -94.9272588 :LONGITUDE 
ELEV        .FT                                              11 :ELEVATION VALUE
ELEV_TYPE   .                                                KB :ELEVATION REFERENCE TYPE
~Curve Information Section
#MNEM       .UNIT                                      API CODE :CURVE DESCRIPTION
#------------------------------------------------------------------------------
DEPT        .FT                                                 :DEPTH     
ASN         .OHMM                                               :          
LAT         .OHMM                                               :          
LN          .OHMM                                               :          
SP          .MV                                                 :          
SP_NORM     .MV                                                 :SP Normalized
VSH_SP      .V/V                                                :Volume of Shale from SP
~A        DEPTH            ASN            LAT             LN             SP        SP_NORM         VSH_SP
# ...
      4618.0000          0.601          0.564         0.3871       -81.4784      -28.99653      0.6747406
      4618.5000         0.5939         0.5132         0.3798       -92.4822       -39.9985      0.5421868
      4619.0000         0.5879         0.4624         0.3725       -98.3782      -45.89266      0.4711727
      4619.5000          0.582         0.4116         0.3652        -101.99      -49.50263      0.4276792
      4620.0000         0.5761         0.3667         0.3579      -104.2319       -51.7427      0.4006903
      4620.5000         0.5702         0.3275         0.3506      -106.4739      -53.98287      0.3737004
      4621.0000         0.5719         0.3229         0.3359      -108.2456      -55.75273      0.3523767
      4621.5000         0.5804         0.3184         0.3178      -109.7638       -57.2691      0.3341072
      4622.0000         0.5888         0.3139         0.2997       -111.282      -58.78547      0.3158378
      4622.5000         0.5973         0.3103         0.2816      -107.7399      -55.24154      0.3585357
      4623.0000         0.6171         0.3088         0.2635      -105.5156      -53.01541      0.3853565
      4623.5000         0.6354         0.3074         0.2454      -106.8667      -54.36467      0.3691004
      4624.0000         0.5957         0.3059         0.2274      -108.2179      -55.71404      0.3528429
      4624.5000         0.5558         0.3045         0.2093      -109.5702       -57.0645      0.3365723
      4625.0000         0.5149          0.303         0.1912      -110.9213      -58.41378       0.320316
      4625.5000         0.4741         0.2996         0.1731      -109.8733      -57.36394      0.3329646
      4626.0000         0.4333         0.2956         0.1552      -105.8807      -53.36951      0.3810903
      4626.5000         0.3916         0.2916          0.141      -101.1534      -48.64037      0.4380678
      4627.0000         0.3504         0.3677         0.1269       -96.4261      -43.91124      0.4950453
      4627.5000         0.3442         0.4461         0.1127       -98.8009      -46.28421      0.4664553
      4628.0000         0.3855         0.5269         0.0986        -102.53      -50.01148      0.4215485
      4628.5000         0.4268         0.6077         0.0904      -106.2571      -53.73675      0.3766657
      4629.0000         0.4645         0.6561         0.0895      -109.9862      -57.46401      0.3317589
      4629.5000         0.4914         0.6271         0.0886      -112.1086      -59.58458      0.3062099
      4630.0000         0.4656         0.6608         0.0877      -114.2223      -61.69645      0.2807657
      4630.5000         0.4424         0.7027         0.0868       -116.338      -63.81031      0.2552974
      4631.0000         0.4218         0.7447         0.0859      -118.4539      -65.92439      0.2298267
      4631.5000         0.4012         0.7866         0.0865      -120.5077      -67.97635      0.2051042
      4632.0000         0.3939         0.8285         0.0984      -122.4796      -69.94641      0.1813685
      4632.5000         0.4194         0.7466         0.1104      -124.4515      -71.91649      0.1576327
      4633.0000         0.4449         0.6079         0.1223      -126.4224      -73.88556      0.1339089
      4633.5000         0.4704         0.4692         0.1343      -128.3943      -75.85562      0.1101732
      4634.0000         0.4629         0.3689         0.1462      -129.9668      -77.42628     0.09124958
      4634.5000         0.4414         0.2893         0.1582      -131.3354      -78.79306     0.07478241
      4635.0000         0.4241         0.2098         0.1701      -132.7056      -80.16142     0.05829611
      4635.5000         0.4067          0.161         0.1821      -131.8723      -79.32629     0.06835791
      4636.0000         0.3893         0.1792          0.194      -130.1382      -77.59035     0.08927283
      4636.5000          0.372         0.1974         0.1973      -128.4141      -75.86442      0.1100673
      4637.0000         0.3546         0.2156         0.1967      -126.7001      -74.14859      0.1307399
      4637.5000         0.3412         0.2338         0.1961      -124.9849      -72.43156      0.1514269
      4638.0000         0.3284          0.252         0.1955      -123.2708      -70.71562      0.1721009
      4638.5000         0.3225         0.2702         0.1949      -120.2797      -67.72269      0.2081603
      4639.0000         0.3215         0.2904         0.1943      -115.1053      -62.54646      0.2705245
      4639.5000         0.3342         0.3157         0.1937      -109.1208      -56.56012      0.3426491
      4640.0000         0.3469          0.341         0.1922       -102.488       -49.9255      0.4225844
      4640.5000         0.3596         0.3664         0.1888      -103.9686      -51.40426      0.4047679
      4641.0000         0.3724         0.3843         0.1854      -106.6156      -54.04943      0.3728984
      4641.5000         0.3848         0.3712          0.182      -106.6864       -54.1184      0.3720675
      4642.0000          0.374         0.3581         0.1787      -104.8307      -52.26087      0.3944474
      4642.5000         0.3603          0.345         0.1753      -102.9749      -50.40323      0.4168285
      4643.0000         0.3466         0.3329         0.1719      -101.1191       -48.5456      0.4392096
      4643.5000         0.3329         0.3246         0.1685      -107.4344      -54.85907      0.3631437
      4644.0000         0.3192         0.3164         0.1732      -112.0466      -59.46944      0.3075972
      4644.5000         0.3308         0.3081         0.1796      -115.4462       -62.8672      0.2666602
      4645.0000         0.3457         0.2998          0.186      -118.8456      -66.26477      0.2257257
      4645.5000         0.3591         0.2915         0.1924      -121.1638      -68.58115      0.1978175
      4646.0000          0.364         0.2833         0.1988      -122.3269       -69.7424      0.1838265
      4646.5000         0.3541          0.275         0.2052       -123.491      -70.90467      0.1698232
      4647.0000         0.3441         0.2623         0.2116      -124.6187      -72.03053      0.1562586
      4647.5000         0.3341         0.2473          0.218      -125.5255       -72.9355      0.1453554
      4648.0000         0.3241          0.246         0.2251      -126.4329      -73.84108      0.1344448
      4648.5000          0.333          0.261         0.2334      -126.9087      -74.31504      0.1287345
      4649.0000         0.3421          0.276         0.2417      -126.0455      -73.45001      0.1391565
      4649.5000         0.3769         0.3426         0.2501      -115.4019      -62.80458      0.2674147
      4650.0000          0.415         0.4145         0.2584      -100.0071      -47.40795      0.4529163
      4650.5000         0.4405         0.4862         0.2603       -85.0327      -32.43171      0.6333529
      4651.0000         0.4584          0.558         0.2412       -77.5389      -24.93608      0.7236617
      4651.5000         0.4762         0.6298          0.222       -71.4926      -18.88795      0.7965308
      4652.0000         0.4896         0.6543         0.2029       -66.9854      -14.37891      0.8508565
      4652.5000         0.4979         0.6674         0.1838       -70.3328      -17.72448      0.8105484
      4653.0000         0.5062         0.6571         0.1649       -78.1586      -25.54845      0.7162837
      4653.5000         0.5144         0.6183         0.1653       -84.1873      -31.57532      0.6436709
      4654.0000         0.5227         0.5795         0.1656        -88.441      -35.82719      0.5924435
      4654.5000         0.5366         0.5407          0.166       -93.9164      -41.30075       0.526497
      4655.0000         0.5568         0.5019         0.1664      -100.3346      -47.71712      0.4491913
      4655.5000         0.5771         0.4631         0.1668      -106.7572      -54.13789      0.3718326
