#------------------------------------------------------------------------------
# Created by    : vladimir.rabinovich
# Created on    : 09/19/2023 17:22:53
#------------------------------------------------------------------------------
~Version Information Section
VERS.           2.0     :   CWLS log ASCII Standard - VERSION 2.0
WRAP.           NO      :   One line per depth step
~Well Information Section
#MNEM       .UNIT                                         VALUE :DESCRIPTION
#------------------------------------------------------------------------------
STRT        .FT                                             394 :START DEPTH
STOP        .FT                                            7700 :STOP DEPTH
STEP        .FT                                             0.5 :STEP      
NULL        .                                           -999.25 :NULL      
COMP        .                                   MARATHON OIL CO :COMPANY   
WELL        .                                     ST TR 00248-L :WELL      
FLD         .                                           WILDCAT :FIELD     
LOC         .                                                   :LOCATION  
CNTY        .                             GALVESTON LARGE BLOCK :LOCATION  
STAT        .                                             TEXAS :STATE     
CTRY        .                                     UNITED STATES :COUNTRY   
SRVC        .                                                   :SERVICE COMPANY
DATE        .                             9/13/2023 11:19:42 AM :LOG DATE  
API         .                                    42706000210000 :API NUMBER
UWI         .                                    42706000210000 :UNIQUE WELL ID
XCOORD      .                                  969160.596945075 :SURFACE X 
YCOORD      .                                  10521676.5956168 :SURFACE Y 
LAT         .                                        28.9764138 :LATITUDE  
LON         .                                       -95.0998408 :LONGITUDE 
ELEV        .FT                                              10 :ELEVATION VALUE
ELEV_TYPE   .                                                KB :ELEVATION REFERENCE TYPE
~Curve Information Section
#MNEM       .UNIT                                      API CODE :CURVE DESCRIPTION
#------------------------------------------------------------------------------
DEPT        .FT                                                 :DEPTH     
LAT         .OHMM                                               :          
LN          .OHMM                                               :          
SN          .OHMM                                               :          
SP          .MV                                                 :          
SP_NORM     .MV                                                 :SP Normalized
VSH_SP      .V/V                                                :Volume of Shale from SP
~A        DEPTH            LAT             LN             SN             SP        SP_NORM         VSH_SP
# ...
      1344.0000         1.6143         1.0862         1.7719       -94.6439      -4.521454      0.8785706
      1344.5000         1.6088         1.0806         1.7709       -95.5244      -5.390663      0.8485978
      1345.0000          1.603          1.075           1.77       -96.4048      -6.259781      0.8186283
      1345.5000         1.5971         1.0694          1.777       -97.0358      -6.879494      0.7972589
      1346.0000         1.5913         1.0638         1.7852       -97.4546      -7.287003      0.7832068
      1346.5000         1.5923         1.0582         1.7935       -97.8732      -7.694321      0.7691613
      1347.0000         1.6003         1.0526         1.8017       -98.2919      -8.101738      0.7551125
      1347.5000         1.6083         1.0469         1.8099       -98.7106      -8.509148      0.7410639
      1348.0000          1.605         1.0413         1.8181       -98.6556      -8.442863      0.7433496
      1348.5000         1.5902         1.0357         1.8264       -98.4261       -8.20208      0.7516524
      1349.0000         1.5753         1.0301         1.8346       -98.1965      -7.961189       0.759959
      1349.5000         1.5594         1.0282         1.8428        -97.967      -7.716492      0.7683969
      1350.0000         1.5364         1.0354          1.851       -97.7374      -7.459213      0.7772685
      1350.5000         1.3445         1.0425         1.8568       -97.5081      -7.202248      0.7861294
      1351.0000         1.3268         1.0497         1.8622       -97.2784      -6.944878      0.7950042
      1351.5000         1.3091         1.0569         1.8675        -97.049      -6.687813      0.8038685
      1352.0000         1.2914         1.0641         1.8729       -96.8193      -6.430435      0.8127436
      1352.5000         1.2737         1.0713         1.8782       -96.5898      -6.173264      0.8216116
      1353.0000          1.256         1.0785         1.8835       -96.5378      -6.093597      0.8243587
      1353.5000         1.2383         1.0857         1.8889       -96.5298      -6.057922      0.8255889
      1354.0000         1.2225         1.0929         1.8942       -96.5217      -6.022156      0.8268222
      1354.5000         1.2201         1.1001         1.8995       -96.5137      -5.986488      0.8280521
      1355.0000         1.2178         1.1073         1.9049       -96.5056      -5.950714      0.8292857
      1355.5000         1.2155         1.1145         1.8942       -96.4976      -5.915039      0.8305159
      1356.0000         1.2131         1.1217         1.8792       -94.2683      -3.658073      0.9083423
      1356.5000         1.2108         1.1254         1.8643       -91.5702     -0.9322968              1
      1357.0000         1.2085         1.1181         1.8494       -88.8726       1.792969              1
      1357.5000         1.2061         1.1107         1.8344       -86.1743       4.518936              1
      1358.0000         1.2038         1.1033         1.8195       -84.4545       6.266411              1
      1358.5000         1.2063         1.0959         1.8046       -82.9906        7.75798              1
      1359.0000         1.2142         1.0885         1.7896       -81.5264       9.249855              1
      1359.5000         1.2221         1.0811         1.7747       -80.0621       10.74182              1
      1360.0000         1.2299         1.0737         1.7729       -78.5983       12.23329              1
      1360.5000         1.2378         1.0663         1.7762        -77.134       13.72526              1
      1361.0000         1.2457         1.0589         1.7795       -75.5834       15.30354              1
      1361.5000         1.2536         1.0515         1.7829       -73.8722        17.0424              1
      1362.0000         1.2615         1.0442         1.7862       -72.1609       18.78138              1
      1362.5000         1.2693         1.0368         1.7896       -70.4493       20.52064              1
      1363.0000         1.2769         1.0294         1.7929        -68.738       22.25961              1
      1363.5000         1.2845          1.022         1.7962       -69.9485       21.07678              1
      1364.0000          1.292         1.0146         1.7996       -71.5819       19.47105              1
      1364.5000         1.2996         1.0058         1.8029       -73.2153       17.86533              1
      1365.0000         1.3005         0.9966         1.8062       -74.8485        16.2598              1
      1365.5000         1.2976         0.9873         1.8096       -76.4818       14.65417              1
      1366.0000         1.2946         0.9781         1.8144       -78.1152       13.04844              1
      1366.5000         1.2915         0.9688         1.8236       -79.7484       11.44291              1
      1367.0000         1.2738         0.9596         1.8327       -81.3817        9.83728              1
      1367.5000         1.2561         0.9503         1.8418       -83.0547       8.191948              1
      1368.0000         1.2384         0.9411         1.8509       -84.7305       6.543823              1
      1368.5000         1.2207         0.9318         1.8601       -86.4065       4.895485              1
      1369.0000         1.2031         0.9226         1.8692       -88.0826       3.247055              1
      1369.5000         1.1858         0.9133         1.8783       -89.7587       1.598633              1
      1370.0000         1.1684         0.9041         1.8874       -91.4344    -0.04940033              1
      1370.5000         1.1511         0.8948         1.8966       -93.1105      -1.697823      0.9794758
      1371.0000         1.1338         0.8856         1.9057       -94.3362      -2.895851      0.9442397
      1371.5000         1.1164         0.8823         1.9148       -95.4391      -3.971092      0.9126149
      1372.0000         1.0991         0.8825         1.9239       -96.5422      -5.046516      0.8809848
      1372.5000         1.0817         0.8826         1.9331       -97.6454      -6.122047      0.8493515
      1373.0000         1.0644         0.8828         1.9422       -98.7482      -7.197174      0.8177302
      1373.5000          1.055         0.8829         1.9513       -99.8514      -8.272705      0.7860969
      1374.0000         1.0492         0.8831         1.9563      -100.4722      -8.865837      0.7686518
      1374.5000         1.0434         0.8832         1.9458       -100.903      -9.268967      0.7567951
      1375.0000         1.0375         0.8834         1.9352      -101.3337      -9.671997      0.7449412
      1375.5000         1.0317         0.8835         1.9246      -101.7645      -10.07513      0.7330845
      1376.0000         1.0259         0.8837          1.914      -101.3574       -9.64035       0.745872
      1376.5000           1.02         0.8839         1.9035      -100.6057      -8.860977      0.7687948
      1377.0000         1.0142          0.884         1.8929       -99.8541      -8.081718      0.7917142
      1377.5000         1.0136         0.8842         1.8823       -99.1024      -7.302345      0.8146369
      1378.0000         1.0294         0.8843         1.8717       -98.3508      -6.523071      0.8375567
      1378.5000         1.0453         0.8845         1.8612       -97.3905      -5.535103      0.8666146
      1379.0000         1.0611         0.8846         1.8506       -96.2816      -4.398529      0.9000432
      1379.5000         1.0769         0.8848           1.84       -95.1725      -3.261757      0.9334778
      1380.0000         1.0927         0.8931         1.8294       -94.0634      -2.124992       0.966912
      1380.5000         1.1086         0.9042         1.8213       -94.8839      -2.917824      0.9435934
      1381.0000         1.1244         0.9152          1.814       -96.0322      -4.038452      0.9106337
      1381.5000         1.1312         0.9262         1.8068       -97.1807      -5.159279      0.8776683
