#------------------------------------------------------------------------------
# Created by    : vladimir.rabinovich
# Created on    : 09/19/2023 17:21:15
#------------------------------------------------------------------------------
~Version Information Section
VERS.           2.0     :   CWLS log ASCII Standard - VERSION 2.0
WRAP.           NO      :   One line per depth step
~Well Information Section
#MNEM       .UNIT                                         VALUE :DESCRIPTION
#------------------------------------------------------------------------------
STRT        .FT                                            2893 :START DEPTH
STOP        .FT                                           11505 :STOP DEPTH
STEP        .FT                                             0.5 :STEP      
NULL        .                                           -999.25 :NULL      
COMP        .                               SEAGULL ENERGY CORP :COMPANY   
WELL        .                               OCS G06105 ST00BP00 :WELL      
FLD         .                              GALVESTON BLOCK 0343 :FIELD     
LOC         .                                                   :LOCATION  
CNTY        .                             GALVESTON LARGE BLOCK :LOCATION  
STAT        .                                             TEXAS :STATE     
CTRY        .                                     UNITED STATES :COUNTRY   
SRVC        .                                                   :SERVICE COMPANY
DATE        .                             9/13/2023 11:19:54 AM :LOG DATE  
API         .                                    42706403720000 :API NUMBER
UWI         .                                    42706403720000 :UNIQUE WELL ID
XCOORD      .                                  915246.934514234 :SURFACE X 
YCOORD      .                                  10428990.3748243 :SURFACE Y 
LAT         .                                         28.718869 :LATITUDE  
LON         .                                        -95.262866 :LONGITUDE 
ELEV        .FT                                              96 :ELEVATION VALUE
ELEV_TYPE   .                                                KB :ELEVATION REFERENCE TYPE
~Curve Information Section
#MNEM       .UNIT                                      API CODE :CURVE DESCRIPTION
#------------------------------------------------------------------------------
DEPT        .FT                                                 :DEPTH     
CAL         .IN                                                 :          
CNCSS       .%                                                  :          
CORR        .G/CM3                                              :          
DT24        .US/FT                                              :          
GR_NORM     .GAPI                                               :GammaRay Normalized
GRR         .GAPI                                               :          
ILD         .OHMM                                               :          
ILM         .OHMM                                               :          
PORDSS      .%                                                  :          
RFOC        .OHMM                                               :          
SP          .MV                                                 :          
SP_NORM     .MV                                                 :SP Normalized
VSH_GR      .V/V                                                :Volume of Shale from GR
VSH_SP      .V/V                                                :Volume of Shale from SP
~A        DEPTH            CAL          CNCSS           CORR           DT24        GR_NORM            GRR            ILD            ILM         PORDSS           RFOC             SP        SP_NORM         VSH_GR         VSH_SP
# ...
      5233.0000          16.05        41.8776         -0.032          129.8       68.07205           57.8         0.2839         0.3495          32.28            0.6       -48.3673       -49.6007      0.7462139      0.3282957
      5233.5000          15.81        42.2353         -0.024          130.8       70.39477           59.2         0.2839         0.3623          31.08         0.6335       -42.6471       -43.8645      0.7956334      0.4101272
      5234.0000          15.73        42.2353         -0.028          130.2       73.07702        60.8163         0.2787         0.3527          30.36         0.6937            -40       -41.2014      0.8527025      0.4480586
      5234.5000          15.69        42.2353         -0.032          128.6       77.82196        63.6735         0.2761         0.3464           30.6         0.7483       -42.6471       -43.8325      0.9536588      0.4103571
      5235.0000          15.65        42.1176          -0.04            127       75.78214         62.449         0.2865         0.3372           31.8         0.7924            -45       -46.1694      0.9102584        0.37686
      5235.5000          15.65        42.2353         -0.036            126          68.05           57.8         0.2972         0.3342          32.28         0.7627       -43.5294       -44.6828      0.7457448      0.3979828
      5236.0000          15.69        42.8235         -0.032          128.4       65.71849           56.4          0.311         0.3342          31.92         0.6874       -35.5882       -36.7256      0.6961381      0.5115443
      5236.5000          15.69        43.8824         -0.024          134.4        67.3763           57.4         0.3282         0.3495          30.84         0.6393          -25.2       -26.3213      0.7314107      0.6600614
      5237.0000          15.69        44.9412              0          139.8       70.69637           59.4         0.3464          0.379        29.8824         0.6165       -12.6471       -13.7524      0.8020505      0.8395043
      5237.5000          15.73        45.6471         0.0082          141.2       71.68932             60         0.3722         0.4075        29.2941         0.6335        -5.5882        -6.6775      0.8231769        0.94046
      5238.0000          15.85             46         0.0204          139.8       71.68489             60         0.4113         0.4431        29.1765          0.669        -2.6471        -3.7204      0.8230828      0.9825915
      5238.5000          15.93             46         0.0367          134.2        71.6805             60         0.4556         0.4862        29.1765         0.6937        -2.0588        -3.1161      0.8229895        0.99111
      5239.0000          15.97        46.2353         0.0449          131.2        72.3546        60.4082         0.5139         0.5092        28.9412         0.7203        -1.4706        -2.5119      0.8373319      0.9996285
      5239.5000          16.05        46.3529         0.0367          129.2       76.42085        62.8571         0.5733         0.5139        28.5882         0.7483        -1.7647          -2.79      0.9238479      0.9955415
      5240.0000          16.01        46.5882         0.0122          131.2       80.82653        65.5102         0.6055         0.5233        28.4706         0.7701        -2.0588         -3.068              1      0.9914543
      5240.5000          16.05        46.8229         0.0082          132.8       84.21441         67.551         0.6395         0.5331        28.4671         0.7849        -2.0588         -3.052              1        0.99157
      5241.0000          16.01        47.0574         0.0041          133.8       82.85312        66.7347         0.6398         0.5481        28.4613         0.7776        -1.7647        -2.7419              1      0.9958857
      5241.5000          15.97        46.8206         0.0122            133       78.77789        64.2857         0.6401         0.5585        28.1025         0.7559        -2.0588          -3.02      0.9739975         0.9918
      5242.0000          15.97         45.757         0.0163          130.6       77.75587        63.6735         0.6404         0.5638        27.6261         0.7632        -2.9412        -3.8864      0.9522525      0.9793085
      5242.5000          15.97        45.3998         0.0245            128       77.07295        63.2653         0.6524         0.5693        27.2673         0.7633        -4.4118         -5.341      0.9377224      0.9584157
      5243.0000          15.93        45.6339         0.0367          128.2       76.72928        63.0612         0.6586         0.5961        27.1439         0.7635        -6.7647        -7.6779      0.9304102      0.9249172
      5243.5000          15.89        45.6315          0.049          129.4       75.70724         62.449         0.6649         0.6297        27.0204         0.7636            -10       -10.8972      0.9086648      0.8788143
      5244.0000          15.73        45.2736         0.0367          130.2       74.00669        61.4286         0.6357         0.6474        26.8969         0.7496          -15.6       -16.4811      0.8724828      0.7989286
      5244.5000          15.69        43.9658         0.0204          126.2       70.29784           59.2           0.56          0.636        26.7734            0.8          -22.8       -23.6651       0.793571      0.6961871
      5245.0000          15.61         42.418         0.0041          120.8       65.30675           56.2         0.4619         0.5602        26.8853         0.9532       -30.8824       -31.7315      0.6873776      0.5808386
      5245.5000          15.49        40.5883         -0.024       115.6406        57.3236           51.4         0.3774         0.4708        27.3489         1.0942       -44.1176       -44.9507      0.5175235        0.39188
      5246.0000          15.41        39.6027         -0.036        112.661       49.40547        46.6391          0.342         0.3985         27.696         1.1549       -53.8776       -54.6947      0.3490526      0.2525657
      5246.5000          15.49        39.2293         -0.048       113.8451       47.43679        45.4574         0.3156         0.3515        27.9255              1          -62.1       -62.9011      0.3071658      0.1352186
      5247.0000          15.65        39.1008         -0.056       114.8327       50.71946        47.4349         0.2964         0.3362        28.1549            0.9          -63.6        -64.385      0.3770098      0.1139043
      5247.5000          15.85        39.0947         -0.056       115.2255       51.04701        47.6346         0.2965         0.3245        28.2667          0.822          -60.6        -61.369       0.383979      0.1568771
      5248.0000          15.97        39.0886         -0.048       116.2165       51.70101        48.0307         0.2939          0.352        28.1433         0.7647       -53.2653       -54.0183      0.3978938      0.2617729
      5248.5000          16.13        39.8171         -0.028       119.6013       53.66203        49.2131          0.319         0.3853        27.5492         0.7377       -42.6471       -43.3841      0.4396176      0.4135757
      5249.0000          16.17        41.6474              0            123       60.28479           53.2         0.3587         0.4225        26.9552         0.7248       -32.3529       -33.0739      0.5805275      0.5607514
      5249.5000          16.17         42.967         0.0245          125.6       68.59154           58.2         0.4188         0.4814        26.8317         0.7381          -21.9        -22.605      0.7572668      0.7101929
      5250.0000          16.21        44.0416         0.0327          128.6       75.31071        62.2449         0.4953         0.5427        27.0612         0.7516            -15        -15.689       0.900228        0.80888
      5250.5000          16.21          44.64         0.0328       129.7941       80.73849        65.5129         0.5785         0.5892        27.0588         0.7722       -10.8802       -11.5532              1      0.8678486
