#------------------------------------------------------------------------------
# Created by    : vladimir.rabinovich
# Created on    : 09/19/2023 17:19:43
#------------------------------------------------------------------------------
~Version Information Section
VERS.           2.0     :   CWLS log ASCII Standard - VERSION 2.0
WRAP.           NO      :   One line per depth step
~Well Information Section
#MNEM       .UNIT                                         VALUE :DESCRIPTION
#------------------------------------------------------------------------------
STRT        .FT                                            1054 :START DEPTH
STOP        .FT                                           13910 :STOP DEPTH
STEP        .FT                                             0.5 :STEP      
NULL        .                                           -999.25 :NULL      
COMP        .                                            MTS LP :COMPANY   
WELL        .                                ST TR 00061-L SW/4 :WELL      
FLD         .                                           WILDCAT :FIELD     
LOC         .                                                   :LOCATION  
CNTY        .                           HIGH ISLAND LARGE BLOCK :LOCATION  
STAT        .                                             TEXAS :STATE     
CTRY        .                                     UNITED STATES :COUNTRY   
SRVC        .                                                   :SERVICE COMPANY
DATE        .                             9/13/2023 11:19:15 AM :LOG DATE  
API         .                                    42708302730000 :API NUMBER
UWI         .                                    42708302730000 :UNIQUE WELL ID
XCOORD      .                                  1164861.29381137 :SURFACE X 
YCOORD      .                                   10674042.082625 :SURFACE Y 
LAT         .                                        29.4036169 :LATITUDE  
LON         .                                       -94.4939126 :LONGITUDE 
ELEV        .FT                                              78 :ELEVATION VALUE
ELEV_TYPE   .                                                KB :ELEVATION REFERENCE TYPE
~Curve Information Section
#MNEM       .UNIT                                      API CODE :CURVE DESCRIPTION
#------------------------------------------------------------------------------
DEPT        .FT                                                 :DEPTH     
ASFL        .OHMM                                               :          
CILD        .MMHO                                               :          
ILD         .OHMM                                               :          
SP          .MV                                                 :          
SP_NORM     .MV                                                 :SP Normalized
VSH_SP      .V/V                                                :Volume of Shale from SP
~A        DEPTH           ASFL           CILD            ILD             SP        SP_NORM         VSH_SP
# ...
     13860.0000         0.8101       1531.029           0.69       -41.6791        -1.6791       0.990158
     13860.5000         0.8002        1551.48         0.6817       -41.2006        -1.2006      0.9970928
     13861.0000         0.7885       1573.506         0.6665       -40.5842     -0.5842018              1
     13861.5000         0.7742       1610.672         0.6514       -39.8841      0.1158981              1
     13862.0000         0.7563       1657.672          0.638       -39.5581      0.4418983              1
     13862.5000         0.7413       1691.398          0.628       -39.4771      0.5228996              1
     13863.0000         0.7282       1721.879         0.6179       -39.3961      0.6039009              1
     13863.5000         0.7212       1745.674         0.6115       -39.3617      0.6383018              1
     13864.0000         0.7217       1760.965         0.6068       -39.4218      0.5782013              1
     13864.5000         0.7254       1776.254         0.6021       -39.5165      0.4835014              1
     13865.0000         0.7326       1791.543         0.5974        -39.658      0.3419991              1
     13865.5000         0.7399       1782.744         0.5964       -39.8293      0.1707001              1
     13866.0000         0.7456       1767.553         0.5973       -40.1794     -0.1794014              1
     13866.5000         0.7505       1752.459         0.5982       -40.7835     -0.7835007              1
     13867.0000         0.7533       1737.365          0.599       -41.1187      -1.118698      0.9982798
     13867.5000         0.7569       1722.273         0.5999       -41.4546      -1.454601      0.9934116
     13868.0000          0.761        1707.18         0.6015        -41.809      -1.808998      0.9882754
     13868.5000         0.7669       1692.086         0.6076       -42.1793      -2.179298      0.9829087
     13869.0000         0.7748       1677.412         0.6137       -41.9449      -1.944901      0.9863058
     13869.5000         0.7832        1663.77         0.6198        -41.681         -1.681      0.9901304
     13870.0000         0.7928       1652.215         0.6258       -41.4171      -1.417099      0.9939551
     13870.5000          0.803       1640.662         0.6319       -41.1532      -1.153198      0.9977797
     13871.0000         0.8134       1629.109         0.6332       -40.8893     -0.8893013              1
     13871.5000         0.8231       1617.555         0.6333       -40.6211     -0.6211014              1
     13872.0000         0.8129        1605.83         0.6335       -40.3522     -0.3521996              1
     13872.5000         0.7865       1627.389          0.625       -40.0834    -0.08340073              1
     13873.0000         0.7631       1668.586         0.6161       -39.8171      0.1828995              1
     13873.5000          0.749       1709.195         0.6071       -40.0896    -0.08959961              1
     13874.0000         0.7395       1745.379         0.6007       -40.3621     -0.3620987              1
     13874.5000         0.7341       1781.564         0.5966       -40.6832     -0.6832008              1
     13875.0000         0.7286       1801.967         0.5925       -40.7933     -0.7933006              1
     13875.5000         0.7249        1798.82         0.5884       -40.9034     -0.9034004              1
     13876.0000         0.7272       1788.471         0.5843       -41.1938      -1.193802      0.9971913
     13876.5000         0.7376       1775.025         0.5841       -41.6361      -1.636101      0.9907811
     13877.0000         0.7539       1749.607         0.5843       -42.3115      -2.311501      0.9809927
     13877.5000         0.7707       1724.141         0.5845       -43.0829      -3.082901       0.969813
     13878.0000         0.7864       1698.725         0.5858       -43.6655      -3.665501      0.9613696
     13878.5000         0.7994       1673.307         0.5896       -43.3856      -3.385601      0.9654261
     13879.0000          0.812       1653.494         0.5934       -43.1808      -3.180801      0.9683942
     13879.5000         0.8192       1643.145         0.5971       -42.9771        -2.9771      0.9713464
     13880.0000         0.8239       1635.943         0.5992       -42.7735      -2.773499      0.9742971
     13880.5000         0.8143       1628.729         0.6012       -43.2946      -3.294601      0.9667449
     13881.0000         0.8046        1631.58         0.6033       -44.3182      -4.318199      0.9519101
     13881.5000         0.7887       1643.563         0.6053       -44.7771        -4.7771      0.9452595
     13882.0000         0.7713       1661.113         0.6026       -44.4295      -4.429501      0.9502971
     13882.5000         0.7584       1675.643         0.5992       -44.0696      -4.069599      0.9555131
     13883.0000         0.7464       1686.801         0.5958       -43.7098      -3.709801      0.9607275
     13883.5000         0.7466       1697.961         0.5924       -43.3505      -3.350498      0.9659348
     13884.0000         0.7487       1703.861         0.5887       -42.9907        -2.9907      0.9711493
     13884.5000         0.7508       1709.344         0.5848       -43.4385      -3.438499      0.9646595
     13885.0000         0.7528       1710.332         0.5809       -44.1041      -4.104099       0.955013
     13885.5000         0.7539       1711.322          0.577       -44.4823        -4.4823      0.9495319
     13886.0000         0.7551       1712.268          0.573       -44.4571        -4.4571      0.9498971
     13886.5000         0.7562       1712.982         0.5691       -44.3934      -4.393398      0.9508203
     13887.0000         0.7566       1713.697         0.5696       -44.3148        -4.3148      0.9519594
     13887.5000         0.7562       1714.412         0.5715       -44.8817      -4.881699      0.9437435
     13888.0000         0.7559        1717.16         0.5734       -45.7158      -5.715801       0.931655
     13888.5000         0.7555       1723.969         0.5753        -46.315      -6.314999       0.922971
     13889.0000         0.7534       1730.766         0.5774       -45.8967      -5.896702      0.9290333
     13889.5000         0.7504       1742.725         0.5805       -45.4784      -5.478401      0.9350956
     13890.0000         0.7474       1755.703         0.5836       -45.0601      -5.060101      0.9411579
     13890.5000         0.7419       1768.707         0.5901       -44.6454      -4.645401      0.9471681
     13891.0000         0.7346        1778.35         0.5995       -44.2345      -4.234501      0.9531232
     13891.5000         0.7332       1781.736          0.609       -43.8642      -3.864201      0.9584898
     13892.0000         0.7427       1768.412         0.6185       -44.5409      -4.540901      0.9486826
     13892.5000         0.7593       1755.064         0.6258       -45.2188        -5.2188       0.938858
     13893.0000         0.7754       1715.096         0.6324       -45.8383      -5.838299      0.9298797
     13893.5000         0.7884       1665.834          0.638       -46.1046      -6.104599      0.9260203
     13894.0000         0.7963       1628.715          0.641       -46.0311      -6.031101      0.9270855
     13894.5000         0.8023       1612.393         0.6439       -45.9448      -5.944801      0.9283362
     13895.0000         0.8016       1596.514         0.6469       -45.8413      -5.841301      0.9298362
     13895.5000          0.799       1585.502           0.65       -45.6481      -5.648102      0.9326362
     13896.0000         0.7963       1574.857         0.6534        -45.455      -5.455002      0.9354348
     13896.5000         0.7942       1564.545         0.6569       -45.2618      -5.261799      0.9382348
     13897.0000         0.7921       1557.527         0.6604       -45.0041      -5.004101      0.9419696
     13897.5000         0.7932       1558.797         0.6639       -44.7197        -4.7197      0.9460913
