#------------------------------------------------------------------------------
# Created by    : vladimir.rabinovich
# Created on    : 09/19/2023 17:20:25
#------------------------------------------------------------------------------
~Version Information Section
VERS.           2.0     :   CWLS log ASCII Standard - VERSION 2.0
WRAP.           NO      :   One line per depth step
~Well Information Section
#MNEM       .UNIT                                         VALUE :DESCRIPTION
#------------------------------------------------------------------------------
STRT        .FT                                             293 :START DEPTH
STOP        .FT                                            8505 :STOP DEPTH
STEP        .FT                                             0.5 :STEP      
NULL        .                                           -999.25 :NULL      
COMP        .                                        TEXACO USA :COMPANY   
WELL        .                                     ST TR 00058-L :WELL      
FLD         .                                           WILDCAT :FIELD     
LOC         .                                                   :LOCATION  
CNTY        .                           HIGH ISLAND LARGE BLOCK :LOCATION  
STAT        .                                             TEXAS :STATE     
CTRY        .                                     UNITED STATES :COUNTRY   
SRVC        .                                                   :SERVICE COMPANY
DATE        .                             9/13/2023 11:19:15 AM :LOG DATE  
API         .                                    42708000230000 :API NUMBER
UWI         .                                    42708000230000 :UNIQUE WELL ID
XCOORD      .                                  1179226.38702832 :SURFACE X 
YCOORD      .                                  10699123.4735792 :SURFACE Y 
LAT         .                                        29.4730929 :LATITUDE  
LON         .                                        -94.449778 :LONGITUDE 
ELEV        .FT                                              80 :ELEVATION VALUE
ELEV_TYPE   .                                                KB :ELEVATION REFERENCE TYPE
~Curve Information Section
#MNEM       .UNIT                                      API CODE :CURVE DESCRIPTION
#------------------------------------------------------------------------------
DEPT        .FT                                                 :DEPTH     
ASN         .OHMM                                               :          
CILD        .MMHO                                               :          
ILD         .OHMM                                               :          
LAT         .OHMM                                               :          
LN          .OHMM                                               :          
SP          .MV                                                 :          
SP_NORM     .MV                                                 :SP Normalized
VSH_SP      .V/V                                                :Volume of Shale from SP
~A        DEPTH            ASN           CILD            ILD            LAT             LN             SP        SP_NORM         VSH_SP
# ...
      8464.5000         0.6125       1936.877         0.4762        -999.25        -999.25       -48.2909      -1.526947      0.9781865
      8465.0000         0.6172       1902.063         0.4873        -999.25        -999.25       -48.3735      -1.550232      0.9778538
      8465.5000         0.6222        1867.25         0.4983        -999.25        -999.25       -48.4561      -1.573517      0.9775212
      8466.0000         0.6273       1832.436         0.5094        -999.25        -999.25       -48.5386      -1.596703        0.97719
      8466.5000         0.6323       1796.523         0.5205        -999.25        -999.25       -48.4599      -1.458687      0.9791616
      8467.0000         0.6407       1760.348         0.5316        -999.25        -999.25       -48.3343      -1.273773      0.9818032
      8467.5000         0.6531        1724.17         0.5426        -999.25        -999.25       -48.2086      -1.088757      0.9844463
      8468.0000         0.6656       1658.191         0.5527        -999.25        -999.25       -48.0831     -0.9039421      0.9870865
      8468.5000          0.678       1568.607         0.5609        -999.25        -999.25       -47.9575     -0.7190285      0.9897282
      8469.0000         0.6905       1511.002          0.569        -999.25        -999.25        -47.832      -0.534214      0.9923684
      8469.5000         0.7029       1494.254         0.5772        -999.25        -999.25       -47.7064     -0.3493004        0.99501
      8470.0000         0.7154       1495.441         0.5854        -999.25        -999.25       -47.4769    -0.06048203       0.999136
      8470.5000         0.7278       1516.629         0.5936        -999.25        -999.25       -47.2071       0.268631              1
      8471.0000         0.7403       1537.793         0.5965        -999.25        -999.25       -46.9376      0.5974464              1
      8471.5000         0.7527       1575.904         0.5855        -999.25        -999.25       -46.6677      0.9266586              1
      8472.0000         0.7427       1633.225         0.5746        -999.25        -999.25       -46.3981       1.255573              1
      8472.5000         0.7261       1736.082         0.5636        -999.25        -999.25       -46.1283        1.58469              1
      8473.0000         0.7095         1803.6         0.5527        -999.25        -999.25       -45.8585       1.913803              1
      8473.5000         0.6929       1850.195         0.5417        -999.25        -999.25       -45.5889       2.242714              1
      8474.0000         0.6758       1889.887         0.5308        -999.25        -999.25       -45.6274       2.263531              1
      8474.5000         0.6518       1916.217         0.5181        -999.25        -999.25       -45.8097       2.140545              1
      8475.0000         0.6278       1942.547         0.5053        -999.25        -999.25        -45.992       2.017559              1
      8475.5000         0.6038       1968.877         0.4926        -999.25        -999.25       -46.1746       1.894276              1
      8476.0000         0.5873       1984.768         0.4798        -999.25        -999.25       -46.3569        1.77129              1
      8476.5000         0.5863       2000.482          0.467        -999.25        -999.25       -46.5394       1.648106              1
      8477.0000         0.5858       2016.176         0.4543        -999.25        -999.25       -46.7217       1.471073              1
      8477.5000         0.5853       2032.527         0.4415        -999.25        -999.25       -46.9043       1.288471              1
      8478.0000         0.5848       2061.098         0.4287        -999.25        -999.25       -47.0775       1.115273              1
      8478.5000         0.5843       2069.988          0.429        -999.25        -999.25       -47.2337      0.9590721              1
      8479.0000         0.5823       2064.254         0.4314        -999.25        -999.25       -47.3902      0.8025703              1
      8479.5000         0.5797       2058.516         0.4339        -999.25        -999.25       -47.5465      0.6462708              1
      8480.0000         0.5771       2050.328         0.4363        -999.25        -999.25       -47.7028      0.4899712              1
      8480.5000         0.5745       2037.912         0.4387        -999.25        -999.25       -47.8513      0.3414726              1
      8481.0000         0.5778       2025.494         0.4412        -999.25        -999.25       -47.9047      0.2880707              1
      8481.5000         0.5889       2013.076         0.4436        -999.25        -999.25        -47.958      0.2347717              1
      8482.0000            0.6       2000.658          0.446        -999.25        -999.25       -48.0115      0.1812706              1
      8482.5000         0.6111       1983.361         0.4485        -999.25        -999.25       -48.0649      0.1278725              1
      8483.0000         0.6189       1962.789         0.4528        -999.25        -999.25       -48.1183     0.07447052              1
      8483.5000         0.6216       1942.219         0.4579        -999.25        -999.25       -48.1718     0.02097321              1
      8484.0000         0.6243       1921.646          0.463        -999.25        -999.25       -48.2252    -0.03242874      0.9995368
      8484.5000         0.6268       1901.162          0.468        -999.25        -999.25       -48.4006     -0.2078285       0.997031
      8485.0000         0.6292       1881.623         0.4731        -999.25        -999.25       -48.6087     -0.4159279      0.9940582
      8485.5000         0.6317       1862.084         0.4781        -999.25        -999.25        -48.817     -0.6242294      0.9910824
      8486.0000         0.6346       1869.844         0.4832        -999.25        -999.25       -49.0253     -0.8325272      0.9881067
      8486.5000         0.6383        1880.25         0.4877        -999.25        -999.25       -49.2337      -1.040928      0.9851296
      8487.0000          0.642       1890.656         0.4918        -999.25        -999.25       -49.4418      -1.249027      0.9821568
      8487.5000         0.6365       1901.063         0.4959        -999.25        -999.25       -49.6501      -1.457329       0.979181
      8488.0000         0.6265       1915.229            0.5        -999.25        -999.25       -49.9011      -1.708328      0.9755953
      8488.5000         0.6165       1931.865         0.5041        -999.25        -999.25       -50.2009      -2.008129      0.9713125
      8489.0000         0.6065       1948.482         0.5082        -999.25        -999.25       -50.5006      -2.307827      0.9670311
      8489.5000         0.5965       1965.119         0.5123        -999.25        -999.25       -50.8004      -2.607628      0.9627482
      8490.0000         0.5864       1978.109         0.5164        -999.25        -999.25       -51.1002      -2.907429      0.9584653
      8490.5000         0.5762       1913.492         0.5204        -999.25        -999.25       -51.3999      -3.207127      0.9541839
      8491.0000         0.5818        1867.82         0.5245        -999.25        -999.25       -51.6992      -3.506428      0.9499082
      8491.5000         0.5928       1836.787         0.5286        -999.25        -999.25        -52.594       -4.40123      0.9371253
      8492.0000         0.6078       1805.799         0.5327        -999.25        -999.25       -53.5215      -5.328728      0.9238753
      8492.5000         0.6308       1782.633          0.535        -999.25        -999.25       -54.4491      -6.256329      0.9106238
      8493.0000         0.6539       1763.533         0.5326        -999.25        -999.25       -55.3766      -7.183826      0.8973739
      8493.5000          0.677       1744.434         0.5302        -999.25        -999.25       -56.3053       -8.11253      0.8841067
