#------------------------------------------------------------------------------
# Created by    : vladimir.rabinovich
# Created on    : 09/19/2023 17:20:25
#------------------------------------------------------------------------------
~Version Information Section
VERS.           2.0     :   CWLS log ASCII Standard - VERSION 2.0
WRAP.           NO      :   One line per depth step
~Well Information Section
#MNEM       .UNIT                                         VALUE :DESCRIPTION
#------------------------------------------------------------------------------
STRT        .FT                                             293 :START DEPTH
STOP        .FT                                            8505 :STOP DEPTH
STEP        .FT                                             0.5 :STEP      
NULL        .                                           -999.25 :NULL      
COMP        .                                        TEXACO USA :COMPANY   
WELL        .                                     ST TR 00058-L :WELL      
FLD         .                                           WILDCAT :FIELD     
LOC         .                                                   :LOCATION  
CNTY        .                           HIGH ISLAND LARGE BLOCK :LOCATION  
STAT        .                                             TEXAS :STATE     
CTRY        .                                     UNITED STATES :COUNTRY   
SRVC        .                                                   :SERVICE COMPANY
DATE        .                             9/13/2023 11:19:15 AM :LOG DATE  
API         .                                    42708000230000 :API NUMBER
UWI         .                                    42708000230000 :UNIQUE WELL ID
XCOORD      .                                  1179226.38702832 :SURFACE X 
YCOORD      .                                  10699123.4735792 :SURFACE Y 
LAT         .                                        29.4730929 :LATITUDE  
LON         .                                        -94.449778 :LONGITUDE 
ELEV        .FT                                              80 :ELEVATION VALUE
ELEV_TYPE   .                                                KB :ELEVATION REFERENCE TYPE
~Curve Information Section
#MNEM       .UNIT                                      API CODE :CURVE DESCRIPTION
#------------------------------------------------------------------------------
DEPT        .FT                                                 :DEPTH     
ASN         .OHMM                                               :          
CILD        .MMHO                                               :          
ILD         .OHMM                                               :          
LAT         .OHMM                                               :          
LN          .OHMM                                               :          
SP          .MV                                                 :          
SP_NORM     .MV                                                 :SP Normalized
VSH_SP      .V/V                                                :Volume of Shale from SP
~A        DEPTH            ASN           CILD            ILD            LAT             LN             SP        SP_NORM         VSH_SP
# ...
      7373.0000         0.7116        -999.25        -999.25         0.6674         0.7241       -32.2577       3.889683              1
      7373.5000         0.7264        -999.25        -999.25         0.6503         0.7209       -31.9959       4.169685              1
      7374.0000         0.7411        -999.25        -999.25         0.6331         0.7176       -31.7343       4.449488              1
      7374.5000         0.7562        -999.25        -999.25         0.6226         0.7144       -31.4725       4.729488              1
      7375.0000         0.7732        -999.25        -999.25         0.6123         0.7112       -31.2107       5.009489              1
      7375.5000         0.7902        -999.25        -999.25         0.6019          0.708       -31.1308       5.107592              1
      7376.0000         0.8071        -999.25        -999.25         0.5916          0.717       -31.1294       5.127192              1
      7376.5000         0.8167        -999.25        -999.25         0.5813          0.729        -31.128       5.146791              1
      7377.0000         0.8091        -999.25        -999.25         0.5709          0.741       -31.1473       5.145695              1
      7377.5000         0.7998        -999.25        -999.25         0.5606         0.7531       -31.4958       4.815395              1
      7378.0000         0.7896        -999.25        -999.25         0.5503         0.7651       -31.7115       4.617895              1
      7378.5000         0.7801        -999.25        -999.25         0.5443         0.7771       -31.7568       4.590799              1
      7379.0000         0.7706        -999.25        -999.25         0.5516         0.7891       -31.8022       4.563599              1
      7379.5000         0.7566        -999.25        -999.25         0.5589         0.8011       -32.0045       4.379498              1
      7380.0000         0.7423        -999.25        -999.25         0.5662          0.804       -32.4394       3.962803              1
      7380.5000          0.728        -999.25        -999.25         0.5734         0.8006       -32.5351       3.885303              1
      7381.0000         0.7157        -999.25        -999.25         0.5807         0.7972       -32.5337       3.904903              1
      7381.5000         0.7046        -999.25        -999.25          0.588         0.7939       -32.5323       3.924507              1
      7382.0000         0.6935        -999.25        -999.25         0.5953         0.7905       -32.5308       3.944206              1
      7382.5000         0.6836        -999.25        -999.25         0.6032         0.7872       -32.5294        3.96381              1
      7383.0000         0.6826        -999.25        -999.25         0.6123         0.7838       -32.7544       3.757011              1
      7383.5000         0.6816        -999.25        -999.25         0.6214         0.7804       -33.0658        3.46381              1
      7384.0000         0.6806        -999.25        -999.25         0.6304         0.7771       -33.3775       3.170315              1
      7384.5000         0.6797        -999.25        -999.25         0.6395         0.7737       -33.6891       2.876915              1
      7385.0000         0.6805        -999.25        -999.25         0.6486         0.7703       -34.0009       2.583313              1
      7385.5000         0.6813        -999.25        -999.25         0.6576         0.7668       -34.3123       2.290115              1
      7386.0000          0.682        -999.25        -999.25         0.6667         0.7633       -34.6239       1.996716              1
      7386.5000         0.6828        -999.25        -999.25         0.6729         0.7598       -34.9348       1.704018              1
      7387.0000         0.6836        -999.25        -999.25          0.676         0.7564       -35.2132       1.443821              1
      7387.5000         0.6824        -999.25        -999.25         0.6791         0.7529       -35.4919       1.183319              1
      7388.0000         0.6789        -999.25        -999.25         0.6822         0.7494       -35.7703      0.9231186              1
      7388.5000         0.6755        -999.25        -999.25         0.6853         0.7459       -36.0491      0.6625252              1
      7389.0000         0.6721        -999.25        -999.25         0.6885         0.7424       -36.3275      0.4023247              1
      7389.5000         0.6687        -999.25        -999.25         0.6916         0.7389       -36.6059      0.1421242              1
      7390.0000         0.6687        -999.25        -999.25         0.6998         0.7355       -36.3314      0.4348259              1
      7390.5000         0.6687        -999.25        -999.25         0.7153          0.732       -36.0205      0.7639275              1
      7391.0000         0.6688        -999.25        -999.25         0.7308         0.7383       -35.7097       1.092926              1
      7391.5000         0.6574        -999.25        -999.25         0.7463         0.7465       -35.3988       1.422031              1
      7392.0000         0.6503        -999.25        -999.25         0.7617         0.7547        -35.088        1.75103              1
      7392.5000         0.6576        -999.25        -999.25         0.7676         0.7629       -34.9644        1.89283              1
      7393.0000         0.6649        -999.25        -999.25         0.7572         0.7711       -34.8627       2.012733              1
      7393.5000         0.6722        -999.25        -999.25         0.7468         0.7793       -34.8098       2.083836              1
      7394.0000         0.6795        -999.25        -999.25         0.7364         0.7875       -35.4481       1.463737              1
      7394.5000         0.6868        -999.25        -999.25          0.726         0.7957       -36.0864      0.8436394              1
      7395.0000          0.694        -999.25        -999.25         0.7174         0.8025       -36.1031      0.8451385              1
      7395.5000         0.6912        -999.25        -999.25         0.7097         0.8043        -35.756       1.210442              1
      7396.0000         0.6883        -999.25        -999.25         0.7019          0.806       -35.8214       1.163242              1
      7396.5000         0.6854        -999.25        -999.25         0.6941         0.8077       -35.8867       1.116142              1
      7397.0000          0.683        -999.25        -999.25         0.6863         0.8094       -35.9521       1.068947              1
      7397.5000          0.683        -999.25        -999.25         0.6785         0.8111       -36.0174       1.021847              1
      7398.0000          0.683        -999.25        -999.25         0.6707         0.8129       -35.8524       1.205044              1
      7398.5000          0.683        -999.25        -999.25         0.6724         0.8146       -35.6169       1.458748              1
      7399.0000         0.6847        -999.25        -999.25         0.6804         0.8163       -34.5295        2.56435              1
      7399.5000         0.6898        -999.25        -999.25         0.6883          0.813       -33.3947        3.71735              1
      7400.0000         0.6949        -999.25        -999.25         0.6962         0.8059        -32.261       4.869251              1
      7400.5000         0.6999        -999.25        -999.25          0.703         0.7989       -32.9558       4.192654              1
      7401.0000          0.705        -999.25        -999.25         0.7098         0.7918       -33.3869       3.779751              1
      7401.5000         0.7101        -999.25        -999.25         0.7167         0.7847        -33.475       3.709858              1
      7402.0000         0.7129        -999.25        -999.25         0.7235         0.7776       -33.2196       3.983456              1
