#------------------------------------------------------------------------------
# Created by    : vladimir.rabinovich
# Created on    : 09/19/2023 17:20:32
#------------------------------------------------------------------------------
~Version Information Section
VERS.           2.0     :   CWLS log ASCII Standard - VERSION 2.0
WRAP.           NO      :   One line per depth step
~Well Information Section
#MNEM       .UNIT                                         VALUE :DESCRIPTION
#------------------------------------------------------------------------------
STRT        .FT                                             502 :START DEPTH
STOP        .FT                                            9122 :STOP DEPTH
STEP        .FT                                             0.5 :STEP      
NULL        .                                           -999.25 :NULL      
COMP        .                       BLUE DOLPHIN EXPLORATION CO :COMPANY   
WELL        .                                OCS 00714 ST00BP00 :WELL      
FLD         .                              GALVESTON BLOCK 0288 :FIELD     
LOC         .                                                   :LOCATION  
CNTY        .                             GALVESTON LARGE BLOCK :LOCATION  
STAT        .                                             TEXAS :STATE     
CTRY        .                                     UNITED STATES :COUNTRY   
SRVC        .                                                   :SERVICE COMPANY
DATE        .                             9/13/2023 11:19:24 AM :LOG DATE  
API         .                                    42706000680000 :API NUMBER
UWI         .                                    42706000680000 :UNIQUE WELL ID
XCOORD      .                                  1088404.51782723 :SURFACE X 
YCOORD      .                                  10474534.8869196 :SURFACE Y 
LAT         .                                        28.8520809 :LATITUDE  
LON         .                                       -94.7248272 :LONGITUDE 
ELEV        .FT                                              85 :ELEVATION VALUE
ELEV_TYPE   .                                                KB :ELEVATION REFERENCE TYPE
~Curve Information Section
#MNEM       .UNIT                                      API CODE :CURVE DESCRIPTION
#------------------------------------------------------------------------------
DEPT        .FT                                                 :DEPTH     
ASN         .OHMM                                               :          
ASN_1       .OHMM                                               :          
DT          .US/F                                               :          
ILD         .OHMM                                               :          
LAT         .OHMM                                               :          
LN          .OHMM                                               :          
SP          .MV                                                 :          
SP_NORM     .MV                                                 :SP Normalized
VSH_SP      .V/V                                                :Volume of Shale from SP
~A        DEPTH            ASN          ASN_1             DT            ILD            LAT             LN             SP        SP_NORM         VSH_SP
# ...
      8849.5000         1.8179        -999.25        96.3132         1.2672        -999.25        -999.25        -999.25      -1.805176      0.9793544
      8850.0000         1.8161        -999.25        87.9429         1.2312        -999.25        -999.25        -999.25      -1.733376      0.9811955
      8850.5000         1.7931        -999.25        87.6732         1.1898        -999.25        -999.25        -999.25      -1.736176      0.9811237
      8851.0000         1.7493        -999.25        91.0453         1.1586        -999.25        -999.25        -999.25      -2.883373      0.9517084
      8851.5000         1.7077        -999.25        93.1862         1.1402        -999.25        -999.25        -999.25      -3.424675      0.9378288
      8852.0000         1.6833        -999.25        94.3229         1.1363        -999.25        -999.25        -999.25      -3.646774       0.932134
      8852.5000         1.6804        -999.25        80.1071         1.1418        -999.25        -999.25        -999.25      -3.747776      0.9295442
      8853.0000         1.7122        -999.25        69.4969         1.1504        -999.25        -999.25        -999.25      -3.551174      0.9345853
      8853.5000         1.7666        -999.25        82.7489         1.1616        -999.25        -999.25        -999.25      -3.220074      0.9430751
      8854.0000         1.8211        -999.25        80.0891         1.1753        -999.25        -999.25        -999.25      -2.801975      0.9537955
      8854.5000         1.8606        -999.25         73.736         1.1889        -999.25        -999.25        -999.25      -3.530876      0.9351057
      8855.0000          1.871        -999.25        78.4357         1.1937        -999.25        -999.25        -999.25      -4.540974      0.9092058
      8855.5000         1.8493        -999.25        93.7208          1.188        -999.25        -999.25        -999.25      -5.951275      0.8730443
      8856.0000         1.8147        -999.25         93.759         1.1755        -999.25        -999.25        -999.25      -7.426975      0.8352057
      8856.5000         1.7625        -999.25        95.8595          1.154        -999.25        -999.25        -999.25      -8.342274      0.8117366
      8857.0000          1.712        -999.25       104.1355         1.1267        -999.25        -999.25        -999.25      -8.293674      0.8129827
      8857.5000         1.6726        -999.25       106.6404         1.0892        -999.25        -999.25        -999.25      -7.006676      0.8459827
      8858.0000         1.6535        -999.25        99.6605         1.0518        -999.25        -999.25        -999.25      -6.301476      0.8640648
      8858.5000         1.6691        -999.25        83.4319         1.0096        -999.25        -999.25        -999.25      -8.394276      0.8104032
      8859.0000         1.6738        -999.25        70.6808          0.967        -999.25        -999.25        -999.25      -8.615776      0.8047237
      8859.5000         1.6717        -999.25        68.4769         0.9332        -999.25        -999.25        -999.25      -9.445175       0.783457
      8860.0000         1.6639        -999.25         76.962         0.9014        -999.25        -999.25        -999.25      -15.31878      0.6328519
      8860.5000         1.6481        -999.25        95.1586         0.8755        -999.25        -999.25        -999.25      -21.80027      0.4666596
      8861.0000         1.6301        -999.25       100.2087         0.8526        -999.25        -999.25        -999.25      -27.04338      0.3322211
      8861.5000         1.6078        -999.25       103.5133         0.8388        -999.25        -999.25        -999.25      -31.17447      0.2262956
      8862.0000         1.5869        -999.25       102.7001         0.8275        -999.25        -999.25        -999.25      -33.87748      0.1569878
      8862.5000         1.5687        -999.25        100.339         0.8231        -999.25        -999.25        -999.25      -35.31927      0.1200187
      8863.0000         1.5534        -999.25        99.5078         0.8233        -999.25        -999.25        -999.25      -35.29048       0.120757
      8863.5000         1.5524        -999.25        99.6802         0.8331        -999.25        -999.25        -999.25      -34.14187      0.1502084
      8864.0000         1.5756        -999.25        99.2854         0.8528        -999.25        -999.25        -999.25      -32.65708      0.1882801
      8864.5000         1.5901        -999.25        97.4545         0.8834        -999.25        -999.25        -999.25      -31.85478      0.2088518
      8865.0000         1.5979        -999.25        97.9578           0.92        -999.25        -999.25        -999.25      -28.75187      0.2884135
      8865.5000         1.6007        -999.25        101.469         0.9623        -999.25        -999.25        -999.25      -23.33697      0.4272572
      8866.0000         1.6046        -999.25        102.403         1.0286        -999.25        -999.25        -999.25      -18.40128      0.5538135
      8866.5000         1.6662        -999.25        97.4141         1.1032        -999.25        -999.25        -999.25      -14.47807      0.6544084
      8867.0000         1.7734        -999.25        92.4897         1.1634        -999.25        -999.25        -999.25      -11.25988      0.7369263
      8867.5000         1.9448        -999.25        87.6732         1.2066        -999.25        -999.25        -999.25      -8.538876      0.8066955
      8868.0000         2.2437        -999.25         78.202          1.228        -999.25        -999.25        -999.25      -8.373676      0.8109314
      8868.5000         2.4126        -999.25        68.0659         1.2563        -999.25        -999.25        -999.25      -7.727573      0.8274981
      8869.0000         2.5083        -999.25        63.2225           1.29        -999.25        -999.25        -999.25      -6.856377      0.8498365
      8869.5000         2.3562        -999.25        74.8862         1.3289        -999.25        -999.25        -999.25      -6.872276      0.8494288
      8870.0000         2.1218        -999.25        97.4141         1.3643        -999.25        -999.25        -999.25      -6.744476      0.8527057
      8870.5000         1.9033        -999.25       108.5499         1.3938        -999.25        -999.25        -999.25      -6.073277       0.869916
      8871.0000         1.8258        -999.25       100.3615         1.2858        -999.25        -999.25        -999.25      -5.402073      0.8871263
      8871.5000          1.806        -999.25        91.3036         1.1952        -999.25        -999.25        -999.25      -4.467575      0.9110878
      8872.0000         1.8048        -999.25        77.1731         1.1516        -999.25        -999.25        -999.25      -3.304775      0.9409032
      8872.5000         1.8105        -999.25         83.306          1.154        -999.25        -999.25        -999.25      -5.813374      0.8765802
      8873.0000         1.8451        -999.25         98.694         1.1885        -999.25        -999.25        -999.25      -7.920776      0.8225442
      8873.5000         1.8233        -999.25        94.2151         1.1964        -999.25        -999.25        -999.25      -7.546776      0.8321339
      8874.0000         1.9635        -999.25        90.8723         1.1722        -999.25        -999.25        -999.25      -5.757473      0.8780135
      8874.5000         1.9203        -999.25        93.3148         1.1341        -999.25        -999.25        -999.25      -5.457275      0.8857109
      8875.0000         1.8778        -999.25        88.3652         1.0919        -999.25        -999.25        -999.25      -5.384975      0.8875647
      8875.5000         1.8228        -999.25         89.066         1.0517        -999.25        -999.25        -999.25      -4.531975      0.9094365
