#------------------------------------------------------------------------------
# Created by    : vladimir.rabinovich
# Created on    : 09/19/2023 17:20:45
#------------------------------------------------------------------------------
~Version Information Section
VERS.           2.0     :   CWLS log ASCII Standard - VERSION 2.0
WRAP.           NO      :   One line per depth step
~Well Information Section
#MNEM       .UNIT                                         VALUE :DESCRIPTION
#------------------------------------------------------------------------------
STRT        .FT                                            2110 :START DEPTH
STOP        .FT                                            6746 :STOP DEPTH
STEP        .FT                                             0.5 :STEP      
NULL        .                                           -999.25 :NULL      
COMP        .                       HOUSTON OIL & MINERALS CORP :COMPANY   
WELL        .                                ST TR 00694-L NE/4 :WELL      
FLD         .                                           WILDCAT :FIELD     
LOC         .                                                   :LOCATION  
CNTY        .                      MATAGORDA ISLAND LARGE BLOCK :LOCATION  
STAT        .                                             TEXAS :STATE     
CTRY        .                                     UNITED STATES :COUNTRY   
SRVC        .                                                   :SERVICE COMPANY
DATE        .                             9/13/2023 11:12:01 AM :LOG DATE  
API         .                                    42703302070000 :API NUMBER
UWI         .                                    42703302070000 :UNIQUE WELL ID
XCOORD      .                                  400461.464340365 :SURFACE X 
YCOORD      .                                  10145980.2526086 :SURFACE Y 
LAT         .                                        27.9055609 :LATITUDE  
LON         .                                       -96.8388291 :LONGITUDE 
ELEV        .FT                                              25 :ELEVATION VALUE
ELEV_TYPE   .                                                KB :ELEVATION REFERENCE TYPE
~Curve Information Section
#MNEM       .UNIT                                      API CODE :CURVE DESCRIPTION
#------------------------------------------------------------------------------
DEPT        .FT                                                 :DEPTH     
ASN         .OHMM                                               :          
CILD        .MMHO                                               :          
ILD         .OHMM                                               :          
SP          .MV                                                 :          
SP_NORM     .MV                                                 :SP Normalized
VSH_SP      .V/V                                                :Volume of Shale from SP
~A        DEPTH            ASN           CILD            ILD             SP        SP_NORM         VSH_SP
# ...
      6708.0000         1.1605       932.4219         0.9896       -51.9984       -19.3525      0.7245635
      6708.5000         1.1743        910.582         0.9928       -52.4105       -19.8046      0.7173873
      6709.0000         1.1882       883.4912         0.9943       -52.6223       -20.0564      0.7133905
      6709.5000         1.2224        855.333         0.9958       -52.5605       -20.0345      0.7137381
      6710.0000         1.2648       827.1494         0.9973       -52.4987       -20.0127      0.7140841
      6710.5000         1.2793       813.7988         0.9987       -52.4369       -19.9909      0.7144302
      6711.0000         1.2871       811.9414         0.9982       -52.2754       -19.8693      0.7163603
      6711.5000         1.2931        810.085         0.9952         -52.04       -19.6739      0.7194619
      6712.0000         1.2922       808.2275         0.9923       -51.5962       -19.2701      0.7258714
      6712.5000         1.2913       807.7402         0.9894       -50.9762       -18.6901      0.7350778
      6713.0000         1.2889       810.4902         0.9864        -50.302       -18.0558       0.745146
      6713.5000         1.2853       813.2432         0.9835       -49.1628       -16.9566      0.7625936
      6714.0000         1.2818       815.9932         0.9688       -48.0248       -15.8586      0.7800222
      6714.5000         1.2782       818.7471         0.9537        -46.598       -14.4717      0.8020365
      6715.0000         1.2726       821.4971         0.9377       -45.0168       -12.9305         0.8265
      6715.5000          1.262       824.2471         0.9198       -42.6787       -10.6324      0.8629778
      6716.0000         1.2513            827         0.9019       -40.9805        -8.9741         0.8893
      6716.5000         1.2391       835.9893          0.884       -39.8799        -7.9135      0.9061349
      6717.0000          1.225       846.8027         0.8661       -38.8907        -6.9643      0.9212016
      6717.5000         1.2108       857.6172         0.8482       -38.1256        -6.2392      0.9327111
      6718.0000         1.1911       868.4307         0.8303       -37.3982        -5.5517      0.9436238
      6718.5000         1.1714       879.2451         0.8133       -37.0212        -5.2147       0.948973
      6719.0000         1.1489       905.3682         0.7976       -36.6443        -4.8778      0.9543206
      6719.5000         1.1275       947.9785         0.7819       -36.3427        -4.6161      0.9584746
      6720.0000         1.1149       985.2998         0.7662       -36.1317        -4.4451      0.9611889
      6720.5000         1.1024       1015.619         0.7505       -35.9203        -4.2737      0.9639095
      6721.0000         1.0891       1035.664         0.7348       -35.8179        -4.2113         0.9649
      6721.5000         1.0862       1039.277         0.7284       -35.7395        -4.1728      0.9655111
      6722.0000         1.0843       1042.893         0.7451       -35.6611        -4.1344      0.9661207
      6722.5000         1.0839       1039.947         0.7294       -35.6556        -4.1689       0.965573
      6723.0000         1.0852       1034.738         0.7715        -35.671        -4.2242      0.9646952
      6723.5000         1.0865       1029.523         0.8135       -35.7208         -4.314      0.9632698
      6724.0000         1.0894        1022.87         0.8556       -35.9786        -4.6118      0.9585429
      6724.5000         1.0924       1001.267         0.8943       -36.2363        -4.9094       0.953819
      6725.0000         1.1013       979.6631         0.9156       -36.6652        -5.3783      0.9463762
      6725.5000         1.1145       958.0596         0.9369       -37.2578        -6.0109      0.9363349
      6726.0000          1.186       935.4141           0.94       -37.8499         -6.643      0.9263016
      6726.5000         1.2462       888.8799         0.9413       -38.7743        -7.6073      0.9109952
      6727.0000          1.287       842.4951         0.9426       -39.8512        -8.7242      0.8932667
      6727.5000         1.2986       817.7383         0.9363       -42.0437       -10.9567      0.8578302
      6728.0000         1.2844       844.1084         0.9286       -44.1976       -13.1505      0.8230079
      6728.5000         1.2702       870.5049          0.921       -48.0821        -17.075      0.7607143
      6729.0000         1.2377       896.9004         0.9116       -49.7573       -18.7902      0.7334889
      6729.5000         1.2081       923.2959         0.8943       -50.5081       -19.5809      0.7209381
      6730.0000          1.185       950.8838         0.8769       -51.0135       -20.1263      0.7122809
      6730.5000         1.1648       979.5889         0.8596       -51.2408       -20.3936      0.7080381
      6731.0000         1.1545       1008.294         0.8459       -51.4683       -20.6611       0.703792
      6731.5000          1.152       1004.072          0.835       -51.3774       -20.6101      0.7046016
      6732.0000         1.1495       994.7734         0.8378       -51.2233        -20.496      0.7064127
      6732.5000          1.147       985.4736         0.8406       -50.9292       -20.2419      0.7104461
      6733.0000         1.1443       976.1738         0.8433       -50.6351       -19.9877      0.7144809
      6733.5000         1.1364        966.875         0.8461       -38.2065        -7.5991      0.9111254
      6734.0000         1.1285       957.5635         0.8556        -32.076        -1.5086              1
      6734.5000         1.1207       946.1279         0.8668       -30.1811         0.3463              1
      6735.0000          1.114       931.1426         0.8779       -28.9248         1.5627              1
      6735.5000         1.1073       916.1445         0.8891        -27.813         2.6345              1
      6736.0000         1.1171       901.1465         0.9002       -27.1077         3.2998              1
      6736.5000         1.1276       886.1611         0.9095       -26.5201         3.8475              1
      6737.0000          1.142       871.1621         0.9001       -26.0115         4.3161              1
      6737.5000         1.1569       856.1768         0.8908       -25.5707         4.7169              1
      6738.0000         1.1752       841.6133         0.8814       -25.1157          5.132              1
      6738.5000         1.1886       827.5088         0.8721       -25.2371         4.9706              1
      6739.0000         1.1954       837.0322         0.8619       -28.6621         1.5266              1
      6739.5000         1.1968       874.0801         0.8515       -31.5133        -1.3246              1
      6740.0000         1.1983       911.0791         0.8411       -33.9087          -3.72      0.9726984
      6740.5000         1.1998       937.1768         0.8308       -34.8269        -4.6382      0.9581238
      6741.0000         1.2012        960.543         0.8204       -34.5135        -4.3248      0.9630984
      6741.5000         1.2051         946.29         0.8101       -34.1997         -4.011      0.9680794
      6742.0000         1.2121       930.5967         0.7997       -33.8066        -3.6179       0.974319
      6742.5000         1.2199       904.9209         0.8176       -31.8195        -1.6308              1
      6743.0000         1.2299       870.4551         0.8664       -28.3795         1.8092              1
      6743.5000         1.2421       807.9795          0.915       -27.3325         2.8562              1
      6744.0000         1.2567       785.2334          0.968       -26.8095         3.3792              1
      6744.5000         1.2784       766.4111         1.0371       -26.1553         4.0334              1
      6745.0000         1.2973       764.7559         1.0898       -25.3921         4.7966              1
      6745.5000          1.315       765.1953         1.1133       -24.7683         5.4204              1
