#------------------------------------------------------------------------------
# Created by    : vladimir.rabinovich
# Created on    : 09/19/2023 17:19:20
#------------------------------------------------------------------------------
~Version Information Section
VERS.           2.0     :   CWLS log ASCII Standard - VERSION 2.0
WRAP.           NO      :   One line per depth step
~Well Information Section
#MNEM       .UNIT                                         VALUE :DESCRIPTION
#------------------------------------------------------------------------------
STRT        .FT                                            4783 :START DEPTH
STOP        .FT                                            9473 :STOP DEPTH
STEP        .FT                                             0.5 :STEP      
NULL        .                                           -999.25 :NULL      
COMP        .                                   FOREST OIL CORP :COMPANY   
WELL        .                               OCS G20658 ST00BP00 :WELL      
FLD         .                            HIGH ISLAND BLOCK 0052 :FIELD     
LOC         .                                                   :LOCATION  
CNTY        .                           HIGH ISLAND LARGE BLOCK :LOCATION  
STAT        .                                             TEXAS :STATE     
CTRY        .                                     UNITED STATES :COUNTRY   
SRVC        .                                                   :SERVICE COMPANY
DATE        .                             9/13/2023 11:19:51 AM :LOG DATE  
API         .                                    42708405710000 :API NUMBER
UWI         .                                    42708405710000 :UNIQUE WELL ID
XCOORD      .                                  1254974.65209524 :SURFACE X 
YCOORD      .                                  10682885.5467737 :SURFACE Y 
LAT         .                                         29.430813 :LATITUDE  
LON         .                                        -94.211177 :LONGITUDE 
ELEV        .FT                                             108 :ELEVATION VALUE
ELEV_TYPE   .                                                KB :ELEVATION REFERENCE TYPE
~Curve Information Section
#MNEM       .UNIT                                      API CODE :CURVE DESCRIPTION
#------------------------------------------------------------------------------
DEPT        .FT                                                 :DEPTH     
A28H_COND   .MMHO                                               :          
A28H_UNC    .OHMM                                               :          
AHT10       .OHMM                                               :          
AHT20       .OHMM                                               :          
AHT30       .OHMM                                               :          
AHT60       .OHMM                                               :          
AHT90       .OHMM                                               :          
DCAL        .IN                                                 :          
DPHZ        .V/V                                                :          
DRHO        .G/CC                                               :          
DTCO        .US/F                                               :          
DTSM        .US/F                                               :          
GR          .GAPI                                               :          
GR_ARC_FIL  .GAPI                                               :          
GR_NORM     .GAPI                                               :GammaRay Normalized
GR1         .GAPI                                               :          
GRM1        .GAPI                                               :          
NPOR        .V/V                                                :          
P28H_UNC    .OHMM                                               :          
ROP5        .F/HR                                               :          
ROP5_RM     .F/HR                                               :          
SP          .MV                                                 :          
TENS        .LB                                                 :          
VSH_GR      .V/V                                                :Volume of Shale from GR
~A        DEPTH      A28H_COND       A28H_UNC          AHT10          AHT20          AHT30          AHT60          AHT90           DCAL           DPHZ           DRHO           DTCO           DTSM             GR     GR_ARC_FIL        GR_NORM            GR1           GRM1           NPOR       P28H_UNC           ROP5        ROP5_RM             SP           TENS         VSH_GR
# ...
      9458.0000        -999.25        -999.25         0.4182         0.4505         0.4603         0.4698         0.4665        -5.0081          0.267         -0.108        -999.25        380.242        86.2605        -999.25             80        -999.25        -999.25          0.321        -999.25        -999.25        -999.25        31.3836           3206              1
      9458.5000        -999.25        -999.25         0.4181         0.4523         0.4639          0.471         0.4691        -5.0081         0.2671         -0.108        -999.25        380.242        86.2605        -999.25             80        -999.25        -999.25          0.321        -999.25        -999.25        -999.25        31.2486           3188              1
      9459.0000        -999.25        -999.25         0.4181         0.4537         0.4648         0.4736         0.4718        -5.0081         0.2673         -0.108        -999.25        380.242        86.2605        -999.25             80        -999.25        -999.25          0.321        -999.25        -999.25        -999.25        31.4678           3188              1
      9459.5000        -999.25        -999.25         0.4175          0.455         0.4666         0.4754         0.4735        -5.0081         0.2668         -0.108        -999.25        380.242        86.2605        -999.25             80        -999.25        -999.25          0.321        -999.25        -999.25        -999.25         31.812           3206              1
      9460.0000        -999.25        -999.25         0.4169         0.4551         0.4667         0.4755         0.4732        -5.0081          0.267         -0.109        -999.25        380.242        86.2605        -999.25             80        -999.25        -999.25          0.321        -999.25        -999.25        -999.25        31.9061           3224              1
      9460.5000        -999.25        -999.25         0.4165         0.4552         0.4663         0.4751         0.4717        -5.0081         0.2676        -0.1092        -999.25        380.242        86.2605        -999.25             80        -999.25        -999.25          0.321        -999.25        -999.25        -999.25        31.7919           3224              1
      9461.0000        -999.25        -999.25         0.4161         0.4552         0.4662         0.4747         0.4708        -5.0081         0.2676        -0.1104        -999.25        380.242        86.2605        -999.25             80        -999.25        -999.25         0.3211        -999.25        -999.25        -999.25        31.9902           3260              1
      9461.5000        -999.25        -999.25         0.4159         0.4553         0.4662         0.4741         0.4695        -5.0081         0.2658        -0.1106        -999.25        380.242        86.2605        -999.25             80        -999.25        -999.25         0.3212        -999.25        -999.25        -999.25         32.126           3296              1
      9462.0000        -999.25        -999.25         0.4157         0.4553         0.4661         0.4736         0.4685        -5.0081         0.2658        -0.1158        -999.25        380.242        86.2605        -999.25             80        -999.25        -999.25         0.3212        -999.25        -999.25        -999.25        32.4285           3314              1
      9462.5000        -999.25        -999.25         0.4156         0.4554         0.4659         0.4731         0.4677        -5.0081         0.2658        -0.1218        -999.25        380.242        86.2605        -999.25             80        -999.25        -999.25         0.3218        -999.25        -999.25        -999.25        32.5852           3278              1
      9463.0000        -999.25        -999.25         0.4155         0.4553         0.4659         0.4727         0.4672        -5.0081         0.2658        -0.1287        -999.25        380.242        86.2605        -999.25             80        -999.25        -999.25         0.3218        -999.25        -999.25        -999.25        33.1377           3242              1
      9463.5000        -999.25        -999.25         0.4156         0.4552         0.4658         0.4725         0.4668        -5.0081         0.2658        -0.1356        -999.25        380.242        86.2605        -999.25             80        -999.25        -999.25         0.3218        -999.25        -999.25        -999.25        33.5235           3260              1
      9464.0000        -999.25        -999.25         0.4155         0.4552         0.4658         0.4723         0.4665        -5.0081         0.2658        -0.1426        -999.25        380.242        86.2605        -999.25             80        -999.25        -999.25         0.3218        -999.25        -999.25        -999.25        34.2844           3260              1
      9464.5000        -999.25        -999.25         0.4156         0.4552         0.4657         0.4722         0.4663        -5.0081         0.2658        -0.1505        -999.25        380.242        86.2605        -999.25             80        -999.25        -999.25         0.3218        -999.25        -999.25        -999.25        35.1285           3188              1
      9465.0000        -999.25        -999.25         0.4156         0.4551         0.4656         0.4721         0.4661        -5.0081         0.2658        -0.1594        -999.25        380.242        86.2605        -999.25             80        -999.25        -999.25         0.3212        -999.25        -999.25        -999.25        35.8268           3170              1
      9465.5000        -999.25        -999.25         0.4155         0.4551         0.4656         0.4721          0.466        -5.0081         0.2652        -0.1673        -999.25        380.242        86.2605        -999.25             80        -999.25        -999.25         0.3212        -999.25        -999.25        -999.25        36.4835           3152              1
      9466.0000        -999.25        -999.25         0.4155         0.4551         0.4656          0.472         0.4659        -5.0081         0.2652        -0.1782        -999.25        380.242        86.2605        -999.25             80        -999.25        -999.25         0.3212        -999.25        -999.25        -999.25        36.8901           3098              1
      9466.5000        -999.25        -999.25         0.4155          0.455         0.4656          0.472         0.4659        -5.0081         0.2646          0.099        -999.25        380.242        86.2605        -999.25             80        -999.25        -999.25         0.3212        -999.25        -999.25        -999.25        37.6926           3080              1
      9467.0000        -999.25        -999.25         0.4154          0.455         0.4656         0.4719         0.4658        -5.0081         0.2646         1.0956        -999.25        380.242        86.2605        -999.25             80        -999.25        -999.25         0.3212        -999.25        -999.25        -999.25        38.3076           3008              1
      9467.5000        -999.25        -999.25         0.4154          0.455         0.4655         0.4719         0.4658        -5.0081         0.2634          1.096        -999.25        380.242        86.2605        -999.25             80        -999.25        -999.25         0.3212        -999.25        -999.25        -999.25        38.6934           2936              1
      9468.0000        -999.25        -999.25         0.4154          0.455         0.4655         0.4719         0.4658        -5.0081         0.2628         1.0964        -999.25        380.242        86.2605        -999.25             80        -999.25        -999.25         0.3206        -999.25        -999.25        -999.25        38.6209           2882              1
      9468.5000        -999.25        -999.25         0.4154          0.455         0.4655         0.4719         0.4658        -5.0081         0.2623         1.0972        -999.25        380.242        86.2605        -999.25             80        -999.25        -999.25         0.3207        -999.25        -999.25        -999.25        38.6734           2846              1
