#------------------------------------------------------------------------------
# Created by    : vladimir.rabinovich
# Created on    : 09/19/2023 17:20:30
#------------------------------------------------------------------------------
~Version Information Section
VERS.           2.0     :   CWLS log ASCII Standard - VERSION 2.0
WRAP.           NO      :   One line per depth step
~Well Information Section
#MNEM       .UNIT                                         VALUE :DESCRIPTION
#------------------------------------------------------------------------------
STRT        .FT                                             617 :START DEPTH
STOP        .FT                                           12396 :STOP DEPTH
STEP        .FT                                             0.5 :STEP      
NULL        .                                           -999.25 :NULL      
COMP        .                                        SUN OIL CO :COMPANY   
WELL        .                               OCS G01781 ST00BP00 :WELL      
FLD         .                                           WILDCAT :FIELD     
LOC         .                                                   :LOCATION  
CNTY        .                             GALVESTON LARGE BLOCK :LOCATION  
STAT        .                                             TEXAS :STATE     
CTRY        .                                     UNITED STATES :COUNTRY   
SRVC        .                                                   :SERVICE COMPANY
DATE        .                             9/13/2023 11:19:24 AM :LOG DATE  
API         .                                    42706001390000 :API NUMBER
UWI         .                                    42706001390000 :UNIQUE WELL ID
XCOORD      .                                  1010631.41746955 :SURFACE X 
YCOORD      .                                  10491097.5822315 :SURFACE Y 
LAT         .                                         28.894296 :LATITUDE  
LON         .                                        -94.968586 :LONGITUDE 
ELEV        .FT                                              65 :ELEVATION VALUE
ELEV_TYPE   .                                                KB :ELEVATION REFERENCE TYPE
~Curve Information Section
#MNEM       .UNIT                                      API CODE :CURVE DESCRIPTION
#------------------------------------------------------------------------------
DEPT        .FT                                                 :DEPTH     
ASN         .OHMM                                               :          
CILD        .MMHO                                               :          
DT          .US/F                                               :          
ILD         .OHMM                                               :          
SP          .MV                                                 :          
SP_NORM     .MV                                                 :SP Normalized
VSH_SP      .V/V                                                :Volume of Shale from SP
~A        DEPTH            ASN           CILD             DT            ILD             SP        SP_NORM         VSH_SP
# ...
      9226.5000         0.5169       2442.734       127.2156          0.391       -48.4011       1.039989              1
      9227.0000         0.5078       2437.613       127.3378           0.39       -48.2644       1.171211              1
      9227.5000         0.5011       2424.855        126.838          0.389       -48.2172       1.212936              1
      9228.0000         0.4945       2412.102       126.2006         0.3886       -48.1699       1.254761              1
      9228.5000         0.4879       2399.348       126.1333         0.3884       -48.1227       1.296482              1
      9229.0000         0.4812         2385.5        126.446         0.3882       -48.0756       1.338104              1
      9229.5000         0.4772        2365.41       129.2063          0.388       -48.0284       1.379826              1
      9230.0000         0.4734       2358.848       130.5637         0.3878       -47.9811       1.421654              1
      9230.5000         0.4696       2399.223       131.2258         0.3876        -47.954       1.443275              1
      9231.0000         0.4658       2451.238       131.2834         0.3874       -47.9313       1.460495              1
      9231.5000          0.462       2505.738       131.2124         0.3872       -47.9085       1.477818              1
      9232.0000         0.4582       2560.387       131.1707          0.387       -47.8857       1.495144              1
      9232.5000         0.4554       2603.695       130.6902         0.3874        -47.863       1.512367              1
      9233.0000         0.4526       2646.063       129.5837         0.3922       -47.8402        1.52969              1
      9233.5000         0.4499       2677.988       128.3699         0.3971       -47.8174       1.547009              1
      9234.0000         0.4471       2702.898       127.1188         0.4019       -47.7571       1.601837              1
      9234.5000         0.4444        2661.43        126.495         0.4067       -47.6718        1.68166              1
      9235.0000         0.4519       2616.723       125.3444         0.4116       -47.5864       1.761581              1
      9235.5000          0.461       2544.125       124.2128         0.4164       -47.5012       1.841301              1
      9236.0000         0.4702       2468.938        123.882         0.4212       -47.4158        1.92123              1
      9236.5000         0.4794       2390.969       123.4038         0.4258       -47.5672       1.764351              1
      9237.0000         0.4885       2322.547       122.7153         0.4278       -47.7427       1.583374              1
      9237.5000         0.4931       2273.715        122.703         0.4298       -47.9178       1.402794              1
      9238.0000         0.4955       2236.273       123.0968         0.4319       -48.0933       1.221817              1
      9238.5000         0.4979       2213.074        123.816         0.4339       -48.2684       1.041245              1
      9239.0000         0.5004       2195.871       126.3075         0.4359       -48.3893      0.9148636              1
      9239.5000         0.5028       2178.664       128.3149         0.4379       -48.3671      0.9315872              1
      9240.0000         0.5017       2183.363       129.1978           0.44       -48.3449      0.9483109              1
      9240.5000         0.4995       2216.629       129.6997         0.4355       -48.3227      0.9650345              1
      9241.0000         0.4973       2349.895       128.9243           0.43       -48.3005      0.9817581              1
      9241.5000         0.4952       2410.262       127.4594         0.4245       -48.2783      0.9984779              1
      9242.0000          0.493       2433.359       126.0098          0.419       -48.2561       1.015202              1
      9242.5000         0.4908       2450.789       126.4377         0.4134       -48.2339       1.031929              1
      9243.0000         0.4886       2468.219       128.2073         0.4079       -48.1931       1.067249              1
      9243.5000         0.4849       2485.648       129.8586         0.4025        -48.149       1.105873              1
      9244.0000         0.4798       2504.344       130.9795          0.401        -48.105       1.144394              1
      9244.5000         0.4748       2525.652       131.6438         0.3996        -48.061       1.182915              1
      9245.0000         0.4698       2546.934       132.0596         0.3981        -48.017       1.221443              1
      9245.5000         0.4647       2568.219       132.1797         0.3967        -47.973       1.259964              1
      9246.0000         0.4597       2593.551        132.115         0.3952        -47.929       1.298485              1
      9246.5000         0.4547       2619.063       131.7407         0.3938       -47.8849       1.337109              1
      9247.0000         0.4509        2644.57       130.8816         0.3966       -47.8409       1.375633              1
      9247.5000         0.4479       2674.555       128.7449         0.4024       -47.8708       1.340256              1
      9248.0000          0.445       2707.426       123.6835         0.4083       -47.9363       1.269279              1
      9248.5000         0.4468       2738.008       119.8837         0.4141       -48.0017       1.198399              1
      9249.0000         0.4599       2766.996       118.1376           0.42       -48.0671       1.127525              1
      9249.5000         0.4731        2782.91        118.356         0.4259       -48.1324       1.056747              1
      9250.0000         0.4862       2689.422       119.2122         0.4317       -48.1979      0.9857712              1
      9250.5000          0.506       2565.707       120.5265         0.4349       -48.2632      0.9149933              1
      9251.0000         0.5289       1976.479       121.6688         0.4378       -48.3287      0.8440132              1
      9251.5000         0.5478       1954.002       122.7144         0.4407       -48.3716       0.795639              1
      9252.0000         0.5521       1936.424       123.3823         0.4437       -48.4115      0.7502632              1
      9252.5000         0.5563       1919.568       123.5627         0.4466       -48.4514      0.7048836              1
      9253.0000         0.5606       1903.531       122.4598         0.4495       -48.4913      0.6595078              1
      9253.5000         0.5608        1974.25        120.775         0.4507       -48.5313      0.6140327              1
      9254.0000          0.559       1996.197       119.1804         0.4499       -48.5674      0.5724525              1
      9254.5000         0.5571       2033.342       119.8455         0.4492       -48.4988      0.6355782              1
      9255.0000         0.5553       2073.719       122.5125         0.4484       -48.4304      0.6984978              1
      9255.5000         0.5535       2120.758       125.7531         0.4476        -48.362       0.761425              1
      9256.0000         0.5516       2156.859       126.7437         0.4468       -48.2936      0.8243484              1
      9256.5000         0.5498       2188.012       125.8199          0.446       -48.2979      0.8145676              1
      9257.0000         0.5444       2208.551       124.7183         0.4424       -48.4408      0.6661911              1
      9257.5000         0.5348       2229.113       124.4656         0.4372       -48.5837      0.5178146              1
      9258.0000         0.5252       2256.859       125.0002         0.4319       -48.7263      0.3697395              1
      9258.5000         0.5156       2286.297       125.7172         0.4266       -48.8693      0.2212601              1
      9259.0000          0.506       2369.887       126.1868         0.4214       -48.9935     0.09158325              1
      9259.5000         0.4964       2422.645       125.9824         0.4161        -48.942      0.1376038              1
