#------------------------------------------------------------------------------
# Created by    : vladimir.rabinovich
# Created on    : 09/19/2023 17:21:45
#------------------------------------------------------------------------------
~Version Information Section
VERS.           2.0     :   CWLS log ASCII Standard - VERSION 2.0
WRAP.           NO      :   One line per depth step
~Well Information Section
#MNEM       .UNIT                                         VALUE :DESCRIPTION
#------------------------------------------------------------------------------
STRT        .FT                                            4296 :START DEPTH
STOP        .FT                                         10848.5 :STOP DEPTH
STEP        .FT                                             0.5 :STEP      
NULL        .                                           -999.25 :NULL      
COMP        .                                 CHEVRON U S A INC :COMPANY   
WELL        .                               OCS G07271 ST00BP00 :WELL      
FLD         .                                           WILDCAT :FIELD     
LOC         .                                                   :LOCATION  
CNTY        .                           HIGH ISLAND LARGE BLOCK :LOCATION  
STAT        .                                             TEXAS :STATE     
CTRY        .                                     UNITED STATES :COUNTRY   
SRVC        .                                                   :SERVICE COMPANY
DATE        .                             9/13/2023 11:19:59 AM :LOG DATE  
API         .                                    42708403180000 :API NUMBER
UWI         .                                    42708403180000 :UNIQUE WELL ID
XCOORD      .                                  1325118.04890174 :SURFACE X 
YCOORD      .                                  10672078.9744079 :SURFACE Y 
LAT         .                                          29.40291 :LATITUDE  
LON         .                                        -93.990507 :LONGITUDE 
ELEV        .FT                                              89 :ELEVATION VALUE
ELEV_TYPE   .                                                KB :ELEVATION REFERENCE TYPE
~Curve Information Section
#MNEM       .UNIT                                      API CODE :CURVE DESCRIPTION
#------------------------------------------------------------------------------
DEPT        .FT                                                 :DEPTH     
CALI        .IN                                                 :          
DRHO        .G/C3                                               :          
DTLN        .US/F                                               :          
GR          .GAPI                                               :          
GR_1        .GAPI                                               :          
GR_NORM     .GAPI                                               :GammaRay Normalized
ILD         .OHMM                                               :          
ILM         .OHMM                                               :          
NPHI        .%                                                  :          
RHOB        .G/C3                                               :          
SFL         .OHMM                                               :          
SP          .MV                                                 :          
SP_NORM     .MV                                                 :SP Normalized
VSH_GR      .V/V                                                :Volume of Shale from GR
VSH_SP      .V/V                                                :Volume of Shale from SP
~A        DEPTH           CALI           DRHO           DTLN             GR           GR_1        GR_NORM            ILD            ILM           NPHI           RHOB            SFL             SP        SP_NORM         VSH_GR         VSH_SP
# ...
      8716.0000        16.6764        -0.0085       102.1802        48.7083        56.7276       71.17646         0.5333         0.6594        38.2584         2.3204         0.5623       -50.8171      -16.18964      0.8122651      0.7687194
      8716.5000        16.5469        -0.0154        96.3564        44.9727        58.2538       73.06065          0.511         0.6556        39.1873         2.3053         0.5948       -56.3905       -21.7641      0.8523543      0.6890843
      8717.0000        16.0829        -0.0217        92.1499        41.4063        61.5471       77.12646         0.4981         0.6546        39.9608         2.2943         0.7103       -61.5014      -26.87605      0.9388608      0.6160564
      8717.5000        15.7152        -0.0283        88.9008        39.0411        64.0686       80.23943         0.4933         0.6553          39.54         2.2853         0.9251       -67.7164      -33.09211              1      0.5272556
      8718.0000        15.5668        -0.0356         86.847        37.2082        64.6818       80.99647         0.4951         0.6587        37.9709         2.2794         1.1534       -72.9468      -38.32356              1      0.4525205
      8718.5000        15.5064        -0.0427        85.8538        35.8478        60.8344       76.24659          0.502         0.6668        32.0977         2.2785         1.3596       -77.1399      -42.51772      0.9201402       0.392604
      8719.0000         15.476        -0.0491        85.2975        34.1491        53.7563       67.50819         0.5127          0.677          29.65         2.2859         1.4988       -80.1729      -45.55177      0.7342169      0.3492604
      8719.5000        15.4498        -0.0529        85.2659        32.0998        48.6443       61.19707           0.53         0.6967         27.072         2.3056         1.5825       -82.2321      -47.61203      0.5999377      0.3198282
      8720.0000        15.4241        -0.0494        85.6689        30.1624        44.9971       56.69436         0.5483           0.72        24.0346         2.3502          1.616       -83.1344      -48.51538      0.5041354      0.3069231
      8720.5000         15.364        -0.0464        86.7355         28.899         39.417       49.80535         0.5699         0.7435        22.9871         2.3877         1.5963       -83.0109      -48.39294      0.3575607      0.3086723
      8721.0000        15.3023        -0.0451        88.8263        29.0793        38.5999       48.79659         0.5924         0.7555          22.45         2.3953         1.5083       -82.3458       -47.7289      0.3360976      0.3181586
      8721.5000        15.2552        -0.0452         92.021        31.6721         38.053        48.1214         0.6167         0.7563        22.2905         2.3926         1.3472       -80.8424      -46.22655       0.321732      0.3396207
      8722.0000        15.2091        -0.0446         96.173        34.9301        37.7073       47.69461         0.6421         0.7549        22.3788         2.3893         1.1121       -77.6771      -43.06231      0.3126512      0.3848242
      8722.5000        15.2366        -0.0421        98.8094        38.0737        37.7059       47.69288         0.6653         0.7517        22.7989         2.3869         0.9031       -71.3501      -36.73636      0.3126144      0.4751949
      8723.0000        15.3146        -0.0369        99.3577        40.7547        38.9439       49.22128         0.6914         0.7489        23.9664         2.3852         0.7635       -63.1876      -28.57491      0.3451336       0.591787
      8723.5000        15.5407        -0.0291        97.6611        42.5802        41.8857       52.85313         0.7153         0.7471        26.5149         2.3836         0.6865       -57.8082      -23.19657       0.422407      0.6686204
      8724.0000        15.8076        -0.0194        96.5946        44.0202        46.1473       58.11436         0.7436          0.746        31.4902         2.3808         0.7038       -52.9659      -18.35533      0.5343482       0.737781
      8724.5000        16.1881        -0.0103         97.795        44.9877        50.6793       63.70943         0.7602         0.7468         32.705         2.3754         0.7415       -49.4256      -14.81608      0.6533921      0.7883418
      8725.0000        16.3491        -0.0063        99.6702        45.4885        53.4908       67.18041         0.7667         0.7494        32.7712         2.3673         0.7635       -46.7657      -12.15724      0.7272428      0.8263252
      8725.5000        16.3802        -0.0035       101.9917        45.6085        55.7052       69.91425         0.7661         0.7466        32.7107         2.3598           0.75       -45.4357      -10.82829      0.7854095      0.8453101
      8726.0000        16.3257        -0.0026       103.5924        45.3971        56.9181       71.41165         0.7627         0.7419        32.6896         2.3556         0.7127       -44.4901      -9.883747      0.8172692      0.8588036
      8726.5000        16.1844        -0.0041       103.0234        44.8981        57.6357       72.29758         0.7569         0.7365        33.3289         2.3392         0.6851       -43.9062      -9.300903      0.8361188        0.86713
      8727.0000        16.0165        -0.0062       101.5848        44.1818        58.2919        73.1077         0.7505          0.731         34.412         2.2888         0.6756        -43.543      -8.938755      0.8533552      0.8723035
      8727.5000        15.8079        -0.0082        100.464         43.304        58.7921       73.72523         0.7463         0.7266        35.9055         2.2586         0.6844       -43.2505      -8.647312      0.8664942       0.876467
      8728.0000        15.8101        -0.0097       100.6387        42.4596        59.1287       74.14079         0.7447         0.7254        38.2939          2.243         0.7059       -42.9955      -8.393368      0.8753359      0.8800948
      8728.5000        15.9406         -0.009       101.6172        41.6824        59.0436       74.03573         0.7456         0.7259        40.4156         2.2415         0.7338       -42.7376       -8.13652      0.8731006       0.883764
      8729.0000        16.0701        -0.0065       102.6415        41.8938        58.7318       73.65079         0.7465         0.7273         41.495         2.2509         0.7532       -42.5374      -7.937378      0.8649104      0.8866089
      8729.5000        16.2294        -0.0018       102.3848        43.4283        57.9442       72.67844         0.7464         0.7304        41.3868         2.2574         0.7516        -42.415      -7.816032      0.8442221      0.8883424
      8730.0000        16.4519        -0.0006       100.8656        45.0548        54.4543       68.36992         0.7485         0.7356        40.9342         2.2636         0.7503        -42.374      -7.776089      0.7525514       0.888913
      8730.5000        16.5352        -0.0025        99.1542        45.2637        49.4456       62.18633         0.7497         0.7417        40.9875         2.2674         0.7557       -42.3417      -7.744846      0.6209858      0.8893594
      8731.0000        16.5386        -0.0056        99.3923        44.6992        47.5679       59.86819         0.7499         0.7442        41.3131         2.2711          0.762       -42.2711      -7.675297      0.5716636      0.8903529
      8731.5000        16.4839        -0.0099       100.0558        43.7404        48.4391       60.94374         0.7497         0.7449        41.4724         2.2731         0.7692       -42.2228      -7.628056      0.5945477      0.8910277
      8732.0000        16.4202        -0.0138       100.8011        42.8451        50.1705       63.08128         0.7501         0.7429        40.9319         2.2683         0.7755       -42.2028      -7.609108      0.6400273      0.8912985
      8732.5000        16.3611        -0.0171       101.6866        42.6647        51.9966       65.33572         0.7513         0.7338        40.3679         2.2606         0.7791       -42.3378      -7.745163      0.6879941      0.8893548
