#------------------------------------------------------------------------------
# Created by    : vladimir.rabinovich
# Created on    : 09/19/2023 17:22:45
#------------------------------------------------------------------------------
~Version Information Section
VERS.           2.0     :   CWLS log ASCII Standard - VERSION 2.0
WRAP.           NO      :   One line per depth step
~Well Information Section
#MNEM       .UNIT                                         VALUE :DESCRIPTION
#------------------------------------------------------------------------------
STRT        .FT                                             270 :START DEPTH
STOP        .FT                                            9392 :STOP DEPTH
STEP        .FT                                             0.5 :STEP      
NULL        .                                           -999.25 :NULL      
COMP        .                                     TALOS ERT LLC :COMPANY   
WELL        .                               OCS G12363 ST00BP00 :WELL      
FLD         .                                 BRAZOS BLOCK 0453 :FIELD     
LOC         .                                                   :LOCATION  
CNTY        .                                BRAZOS LARGE BLOCK :LOCATION  
STAT        .                                             TEXAS :STATE     
CTRY        .                                     UNITED STATES :COUNTRY   
SRVC        .                                                   :SERVICE COMPANY
DATE        .                             9/13/2023 11:19:08 AM :LOG DATE  
API         .                                    42704401340000 :API NUMBER
UWI         .                                    42704401340000 :UNIQUE WELL ID
XCOORD      .                                  788791.944469438 :SURFACE X 
YCOORD      .                                  10354739.7167093 :SURFACE Y 
LAT         .                                         28.507622 :LATITUDE  
LON         .                                        -95.652007 :LONGITUDE 
ELEV        .FT                                             100 :ELEVATION VALUE
ELEV_TYPE   .                                                KB :ELEVATION REFERENCE TYPE
~Curve Information Section
#MNEM       .UNIT                                      API CODE :CURVE DESCRIPTION
#------------------------------------------------------------------------------
DEPT        .FT                                                 :DEPTH     
DPHI        .%                                                  :          
DT          .US/F                                               :          
GR          .GAPI                                               :          
GR_NORM     .GAPI                                               :GammaRay Normalized
ILD         .OHMM                                               :          
ILM         .OHMM                                               :          
LL          .OHMM                                               :          
NPHI        .%                                                  :          
SP          .MV                                                 :          
SP_NORM     .MV                                                 :SP Normalized
VSH_GR      .V/V                                                :Volume of Shale from GR
VSH_SP      .V/V                                                :Volume of Shale from SP
~A        DEPTH           DPHI             DT             GR        GR_NORM            ILD            ILM             LL           NPHI             SP        SP_NORM         VSH_GR         VSH_SP
# ...
      3345.0000        39.5868       134.9795        36.6896       41.53003         0.4753         0.4962         0.6404        44.9921       -55.0547       -20.2721      0.1814899      0.2629964
      3345.5000        34.8371       131.2268        36.6647        41.4965         0.4761         0.4956         0.6395        42.8773       -55.0818       -20.2992      0.1807766      0.2618892
      3346.0000        30.8476       128.1467        36.5232       41.31636         0.4733         0.4923         0.6383        41.5926       -54.7719       -19.9893      0.1769438      0.2728179
      3346.5000        28.0146        125.834        35.4471       39.96098         0.4674          0.485         0.6362        39.6752       -54.4069       -19.6243      0.1481059      0.2857108
      3347.0000        27.4471       125.7124        33.5551        37.5796         0.4571         0.4766         0.6326        37.5751       -54.2515       -19.4689     0.09743833      0.2911214
      3347.5000        27.5464       125.6089        32.8478       36.68798         0.4456          0.466         0.6268        37.2683       -54.4049       -19.6223     0.07846767      0.2855036
      3348.0000        28.0131       125.5674        32.9946       36.87037          0.434         0.4436         0.6192        36.9482       -54.7935       -20.0109     0.08234827      0.2714857
      3348.5000        27.8964       125.8796        33.4827       37.48194         0.4216         0.4331         0.6061        36.9497       -55.5459       -20.7633     0.09536045       0.244475
      3349.0000         27.414       126.4163        33.5936       37.61918          0.407         0.4267         0.5936        38.3574       -56.2608       -21.4782      0.0982804         0.2188
      3349.5000        27.1776       127.0446        33.6354       37.66953         0.3933         0.4215         0.5815        39.1407       -56.9183       -22.1357     0.09935176      0.1951786
      3350.0000        27.0787       127.4102         33.826         37.907         0.3803         0.4167         0.5725        39.0251       -57.3013       -22.5187      0.1044043      0.1813607
      3350.5000        27.4238       127.5214        34.4211       38.65313         0.3701         0.4126          0.565        38.3828       -57.5084       -22.7258      0.1202793       0.173825
      3351.0000        27.9534       127.4764        35.1434       39.55919         0.3613         0.4105         0.5598        38.7599       -57.7112       -22.9286      0.1395572      0.1664393
      3351.5000        28.8079       128.0063        35.5974       40.12788          0.356         0.4088         0.5547        40.6652       -57.9763       -23.1937       0.151657      0.1568321
      3352.0000        29.3429       129.1609        35.3491       39.81344         0.3536         0.4067         0.5497        41.4238        -58.234       -23.4514      0.1449668      0.1474893
      3352.5000        29.6913       130.2671        34.8569        39.1923         0.3561          0.404         0.5509        40.9716       -58.4885       -23.7059       0.131751      0.1382607
      3353.0000        29.9323       131.0427        34.6879       38.97757         0.3585          0.401         0.5541        38.3448       -58.2816        -23.499      0.1271824      0.1455107
      3353.5000        29.6611       131.1941        34.6577       38.93739         0.3607         0.3988         0.5587        35.7372       -58.0428       -23.2602      0.1263274      0.1538964
      3354.0000        29.9449        131.198        34.9473       39.29935         0.3618         0.3966         0.5597        36.7493       -57.7537       -22.9711      0.1340287      0.1640821
      3354.5000        30.8896       130.3152        34.2134       38.37428         0.3621         0.3932         0.5579        39.7725       -57.5508       -22.7682      0.1143464      0.1711893
      3355.0000        31.6148        129.437         33.538       37.52275         0.3586         0.3864         0.5609        42.1775       -57.7445       -22.9619     0.09622882      0.1641321
      3355.5000        31.6746       128.9331        33.1852       37.07691         0.3553         0.3813         0.5659         43.478       -57.7804       -22.9978     0.08674273      0.1627071
      3356.0000        31.4729       128.6943        32.9117       36.73078         0.3522         0.3761         0.5617        42.0736       -57.7289       -22.9463     0.07937833      0.1644071
      3356.5000        31.3735       128.7229        32.9931       36.83093          0.349         0.3701         0.5476        39.6354       -57.5284       -22.7458      0.0815092      0.1714285
      3357.0000        31.3313       128.8452        33.6961       37.71273         0.3456         0.3645         0.5301        39.8712       -57.5262       -22.7436      0.1002708      0.1713679
      3357.5000        31.3466       128.9905        33.5265       37.49725         0.3433         0.3612         0.5155        41.1544       -57.6078       -22.8252     0.09568624      0.1683142
      3358.0000         31.571       129.2153        32.7084        36.4663         0.3414         0.3617         0.5084         42.593       -57.5568       -22.7742     0.07375108      0.1699928
      3358.5000        31.7842       129.4402        32.7394       36.50307         0.3415         0.3641          0.514         42.421       -57.3832       -22.6006     0.07453343      0.1760536
      3359.0000        31.9307       129.6411        33.9645        38.0414         0.3427         0.3669         0.5229        41.8085       -57.3576        -22.575      0.1072638      0.1768286
      3359.5000        32.0607       129.7688        34.7634        39.0438         0.3439         0.3675         0.5333        41.9285       -57.4194       -22.6368      0.1285915      0.1744821
      3360.0000        32.1606       129.8962        34.3035       38.46328         0.3448         0.3668         0.5428        41.9297       -57.4087       -22.6261      0.1162399       0.174725
      3360.5000        32.1481       129.9812        33.0654       36.90418         0.3454         0.3635         0.5497        42.0513       -57.3988       -22.6162     0.08306763      0.1749357
      3361.0000        31.7672       129.8081        32.2469       35.87271         0.3436         0.3591         0.5531        42.2894         -57.49       -22.7074     0.06112159      0.1715393
      3361.5000        31.1853       129.6348        32.7256       36.47247         0.3418         0.3529         0.5501        42.6636        -57.593       -22.8104     0.07388224      0.1677214
      3362.0000        30.7183       128.9658        32.7936       36.55576         0.3394         0.3488         0.5391        42.7523         -57.55       -22.7674     0.07565445      0.1691179
      3362.5000        30.5256       128.5051        31.6203       35.07815          0.337         0.3464         0.5217        42.5344        -57.501       -22.7184     0.04421599       0.170725
      3363.0000          30.68       128.7468         30.789        34.0306          0.336         0.3443         0.5096        42.7524       -57.3814       -22.5988     0.02192761      0.1748571
      3363.5000        30.8511       129.5872        30.5924       33.78117         0.3369         0.3424          0.505        43.1837       -57.2335       -22.4509     0.01662055           0.18
      3364.0000        31.0049       130.4839        30.7072       33.92332         0.3405          0.341          0.514        43.3112       -56.9642       -22.1816     0.01964504      0.1894786
      3364.5000        31.1611       131.3813        31.0009       34.29043         0.3442          0.344         0.5238        41.5735       -57.0193       -22.2367     0.02745592      0.1873715
      3365.0000        31.3625       131.7361        31.9745        35.5125         0.3471          0.347         0.5347        41.1768       -56.9847       -22.2021     0.05345754      0.1884643
