#------------------------------------------------------------------------------
# Created by    : vladimir.rabinovich
# Created on    : 09/19/2023 17:20:54
#------------------------------------------------------------------------------
~Version Information Section
VERS.           2.0     :   CWLS log ASCII Standard - VERSION 2.0
WRAP.           NO      :   One line per depth step
~Well Information Section
#MNEM       .UNIT                                         VALUE :DESCRIPTION
#------------------------------------------------------------------------------
STRT        .FT                                            1092 :START DEPTH
STOP        .FT                                            8058 :STOP DEPTH
STEP        .FT                                             0.5 :STEP      
NULL        .                                           -999.25 :NULL      
COMP        .                                    EXXON CO U S A :COMPANY   
WELL        .                               OCS G03029 ST00BP00 :WELL      
FLD         .                                           WILDCAT :FIELD     
LOC         .                                                   :LOCATION  
CNTY        .                        MUSTANG ISLAND LARGE BLOCK :LOCATION  
STAT        .                                             TEXAS :STATE     
CTRY        .                                     UNITED STATES :COUNTRY   
SRVC        .                                                   :SERVICE COMPANY
DATE        .                             9/13/2023 11:19:13 AM :LOG DATE  
API         .                                    42702400190000 :API NUMBER
UWI         .                                    42702400190000 :UNIQUE WELL ID
XCOORD      .                                  486295.566528254 :SURFACE X 
YCOORD      .                                  10047803.1546112 :SURFACE Y 
LAT         .                                         27.643077 :LATITUDE  
LON         .                                        -96.564717 :LONGITUDE 
ELEV        .FT                                              70 :ELEVATION VALUE
ELEV_TYPE   .                                                KB :ELEVATION REFERENCE TYPE
~Curve Information Section
#MNEM       .UNIT                                      API CODE :CURVE DESCRIPTION
#------------------------------------------------------------------------------
DEPT        .FT                                                 :DEPTH     
ASN         .OHMM                                               :          
CALI        .IN                                                 :          
CIL         .MMHO                                               :          
DRHO        .G/C3                                               :          
DT          .US/F                                               :          
GR          .GAPI                                               :          
GR_NORM     .GAPI                                               :GammaRay Normalized
ILD         .OHMM                                               :          
NPHI        .%                                                  :          
RHOB        .G/C3                                               :          
SN          .OHMM                                               :          
SP          .MV                                                 :          
SP_NORM     .MV                                                 :SP Normalized
VSH_GR      .V/V                                                :Volume of Shale from GR
VSH_SP      .V/V                                                :Volume of Shale from SP
~A        DEPTH            ASN           CALI            CIL           DRHO             DT             GR        GR_NORM            ILD           NPHI           RHOB             SN             SP        SP_NORM         VSH_GR         VSH_SP
# ...
      4407.0000         1.0682        -999.25       914.7568        -999.25        -999.25        62.7943       77.63477         0.9941        -999.25        -999.25         1.1005         -89.49     -0.3604965      0.9496759              1
      4407.5000         1.0749        -999.25       907.4941        -999.25        -999.25        62.7585       77.59595         1.0079        -999.25        -999.25         1.1102       -89.0002      0.1251602      0.9488499              1
      4408.0000         1.0816        -999.25       897.6172        -999.25        -999.25        63.3699       78.20433         1.0221        -999.25        -999.25         1.1181       -88.6436      0.4776154      0.9617943              1
      4408.5000         1.0887        -999.25       887.5645        -999.25        -999.25        63.7809        78.6123         1.0358        -999.25        -999.25         1.1247       -88.3772      0.7398834      0.9704745              1
      4409.0000         1.0957        -999.25       880.2588        -999.25        -999.25        62.7614       77.58979         1.0454        -999.25        -999.25         1.1254       -88.2211      0.8918381       0.948719              1
      4409.5000         1.1028        -999.25       881.4971        -999.25        -999.25         63.448       78.27338         1.0406        -999.25        -999.25         1.1152       -88.1266       0.982193      0.9632633              1
      4410.0000         1.1113        -999.25       889.1377        -999.25        -999.25        64.5237       79.34605         1.0223        -999.25        -999.25         1.0992        -88.259      0.8456497      0.9860862              1
      4410.5000         1.1201        -999.25       899.6445        -999.25        -999.25         65.186       80.00533         0.9962        -999.25        -999.25         1.0805       -88.2136      0.8869095              1              1
      4411.0000         1.1289        -999.25       918.0703        -999.25        -999.25        65.4611       80.27741         0.9683        -999.25        -999.25         1.0642       -88.4484      0.6479721              1              1
      4411.5000         1.1209        -999.25       941.6426        -999.25        -999.25         66.196        81.0093         0.9416        -999.25        -999.25         1.0491       -89.1827    -0.09046936              1              1
      4412.0000         1.1094        -999.25       967.0254        -999.25        -999.25        67.6497       82.45998         0.9159        -999.25        -999.25         1.0373       -90.1797      -1.091614              1              1
      4412.5000         1.0958        -999.25       994.5537        -999.25        -999.25        67.4404       82.24767         0.8923        -999.25        -999.25         1.0281       -90.7522      -1.668251              1              1
      4413.0000          1.077        -999.25       1022.082        -999.25        -999.25        66.3253       81.12955         0.8753        -999.25        -999.25         1.0197       -90.9668      -1.886993              1              1
      4413.5000         1.0599        -999.25       1043.283        -999.25        -999.25        65.2102       80.01142         0.8586        -999.25        -999.25         1.0121       -90.3303      -1.254631              1              1
      4414.0000         1.0444        -999.25       1062.889        -999.25        -999.25        65.9979       80.79611         0.8434        -999.25        -999.25          1.005       -89.6196     -0.5480728              1              1
      4414.5000         1.0314        -999.25       1081.432        -999.25        -999.25        66.7407       81.53589         0.8291        -999.25        -999.25         0.9952       -89.3058     -0.2384186              1              1
      4415.0000         1.0223        -999.25       1097.367        -999.25        -999.25        67.6528       82.44498         0.8188        -999.25        -999.25         0.9852       -89.3174      -0.254158              1              1
      4415.5000         1.0146        -999.25       1113.055        -999.25        -999.25         68.899       83.68816         0.8112        -999.25        -999.25         0.9779       -89.1713     -0.1122055              1              1
      4416.0000          1.009        -999.25       1127.941        -999.25        -999.25        66.5677       81.35384         0.8015        -999.25        -999.25         0.9714       -89.0225     0.03246307              1              1
      4416.5000         1.0034        -999.25       1146.635        -999.25        -999.25        63.6516       78.43472         0.7895        -999.25        -999.25         0.9674        -88.597      0.4538193      0.9666962              1
      4417.0000         0.9994        -999.25        1167.75        -999.25        -999.25        61.2603       75.47663         0.7792        -999.25        -999.25         0.9639        -88.608      0.4386749      0.9037581              1
      4417.5000         0.9955        -999.25       1185.133        -999.25        -999.25        60.5978       74.13259         0.7696        -999.25        -999.25         0.9633       -89.5544     -0.5118637      0.8751615              1
      4418.0000         0.9912        -999.25         1192.9        -999.25        -999.25        62.6721       75.52534         0.7574        -999.25        -999.25         0.9642       -90.4324      -1.394012      0.9047946              1
      4418.5000         0.9867        -999.25       1184.904        -999.25        -999.25        65.8542       78.02591         0.7482        -999.25        -999.25         0.9679       -90.8413      -1.807045      0.9579981              1
      4419.0000         0.9821        -999.25       1176.123        -999.25        -999.25         63.914       75.40417         0.7535        -999.25        -999.25         0.9759       -91.0829      -2.052788      0.9022163      0.9988269
      4419.5000           0.98        -999.25       1159.875        -999.25        -999.25        62.5022       73.31084         0.7689        -999.25        -999.25         0.9904       -91.6166       -2.59063      0.8576774      0.9868749
      4420.0000         0.9784        -999.25       1143.627        -999.25        -999.25        63.6741       73.80119          0.786        -999.25        -999.25         1.0099       -92.3925      -3.370674      0.8681105      0.9695406
      4420.5000         0.9788        -999.25       1121.553        -999.25        -999.25        66.0129       75.45845         0.8051        -999.25        -999.25         1.0311          -93.5      -4.482307      0.9033713      0.9448376
      4421.0000         0.9827        -999.25       1097.867        -999.25        -999.25        69.7412       78.50521         0.8254        -999.25        -999.25          1.046       -94.3152      -5.301651       0.968196        0.92663
      4421.5000         0.9867        -999.25       1074.369        -999.25        -999.25        72.7947       80.87717         0.8475        -999.25        -999.25         1.0554       -94.1923      -5.182892              1      0.9292691
      4422.0000         0.9945        -999.25       1051.096        -999.25        -999.25        76.4679       83.86883         0.8699        -999.25        -999.25         1.0583       -93.7299      -4.724632              1      0.9394526
      4422.5000         1.0046        -999.25       1035.328        -999.25        -999.25        80.7134       87.99288          0.889        -999.25        -999.25         1.0566       -92.9884      -3.987282              1      0.9558382
      4423.0000         1.0148        -999.25       1026.143        -999.25        -999.25        83.8969       91.12082         0.8987        -999.25        -999.25         1.0463       -91.4666      -2.469612              1      0.9895642
      4423.5000         1.0249        -999.25       1028.021        -999.25        -999.25        83.4983       90.66666         0.8983        -999.25        -999.25         1.0318       -90.2147      -1.221855              1              1
