#------------------------------------------------------------------------------
# Created by    : vladimir.rabinovich
# Created on    : 09/19/2023 17:20:37
#------------------------------------------------------------------------------
~Version Information Section
VERS.           2.0     :   CWLS log ASCII Standard - VERSION 2.0
WRAP.           NO      :   One line per depth step
~Well Information Section
#MNEM       .UNIT                                         VALUE :DESCRIPTION
#------------------------------------------------------------------------------
STRT        .FT                                             254 :START DEPTH
STOP        .FT                                            9030 :STOP DEPTH
STEP        .FT                                             0.5 :STEP      
NULL        .                                           -999.25 :NULL      
COMP        .                                    MOBIL OIL CORP :COMPANY   
WELL        .                                OCS 00724 ST00BP00 :WELL      
FLD         .                                           WILDCAT :FIELD     
LOC         .                                                   :LOCATION  
CNTY        .                             GALVESTON LARGE BLOCK :LOCATION  
STAT        .                                             TEXAS :STATE     
CTRY        .                                     UNITED STATES :COUNTRY   
SRVC        .                                                   :SERVICE COMPANY
DATE        .                             9/13/2023 11:19:25 AM :LOG DATE  
API         .                                    42706000340000 :API NUMBER
UWI         .                                    42706000340000 :UNIQUE WELL ID
XCOORD      .                                  1011870.95166473 :SURFACE X 
YCOORD      .                                   10400634.765487 :SURFACE Y 
LAT         .                                         28.645607 :LATITUDE  
LON         .                                        -94.960058 :LONGITUDE 
ELEV        .FT                                              34 :ELEVATION VALUE
ELEV_TYPE   .                                                KB :ELEVATION REFERENCE TYPE
~Curve Information Section
#MNEM       .UNIT                                      API CODE :CURVE DESCRIPTION
#------------------------------------------------------------------------------
DEPT        .FT                                                 :DEPTH     
ASN         .OHMM                                               :          
CALI        .IN                                                 :          
CILD        .MMHO                                               :          
DT          .US/F                                               :          
ILD         .OHMM                                               :          
SP          .MV                                                 :          
SP_NORM     .MV                                                 :SP Normalized
VSH_SP      .V/V                                                :Volume of Shale from SP
~A        DEPTH            ASN           CALI           CILD             DT            ILD             SP        SP_NORM         VSH_SP
# ...
       844.0000          0.985        -999.25       1104.887        -999.25          0.851       -65.9808      -3.381142      0.8744417
       844.5000          0.977        -999.25       1105.936        -999.25         0.8553       -65.7935      -3.192059      0.8916311
       845.0000         0.9653        -999.25        1098.82        -999.25         0.8623       -66.3586      -3.755367      0.8404211
       845.5000         0.9865        -999.25       1091.705        -999.25         0.8694       -67.5078      -4.902779       0.736111
       846.0000         1.0289        -999.25        1084.59        -999.25         0.8765       -68.4385      -5.831696       0.651664
       846.5000         1.0155        -999.25       1075.865        -999.25         0.8836       -68.8695      -6.260906      0.6126449
       847.0000          1.002        -999.25        1067.02        -999.25         0.8906       -69.3004      -6.690022      0.5736344
       847.5000         1.0057        -999.25       1058.174        -999.25         0.8977       -69.7314      -7.119236      0.5346149
       848.0000         1.0261        -999.25       1048.486        -999.25         0.9048       -70.0708      -7.456848      0.5039229
       848.5000         1.0465        -999.25       1038.123        -999.25         0.9164       -69.7371      -7.121361      0.5344217
       849.0000         1.0653        -999.25       1027.764        -999.25         0.9309       -69.5021      -6.884571      0.5559481
       849.5000          1.074        -999.25       1016.273        -999.25         0.9454       -69.2672      -6.647884      0.5774651
       850.0000         1.0745        -999.25        999.708        -999.25           0.96       -69.0322      -6.411102      0.5989907
       850.5000         1.0751        -999.25       971.7852        -999.25         0.9983       -68.7972      -6.174316      0.6205167
       851.0000         1.0849        -999.25       947.5645        -999.25         1.0383       -68.5623      -5.937626       0.642034
       851.5000         1.1154        -999.25       926.4775        -999.25         1.1107       -68.3921      -5.765636      0.6576694
       852.0000         1.1218        -999.25       903.4326        -999.25         1.2283        -68.226      -5.597748       0.672932
       852.5000         1.1623        -999.25       883.7676        -999.25         1.4063       -68.0597      -5.429665      0.6882123
       853.0000         1.2199        -999.25       787.3242        -999.25         1.5061       -67.8936      -5.261776      0.7034749
       853.5000         1.2907        -999.25       675.7363        -999.25         1.5712       -67.7112      -5.077587      0.7202194
       854.0000         1.3464        -999.25       636.5205        -999.25         1.6559       -67.2294      -4.594002      0.7641817
       854.5000         1.3694        -999.25       600.6182        -999.25         1.7308       -67.3052      -4.668015      0.7574532
       855.0000         1.4026        -999.25       570.7002        -999.25          1.724       -67.8013      -5.162331      0.7125154
       855.5000         1.3998        -999.25        543.791        -999.25         1.6127       -68.2717      -5.630939      0.6699146
       856.0000         1.3764        -999.25       540.9551        -999.25         1.4378       -68.7305      -6.087955      0.6283677
       856.5000         1.3518        -999.25       591.7637        -999.25         1.1228       -69.1891      -6.544769      0.5868391
       857.0000          1.311        -999.25       699.6055        -999.25         1.0438        -69.546      -6.899879      0.5545564
       857.5000         1.2663        -999.25       766.5898        -999.25         1.0415       -69.7821       -7.13419      0.5332555
       858.0000         1.2252        -999.25       810.0127        -999.25          1.043       -70.0182      -7.368511      0.5119535
       858.5000         1.1828        -999.25       855.3428        -999.25         1.0444       -70.2489       -7.59742      0.4911437
       859.0000          1.141        -999.25       896.8437        -999.25         1.0459       -70.4752       -7.82193      0.4707336
       859.5000         1.1326        -999.25       907.0049        -999.25         1.0705       -70.7014      -8.046345      0.4503323
       860.0000         1.1247        -999.25       904.4619        -999.25         1.1135       -70.4606      -7.803761      0.4723854
       860.5000         1.1191        -999.25       901.9199        -999.25         1.1624       -70.1122      -7.453568      0.5042211
       861.0000         1.1134        -999.25       888.9482        -999.25         1.1871       -69.7639      -7.103485      0.5360468
       861.5000         1.1078        -999.25       870.7207        -999.25         1.1987       -69.4155      -6.753292      0.5678825
       862.0000         1.0964        -999.25       846.9648        -999.25         1.1361       -69.0671      -6.403111      0.5997172
       862.5000         1.0822        -999.25       823.4707        -999.25         1.0613       -68.7338      -6.068027      0.6301793
       863.0000          1.065        -999.25       806.9902        -999.25          0.994       -68.4641      -5.796539      0.6548601
       863.5000         1.0452        -999.25        801.791        -999.25         0.9418       -68.1945      -5.525154      0.6795315
       864.0000         1.0212        -999.25       824.9131        -999.25         0.9258       -67.9248      -5.253658      0.7042129
       864.5000         0.9733        -999.25        875.123        -999.25          0.925       -67.6552      -4.982273      0.7288843
       865.0000         0.9643        -999.25       921.0674        -999.25         0.9258       -67.4974      -4.822685      0.7433922
       865.5000         0.9558        -999.25       948.0723        -999.25         0.9265       -67.4789      -4.802399      0.7452365
       866.0000         0.9474        -999.25       969.9736        -999.25         0.9225       -67.4603      -4.782009      0.7470901
       866.5000         0.9528        -999.25       990.5811        -999.25         0.9077       -67.4517      -4.771626      0.7480341
       867.0000         0.9705        -999.25       1001.198        -999.25         0.8929       -67.6718      -4.989937      0.7281876
       867.5000         0.9856        -999.25       1005.181        -999.25          0.878       -67.8918      -5.208153      0.7083498
       868.0000         0.9891        -999.25       1027.625        -999.25         0.8632       -68.6404      -5.954967      0.6404575
       868.5000         0.9644        -999.25       1066.334        -999.25         0.8484       -69.4489      -6.761677      0.5671203
       869.0000         0.9396        -999.25       1128.709        -999.25         0.8329       -70.2574       -7.56839      0.4937827
       869.5000         0.9144        -999.25       1154.951        -999.25         0.8168       -71.0566      -8.365807      0.4212903
       870.0000          0.902        -999.25           1181        -999.25         0.8008       -71.3936      -8.701019      0.3908164
       870.5000         0.8959        -999.25       1201.883        -999.25         0.7848       -70.8146      -8.120228      0.4436156
       871.0000         0.8925        -999.25        1221.17        -999.25         0.7713       -70.2356      -7.539448      0.4964138
       871.5000          0.889        -999.25       1239.537        -999.25          0.761       -69.6565      -6.958557      0.5492221
       872.0000         0.8765        -999.25       1257.129        -999.25         0.7507        -69.114      -6.414268      0.5987028
       872.5000         0.8621        -999.25       1270.094        -999.25         0.7404       -68.6764       -5.97488      0.6386473
       873.0000         0.8507        -999.25       1281.326        -999.25         0.7396       -68.2388      -5.535496      0.6785913
