#------------------------------------------------------------------------------
# Created by    : vladimir.rabinovich
# Created on    : 09/19/2023 17:19:40
#------------------------------------------------------------------------------
~Version Information Section
VERS.           2.0     :   CWLS log ASCII Standard - VERSION 2.0
WRAP.           NO      :   One line per depth step
~Well Information Section
#MNEM       .UNIT                                         VALUE :DESCRIPTION
#------------------------------------------------------------------------------
STRT        .FT                                            4790 :START DEPTH
STOP        .FT                                           12963 :STOP DEPTH
STEP        .FT                                             0.5 :STEP      
NULL        .                                           -999.25 :NULL      
COMP        .                         ATLANTIC RICHFIELD CO THE :COMPANY   
WELL        .                               OCS G06150 ST00BP00 :WELL      
FLD         .                                           WILDCAT :FIELD     
LOC         .                                                   :LOCATION  
CNTY        .                           HIGH ISLAND LARGE BLOCK :LOCATION  
STAT        .                                             TEXAS :STATE     
CTRY        .                                     UNITED STATES :COUNTRY   
SRVC        .                                                   :SERVICE COMPANY
DATE        .                             9/13/2023 11:19:59 AM :LOG DATE  
API         .                                    42708402440000 :API NUMBER
UWI         .                                    42708402440000 :UNIQUE WELL ID
XCOORD      .                                  1291497.32246636 :SURFACE X 
YCOORD      .                                   10652058.279547 :SURFACE Y 
LAT         .                                         29.347015 :LATITUDE  
LON         .                                        -94.095521 :LONGITUDE 
ELEV        .FT                                             105 :ELEVATION VALUE
ELEV_TYPE   .                                                KB :ELEVATION REFERENCE TYPE
~Curve Information Section
#MNEM       .UNIT                                      API CODE :CURVE DESCRIPTION
#------------------------------------------------------------------------------
DEPT        .FT                                                 :DEPTH     
ALL         .OHMM                                               :          
CILD        .MMHO                                               :          
GR          .GAPI                                               :          
GR_NORM     .GAPI                                               :GammaRay Normalized
ILD         .OHMM                                               :          
SP          .MV                                                 :          
SP_NORM     .MV                                                 :SP Normalized
VSH_GR      .V/V                                                :Volume of Shale from GR
VSH_SP      .V/V                                                :Volume of Shale from SP
~A        DEPTH            ALL           CILD             GR        GR_NORM            ILD             SP        SP_NORM         VSH_GR         VSH_SP
# ...
     12925.5000         0.4374       2358.117        54.1308       67.30636         0.4289       -41.9965      -3.341038        0.77969      0.9485994
     12926.0000         0.4371       2367.504        52.9333       65.80949         0.4307         -41.95       -3.29454      0.7456701      0.9493148
     12926.5000         0.4368       2376.891        52.5464       65.32586         0.4324       -41.9035      -3.248039      0.7346786      0.9500301
     12927.0000         0.4364       2386.277        52.1596       64.84236         0.4341       -41.8571      -3.201641        0.72369       0.950744
     12927.5000         0.4361       2395.691        51.9189       64.54148         0.4358       -41.8107      -3.155239      0.7168518      0.9514579
     12928.0000         0.4358       2405.078        51.6824       64.24586         0.4375       -41.7642      -3.108738      0.7101331      0.9521732
     12928.5000         0.4355        2388.07        51.4454       63.94961         0.4392       -41.7178       -3.06234      0.7034002      0.9528871
     12929.0000         0.4352        2363.27        51.2821       63.74548         0.4409       -41.6723      -3.016838       0.698761      0.9535871
     12929.5000         0.4348       2338.469        51.5271       64.05173         0.4426       -41.6306       -2.97514      0.7057213      0.9542286
     12930.0000         0.4373       2313.668        51.7715       64.35723         0.4443       -41.5888      -2.933338      0.7126644      0.9548717
     12930.5000         0.4423       2288.871        52.0165       64.66348          0.446       -41.5471       -2.89164      0.7196246      0.9555132
     12931.0000         0.4473        2258.59        52.2609       64.96898         0.4477       -41.5053      -2.849838      0.7265677      0.9561563
     12931.5000         0.4524       2228.016        52.5059       65.27524         0.4494       -41.5045      -2.849041      0.7335281      0.9561686
     12932.0000         0.4574       2197.488        52.7952       65.63686         0.4512       -41.5441      -2.888641      0.7417467      0.9555594
     12932.5000         0.4625        2166.91        53.1249       66.04898         0.4529       -41.5837      -2.928238      0.7511132      0.9549502
     12933.0000         0.4675       2136.332        53.4547       66.46124         0.4546       -41.6233      -2.967838      0.7604828      0.9543409
     12933.5000         0.4722       2105.754        53.7845       66.87348         0.4563       -41.6629      -3.007439      0.7698519      0.9537317
     12934.0000         0.4764       2075.227        54.1143       67.28573          0.458       -41.7025      -3.047039      0.7792211      0.9531225
     12934.5000         0.4805        2044.65        53.8287       66.92873         0.4611       -41.7537       -3.09824      0.7711074      0.9523348
     12935.0000         0.4847       2027.172        52.9911       65.88174         0.4646       -41.8148       -3.15934      0.7473122      0.9513948
     12935.5000         0.4888       2010.836         52.151       64.83161         0.4682       -41.8759       -3.22044      0.7234457      0.9504548
     12936.0000          0.493       1994.502        51.3109       63.78149         0.4717        -41.937       -3.28154      0.6995792      0.9495147
     12936.5000         0.4971        2037.48        50.4709       62.73148         0.4753       -41.9387      -3.283241      0.6757155      0.9494886
     12937.0000         0.4977       2081.305        49.6332       61.68436         0.4788       -41.8376       -3.18214      0.6519173       0.951044
     12937.5000         0.4967       2125.125        48.8792       60.74186         0.4824       -41.7145       -3.05904      0.6304968      0.9529378
     12938.0000         0.4957       2168.949        48.4579       60.21523         0.4859       -41.5165      -2.861038       0.618528      0.9559841
     12938.5000         0.4947       2212.875        48.0378       59.69011         0.4895       -41.3184      -2.662941      0.6065934      0.9590317
     12939.0000         0.4937        2273.43        49.1248       61.04886          0.493       -41.1204      -2.464939      0.6374741      0.9620779
     12939.5000         0.4926       2337.473        50.2695       62.47974         0.4966       -40.9224      -2.266941       0.669994       0.965124
     12940.0000         0.4916       2401.617        51.4141       63.91048         0.5001       -40.7243       -2.06884       0.702511      0.9681717
     12940.5000         0.4908       2465.758        53.8582       66.96561         0.5036       -40.5263      -1.870838      0.7719456      0.9712179
     12941.0000         0.4902       2506.992        56.4963       70.26323         0.5072       -40.3282      -1.672741      0.8468916      0.9742655
     12941.5000         0.4897       2421.734        59.1295       73.55473         0.5107       -40.1302      -1.474739      0.9216985      0.9773117
     12942.0000         0.4891       2337.273        61.4065       76.40099         0.5143       -40.1984      -1.542938      0.9863861      0.9762625
     12942.5000         0.4886       2255.402        62.5929       77.88399         0.5178       -40.3362       -1.68074              1      0.9741424
     12943.0000          0.488       2173.531        63.7818       79.37011         0.5214       -40.4738       -1.81834              1      0.9720255
     12943.5000         0.4875        2091.66        64.9681       80.85298         0.5227       -40.6432       -1.98774              1      0.9694194
     12944.0000         0.4869       2009.791        65.9225       82.04598         0.5232        -40.868       -2.21254              1      0.9659609
     12944.5000         0.4863       2005.184         66.582       82.87036         0.5237       -41.0922      -2.436741              1      0.9625117
     12945.0000         0.4858       2005.172        67.2427       83.69623         0.5242       -41.3169      -2.661438              1      0.9590548
     12945.5000         0.4852       2005.158        67.9022       84.52061         0.5247       -41.5411      -2.885639              1      0.9556056
     12946.0000         0.4847       2014.322        66.9897       83.37998         0.5252       -41.5877       -2.93224              1      0.9548886
     12946.5000         0.4841       2041.463          65.85       81.95535         0.5258       -41.4293      -2.773838              1      0.9573256
     12947.0000         0.4859       2068.605        64.7078       80.52761         0.5263       -41.2706      -2.615139              1      0.9597671
     12947.5000         0.4876       2095.746        63.8751       79.48673         0.5268       -41.1121      -2.456638              1      0.9622056
     12948.0000         0.4894       2122.887        63.2168       78.66386         0.5273       -40.9534      -2.297939              1      0.9646471
     12948.5000         0.4912       2150.027        62.5585       77.84097         0.5278       -40.7949      -2.139439              1      0.9670855
     12949.0000         0.4929       2177.168        61.9002       77.01811         0.5283       -40.6365      -1.981041              1      0.9695225
     12949.5000         0.4947       2204.309        61.2432       76.19686         0.5289       -40.4778      -1.822338      0.9817469       0.971964
     12950.0000         0.4964           2231        60.5848       75.37386         0.5294       -40.3193      -1.663841      0.9630422      0.9744024
     12950.5000         0.4982       2249.578        59.9266        74.5511         0.5299       -40.2123      -1.556839      0.9443432      0.9760486
     12951.0000            0.5       2232.148        59.2682        73.7281         0.5304       -40.1193       -1.46384      0.9256387      0.9774794
     12951.5000         0.5017       2214.668        58.6099       72.90524         0.5308       -40.0262      -1.370739      0.9069372      0.9789117
