#------------------------------------------------------------------------------
# Created by    : vladimir.rabinovich
# Created on    : 09/19/2023 17:21:52
#------------------------------------------------------------------------------
~Version Information Section
VERS.           2.0     :   CWLS log ASCII Standard - VERSION 2.0
WRAP.           NO      :   One line per depth step
~Well Information Section
#MNEM       .UNIT                                         VALUE :DESCRIPTION
#------------------------------------------------------------------------------
STRT        .FT                                            1924 :START DEPTH
STOP        .FT                                            6497 :STOP DEPTH
STEP        .FT                                             0.5 :STEP      
NULL        .                                           -999.25 :NULL      
COMP        .                                ATP OIL & GAS CORP :COMPANY   
WELL        .                               OCS G12451 ST00BP00 :WELL      
FLD         .                                           WILDCAT :FIELD     
LOC         .                                                   :LOCATION  
CNTY        .                                BRAZOS LARGE BLOCK :LOCATION  
STAT        .                                             TEXAS :STATE     
CTRY        .                                     UNITED STATES :COUNTRY   
SRVC        .                                                   :SERVICE COMPANY
DATE        .                             9/13/2023 11:09:51 AM :LOG DATE  
API         .                                    42704402900000 :API NUMBER
UWI         .                                    42704402900000 :UNIQUE WELL ID
XCOORD      .                                  861130.254262163 :SURFACE X 
YCOORD      .                                  10349158.9913488 :SURFACE Y 
LAT         .                                        28.4964901 :LATITUDE  
LON         .                                       -95.4265639 :LONGITUDE 
ELEV        .FT                                              91 :ELEVATION VALUE
ELEV_TYPE   .                                                KB :ELEVATION REFERENCE TYPE
~Curve Information Section
#MNEM       .UNIT                                      API CODE :CURVE DESCRIPTION
#------------------------------------------------------------------------------
DEPT        .FT                                                 :DEPTH     
CALI        .IN                                                 :          
DPHI        .G/C3                                               :          
DRHO        .G/C3                                               :          
GR          .GAPI                                               :          
GR_NORM     .GAPI                                               :GammaRay Normalized
ILD         .OHMM                                               :          
ILM         .OHMM                                               :          
NPHI        .%                                                  :          
SFL         .OHMM                                               :          
SP          .MV                                                 :          
SP_NORM     .MV                                                 :SP Normalized
VSH_GR      .V/V                                                :Volume of Shale from GR
VSH_SP      .V/V                                                :Volume of Shale from SP
~A        DEPTH           CALI           DPHI           DRHO             GR        GR_NORM            ILD            ILM           NPHI            SFL             SP        SP_NORM         VSH_GR         VSH_SP
# ...
      4679.0000         9.8076         24.821          0.015          72.52       55.35018         0.5869         0.5724        31.7575         0.9732       -75.2585      -24.82084      0.4755358       0.596257
      4679.5000         9.7998        25.1866         0.0172        70.0903       52.92049         0.5922         0.5828        32.0268         0.9127       -73.7535      -23.31809      0.4238401      0.6217272
      4680.0000         9.8146        25.7781         0.0139         70.167       52.99718         0.6041         0.5933        32.1393         0.8678       -68.9789      -18.54574       0.425472      0.7026145
      4680.5000         9.8142         25.787         0.0098          73.66       56.49019         0.6202         0.6105        32.1737          0.843       -64.5437       -14.1128      0.4997912      0.7777492
      4681.0000         9.8237        24.8423         0.0042        75.8446       58.67478         0.6389         0.6278        32.0513         0.8621       -63.0162      -12.58755       0.546272      0.8036008
      4681.5000         9.8699        23.3274         0.0021        76.7211       59.55128         0.6715         0.6519        31.9543         0.9244       -62.3607       -11.9343       0.564921      0.8146729
      4682.0000         9.9011        22.7324         0.0033        77.2524       60.08259         0.7286         0.6766        31.9936         0.9826       -61.9074      -11.48325      0.5762253      0.8223177
      4682.5000         9.9161        22.2876          0.004        77.4083       60.23849         0.7985          0.699        31.5887         1.0361        -61.007      -10.58511      0.5795423      0.8375406
      4683.0000         9.9225        21.7348         0.0146        77.4817       60.31188         0.8422         0.7167        31.4349         1.0471       -59.3248      -8.905159      0.5811039      0.8660142
      4683.5000          9.939        21.4304         0.0218        77.8466       60.67679         0.8816         0.7351        31.5565         1.0158       -57.4279      -7.010509      0.5888678       0.898127
      4684.0000         9.9549        21.0347         0.0261        79.5454       62.37559            0.9         0.7383        30.5627         0.9785       -56.2217      -5.806564      0.6250125      0.9185328
      4684.5000         9.9729        20.9611         0.0235        83.5962       66.42638         0.8943         0.7249        29.2473          0.942       -55.6692      -5.256321      0.7111996      0.9278589
      4685.0000         9.9783         20.686          0.022        87.6844       70.51459         0.8521         0.7043        29.2899         0.8563       -55.3258      -4.915173      0.7981827      0.9336411
      4685.5000         9.9494        20.1909         0.0223        92.9857       75.81589         0.7574         0.6828        30.5583         0.7644       -55.4926      -5.084225      0.9109764      0.9307759
      4686.0000         9.8401        20.1413         0.0277        97.5739       80.40408         0.6528         0.6467        32.1672         0.6659       -56.3553      -5.949177              1      0.9161156
      4686.5000         9.7641        20.2458         0.0382        98.2913       81.12148         0.5847          0.579        34.5248          0.613       -57.9196      -7.515732              1      0.8895639
      4687.0000         9.7492        20.5381         0.0417        94.8053       77.63548         0.5142         0.5185        37.7054         0.5968       -62.0852      -11.68358      0.9496911      0.8189223
      4687.5000         9.7504        21.0483         0.0429        85.7938       68.62399         0.4446          0.463        40.8129         0.5825       -72.6278      -22.22844      0.7579572       0.640196
      4688.0000         9.8455         22.803         0.0194        67.0372       49.86739         0.3959         0.4086        42.4014            0.6       -83.9792      -33.58209      0.3588805      0.4477612
      4688.5000        10.5528        27.7316        -0.0009         59.834       42.66418          0.356         0.3696        41.7362         0.6055       -92.5201      -42.12524      0.2056209       0.302962
      4689.0000        11.4389        35.7394         0.0287        54.5328       37.36298         0.3233         0.3485         39.806         0.6035       -97.8489      -47.45629     0.09282944      0.2126052
      4689.5000         12.602        42.4175         0.0796        50.4951       33.32528         0.3012         0.3397        38.3016         0.6134      -100.4393      -50.04895    0.006920916      0.1686619
      4690.0000        13.8709        48.5219         0.1054        47.8865       30.71669         0.2895         0.3387        38.2283         0.6337      -101.2732       -50.8851              0      0.1544899
      4690.5000        14.1186        49.9135         0.1134        47.2435       30.07368         0.2827          0.339        39.0101          0.642      -101.6708      -51.28495              0      0.1477127
      4691.0000         14.112        49.0179         0.1064        48.6718       31.50198         0.2827         0.3392        39.4838         0.6351      -100.9001       -50.5165              0      0.1607372
      4691.5000        13.8751        45.8357         0.0909        50.8563       33.68649         0.2882         0.3402        39.1128         0.6163       -99.6346      -49.25325     0.01460607      0.1821482
      4692.0000        13.3358         40.556         0.0716         52.863       35.69318         0.2942         0.3426        38.4099          0.572       -98.7306      -48.35151     0.05730179      0.1974321
      4692.5000        13.0654         35.572         0.0601        54.7911       37.62128         0.3002          0.348        38.0471         0.5462        -98.426      -48.04916      0.0983252      0.2025566
      4693.0000        12.8262        31.9267         0.0518        55.0401       37.87029         0.3106         0.3541        38.0223         0.5472       -98.6738      -48.29921      0.1036231      0.1983185
      4693.5000         12.573        30.4506         0.0459        53.6979       36.52808         0.3294         0.3617          38.34         0.6018       -99.2747      -48.90236     0.07506561      0.1880955
      4694.0000        12.3449        30.6107         0.0451        52.1793       35.00948         0.3467         0.3735        38.8947         0.6185       -99.7758      -49.40572     0.04275496      0.1795641
      4694.5000        12.0658        31.5316         0.0613        52.4081       35.23829         0.3546         0.3886        39.1763         0.6108       -99.9457      -49.57787     0.04762309      0.1766462
      4695.0000        11.8247         31.762         0.0739        53.0018       35.83199         0.3522         0.3986        38.6243         0.6329       -99.9208      -49.55522     0.06025501      0.1770301
      4695.5000        11.6825        31.2156         0.0542        52.1068       34.93699         0.3443         0.3936        36.9614         1.0947       -99.7791      -49.41578     0.04121245      0.1793936
      4696.0000        11.4566        29.0314          0.037        49.6901       32.52029         0.3365         0.3602        34.8146         1.6483      -100.0265      -49.66543              0      0.1751622
      4696.5000         11.039        25.3577         0.0327        47.0638       29.89399         0.3405         0.3461        32.4138         1.4093      -100.8745      -50.51568              0      0.1607512
      4697.0000        10.3067        24.3448          0.034        45.4633       28.29348          0.353           0.35        31.2223         0.9189       -101.667      -51.31044              0      0.1472807
      4697.5000         9.4219        25.3741          0.028        45.7619       28.59209         0.3475         0.3642         31.421          0.522       -99.1393      -48.78498              0       0.190085
