#------------------------------------------------------------------------------
# Created by    : vladimir.rabinovich
# Created on    : 09/19/2023 17:22:52
#------------------------------------------------------------------------------
~Version Information Section
VERS.           2.0     :   CWLS log ASCII Standard - VERSION 2.0
WRAP.           NO      :   One line per depth step
~Well Information Section
#MNEM       .UNIT                                         VALUE :DESCRIPTION
#------------------------------------------------------------------------------
STRT        .FT                                            1126 :START DEPTH
STOP        .FT                                            9906 :STOP DEPTH
STEP        .FT                                             0.5 :STEP      
NULL        .                                           -999.25 :NULL      
COMP        .                                        EXXON CORP :COMPANY   
WELL        .                               OCS G06053 ST00BP00 :WELL      
FLD         .                                           WILDCAT :FIELD     
LOC         .                                                   :LOCATION  
CNTY        .                      MATAGORDA ISLAND LARGE BLOCK :LOCATION  
STAT        .                                             TEXAS :STATE     
CTRY        .                                     UNITED STATES :COUNTRY   
SRVC        .                                                   :SERVICE COMPANY
DATE        .                             9/13/2023 11:12:11 AM :LOG DATE  
API         .                                    42703402640000 :API NUMBER
UWI         .                                    42703402640000 :UNIQUE WELL ID
XCOORD      .                                  440255.018680432 :SURFACE X 
YCOORD      .                                  10152284.9344853 :SURFACE Y 
LAT         .                                         27.926249 :LATITUDE  
LON         .                                        -96.716438 :LONGITUDE 
ELEV        .FT                                              94 :ELEVATION VALUE
ELEV_TYPE   .                                                KB :ELEVATION REFERENCE TYPE
~Curve Information Section
#MNEM       .UNIT                                      API CODE :CURVE DESCRIPTION
#------------------------------------------------------------------------------
DEPT        .FT                                                 :DEPTH     
GR          .GAPI                                               :          
GR_NORM     .GAPI                                               :GammaRay Normalized
ILD         .OHMM                                               :          
SP          .MV                                                 :          
SP_NORM     .MV                                                 :SP Normalized
VSH_GR      .V/V                                                :Volume of Shale from GR
VSH_SP      .V/V                                                :Volume of Shale from SP
~A        DEPTH             GR        GR_NORM            ILD             SP        SP_NORM         VSH_GR         VSH_SP
# ...
      3471.0000        57.9271       79.17377         0.8455       -61.8109      -6.720982      0.9824207      0.8699777
      3471.5000         58.347       79.90924         0.8731       -61.1404      -6.053829      0.9980689      0.8851402
      3472.0000        58.8138       80.72655         0.8925       -60.5626      -5.479374              1       0.898196
      3472.5000        59.6623          82.21         0.9146       -60.0651      -4.985226              1      0.9094267
      3473.0000        58.6526       80.45049         0.9369       -59.8627      -4.786171              1      0.9139507
      3473.5000        56.8104       77.23811         0.9345       -60.2132      -5.140018      0.9412363      0.9059086
      3474.0000        55.3562       74.70283         0.9086       -61.1382      -6.068363      0.8872942      0.8848099
      3474.5000        54.2815       72.82991         0.8794        -62.975      -7.908512      0.8474449      0.8429884
      3475.0000         53.326       71.16496         0.8496       -65.0052      -9.942062      0.8120205      0.7967713
      3475.5000        52.9048       70.43252         0.8205       -67.1241      -12.06431      0.7964365      0.7485384
      3476.0000        52.4237       69.59554         0.7999       -69.3345      -14.27806      0.7786284       0.698226
      3476.5000        51.7863       68.48579         0.7786        -69.866       -14.8129      0.7550167      0.6860705
      3477.0000        51.0161       67.14427         0.7561       -64.4506      -9.400848      0.7264739      0.8090716
      3477.5000        50.6231       66.46102         0.7373       -59.2905      -4.244095      0.7119367      0.9262705
      3478.0000        53.2372       71.02583         0.7365       -56.6594      -1.616344      0.8090601      0.9859922
      3478.5000        56.9746       77.55103         0.7459       -54.9473     0.09241104      0.9478943              1
      3479.0000        57.3907       78.27987         0.7611       -54.5067      0.5296631      0.9634015              1
      3479.5000        58.2275        79.7429         0.7762       -55.0884    -0.05538559      0.9945297              1
      3480.0000        59.5376       82.03195          0.791       -55.9935     -0.9638329              1              1
      3480.5000        60.7686       84.18293         0.8029        -56.924      -1.897678              1      0.9795982
      3481.0000        60.9888       84.56988         0.8071       -57.8448      -2.821827              1      0.9585949
      3481.5000        59.7858       82.47302          0.808       -58.5266      -3.506973              1      0.9430233
      3482.0000        58.5906       80.38979         0.8058        -59.074      -4.057724              1      0.9305063
      3482.5000        57.0689       77.73672         0.8017       -59.3874       -4.37447      0.9518452      0.9233075
      3483.0000        55.6135        75.1994         0.7965       -59.6396      -4.630013      0.8978596      0.9174997
      3483.5000        55.8707       75.65087         0.7914       -59.5235      -4.517262      0.9074653      0.9200622
      3484.0000        58.3133       79.91638         0.7926        -59.309      -4.306107      0.9982209      0.9248612
      3484.5000        59.5543       82.08482         0.7946       -58.6738      -3.674259              1      0.9392214
      3485.0000        59.2949       81.63475         0.7923       -57.9263      -2.930103              1       0.956134
      3485.5000        60.0905       83.02592         0.7879        -57.592      -2.599152              1      0.9636557
      3486.0000        61.6895       85.81915         0.7801       -57.6219      -2.632397              1      0.9629001
      3486.5000        62.4034       87.06769         0.7684       -58.0759      -3.089748              1      0.9525057
      3487.0000        61.8421       86.09074          0.757       -58.8557      -3.872894              1      0.9347069
      3487.5000        61.7595       85.94923         0.7513       -59.6013      -4.621841              1      0.9176854
      3488.0000         62.412       87.09061         0.7467       -60.1125      -5.136387              1      0.9059912
      3488.5000        63.8041       89.52276         0.7431       -60.3114      -5.338638              1      0.9013946
      3489.0000        63.6484       89.25367         0.7404       -60.2532      -5.283783              1      0.9026413
      3489.5000        62.3116       86.92329         0.7378       -60.0541      -5.088028              1      0.9070902
      3490.0000        61.1396       84.88055         0.7351       -59.8952      -4.932476              1      0.9106255
      3490.5000         60.234       83.30271         0.7325        -59.817      -4.857624              1      0.9123268
      3491.0000        59.3132       81.69836         0.7327       -59.8314      -4.875374              1      0.9119233
      3491.5000        58.3759       80.06521         0.7343       -60.0325      -5.079819              1      0.9072769
      3492.0000        58.9893       81.13834         0.7366       -60.2305      -5.281166              1      0.9027008
      3492.5000        62.1778       86.70563         0.7442       -60.2076      -5.261612              1      0.9031452
      3493.0000        62.5634       87.38121         0.7528       -59.9772      -5.034561              1      0.9083054
      3493.5000        59.8581       82.66251          0.767       -59.2364      -4.297108              1      0.9250658
      3494.0000        58.2573        79.8714         0.7825       -58.2383      -3.302357      0.9972638      0.9476737
      3494.5000        57.7207       78.93757         0.8011       -57.5604        -2.6278      0.9773951      0.9630045
      3495.0000        57.0695       77.80372           0.82       -57.9458      -3.016552      0.9532706      0.9541693
      3495.5000        55.0947       74.35988         0.8403       -58.5325      -3.606598      0.8799974      0.9407591
      3496.0000        52.8906        70.5159         0.8622       -58.7497      -3.827141      0.7982106      0.9357468
      3496.5000        52.9619       70.64298         0.8802       -58.6507      -3.731491      0.8009145      0.9379206
      3497.0000        53.7341       71.99328         0.8932       -58.1931      -3.277237      0.8296442      0.9482446
      3497.5000        54.0347       72.52052         0.8803       -57.3644      -2.451885      0.8408622      0.9670026
      3498.0000        53.0121       70.73851         0.8578       -56.1796      -1.270432       0.802947      0.9938538
      3498.5000        51.8536       68.71931         0.8328       -55.9131      -1.007282      0.7599853      0.9998345
      3499.0000        52.3066       69.51254         0.8126       -56.9009      -1.998428      0.7768626      0.9773085
      3499.5000        53.7535       72.04034         0.7935       -57.8886      -2.989475      0.8306456      0.9547846
      3500.0000        55.1154       74.41975          0.773       -57.8489      -2.953121      0.8812714      0.9556109
      3500.5000        56.3415       76.56221         0.7527       -57.7451      -2.852669      0.9268555      0.9578939
      3501.0000        55.2923       74.73378         0.7433       -57.2026      -2.313515      0.8879527      0.9701474
      3501.5000        53.8563       72.23027         0.7406         -56.66      -1.774261      0.8346866      0.9824032
      3502.0000        52.8444       70.46692         0.7415       -55.9454      -1.063011      0.7971685      0.9985679
      3502.5000        53.1411       70.98738         0.7456        -54.889    -0.00995636      0.8082421              1
      3503.0000        56.3001       76.50316         0.7498       -54.6201      0.2555962      0.9255991              1
      3503.5000        59.5419       82.16344          0.749       -54.8865    -0.01415253              1              1
      3504.0000        61.9996       86.45531          0.746       -55.8384     -0.9694023              1              1
