#------------------------------------------------------------------------------
# Created by    : vladimir.rabinovich
# Created on    : 09/19/2023 17:22:32
#------------------------------------------------------------------------------
~Version Information Section
VERS.           2.0     :   CWLS log ASCII Standard - VERSION 2.0
WRAP.           NO      :   One line per depth step
~Well Information Section
#MNEM       .UNIT                                         VALUE :DESCRIPTION
#------------------------------------------------------------------------------
STRT        .FT                                          2841.5 :START DEPTH
STOP        .FT                                          6769.5 :STOP DEPTH
STEP        .FT                                             0.5 :STEP      
NULL        .                                           -999.25 :NULL      
COMP        .                      SPINNAKER EXPLORATION CO LLC :COMPANY   
WELL        .                               OCS G18941 ST00BP00 :WELL      
FLD         .                            HIGH ISLAND BLOCK 0235 :FIELD     
LOC         .                                                   :LOCATION  
CNTY        .                           HIGH ISLAND LARGE BLOCK :LOCATION  
STAT        .                                             TEXAS :STATE     
CTRY        .                                     UNITED STATES :COUNTRY   
SRVC        .                                                   :SERVICE COMPANY
DATE        .                             9/13/2023 11:20:02 AM :LOG DATE  
API         .                                    42708405540000 :API NUMBER
UWI         .                                    42708405540000 :UNIQUE WELL ID
XCOORD      .                                  1178439.61066162 :SURFACE X 
YCOORD      .                                  10526520.2311607 :SURFACE Y 
LAT         .                                         28.998365 :LATITUDE  
LON         .                                        -94.445565 :LONGITUDE 
ELEV        .FT                                              98 :ELEVATION VALUE
ELEV_TYPE   .                                                KB :ELEVATION REFERENCE TYPE
~Curve Information Section
#MNEM       .UNIT                                      API CODE :CURVE DESCRIPTION
#------------------------------------------------------------------------------
DEPT        .FT                                                 :DEPTH     
CNCF        .%                                                  :          
DCAL        .IN                                                 :          
DT24        .US/F                                               :          
GR          .GAPI                                               :          
GR_NORM     .GAPI                                               :GammaRay Normalized
M2R1        .OHMM                                               :          
M2R2        .OHMM                                               :          
M2R3        .OHMM                                               :          
M2R6        .OHMM                                               :          
M2R9        .OHMM                                               :          
M2RX        .OHMM                                               :          
PORZ        .%                                                  :          
RWAZ        .OHMM                                               :          
SPCH        .MV                                                 :          
TEN         .LB/F                                               :          
VSH_GR      .V/V                                                :Volume of Shale from GR
ZCOR        .G/CC                                               :          
~A        DEPTH           CNCF           DCAL           DT24             GR        GR_NORM           M2R1           M2R2           M2R3           M2R6           M2R9           M2RX           PORZ           RWAZ           SPCH            TEN         VSH_GR           ZCOR
# ...
      5946.5000         40.191          0.572        112.939        111.943        74.1939          0.832          0.806          0.786          0.773          0.768          0.776         20.011          0.039        -43.075        -21.096       0.876466          0.079
      5947.0000         39.453          0.469        110.006         111.69       73.95364          0.847          0.813          0.791          0.778          0.773          0.781         20.121           0.04          -43.8        -21.611       0.871354          0.054
      5947.5000         38.827           0.41        109.777        111.672       73.94837          0.853          0.816          0.792          0.779          0.775          0.783         20.264          0.041        -45.081        -11.567      0.8712419           0.04
      5948.0000         38.536          0.427        111.462        111.307       73.59612          0.852          0.817          0.795          0.782          0.778          0.787          20.48          0.042        -46.364          -5.19      0.8637471          0.054
      5948.5000         37.518          0.475        113.646        112.669       74.97086          0.848          0.822          0.801           0.79          0.785          0.795         20.699          0.043        -46.633        -16.232      0.8929969          0.066
      5949.0000          36.52          0.523        115.648        114.589       76.90359          0.847          0.832          0.814          0.804          0.799          0.809         21.037          0.046        -45.577         -30.12      0.9341189          0.062
      5949.5000         37.021          0.575        115.459        114.807       77.13433          0.851          0.847          0.832          0.822          0.818          0.829         21.613           0.05        -43.984        -40.297      0.9390283          0.062
      5950.0000         38.259          0.642        114.509        113.101       75.44107          0.859          0.863          0.851          0.842          0.838          0.849         22.092          0.053        -42.799        -45.655      0.9030015          0.078
      5950.5000         38.454          0.722        113.248        110.378       72.73081           0.87          0.877          0.868          0.859          0.855          0.867         22.003          0.054        -42.374        -38.646      0.8453364          0.094
      5951.0000         37.944          0.782         111.86        107.739       70.10455          0.884          0.892          0.884          0.875          0.872          0.883         21.457          0.052        -42.675        -28.244      0.7894586          0.092
      5951.5000         37.276          0.799        111.643        106.046       68.42429          0.897          0.904          0.897          0.888          0.884          0.896         21.082          0.051        -43.457        -20.783      0.7537082          0.079
      5952.0000         36.602           0.79        111.648        104.649       67.04003          0.902          0.907          0.901          0.892          0.888            0.9         21.174          0.052         -44.29        -10.758       0.724256          0.078
      5952.5000         36.289           0.79         112.19        103.511       65.91477          0.899          0.904          0.898          0.888          0.885          0.895         21.392          0.052        -44.872         -4.967      0.7003143          0.077
      5953.0000         35.521          0.807        112.878        104.648       67.06451          0.899          0.903          0.896          0.885          0.882          0.892         21.331          0.052        -45.309        -11.906      0.7247769          0.064
      5953.5000         34.778          0.835        111.986         107.11       69.53925          0.904          0.906          0.898          0.886          0.883          0.892         21.049           0.05        -45.559        -21.509      0.7774308          0.066
      5954.0000         35.444          0.835        111.036        107.548       69.98998          0.907          0.904          0.894          0.881          0.878          0.887         20.902          0.049        -45.268        -26.975      0.7870209           0.08
      5954.5000         37.147          0.742        111.203        105.867       68.32172          0.901          0.891          0.878          0.864          0.862           0.87         20.854          0.048        -44.294        -27.508      0.7515261           0.08
      5955.0000         38.213          0.585        110.133        104.971       67.43847          0.892          0.873          0.857          0.843          0.841          0.848         20.629          0.046        -43.257        -25.101      0.7327334          0.068
      5955.5000         37.984           0.47        108.344        105.974        68.4542          0.888           0.86          0.841          0.826          0.825           0.83         20.232          0.043          -42.9        -25.508      0.7543447          0.057
      5956.0000         36.922          0.439        108.466         108.66       71.15295           0.89          0.854          0.832          0.817          0.816          0.821         19.773          0.041        -43.143        -28.239      0.8117648          0.056
      5956.5000         36.859          0.448        108.879        111.867       74.37268           0.89          0.849          0.825           0.81          0.809          0.813         19.247          0.038        -43.151         -28.62      0.8802698          0.065
      5957.0000         38.717          0.462         109.84        113.803       76.32143          0.881           0.84          0.816          0.802            0.8          0.804         18.842          0.036        -42.397        -27.093      0.9217325          0.068
      5957.5000         40.722          0.476        111.453        114.287       76.81817          0.872          0.833           0.81          0.795          0.793          0.797         18.771          0.035        -41.032        -28.301      0.9323015          0.056
      5958.0000         39.863          0.493        111.818        113.826        76.3699          0.866          0.831          0.809          0.795          0.793          0.797         19.159          0.037        -39.896         -36.16      0.9227638          0.043
      5958.5000         36.989          0.506        112.392        113.976       76.53264          0.862          0.833          0.813          0.799          0.797            0.8         19.985           0.04        -39.929        -47.597      0.9262264          0.043
      5959.0000         35.707          0.511        113.106        116.453       79.02238          0.852           0.83          0.812          0.798          0.796          0.799         20.809          0.044        -41.533        -51.838      0.9791996          0.053
      5959.5000         37.056          0.509        113.949        118.971       81.55312          0.832          0.818          0.802          0.789          0.787           0.79         21.129          0.045        -44.721         -44.33              1          0.055
      5960.0000         39.483          0.498        115.078        117.568       80.16286          0.813          0.805          0.791          0.779          0.776          0.779          20.95          0.044        -48.399        -33.734              1          0.054
      5960.5000         41.186          0.482        115.041        114.504        77.1116          0.801          0.797          0.785          0.773           0.77          0.774         20.669          0.042         -50.71        -25.906      0.9385446          0.059
      5961.0000         41.266          0.471        115.632        114.381       77.00134          0.797          0.795          0.783          0.771          0.769          0.772         20.712          0.042        -51.076        -18.117      0.9361986          0.062
