#------------------------------------------------------------------------------
# Created by    : vladimir.rabinovich
# Created on    : 09/19/2023 17:20:30
#------------------------------------------------------------------------------
~Version Information Section
VERS.           2.0     :   CWLS log ASCII Standard - VERSION 2.0
WRAP.           NO      :   One line per depth step
~Well Information Section
#MNEM       .UNIT                                         VALUE :DESCRIPTION
#------------------------------------------------------------------------------
STRT        .FT                                             617 :START DEPTH
STOP        .FT                                           12396 :STOP DEPTH
STEP        .FT                                             0.5 :STEP      
NULL        .                                           -999.25 :NULL      
COMP        .                                        SUN OIL CO :COMPANY   
WELL        .                               OCS G01781 ST00BP00 :WELL      
FLD         .                                           WILDCAT :FIELD     
LOC         .                                                   :LOCATION  
CNTY        .                             GALVESTON LARGE BLOCK :LOCATION  
STAT        .                                             TEXAS :STATE     
CTRY        .                                     UNITED STATES :COUNTRY   
SRVC        .                                                   :SERVICE COMPANY
DATE        .                             9/13/2023 11:19:24 AM :LOG DATE  
API         .                                    42706001390000 :API NUMBER
UWI         .                                    42706001390000 :UNIQUE WELL ID
XCOORD      .                                  1010631.41746955 :SURFACE X 
YCOORD      .                                  10491097.5822315 :SURFACE Y 
LAT         .                                         28.894296 :LATITUDE  
LON         .                                        -94.968586 :LONGITUDE 
ELEV        .FT                                              65 :ELEVATION VALUE
ELEV_TYPE   .                                                KB :ELEVATION REFERENCE TYPE
~Curve Information Section
#MNEM       .UNIT                                      API CODE :CURVE DESCRIPTION
#------------------------------------------------------------------------------
DEPT        .FT                                                 :DEPTH     
ASN         .OHMM                                               :          
CILD        .MMHO                                               :          
DT          .US/F                                               :          
ILD         .OHMM                                               :          
SP          .MV                                                 :          
SP_NORM     .MV                                                 :SP Normalized
VSH_SP      .V/V                                                :Volume of Shale from SP
~A        DEPTH            ASN           CILD             DT            ILD             SP        SP_NORM         VSH_SP
# ...
      8456.0000         0.5056       2286.336       125.1498         0.3995        -57.478      -1.105652              1
      8456.5000         0.5033       2294.684       124.6798         0.3974       -57.3174     -0.9482307              1
      8457.0000         0.5011       2303.047       125.1378         0.3953       -57.1566     -0.7906036              1
      8457.5000         0.4988       2311.395       126.9435         0.3964        -56.996     -0.6331749              1
      8458.0000         0.4965       2330.863       127.0786         0.3981       -56.8354     -0.4757538              1
      8458.5000         0.4942       2352.109       126.7302         0.4016       -56.6748     -0.3183289              1
      8459.0000         0.4919       2373.352       126.3456         0.4059       -56.8453     -0.4920006              1
      8459.5000         0.4896       2398.129       125.3254         0.4102       -57.3549       -1.00478              1
      8460.0000         0.4874       2427.281       125.0825         0.4145        -57.864      -1.517052              1
      8460.5000         0.4854       2449.453        124.933         0.4187       -58.3737      -2.029926      0.9994354
      8461.0000         0.4877       2461.703       127.9845          0.423        -58.817      -2.476402      0.9910113
      8461.5000           0.49        2473.18       129.9663         0.4273       -59.2454      -2.907978      0.9828683
      8462.0000         0.4923       2459.445        131.772         0.4328       -59.3619      -3.027653      0.9806103
      8462.5000         0.4946       2362.063       132.6699         0.4402       -59.1678      -2.836727      0.9842127
      8463.0000         0.5007       2275.105       130.0996         0.4475       -58.9738      -2.645905      0.9878131
      8463.5000         0.5071       2227.379       128.6038         0.4548       -58.7797      -2.454979      0.9914155
      8464.0000         0.5134       2202.281       127.2234         0.4621       -58.5854      -2.263851      0.9950217
      8464.5000         0.5198       2177.184       126.2051         0.4694       -58.3913      -2.072929       0.998624
      8465.0000         0.5262       2159.754       125.5404         0.4719       -58.4036      -2.088402       0.998332
      8465.5000         0.5301       2147.859       123.4489           0.47        -58.545      -2.232975      0.9956042
      8466.0000         0.5263        2156.32        121.205         0.4681       -58.6866      -2.377754      0.9928725
      8466.5000         0.5224       2168.449       120.5547         0.4662         -58.83       -2.52433       0.990107
      8467.0000         0.5186       2180.578        122.415         0.4643       -58.9753      -2.672802      0.9873056
      8467.5000         0.5144        2203.07        124.416         0.4624       -59.1206      -2.821281      0.9845041
      8468.0000         0.5101       2253.465       126.5552         0.4602       -59.2317      -2.935555       0.982348
      8468.5000         0.5058        2307.32       126.5814         0.4542       -59.1976      -2.904629      0.9829316
      8469.0000         0.5015        2361.52       126.0282         0.4482       -59.1634      -2.873604      0.9835169
      8469.5000         0.4972       2380.047       125.5797         0.4422       -59.1293      -2.842678      0.9841004
      8470.0000         0.4929       2395.801       126.5945         0.4362       -59.0952      -2.811752      0.9846839
      8470.5000         0.4892       2391.125       127.5021         0.4303        -59.061      -2.780731      0.9852692
      8471.0000         0.4943       2359.098       127.6207         0.4243       -59.0269      -2.749805      0.9858527
      8471.5000         0.4994        2318.34       127.6952         0.4183       -58.9927      -2.718777      0.9864382
      8472.0000         0.5045       2275.207       127.5962         0.4125       -58.9189      -2.648155      0.9877707
      8472.5000         0.5096        2219.18       126.9506         0.4184       -58.7777      -2.510128      0.9903749
      8473.0000         0.5147       2163.152       127.0364         0.4243       -58.6367      -2.372303      0.9929754
      8473.5000         0.5207       2131.086       126.4135         0.4302       -58.4955       -2.23428      0.9955796
      8474.0000         0.5267       2099.813       125.8304         0.4361       -58.3542      -2.096153      0.9981858
      8474.5000         0.5327       2074.836       125.5071          0.442       -58.2047      -1.949829              1
      8475.0000         0.5387       2062.285       124.6876         0.4479       -57.9589      -1.707207              1
      8475.5000         0.5448       2049.715       124.4363         0.4538       -57.7133      -1.464779              1
      8476.0000         0.5508       2037.164       123.8754         0.4597       -57.4675      -1.222153              1
      8476.5000         0.5511       2030.232       121.7528         0.4656       -57.6885      -1.446331              1
      8477.0000         0.5485       2029.188       119.7162         0.4715       -58.2924      -2.053406      0.9989923
      8477.5000         0.5458       2053.121       117.6176         0.4734       -58.8957      -2.659878      0.9875495
      8478.0000         0.5432       2079.063       115.7904         0.4696       -59.6738      -3.441158      0.9728084
      8478.5000         0.5395       2108.605       116.8743         0.4659       -60.4836      -4.254131      0.9574692
      8479.0000         0.5298       2171.352       120.5094         0.4622       -60.3242      -4.097904      0.9604169
      8479.5000         0.5201       2241.313        123.792         0.4585       -59.8189      -3.595783      0.9698909
      8480.0000         0.5104       2326.242       126.1693         0.4548       -59.3136      -3.093655       0.979365
      8480.5000         0.5007        2363.25       127.4747         0.4511       -58.8083       -2.59153       0.988839
      8481.0000          0.496       2379.121       125.4142         0.4474       -58.3812      -2.167606      0.9968376
      8481.5000         0.4967       2382.914       124.6709         0.4437       -58.2786       -2.06818      0.9987136
      8482.0000         0.4973       2386.703        125.993         0.4401       -58.1758      -1.968555              1
      8482.5000          0.498       2390.496       127.0804         0.4364       -58.0731      -1.869034              1
      8483.0000         0.4986       2383.469        127.087         0.4327       -57.9705      -1.769608              1
      8483.5000         0.5019       2371.992       126.5826          0.429       -57.8677      -1.669979              1
      8484.0000         0.5059       2360.531       126.1877         0.4254        -57.765      -1.570457              1
      8484.5000         0.5099       2347.934        126.576         0.4217       -57.6622      -1.470833              1
      8485.0000         0.5139       2311.965       127.1061          0.418         -57.53      -1.341805              1
      8485.5000         0.5179       2275.996       127.6355         0.4144       -57.3962      -1.211182              1
      8486.0000         0.5219       2240.273       127.2222         0.4166       -57.2626      -1.080757              1
      8486.5000         0.5257       2209.742       125.9358         0.4191        -57.129     -0.9503326              1
      8487.0000         0.5264       2179.258       124.9282         0.4217       -57.0577     -0.8822098              1
      8487.5000         0.5271       2149.664       123.5847         0.4242       -56.9983     -0.8259811              1
      8488.0000         0.5278       2138.285       122.3995         0.4267       -56.9387      -0.769558              1
      8488.5000         0.5285        2126.91       122.2531         0.4293       -56.8793     -0.7133331              1
      8489.0000         0.5292       2115.535       122.6188         0.4318       -56.7743     -0.6115074              1
