#------------------------------------------------------------------------------
# Created by    : vladimir.rabinovich
# Created on    : 09/19/2023 17:21:52
#------------------------------------------------------------------------------
~Version Information Section
VERS.           2.0     :   CWLS log ASCII Standard - VERSION 2.0
WRAP.           NO      :   One line per depth step
~Well Information Section
#MNEM       .UNIT                                         VALUE :DESCRIPTION
#------------------------------------------------------------------------------
STRT        .FT                                            2690 :START DEPTH
STOP        .FT                                            8272 :STOP DEPTH
STEP        .FT                                             0.5 :STEP      
NULL        .                                           -999.25 :NULL      
COMP        .                        PG&E RESOURCES OFFSHORE CO :COMPANY   
WELL        .                               OCS G09053 ST00BP00 :WELL      
FLD         .                              GALVESTON BLOCK 0427 :FIELD     
LOC         .                                                   :LOCATION  
CNTY        .                             GALVESTON LARGE BLOCK :LOCATION  
STAT        .                                             TEXAS :STATE     
CTRY        .                                     UNITED STATES :COUNTRY   
SRVC        .                                                   :SERVICE COMPANY
DATE        .                             9/13/2023 11:11:09 AM :LOG DATE  
API         .                                    42706402380000 :API NUMBER
UWI         .                                    42706402380000 :UNIQUE WELL ID
XCOORD      .                                  948581.259723803 :SURFACE X 
YCOORD      .                                  10360666.4777899 :SURFACE Y 
LAT         .                                         28.532718 :LATITUDE  
LON         .                                        -95.155068 :LONGITUDE 
ELEV        .FT                                             119 :ELEVATION VALUE
ELEV_TYPE   .                                                KB :ELEVATION REFERENCE TYPE
~Curve Information Section
#MNEM       .UNIT                                      API CODE :CURVE DESCRIPTION
#------------------------------------------------------------------------------
DEPT        .FT                                                 :DEPTH     
CALI        .IN                                                 :          
DRHO        .G/C3                                               :          
DT          .US/F                                               :          
GR          .GAPI                                               :          
GR_1        .GAPI                                               :          
GR_NORM     .GAPI                                               :GammaRay Normalized
ILD         .OHMM                                               :          
ILM         .OHMM                                               :          
NPHI        .%                                                  :          
RFOC        .OHMM                                               :          
RHOB        .G/C3                                               :          
SP          .MV                                                 :          
SP_NORM     .MV                                                 :SP Normalized
VSH_GR      .V/V                                                :Volume of Shale from GR
VSH_SP      .V/V                                                :Volume of Shale from SP
~A        DEPTH           CALI           DRHO             DT             GR           GR_1        GR_NORM            ILD            ILM           NPHI           RFOC           RHOB             SP        SP_NORM         VSH_GR         VSH_SP
# ...
      6413.0000        13.5427         0.0829        113.403        94.6132        90.1025       75.63985         0.9434          0.935        36.5833         1.1308         2.3262       -49.7637      -2.392273       0.907231      0.9643007
      6413.5000         13.505         0.0822       113.3168        93.7542        87.9656       73.22054         0.9518         0.9382        36.6912         1.1408         2.3225       -49.6144      -2.240513       0.855756       0.968192
      6414.0000        13.4848         0.0826       113.6298        92.5786        85.8933       70.87434         0.9556         0.9415        37.0936         1.1481         2.3193       -49.3765      -2.000153      0.8058371       0.974355
      6414.5000        13.4749         0.0836       114.0746        92.6852           86.1       71.10735         0.9541         0.9424        37.5443         1.1515         2.3198       -49.1946      -1.815796      0.8107946      0.9790822
      6415.0000        13.4824         0.0839       114.7144        93.8719        94.2762       80.35972         0.9468         0.9385        37.4362         1.1324         2.3231       -49.0624      -1.681137              1      0.9825349
      6415.5000        13.4883         0.0821       115.6635        96.5173        97.6016       84.12228         0.9351         0.9337        36.8171         1.1091         2.3265       -49.0674      -1.683678              1      0.9824698
      6416.0000        13.5003         0.0818       116.3651        98.5234        98.9908       85.69357         0.9266         0.9285        36.5558         1.0895         2.3288       -49.1491      -1.762917              1      0.9804381
      6416.5000        13.5041         0.0846       116.4611        97.8965        98.4146       85.04054         0.9192         0.9222         36.947         1.0855         2.3295       -49.3613       -1.97266              1        0.97506
      6417.0000        13.4861         0.0905       116.0002        96.5468        97.5001       84.00466         0.9115         0.9165        38.0778          1.105         2.3285       -49.5952      -2.204098              1      0.9691257
      6417.5000        13.4488         0.0988       115.1293        95.1824         96.766       83.17295         0.9015         0.9143        38.1371         1.1281         2.3269       -49.6763      -2.282738              1      0.9671093
      6418.0000        13.4045         0.0953       113.0874        94.5358        96.2668       82.60708         0.8853         0.9109         38.049         1.1267         2.3255       -49.6033      -2.207275              1      0.9690442
      6418.5000         13.371         0.0757       111.6154        95.1738        96.2639       82.60288         0.8718         0.9017        38.2028         1.1107         2.3251       -49.4561      -2.057621              1      0.9728815
      6419.0000        13.3632          0.067       111.4615        97.4491        97.2495       83.71741         0.8599         0.8896        38.9725         1.0902         2.3256       -49.1725      -1.771561              1      0.9802164
      6419.5000        13.3634         0.0616       112.6975        98.9827        99.1029       85.81405         0.8521         0.8798        39.9523         1.0696         2.3262       -48.7269      -1.323498              1      0.9917052
      6420.0000        13.3471         0.0607       115.3992        98.9766        99.1145       85.82626         0.8456         0.8715        40.6375         1.0502         2.3258       -48.3239     -0.9180412              1              1
      6420.5000        13.2867         0.0621       117.0549        98.1478        97.3326       83.80872         0.8393         0.8642        41.5751         1.0445         2.3235       -47.9788     -0.5704842              1              1
      6421.0000        13.2072          0.063       118.3508        96.7001        96.5798       82.95584         0.8352         0.8559         42.095         1.0442         2.3193       -47.7189     -0.3081207              1              1
      6421.5000        13.1583         0.0638       119.6332        96.1085        96.6694       83.05633         0.8257         0.8432        42.0889         1.0363         2.3136       -47.4361    -0.02286148              1              1
      6422.0000        13.1402         0.0643        119.233        95.4968        96.9985       83.42786         0.8175         0.8319        41.0379         1.0287         2.3109       -47.3259     0.08979416              1              1
      6422.5000        13.1377         0.0665       118.8331        95.2228        96.6235       83.00255         0.8082         0.8248        40.8206         1.0305         2.3138       -47.4734    -0.05524445              1              1
      6423.0000        13.1351         0.0717        118.433        95.6121        95.5233       81.75651         0.8012         0.8189        41.4113         1.0386         2.3174        -47.696      -0.275383              1              1
      6423.5000        13.1404         0.0779       116.8463        96.7037         95.637       81.88426         0.7952         0.8145        42.4218         1.0558         2.3168       -48.0975     -0.6744232              1              1
      6424.0000        13.1349         0.0794       115.1318        98.1663        96.4561       82.81037         0.7904         0.8094        42.9186         1.0723         2.3133        -48.464      -1.038467              1      0.9990137
      6424.5000        13.1228         0.0738       115.1212        99.1616        97.0377       83.46767          0.785         0.8028        42.7122         1.0514         2.3073       -48.3549     -0.9269066              1              1
      6425.0000        13.1253         0.0671       117.5386       100.0958        97.0511       83.48192         0.7808         0.7971        42.1002         1.0182         2.3059       -47.8645     -0.4340439              1              1
      6425.5000        13.1304         0.0631       120.6476        100.743         96.582       82.95011         0.7779         0.7933        41.4947         1.0001         2.3091       -47.7471     -0.3141861              1              1
      6426.0000        13.1459         0.0632       122.9344        100.292        93.2297       79.15528         0.7773         0.7903        40.7809         0.9982         2.3203       -47.8532     -0.4178276      0.9820272              1
      6426.5000        13.1683         0.0664       123.6523        98.6161         89.929       75.41885         0.7777         0.7834        40.0792         1.0043         2.3323       -47.9164      -0.478569      0.9025288              1
      6427.0000        13.2209         0.0682        122.572        97.2137        89.5377        74.9751         0.7762         0.7798        39.3475         1.0202          2.334       -47.8774     -0.4371071      0.8930872              1
      6427.5000        13.3127         0.0724       119.7754        96.6544        91.9241       77.67496         0.7734         0.7788        38.9579         1.0428         2.3326       -47.6451     -0.2023506       0.950531              1
      6428.0000         13.385         0.0795       117.6985        96.4879        93.4841       79.43954         0.7699         0.7769        38.7366         1.0673         2.3302       -47.5222    -0.07699203      0.9880754              1
      6428.5000        13.4067         0.0876       116.2677        96.5989        95.1101       81.27883         0.7669         0.7757        39.3151         1.0813         2.3251       -47.4818     -0.0341301              1              1
      6429.0000        13.3766         0.0916       115.7632        97.1456        97.4867       83.96759         0.7684         0.7738        40.8207         1.0736         2.3182       -47.5411    -0.09096909              1              1
      6429.5000        13.3024          0.092       116.0006        98.2103        98.5013       85.11494         0.7689         0.7706        41.5262         1.0556         2.3132          -47.7     -0.2474136              1              1
