#------------------------------------------------------------------------------
# Created by    : vladimir.rabinovich
# Created on    : 09/19/2023 17:22:51
#------------------------------------------------------------------------------
~Version Information Section
VERS.           2.0     :   CWLS log ASCII Standard - VERSION 2.0
WRAP.           NO      :   One line per depth step
~Well Information Section
#MNEM       .UNIT                                         VALUE :DESCRIPTION
#------------------------------------------------------------------------------
STRT        .FT                                            3080 :START DEPTH
STOP        .FT                                           13004 :STOP DEPTH
STEP        .FT                                             0.5 :STEP      
NULL        .                                           -999.25 :NULL      
COMP        .                                     INEXCO OIL CO :COMPANY   
WELL        .                                     ST TR 00006-L :WELL      
FLD         .                                           WILDCAT :FIELD     
LOC         .                                                   :LOCATION  
CNTY        .                           HIGH ISLAND LARGE BLOCK :LOCATION  
STAT        .                                             TEXAS :STATE     
CTRY        .                                     UNITED STATES :COUNTRY   
SRVC        .                                                   :SERVICE COMPANY
DATE        .                             9/13/2023 11:19:15 AM :LOG DATE  
API         .                                    42708302350000 :API NUMBER
UWI         .                                    42708302350000 :UNIQUE WELL ID
XCOORD      .                                  1306008.37969423 :SURFACE X 
YCOORD      .                                  10751503.0860356 :SURFACE Y 
LAT         .                                          29.62091 :LATITUDE  
LON         .                                         -94.05279 :LONGITUDE 
ELEV        .FT                                              84 :ELEVATION VALUE
ELEV_TYPE   .                                                KB :ELEVATION REFERENCE TYPE
~Curve Information Section
#MNEM       .UNIT                                      API CODE :CURVE DESCRIPTION
#------------------------------------------------------------------------------
DEPT        .FT                                                 :DEPTH     
DT          .US/F                                               :          
GR          .GAPI                                               :          
GR_NORM     .GAPI                                               :GammaRay Normalized
ILD         .OHMM                                               :          
SFL         .OHMM                                               :          
SP          .MV                                                 :          
SP_NORM     .MV                                                 :SP Normalized
VSH_GR      .V/V                                                :Volume of Shale from GR
VSH_SP      .V/V                                                :Volume of Shale from SP
~A        DEPTH             DT             GR        GR_NORM            ILD            SFL             SP        SP_NORM         VSH_GR         VSH_SP
# ...
      4431.5000        87.6145        46.7196       72.71898         0.7763         0.7708       -60.4697      -7.049141      0.8450847      0.9171351
      4432.0000        111.298        47.0479       73.54843         0.7863         0.7923        -60.485      -7.069538      0.8627326      0.9168556
      4432.5000       124.8689         47.707       75.21055         0.7908         0.8123       -60.4479      -7.037533      0.8980968      0.9172941
      4433.0000        147.334        48.4655        77.1229         0.7901         0.8292       -60.1749       -6.76963      0.9387851      0.9209639
      4433.5000       149.2244        49.4708       79.65652         0.7827         0.8562       -59.8696      -6.469425       0.992692      0.9250764
      4434.0000       138.4597        50.6851        82.7162         0.7617         0.8914       -59.6914      -6.296322              1      0.9274476
      4434.5000       114.0364        51.8472       85.64451          0.731         0.8912       -59.6791       -6.28912              1      0.9275463
      4435.0000        84.0558        53.0722       88.73115         0.6942         0.8379       -59.9459      -6.561016              1      0.9238217
      4435.5000        79.4386        54.2859       91.78931         0.6563         0.6887       -60.3729      -6.993111              1      0.9179026
      4436.0000        95.4319        55.3132       94.37828         0.6186          0.619       -60.9045      -7.529808              1      0.9105506
      4436.5000       130.6877        56.0361         96.201         0.5881         0.5808       -61.7161      -8.346504              1       0.899363
      4437.0000       149.8787        56.1788       96.56331         0.5735         0.5654       -62.9672      -9.602703              1      0.8821548
      4437.5000       129.3386        55.6028       95.11642         0.5944         0.5383       -64.6168       -11.2574              1      0.8594877
      4438.0000       110.0547        52.7625       87.96986         0.6307         0.5071       -66.7886      -13.43429              1      0.8296672
      4438.5000       101.0092        47.5024       74.73215         0.6686          0.687       -68.2858      -14.93659      0.8879181      0.8090878
      4439.0000        91.0425         45.284       69.15102         0.7011         0.9793       -68.7186      -15.37449      0.7691707      0.8030893
      4439.5000        85.8402        43.1575       63.80124         0.7253         1.2372       -66.8566      -13.51758      0.6553454      0.8285263
      4440.0000        78.6144        41.4642        59.5419         0.7464         1.5834       -64.1201      -10.78618      0.5647213      0.8659427
      4440.5000         71.084        40.7087       57.64318         0.7613         1.7209       -61.6028      -8.273975      0.5243231      0.9003565
      4441.0000        68.8301        40.8942       58.11323         0.7356         1.2888       -59.4952      -6.171474       0.534324      0.9291579
      4441.5000        94.6063        41.9955       60.88845          0.702         0.9911       -58.1411      -4.822472      0.5933714      0.9476374
      4442.0000       125.2916        43.1978       63.91793         0.6573         0.7462       -57.9222      -4.608665      0.6578282      0.9505662
      4442.5000       137.9663        44.0772       66.13461         0.6111         0.6402       -58.3867      -5.078262      0.7049918      0.9441334
      4443.0000       144.5103        44.3542       66.83494         0.5722         0.5885       -58.9509       -5.64756      0.7198923      0.9363348
      4443.5000       147.5569        43.4899       64.66238         0.5508         0.6034       -60.0032      -6.704956      0.6736677      0.9218499
      4444.0000       143.9363        41.9803       60.86544         0.5313          0.679       -62.4149      -9.121754      0.5928816      0.8887431
      4444.5000       135.5352        40.1762       56.32721         0.5193         0.7952       -65.0682      -11.78015      0.4963237      0.8523268
      4445.0000       128.7749        38.8309       52.94387         0.5187         0.9336       -67.1078      -13.82485      0.4243377      0.8243172
      4445.5000       116.4727         39.079       53.57144         0.5244         1.0331       -68.1663      -14.88844      0.4376902      0.8097474
      4446.0000       103.7827         40.151       56.27295         0.5281         0.8917       -68.1016      -14.82884      0.4951691      0.8105639
      4446.5000       101.2509        41.3496       59.29312         0.5216         0.7298       -68.6932      -15.42553      0.5594281        0.80239
      4447.0000       125.6943        41.7279       60.24841         0.5051         0.6439       -70.4052      -17.14263      0.5797535      0.7788681
      4447.5000       133.9646        41.4908       59.65464         0.4811         0.6605       -72.4362      -19.17873      0.5671199      0.7509763
      4448.0000       134.3232        41.8752       60.62531          0.454         0.6886       -73.7638      -20.51143      0.5877725      0.7327202
      4448.5000       131.9939        42.5776       62.39644         0.4338         0.6847       -74.2362      -20.98892      0.6254562      0.7261792
      4449.0000       133.1038        42.4427       62.05991         0.4248         0.6782       -73.9366      -20.69442       0.618296      0.7302135
      4449.5000       137.9514        42.4015       61.95928         0.4353         0.6936       -70.9509      -17.71381      0.6161548      0.7710437
      4450.0000          146.7        44.2705       66.66696         0.4608         0.6784        -67.493      -14.26101      0.7163183      0.8183424
      4450.5000       152.0129        46.3655       71.94357         0.4949         0.6495       -63.6783       -10.4514      0.8285866      0.8705287
      4451.0000       154.8115        47.4532       74.68459         0.5301          0.633        -59.652      -6.430202      0.8869061      0.9256136
      4451.5000       156.2432        47.2814       74.25518         0.5704         0.6374       -56.7474      -3.530697      0.8777698      0.9653329
      4452.0000       154.0515         46.729       72.86775         0.6189          0.662       -54.7796      -1.567993        0.84825      0.9922193
      4452.5000       137.2668        47.3752       74.49739         0.6809         0.6989       -53.3698     -0.1632919      0.8829232              1
      4453.0000        109.496        47.4709       74.74136         0.7358         0.7421       -52.3594      0.8420105       0.888114              1
      4453.5000        89.9753        46.9692       73.48152         0.7816          0.781        -51.767       1.429317       0.861309              1
      4454.0000        96.7406        47.2383       74.16193         0.8199         0.8161       -51.3302       1.861019      0.8757858              1
      4454.5000       112.1235        47.6749         75.264         0.8497         0.8382       -50.8581       2.328022      0.8992341              1
      4455.0000       143.4985        48.1791       76.53622         0.8711         0.8478       -50.2321       2.948925      0.9263025              1
      4455.5000       147.3987         48.684       77.81023         0.8825          0.843        -49.941       3.234928      0.9534091              1
      4456.0000       147.1907        49.2278       79.18212         0.8815         0.8362       -50.4582       2.712635      0.9825983              1
      4456.5000       146.3481        49.7192       80.42213         0.8745         0.8319        -51.215       1.950737              1              1
      4457.0000       145.3999        50.1057       81.39812         0.8645         0.8345       -51.7089        1.45174              1              1
      4457.5000       144.0635        50.2895       81.86382         0.8504         0.8437       -53.1791    -0.02355576              1              1
