#------------------------------------------------------------------------------
# Created by    : vladimir.rabinovich
# Created on    : 09/19/2023 17:20:32
#------------------------------------------------------------------------------
~Version Information Section
VERS.           2.0     :   CWLS log ASCII Standard - VERSION 2.0
WRAP.           NO      :   One line per depth step
~Well Information Section
#MNEM       .UNIT                                         VALUE :DESCRIPTION
#------------------------------------------------------------------------------
STRT        .FT                                             502 :START DEPTH
STOP        .FT                                            9122 :STOP DEPTH
STEP        .FT                                             0.5 :STEP      
NULL        .                                           -999.25 :NULL      
COMP        .                       BLUE DOLPHIN EXPLORATION CO :COMPANY   
WELL        .                                OCS 00714 ST00BP00 :WELL      
FLD         .                              GALVESTON BLOCK 0288 :FIELD     
LOC         .                                                   :LOCATION  
CNTY        .                             GALVESTON LARGE BLOCK :LOCATION  
STAT        .                                             TEXAS :STATE     
CTRY        .                                     UNITED STATES :COUNTRY   
SRVC        .                                                   :SERVICE COMPANY
DATE        .                             9/13/2023 11:19:24 AM :LOG DATE  
API         .                                    42706000680000 :API NUMBER
UWI         .                                    42706000680000 :UNIQUE WELL ID
XCOORD      .                                  1088404.51782723 :SURFACE X 
YCOORD      .                                  10474534.8869196 :SURFACE Y 
LAT         .                                        28.8520809 :LATITUDE  
LON         .                                       -94.7248272 :LONGITUDE 
ELEV        .FT                                              85 :ELEVATION VALUE
ELEV_TYPE   .                                                KB :ELEVATION REFERENCE TYPE
~Curve Information Section
#MNEM       .UNIT                                      API CODE :CURVE DESCRIPTION
#------------------------------------------------------------------------------
DEPT        .FT                                                 :DEPTH     
ASN         .OHMM                                               :          
ASN_1       .OHMM                                               :          
DT          .US/F                                               :          
ILD         .OHMM                                               :          
LAT         .OHMM                                               :          
LN          .OHMM                                               :          
SP          .MV                                                 :          
SP_NORM     .MV                                                 :SP Normalized
VSH_SP      .V/V                                                :Volume of Shale from SP
~A        DEPTH            ASN          ASN_1             DT            ILD            LAT             LN             SP        SP_NORM         VSH_SP
# ...
      2436.5000        -999.25         0.7218        -999.25        -999.25         0.6092         0.3978       -52.8572      -20.29781      0.2577766
      2437.0000        -999.25         0.7355        -999.25        -999.25         0.6151         0.4018       -52.8739      -20.30765      0.2573982
      2437.5000        -999.25         0.7413        -999.25        -999.25         0.6191         0.4067       -53.1993      -20.62618      0.2451468
      2438.0000        -999.25         0.7413        -999.25        -999.25         0.6171         0.4052       -52.6136      -20.03363      0.2679375
      2438.5000        -999.25         0.7433        -999.25        -999.25         0.6129         0.4019       -51.2872      -18.70036      0.3192168
      2439.0000        -999.25         0.7464        -999.25        -999.25         0.6262          0.394       -50.2802       -17.6865      0.3582114
      2439.5000        -999.25         0.7384        -999.25        -999.25         0.6457           0.38       -49.9133      -17.31274      0.3725869
      2440.0000        -999.25         0.7237        -999.25        -999.25         0.6874         0.3635        -48.881      -16.27358      0.4125547
      2440.5000        -999.25         0.7218        -999.25        -999.25         0.7256         0.3452       -47.1909      -14.57662      0.4778224
      2441.0000        -999.25         0.7207        -999.25        -999.25         0.7609         0.3347       -45.7333      -13.11216      0.5341479
      2441.5000        -999.25           0.72        -999.25        -999.25          0.794          0.329       -44.5533      -11.92529      0.5797964
      2442.0000        -999.25         0.7242        -999.25        -999.25         0.8251         0.3346       -44.7308      -12.09594      0.5732332
      2442.5000        -999.25         0.7363        -999.25        -999.25         0.8465          0.347       -45.6379      -12.99617      0.5386087
      2443.0000        -999.25         0.7284        -999.25        -999.25          0.848          0.358       -46.6038      -13.95521      0.5017226
      2443.5000        -999.25         0.7172        -999.25        -999.25         0.8441         0.3666        -47.238      -14.58255      0.4775942
      2444.0000        -999.25         0.7062        -999.25        -999.25         0.8149         0.3752          -49.1      -16.43769      0.4062428
      2444.5000        -999.25         0.7257        -999.25        -999.25         0.7843         0.3902       -52.5061      -19.83693      0.2755027
      2445.0000        -999.25         0.7521        -999.25        -999.25         0.7361         0.4058       -55.0533      -22.37727      0.1777975
      2445.5000        -999.25         0.7683        -999.25        -999.25         0.6882         0.4214       -57.3422      -24.65931     0.09002671
      2446.0000        -999.25         0.7627        -999.25        -999.25         0.6471         0.4292       -58.8901      -26.20034       0.030756
      2446.5000        -999.25         0.7546        -999.25        -999.25          0.606         0.4369       -59.8832      -27.18658              0
      2447.0000        -999.25         0.7447        -999.25        -999.25         0.5669         0.4428       -60.5804      -27.87692              0
      2447.5000        -999.25         0.7365        -999.25        -999.25         0.5293         0.4481       -60.8105      -28.10016              0
      2448.0000        -999.25         0.7342        -999.25        -999.25          0.505         0.4526       -60.5107       -27.7935              0
      2448.5000        -999.25         0.7299        -999.25        -999.25          0.485         0.4511       -59.4899      -26.76584    0.009006207
      2449.0000        -999.25         0.7207        -999.25        -999.25         0.4813         0.4495       -58.1497      -25.41878     0.06081625
      2449.5000        -999.25         0.7091        -999.25        -999.25         0.4901         0.4484       -56.8998      -24.16201      0.1091533
      2450.0000        -999.25         0.6978        -999.25        -999.25         0.4989         0.4482        -55.976      -23.23136      0.1449478
      2450.5000        -999.25         0.6935        -999.25        -999.25         0.5113         0.4479       -55.4616      -22.71009      0.1649964
      2451.0000        -999.25         0.6948        -999.25        -999.25         0.5251         0.4432       -55.0538      -22.29543       0.180945
      2451.5000        -999.25         0.6988        -999.25        -999.25         0.5388         0.4347       -54.6573      -21.89207      0.1964588
      2452.0000        -999.25         0.6971        -999.25        -999.25         0.5471         0.4262       -54.2093      -21.43721      0.2139535
      2452.5000        -999.25         0.6935        -999.25        -999.25         0.5549         0.4252       -53.9698      -21.19085      0.2234289
      2453.0000        -999.25         0.6969        -999.25        -999.25         0.5619          0.425       -54.1254      -21.33959      0.2177081
      2453.5000        -999.25         0.7063        -999.25        -999.25         0.5669          0.423       -54.6297      -21.83702       0.198576
      2454.0000        -999.25         0.7085        -999.25        -999.25         0.5718         0.4186       -54.6948      -21.89527      0.1963359
      2454.5000        -999.25         0.7075        -999.25        -999.25          0.577         0.4142       -54.5787       -21.7723      0.2010652
      2455.0000        -999.25         0.7148        -999.25        -999.25         0.5823         0.4121       -54.9495      -22.13624      0.1870676
      2455.5000        -999.25         0.7278        -999.25        -999.25         0.5877         0.4105       -55.9291      -23.10898      0.1496545
      2456.0000        -999.25         0.7367        -999.25        -999.25         0.5861          0.409       -56.7399      -23.91292      0.1187339
      2456.5000        -999.25         0.7301        -999.25        -999.25         0.5844         0.4063       -55.4935      -22.65966      0.1669361
      2457.0000        -999.25         0.7216        -999.25        -999.25         0.5864         0.4035       -53.7521       -20.9114      0.2341769
      2457.5000        -999.25         0.7201        -999.25        -999.25         0.5948          0.401       -52.0106      -19.16304      0.3014217
      2458.0000        -999.25          0.728        -999.25        -999.25         0.6032         0.4027       -50.9531      -18.09867      0.3423586
      2458.5000        -999.25         0.7486        -999.25        -999.25         0.6107         0.4044       -50.5756      -17.71431      0.3571418
      2459.0000        -999.25         0.7648        -999.25        -999.25         0.6174         0.4061       -51.3267      -18.45855      0.3285173
      2459.5000        -999.25         0.7682        -999.25        -999.25         0.6241         0.4098        -52.222      -19.34699      0.2943465
      2460.0000        -999.25         0.7672        -999.25        -999.25         0.6311         0.4158       -51.7197      -18.83783      0.3139296
      2460.5000        -999.25         0.7803        -999.25        -999.25         0.6386         0.4217       -50.9582      -18.06947       0.343482
      2461.0000        -999.25         0.8004        -999.25        -999.25         0.6462         0.4303       -50.4781      -17.58251      0.3622112
      2461.5000        -999.25         0.8185        -999.25        -999.25          0.652         0.4405       -50.1563      -17.25385      0.3748521
      2462.0000        -999.25          0.827        -999.25        -999.25         0.6568         0.4508        -49.241      -16.33169      0.4103197
      2462.5000        -999.25         0.8332        -999.25        -999.25         0.6616         0.4608       -47.3551      -14.43892      0.4831184
