#------------------------------------------------------------------------------
# Created by    : vladimir.rabinovich
# Created on    : 09/19/2023 17:19:20
#------------------------------------------------------------------------------
~Version Information Section
VERS.           2.0     :   CWLS log ASCII Standard - VERSION 2.0
WRAP.           NO      :   One line per depth step
~Well Information Section
#MNEM       .UNIT                                         VALUE :DESCRIPTION
#------------------------------------------------------------------------------
STRT        .FT                                            4783 :START DEPTH
STOP        .FT                                            9473 :STOP DEPTH
STEP        .FT                                             0.5 :STEP      
NULL        .                                           -999.25 :NULL      
COMP        .                                   FOREST OIL CORP :COMPANY   
WELL        .                               OCS G20658 ST00BP00 :WELL      
FLD         .                            HIGH ISLAND BLOCK 0052 :FIELD     
LOC         .                                                   :LOCATION  
CNTY        .                           HIGH ISLAND LARGE BLOCK :LOCATION  
STAT        .                                             TEXAS :STATE     
CTRY        .                                     UNITED STATES :COUNTRY   
SRVC        .                                                   :SERVICE COMPANY
DATE        .                             9/13/2023 11:19:51 AM :LOG DATE  
API         .                                    42708405710000 :API NUMBER
UWI         .                                    42708405710000 :UNIQUE WELL ID
XCOORD      .                                  1254974.65209524 :SURFACE X 
YCOORD      .                                  10682885.5467737 :SURFACE Y 
LAT         .                                         29.430813 :LATITUDE  
LON         .                                        -94.211177 :LONGITUDE 
ELEV        .FT                                             108 :ELEVATION VALUE
ELEV_TYPE   .                                                KB :ELEVATION REFERENCE TYPE
~Curve Information Section
#MNEM       .UNIT                                      API CODE :CURVE DESCRIPTION
#------------------------------------------------------------------------------
DEPT        .FT                                                 :DEPTH     
A28H_COND   .MMHO                                               :          
A28H_UNC    .OHMM                                               :          
AHT10       .OHMM                                               :          
AHT20       .OHMM                                               :          
AHT30       .OHMM                                               :          
AHT60       .OHMM                                               :          
AHT90       .OHMM                                               :          
DCAL        .IN                                                 :          
DPHZ        .V/V                                                :          
DRHO        .G/CC                                               :          
DTCO        .US/F                                               :          
DTSM        .US/F                                               :          
GR          .GAPI                                               :          
GR_ARC_FIL  .GAPI                                               :          
GR_NORM     .GAPI                                               :GammaRay Normalized
GR1         .GAPI                                               :          
GRM1        .GAPI                                               :          
NPOR        .V/V                                                :          
P28H_UNC    .OHMM                                               :          
ROP5        .F/HR                                               :          
ROP5_RM     .F/HR                                               :          
SP          .MV                                                 :          
TENS        .LB                                                 :          
VSH_GR      .V/V                                                :Volume of Shale from GR
~A        DEPTH      A28H_COND       A28H_UNC          AHT10          AHT20          AHT30          AHT60          AHT90           DCAL           DPHZ           DRHO           DTCO           DTSM             GR     GR_ARC_FIL        GR_NORM            GR1           GRM1           NPOR       P28H_UNC           ROP5        ROP5_RM             SP           TENS         VSH_GR
# ...
      9304.0000        -999.25        -999.25         0.5567         0.5537         0.5418         0.5213         0.5859         1.4787         0.2442          0.074       140.7952       365.7426         58.266        -999.25         58.875           58.1          53.63         0.3659        -999.25          28.94        -999.25         5.7166           3242      0.5505319
      9304.5000        -999.25        -999.25         0.5268         0.5176         0.5059         0.4888         0.5126         1.4633         0.2256          0.087       142.7847       363.1683         59.646        -999.25          61.25             60          49.43         0.3897        -999.25          27.29        -999.25         5.8525           3242      0.6010638
      9305.0000        -999.25        -999.25         0.5218         0.5254         0.5054         0.4861         0.5016          1.305         0.2238          0.082        144.577          359.4         61.079        -999.25          62.75           61.2          52.58         0.4123        -999.25          26.64        -999.25         5.8425           3242      0.6329787
      9305.5000        -999.25        -999.25         0.5125         0.5564         0.5299          0.516         0.5159         1.1507          0.246          0.065       146.9685          354.2        63.7968        -999.25           66.5           64.2          54.69         0.4105        -999.25          25.13        -999.25           5.77           3224      0.7127659
      9306.0000        -999.25        -999.25         0.5553         0.5955         0.5734         0.5595         0.5495         1.0542         0.2868          0.047       149.1631          348.2        66.1578        -999.25          70.75           67.6          58.89         0.4212        -999.25          24.48        -999.25         5.4058           3188      0.8031915
      9306.5000        -999.25        -999.25         0.6481         0.6746          0.656         0.6396         0.6197         1.0349         0.3366          0.032       151.5592          340.8        66.5626        -999.25          70.75           67.6          57.84         0.4254        -999.25          25.44        -999.25         3.6041           3170      0.8031915
      9307.0000        -999.25        -999.25          0.833          0.831         0.8179         0.7845         0.7631         0.9076         0.3749          0.025       153.9578       334.4554        63.1196        -999.25             67           64.6          59.94         0.4188        -999.25          24.31        -999.25         0.8024           3206      0.7234042
      9307.5000        -999.25        -999.25         1.1214         0.9818         0.9664         0.9247         0.9113         0.7648         0.3939          0.022       155.9597       328.1188        58.3964        -999.25         60.625           59.5          66.25         0.3671        -999.25          23.53        -999.25        -1.5618           3224      0.5877659
      9308.0000        -999.25        -999.25         1.3468         1.1271         1.1486         1.0877         1.1028         0.6027         0.3921          0.023       157.1653       324.9505        54.0861        -999.25         54.375           54.5          64.15         0.3267        -999.25          21.63        -999.25        -2.7176           3206      0.4547872
      9308.5000        -999.25        -999.25         1.4904         1.3349         1.3475         1.2205         1.3088         0.4638         0.3844          0.025       158.3721       321.5842         53.514        -999.25         51.125           51.9          68.36         0.3146        -999.25          21.24        -999.25        -2.7485           3170      0.3856383
      9309.0000        -999.25        -999.25         1.5835         1.5598         1.5836         1.3901         1.6439         0.3557         0.3832          0.022       159.1806            320        53.7643        -999.25         54.875           54.9          69.41         0.3153        -999.25          21.05        -999.25         -2.946           3170      0.4654255
      9309.5000        -999.25        -999.25         1.5528         1.7722         1.7064         1.6361         1.7448         0.2979         0.3939          0.016       159.5901            317        54.8883        -999.25           54.5           54.6          68.36          0.313        -999.25          21.36        -999.25         -3.206           3170      0.4574468
      9310.0000        -999.25        -999.25         1.5703         1.8124         1.7179         1.6468         1.7158         0.3056         0.4016           0.01            160            314        53.0895        -999.25         51.125           51.9          70.46         0.3041        -999.25          21.33        -999.25        -3.9035           3170      0.3856383
      9310.5000        -999.25        -999.25         1.6036         1.6989         1.5983         1.5773          1.543         0.2979         0.4046          0.007            160            311        50.4337        -999.25         49.375           50.5          73.62         0.2952        -999.25          21.04        -999.25        -4.1426           3170      0.3484043
      9311.0000        -999.25        -999.25         1.5447         1.6928         1.5963         1.5183          1.443         0.2786         0.3992          0.013          159.2          307.8        48.2405        -999.25             45             47          73.62         0.2838        -999.25          21.06        -999.25        -4.2985           3188      0.2553191
      9311.5000        -999.25        -999.25         1.5666         1.6787         1.5912         1.4584          1.369         0.2554          0.398          0.019          158.2          302.8        48.3086        -999.25             46           47.8          75.72           0.27        -999.25          19.94        -999.25        -4.2877           3188      0.2765957
      9312.0000        -999.25        -999.25         1.7816         1.7822          1.677         1.4734          1.365         0.2863         0.4022          0.024          156.8       297.4257        50.9644        -999.25         47.875           49.3          72.56         0.2562        -999.25          20.53        -999.25        -4.8185           3188      0.3164894
      9312.5000        -999.25        -999.25         2.0476         1.9078         1.7712         1.5059         1.3757         0.3017         0.4105          0.024            155       292.6733        53.3118        -999.25          51.75           52.4          75.72         0.2478        -999.25          20.48        -999.25        -5.5994           3152      0.3989362
      9313.0000        -999.25        -999.25         2.0974         1.9734         1.8887          1.553         1.4214          0.321         0.4176          0.023          153.8       286.3366         55.039        -999.25             55             55          70.46         0.2502        -999.25          21.53        -999.25        -6.1302           3134      0.4680851
      9313.5000        -999.25        -999.25         2.1835         1.9962         1.9699         1.6521         1.4312         0.2979         0.4129          0.023          152.4          278.6        54.1104        -999.25         55.125           55.1          69.41         0.2622        -999.25          21.54        -999.25        -6.4736           3152      0.4707447
      9314.0000        -999.25        -999.25         2.2089         2.0547         2.1119         1.7817         1.4856         0.2863         0.4004          0.028          150.8          272.6        53.0277        -999.25          53.75             54          71.51         0.2742        -999.25          21.86        -999.25        -6.1502           3170      0.4414894
      9314.5000        -999.25        -999.25          2.404         2.3274         2.4617         2.1591         1.5999         0.3056         0.3897          0.033          149.2          267.8        51.3866        -999.25             52           52.6          75.72         0.2826        -999.25          21.85        -999.25        -5.8477           3188      0.4042553
