#------------------------------------------------------------------------------
# Created by    : vladimir.rabinovich
# Created on    : 09/19/2023 17:22:50
#------------------------------------------------------------------------------
~Version Information Section
VERS.           2.0     :   CWLS log ASCII Standard - VERSION 2.0
WRAP.           NO      :   One line per depth step
~Well Information Section
#MNEM       .UNIT                                         VALUE :DESCRIPTION
#------------------------------------------------------------------------------
STRT        .FT                                            1142 :START DEPTH
STOP        .FT                                           15630 :STOP DEPTH
STEP        .FT                                             0.5 :STEP      
NULL        .                                           -999.25 :NULL      
COMP        .                                     PRIMARY FUELS :COMPANY   
WELL        .                                ST TR 00520-L SE/4 :WELL      
FLD         .                                          EL GORDO :FIELD     
LOC         .                                                   :LOCATION  
CNTY        .                      MATAGORDA ISLAND LARGE BLOCK :LOCATION  
STAT        .                                             TEXAS :STATE     
CTRY        .                                     UNITED STATES :COUNTRY   
SRVC        .                                                   :SERVICE COMPANY
DATE        .                             9/13/2023 11:19:05 AM :LOG DATE  
API         .                                    42703303520000 :API NUMBER
UWI         .                                    42703303520000 :UNIQUE WELL ID
XCOORD      .                                  629148.716839967 :SURFACE X 
YCOORD      .                                   10306131.761235 :SURFACE Y 
LAT         .                                        28.3634759 :LATITUDE  
LON         .                                       -96.1446235 :LONGITUDE 
ELEV        .FT                                             101 :ELEVATION VALUE
ELEV_TYPE   .                                                KB :ELEVATION REFERENCE TYPE
~Curve Information Section
#MNEM       .UNIT                                      API CODE :CURVE DESCRIPTION
#------------------------------------------------------------------------------
DEPT        .FT                                                 :DEPTH     
DT          .US/F                                               :          
ILD         .OHMM                                               :          
SP          .MV                                                 :          
SP_NORM     .MV                                                 :SP Normalized
VSH_SP      .V/V                                                :Volume of Shale from SP
~A        DEPTH             DT            ILD             SP        SP_NORM         VSH_SP
# ...
      9810.0000        94.4418         1.2029        97.2008       1.437531              1
      9810.5000        91.8816         1.3079        97.5986       1.832405              1
      9811.0000        86.6912         1.4222        98.1611       2.391968              1
      9811.5000        80.7191         1.6067        98.2649       2.492836              1
      9812.0000        79.8396          1.826        96.8398       1.064796              1
      9812.5000        79.8315         2.0391        93.6748      -2.103134      0.9840125
      9813.0000         79.782         2.0908        90.1499      -5.630966      0.9328846
      9813.5000        79.7327         2.1422        87.3398      -8.444008      0.8921158
      9814.0000        82.6429         2.1648        85.5724      -10.21433       0.866459
      9814.5000       106.8317         1.9585        85.3298      -10.45987      0.8629004
      9815.0000       118.8759         1.7788        86.6523      -9.140305      0.8820246
      9815.5000       126.0903         1.5719        87.9598      -7.835739      0.9009313
      9816.0000       130.2783          1.377        89.2098      -6.588669      0.9190048
      9816.5000       129.8503          1.224        90.4624      -5.339005      0.9371158
      9817.0000       128.5227         1.1125        91.3973      -4.407036      0.9506227
      9817.5000       127.1951          1.042        92.1824       -3.62487      0.9619584
      9818.0000       125.6244         0.9996        92.8873      -2.922905      0.9721318
      9818.5000       123.2948         0.9879        93.4561       -2.35704      0.9803327
      9819.0000       120.2035         0.9911        93.9023       -1.91378      0.9867568
      9819.5000        115.449         1.0004        94.2074       -1.61161      0.9911361
      9820.0000       110.7295         1.0408        94.1525      -1.669449      0.9902979
      9820.5000       107.8838         1.0828        94.0801      -1.744774      0.9892062
      9821.0000       108.0378         1.1254        94.0562      -1.771614      0.9888172
      9821.5000        109.085         1.1609        94.1525      -1.678246      0.9901704
      9822.0000       110.2936         1.1976        94.2395      -1.594177      0.9913887
      9822.5000       111.1484          1.217        94.4346      -1.402008      0.9941738
      9823.0000       109.6598         1.2058        94.5902      -1.249344      0.9963863
      9823.5000       108.9922         1.1946        94.7455      -1.096977      0.9985945
      9824.0000       109.5208         1.1524        94.7708      -1.074615      0.9989186
      9824.5000       110.1509         1.1056        94.6333       -1.21505      0.9968833
      9825.0000       110.5103         1.0664        94.4452      -1.406082      0.9941148
      9825.5000       110.3374         1.0486         94.197      -1.657219      0.9904751
      9826.0000       111.9619         1.0335        94.0756      -1.781548      0.9886732
      9826.5000        114.442         1.0315        94.0591      -1.800987      0.9883915
      9827.0000       116.7216         1.0296        94.2773      -1.585716      0.9915113
      9827.5000       119.0211         1.0267        94.7148      -1.151154      0.9978094
      9828.0000       116.4811         1.0227        95.1223      -0.746582              1
      9828.5000       112.1624         1.0188        95.4999     -0.3719177              1
      9829.0000       108.5952         1.0172        95.8424    -0.03234863              1
      9829.5000       110.9149         1.0167        96.1736      0.2959137              1
      9830.0000       114.2166         1.0222        95.9792     0.09857941              1
      9830.5000       117.2025         1.0511        95.4773       -0.40625              1
      9831.0000       116.1003         1.0808        94.7074      -1.179092      0.9974045
      9831.5000       112.1674         1.1555        93.0748      -2.814621      0.9737011
      9832.0000       108.7805         1.2383        90.1798      -5.712555      0.9317021
      9832.5000        104.517          1.315        85.6898      -10.20549      0.8665871
      9833.0000       105.0831         1.3964        80.3099      -15.58833       0.788575
      9833.5000       107.7385         1.4517        72.7098      -23.19135      0.6783862
      9834.0000       110.7245         1.5007        68.9099      -26.99419      0.6232725
      9834.5000       113.6354         1.5301        66.7699      -29.13712      0.5922156
      9835.0000       113.6028         1.5569        65.7637      -30.14626      0.5775905
      9835.5000       112.2676         1.4898        64.5574      -31.35549      0.5600653
      9836.0000       110.1859         1.4085        62.1699      -33.74593      0.5254214
      9836.5000       108.0491         1.3327        56.1199      -39.79886      0.4376976
      9837.0000       105.9774         1.2733        50.6899      -45.23179      0.3589595
      9837.5000       103.9784         1.2267        45.7599      -50.16473      0.2874677
      9838.0000       102.2048         1.2006          40.41      -55.51756      0.2098905
      9838.5000       100.6067         1.1824        34.4349       -61.4956      0.1232522
      9839.0000         99.443         1.1698         31.935      -63.99843      0.0869793
      9839.5000        98.7831         1.1681        30.6675      -65.26886     0.06856725
      9840.0000        99.6422         1.1641        30.1368      -65.80249     0.06083348
      9840.5000        101.561         1.1434        29.7693      -66.17293     0.05546482
      9841.0000       105.0781         1.1231         29.305      -66.64017     0.04869323
      9841.5000       107.3477         1.1067          28.71       -67.2381     0.04002756
      9842.0000       104.4218         1.0915        28.0375      -67.91354     0.03023861
      9842.5000       101.3606         1.0955          29.54      -66.41396     0.05197155
      9843.0000        98.9984         1.1036        31.6575       -64.2994     0.08261739
      9843.5000        98.3534         1.1075          34.61      -61.34983      0.1253648
      9844.0000        98.6777         1.1116        38.2999      -57.66287       0.178799
      9844.5000        99.8401         1.1157          42.02       -53.9457      0.2326711
      9845.0000       101.8215         1.1198        44.8549      -51.11374       0.273714
      9845.5000       104.9779         1.1364        47.0175      -48.95406      0.3050136
      9846.0000       109.4469         1.1541          48.77       -47.2045      0.3303695
      9846.5000       112.6583         1.2005        49.5937      -46.38374      0.3422647
      9847.0000       110.0631         1.2487         48.285      -47.69537      0.3232555
      9847.5000       106.5862          1.329          48.15      -47.83331      0.3212565
      9848.0000       102.8186          1.417           50.7      -45.28624      0.3581705
      9848.5000       100.2358         1.5183        53.5549      -42.43427      0.3995033
      9849.0000        99.0811          1.621        64.0999       -31.8922      0.5522869
      9849.5000          98.28         1.7103        70.3099      -25.68514      0.6422443
      9850.0000        97.8861         1.7312        79.3699      -16.62807      0.7735063
      9850.5000        97.4296          1.703        83.9999      -12.00101      0.8405651
      9851.0000        97.5756         1.6195        87.0299      -8.973938      0.8844357
      9851.5000        101.491         1.5401        89.8599      -6.146873      0.9254076
      9852.0000       107.6133         1.4706        92.1423      -3.867409      0.9584433
      9852.5000       112.4178         1.4056        93.8673       -2.14534      0.9834009
      9853.0000       114.7451         1.3434        95.2323     -0.7832794              1
      9853.5000       116.1104         1.2915        96.2211      0.2025909              1
