#------------------------------------------------------------------------------
# Created by    : vladimir.rabinovich
# Created on    : 09/19/2023 17:22:52
#------------------------------------------------------------------------------
~Version Information Section
VERS.           2.0     :   CWLS log ASCII Standard - VERSION 2.0
WRAP.           NO      :   One line per depth step
~Well Information Section
#MNEM       .UNIT                                         VALUE :DESCRIPTION
#------------------------------------------------------------------------------
STRT        .FT                                             873 :START DEPTH
STOP        .FT                                           11612 :STOP DEPTH
STEP        .FT                                             0.5 :STEP      
NULL        .                                           -999.25 :NULL      
COMP        .                                   MARATHON OIL CO :COMPANY   
WELL        .                               OCS G04137 ST00BP04 :WELL      
FLD         .                       MATAGORDA ISLAND BLOCK 0527 :FIELD     
LOC         .                                                   :LOCATION  
CNTY        .                      MATAGORDA ISLAND LARGE BLOCK :LOCATION  
STAT        .                                             TEXAS :STATE     
CTRY        .                                     UNITED STATES :COUNTRY   
SRVC        .                                                   :SERVICE COMPANY
DATE        .                             9/13/2023 11:19:05 AM :LOG DATE  
API         .                                    42703400590000 :API NUMBER
UWI         .                                    42703400590000 :UNIQUE WELL ID
XCOORD      .                                  609906.580547661 :SURFACE X 
YCOORD      .                                  10277311.7025511 :SURFACE Y 
LAT         .                                         28.282909 :LATITUDE  
LON         .                                        -96.202007 :LONGITUDE 
ELEV        .FT                                              95 :ELEVATION VALUE
ELEV_TYPE   .                                                KB :ELEVATION REFERENCE TYPE
~Curve Information Section
#MNEM       .UNIT                                      API CODE :CURVE DESCRIPTION
#------------------------------------------------------------------------------
DEPT        .FT                                                 :DEPTH     
GR          .GAPI                                               :          
GR_NORM     .GAPI                                               :GammaRay Normalized
ILD         .OHMM                                               :          
SP          .MV                                                 :          
SP_NORM     .MV                                                 :SP Normalized
VSH_GR      .V/V                                                :Volume of Shale from GR
VSH_SP      .V/V                                                :Volume of Shale from SP
~A        DEPTH             GR        GR_NORM            ILD             SP        SP_NORM         VSH_GR         VSH_SP
# ...
      4524.5000        32.2953       39.91847          0.309      -134.1738      -57.80302      0.1472015       0.068803
      4525.0000        33.5243       42.34626         0.3252       -134.821       -58.4556      0.1988565     0.05810497
      4525.5000        34.0886       43.46119         0.3491      -132.8679      -56.50789      0.2225786     0.09003461
      4526.0000        33.2728       41.85027         0.3811      -130.1589      -53.80428      0.1883036      0.1343561
      4526.5000        31.9563       39.25039         0.4144      -130.5652      -54.21595      0.1329869      0.1276074
      4527.0000        30.6361       36.64322          0.432      -131.8816      -55.53774      0.0775153      0.1059386
      4527.5000        29.8915       35.17292         0.4312      -133.7542      -57.41572     0.04623235     0.07515217
      4528.0000        29.4715       34.34374         0.4151      -135.0078       -58.6747     0.02859026     0.05451315
      4528.5000        29.8228       35.03797         0.3835      -136.0981      -59.77039     0.04336109     0.03655105
      4529.0000        30.2321       35.84676         0.3528      -136.7898      -60.46747     0.06056936     0.02512347
      4529.5000        30.7529       36.87578         0.3236      -137.2297      -60.91276     0.08246337     0.01782364
      4530.0000        31.1894        37.7383         0.3003      -137.4731      -61.16154      0.1008148     0.01374529
      4530.5000        31.3948       38.14436         0.2842      -137.1064      -60.80022      0.1094545     0.01966845
      4531.0000          30.98       37.32547         0.2758      -136.6953       -60.3945     0.09203128     0.02631966
      4531.5000        30.2145       35.81388         0.2698      -136.0828      -59.78738     0.05986973     0.03627239
      4532.0000        29.2215       33.85296         0.2655      -134.8845      -58.59448     0.01814806     0.05582816
      4532.5000         28.313       32.05894         0.2639      -134.0759      -57.79126              0     0.06899574
      4533.0000        27.8575       31.15965         0.2669      -133.1599      -56.88064              0     0.08392397
      4533.5000        28.4511       32.33245         0.2733      -132.2546      -55.98072              0     0.09867671
      4534.0000        29.1063       33.62693         0.2821      -131.4033      -55.13482     0.01333886      0.1125439
      4534.5000        29.5465       34.49675         0.2913      -130.7063      -54.44319     0.03184582      0.1238821
      4535.0000        29.7336       34.86667         0.3002      -130.4041      -54.14638     0.03971644      0.1287479
      4535.5000         30.073       35.53739         0.3093      -130.2798      -54.02747     0.05398706      0.1306973
      4536.0000        30.4767       36.33513         0.3187       -130.688      -54.44105     0.07096019      0.1239173
      4536.5000        30.9073         37.186         0.3279      -131.1987      -54.95713     0.08906393      0.1154569
      4537.0000        30.7507       36.87707         0.3373      -131.7375      -55.50132     0.08249088      0.1065357
      4537.5000        31.0768       37.52153         0.3467      -132.0403      -55.80949     0.09620277      0.1014837
      4538.0000        31.8478       39.04471         0.3555      -132.3044      -56.07898      0.1286109     0.09706591
      4538.5000        32.5677       40.46699         0.3607       -132.561      -56.34097      0.1588722     0.09277093
      4539.0000        32.8338       40.99295         0.3608      -132.5969      -56.38224      0.1700628     0.09209442
      4539.5000          32.36        40.0575         0.3535      -132.0271      -55.81783      0.1501596       0.101347
      4540.0000        31.4299       38.22082         0.3464      -130.9824      -54.77853      0.1110812      0.1183848
      4540.5000        30.5365       36.45661         0.3404      -130.3782       -54.1797     0.07354493      0.1282016
      4541.0000        30.0638       35.52336         0.3347      -129.8464      -53.65329     0.05368846      0.1368313
      4541.5000        29.6977       34.80065          0.329      -129.2493      -53.06157     0.03831165      0.1465317
      4542.0000        30.2225       35.83756          0.337      -129.8086      -53.62624     0.06037367      0.1372747
      4542.5000        31.0281        37.4291         0.3557      -130.4917      -54.31474     0.09423617      0.1259879
      4543.0000        32.0524       39.45258         0.3798      -131.4126      -55.24102      0.1372889      0.1108029
      4543.5000         33.091       41.50431          0.403      -132.1948       -56.0286      0.1809428     0.09789176
      4544.0000        33.2784       41.87484         0.4263       -132.908      -56.74719      0.1888263      0.0861116
      4544.5000        32.4857       40.30952         0.4428      -133.6895      -57.53407      0.1555217     0.07321192
      4545.0000        31.7165       38.79064         0.4554      -134.5732      -58.42316      0.1232051     0.05863677
      4545.5000        30.9473       37.27176         0.4544      -135.4436      -59.29894     0.09088841     0.04427963
      4546.0000        30.5521       36.49155         0.4371       -136.394      -60.25472     0.07428839      0.0286111
      4546.5000        30.4669       36.32366         0.4126      -137.3628       -61.2289     0.07071621     0.01264091
      4547.0000        30.7157       36.81544         0.3892      -138.2227      -62.09419      0.0811796              0
      4547.5000        30.5596        36.5075         0.3667      -138.9031      -62.77998     0.07462765              0
      4548.0000        30.2317       35.86023         0.3456      -139.4565      -63.33876     0.06085595              0
      4548.5000        29.6779       34.76678         0.3263      -139.9727      -63.86034     0.03759116              0
      4549.0000        29.6641       34.73991         0.3142      -140.0122      -63.90524     0.03701936              0
      4549.5000        30.7569        36.8987         0.3081      -139.3037      -63.20211     0.08295099              0
      4550.0000        31.8515       39.06104         0.3133       -137.594      -61.49779      0.1289582    0.008232992
      4550.5000         32.834       41.00196         0.3275      -134.9634      -58.87257      0.1702544     0.05126928
      4551.0000        33.5526       42.42167         0.3525      -132.8037      -56.71826       0.200461     0.08658587
      4551.5000         34.161        43.6237          0.389      -131.2603      -55.18024      0.2260362      0.1117993
      4552.0000         34.243       43.78604         0.4314      -130.3926      -54.31792      0.2294902      0.1259357
      4552.5000        33.8842       43.07774         0.4669      -130.0046      -53.93531        0.21442       0.132208
      4553.0000        33.3671       42.05678         0.4998      -129.7766      -53.71269      0.1926974      0.1358575
      4553.5000        32.4672       40.27975         0.5468      -129.7424      -53.68388      0.1548884      0.1363298
      4554.0000        30.9701       37.32316         0.6082      -129.8779      -53.82477     0.09198217      0.1340202
      4554.5000        29.2653       33.95636         0.6672      -130.0452      -53.99745     0.02034816      0.1311893
      4555.0000        28.3438       32.13667         0.7242      -130.1667      -54.12434              0      0.1291092
      4555.5000        27.5993       30.66655         0.7756      -130.2581      -54.22112              0      0.1275226
      4556.0000        26.9675       29.41905          0.821      -130.2014      -54.16981              0      0.1283638
      4556.5000        27.2245       29.92704         0.8476       -130.011      -53.98479              0      0.1313969
      4557.0000        27.5783       30.62621         0.8696      -129.8364      -53.81557              0       0.134171
      4557.5000        27.8689       31.20055         0.8841      -129.7395      -53.72406              0      0.1356712
