#------------------------------------------------------------------------------
# Created by    : vladimir.rabinovich
# Created on    : 09/19/2023 17:20:31
#------------------------------------------------------------------------------
~Version Information Section
VERS.           2.0     :   CWLS log ASCII Standard - VERSION 2.0
WRAP.           NO      :   One line per depth step
~Well Information Section
#MNEM       .UNIT                                         VALUE :DESCRIPTION
#------------------------------------------------------------------------------
STRT        .FT                                            2310 :START DEPTH
STOP        .FT                                           12118 :STOP DEPTH
STEP        .FT                                             0.5 :STEP      
NULL        .                                           -999.25 :NULL      
COMP        .                                   FOREST OIL CORP :COMPANY   
WELL        .                               OCS G01793 ST00BP00 :WELL      
FLD         .                                           WILDCAT :FIELD     
LOC         .                                                   :LOCATION  
CNTY        .                             GALVESTON LARGE BLOCK :LOCATION  
STAT        .                                             TEXAS :STATE     
CTRY        .                                     UNITED STATES :COUNTRY   
SRVC        .                                                   :SERVICE COMPANY
DATE        .                             9/13/2023 11:19:24 AM :LOG DATE  
API         .                                    42706001380000 :API NUMBER
UWI         .                                    42706001380000 :UNIQUE WELL ID
XCOORD      .                                  1024149.02927821 :SURFACE X 
YCOORD      .                                  10425384.3690734 :SURFACE Y 
LAT         .                                         28.714212 :LATITUDE  
LON         .                                        -94.923031 :LONGITUDE 
ELEV        .FT                                              60 :ELEVATION VALUE
ELEV_TYPE   .                                                KB :ELEVATION REFERENCE TYPE
~Curve Information Section
#MNEM       .UNIT                                      API CODE :CURVE DESCRIPTION
#------------------------------------------------------------------------------
DEPT        .FT                                                 :DEPTH     
ASN         .OHMM                                               :          
CALI        .IN                                                 :          
CILD        .MMHO                                               :          
DT          .US/F                                               :          
ILD         .OHMM                                               :          
RHOB        .G/C3                                               :          
SP          .MV                                                 :          
SP_NORM     .MV                                                 :SP Normalized
VSH_SP      .V/V                                                :Volume of Shale from SP
~A        DEPTH            ASN           CALI           CILD             DT            ILD           RHOB             SP        SP_NORM         VSH_SP
      2310.0000         0.0087        -999.25         6.3822        -999.25          0.075        -999.25       -82.1547     -0.9852675      0.9859247
      2310.5000         0.0087        -999.25         6.3867        -999.25         0.0736        -999.25       -82.0195       3.047138              1
      2311.0000         0.0087        -999.25         6.3912        -999.25         0.0722        -999.25       -81.7725      0.4803333              1
      2311.5000         0.0087        -999.25         6.3955        -999.25           0.07        -999.25       -81.4176       3.081167              1
      2312.0000         0.0087        -999.25         6.8787        -999.25         0.0649        -999.25       -81.0541        3.37996              1
      2312.5000         0.0086        -999.25         7.4591        -999.25         0.0598        -999.25       -80.6854     -0.9034104      0.9870942
      2313.0000         0.0086        -999.25         8.0697        -999.25         0.0546        -999.25       -80.3114       2.740918              1
      2313.5000         0.0086        -999.25          9.149        -999.25         0.0472        -999.25       -79.7139       3.648734              1
      2314.0000         0.0088        -999.25        10.2285        -999.25         0.0397        -999.25       -79.1161     -0.7185735      0.9897346
      2314.5000          0.009        -999.25         11.192        -999.25         0.0323        -999.25       -78.5183       2.934373              1
      2315.0000         0.0091        -999.25        11.0131        -999.25         0.0269        -999.25       -79.3152      0.1514956              1
      2315.5000           0.01        -999.25        10.8342        -999.25         0.0268        -999.25       -81.1305      -1.151744      0.9835465
      2316.0000         0.0177        -999.25        10.6554        -999.25         0.0267        -999.25       -82.4314       2.014971              1
      2316.5000         0.0254        -999.25        10.4764        -999.25         0.0525        -999.25       -84.4058       2.174101              1
      2317.0000         0.0333        -999.25         9.9551        -999.25          0.139        -999.25       -86.1501     -0.6346726      0.9909332
      2317.5000         0.0431        -999.25         9.3141        -999.25         0.2255        -999.25       -87.0773       1.191862              1
      2318.0000         0.0529        -999.25         8.6729        -999.25         0.2776        -999.25       -88.1689        3.72808              1
      2318.5000         0.0634        -999.25         8.0317        -999.25         0.2576        -999.25       -89.2607     -0.2209692      0.9968433
      2319.0000         0.0739        -999.25         7.3907        -999.25         0.2346        -999.25       -85.2834        2.31971              1
      2319.5000         0.0644        -999.25         7.0951        -999.25         0.2058        -999.25       -79.4541       2.620503              1
      2320.0000         0.0426        -999.25         6.8871        -999.25         0.1771        -999.25        -76.839        3.22185              1
      2320.5000         0.0296        -999.25         6.6792        -999.25         0.1483        -999.25       -75.9554       1.731583              1
      2321.0000         0.0225        -999.25         6.4683        -999.25         0.1196        -999.25       -75.1354       3.619556              1
      2321.5000         0.0172        -999.25         6.1846        -999.25         0.0983        -999.25       -74.2273     -0.4480702       0.993599
      2322.0000         0.0149        -999.25          5.901        -999.25         0.0793        -999.25       -73.6494       1.599015              1
      2322.5000         0.0128        -999.25         5.6954        -999.25         0.0603        -999.25       -73.1508        2.86072              1
      2323.0000         0.0107        -999.25            5.7        -999.25         0.0414        -999.25       -71.7118       1.694772              1
      2323.5000         0.0168        -999.25         5.7045        -999.25         0.1023        -999.25       -68.9624     -0.4880293      0.9930282
      2324.0000         0.0229        12.3293        12.6584       158.6116         0.1631        -999.25       -65.4342      0.4673008              1
      2324.5000         0.0294        12.3737        72.1919       156.1162         0.2238        -999.25       -61.9061       3.022538              1
      2325.0000         0.0514        12.4664       423.0107       152.7747         0.2847        -999.25       -58.3779       3.706931              1
      2325.5000         0.1107         12.607       773.9287       143.4131         0.3697        -999.25       -56.3961      -4.287868      0.9285355
      2326.0000         0.2477        13.3397       1124.848       130.2283         0.4595        -999.25       -58.4283      -7.132948      0.8811175
      2326.5000         0.3847        13.6101       1475.766       126.6105         0.5493        -999.25       -59.4259      -8.529589      0.8578402
      2327.0000         0.7555         13.774       1472.848       122.8383         0.6664        -999.25       -60.6578      -10.25425      0.8290959
      2327.5000         0.8846        13.8905       1335.457       116.9741         0.7873        -999.25       -62.0062      -12.14201      0.7976332
      2328.0000         0.8975        14.0177       1153.666       117.6376         0.7879        -999.25        -66.243      -18.07352      0.6987746
      2328.5000         0.9077        14.1452       1167.951       124.4064         0.7437        -999.25        -69.696      -22.90773      0.6182045
      2329.0000         0.9173        14.2469       1229.404       131.3508         0.6994        -999.25       -72.0664      -26.22629      0.5628952
      2329.5000         0.9263        14.2842       1340.943       147.8437         0.6552        -999.25       -72.9742      -27.49721      0.5417132
      2330.0000         0.9358        14.3215        1488.18       146.9775          0.611        -999.25        -73.432      -28.13813      0.5310312
      2330.5000           0.95        14.3323       1537.842        141.123          0.636        -999.25       -73.8898      -28.77905      0.5203491
      2331.0000         0.9644        14.3411       1424.061       138.9961         0.6677        -999.25       -74.3475      -29.41983      0.5096694
      2331.5000         0.9792        14.3424       1368.117       137.2617         0.6994        -999.25       -74.8053      -30.06075      0.4989876
      2332.0000         0.9904        14.3049       1243.715       137.2441         0.7311        -999.25       -74.3059      -29.36159      0.5106401
      2332.5000         1.0013         14.263       1143.332       137.6526         0.7767        -999.25        -72.302      -26.55613      0.5573978
      2333.0000         1.0182        14.1968       1127.795       138.3562         0.8339        -999.25       -69.3643      -22.44336      0.6259441
      2333.5000         1.0323        14.1306       1111.547       139.2324          0.891        -999.25       -65.7347      -17.36191      0.7106348
      2334.0000          1.034        14.0645       1083.688       140.2371         0.9312        -999.25       -62.8007      -13.25431      0.7790948
      2334.5000         1.0356        14.1078       1061.711       142.9949         0.9583        -999.25       -61.6882      -11.69681      0.8050531
      2335.0000         1.0372        14.1624       1101.711       145.1223         0.9647        -999.25       -61.0904      -10.85989      0.8190018
      2335.5000         1.0387        14.2296       1178.797       145.7068          0.938        -999.25       -61.8084      -11.86509      0.8022485
      2336.0000         0.9666        14.2969       1227.709       146.1206         0.9112        -999.25       -66.7413      -18.77115      0.6871474
