#------------------------------------------------------------------------------
# Created by    : vladimir.rabinovich
# Created on    : 09/19/2023 17:21:54
#------------------------------------------------------------------------------
~Version Information Section
VERS.           2.0     :   CWLS log ASCII Standard - VERSION 2.0
WRAP.           NO      :   One line per depth step
~Well Information Section
#MNEM       .UNIT                                         VALUE :DESCRIPTION
#------------------------------------------------------------------------------
STRT        .FT                                             404 :START DEPTH
STOP        .FT                                            9564 :STOP DEPTH
STEP        .FT                                             0.5 :STEP      
NULL        .                                           -999.25 :NULL      
COMP        .                               AMOCO PRODUCTION CO :COMPANY   
WELL        .                               OCS G03108 ST00BP01 :WELL      
FLD         .                                           WILDCAT :FIELD     
LOC         .                                                   :LOCATION  
CNTY        .                      MATAGORDA ISLAND LARGE BLOCK :LOCATION  
STAT        .                                             TEXAS :STATE     
CTRY        .                                     UNITED STATES :COUNTRY   
SRVC        .                                                   :SERVICE COMPANY
DATE        .                             9/13/2023 11:12:09 AM :LOG DATE  
API         .                                    42703400030000 :API NUMBER
UWI         .                                    42703400030000 :UNIQUE WELL ID
XCOORD      .                                  482242.907024332 :SURFACE X 
YCOORD      .                                  10146341.7942038 :SURFACE Y 
LAT         .                                         27.913374 :LATITUDE  
LON         .                                         -96.58609 :LONGITUDE 
ELEV        .FT                                              95 :ELEVATION VALUE
ELEV_TYPE   .                                                KB :ELEVATION REFERENCE TYPE
~Curve Information Section
#MNEM       .UNIT                                      API CODE :CURVE DESCRIPTION
#------------------------------------------------------------------------------
DEPT        .FT                                                 :DEPTH     
CALI        .IN                                                 :          
CILD        .MMHO                                               :          
GR          .GAPI                                               :          
GR_NORM     .GAPI                                               :GammaRay Normalized
ILD         .OHMM                                               :          
RHOB        .G/C3                                               :          
SFL         .OHMM                                               :          
SP          .MV                                                 :          
SP_NORM     .MV                                                 :SP Normalized
VSH_GR      .V/V                                                :Volume of Shale from GR
VSH_SP      .V/V                                                :Volume of Shale from SP
~A        DEPTH           CALI           CILD             GR        GR_NORM            ILD           RHOB            SFL             SP        SP_NORM         VSH_GR         VSH_SP
# ...
      6974.0000        13.2473        -999.25        42.8876       44.55219         0.5151         2.2325         2.1943       -111.604       -74.7222      0.2457913      0.0038055
      6974.5000        13.2437        -999.25        43.0019       44.75988         0.5264         2.2212         2.0017      -111.9891       -75.1182      0.2502101              0
      6975.0000        13.2401        -999.25        43.2337       45.18565         0.5415         2.2119         1.7375       -111.776       -74.9161      0.2592691    0.001149321
      6975.5000        13.2383        -999.25        44.4123       47.36848         0.5567         2.2026         1.6934       -111.514        -74.665      0.3057124    0.004589029
      6976.0000        13.2372        -999.25        45.3333       49.07339         0.5494         2.1933         1.6366      -111.4662       -74.6281       0.341987    0.005094554
      6976.5000        13.2361        -999.25        45.4159       49.22226         0.5255         2.1786         1.6018      -111.5996       -74.7725      0.3451545    0.003116451
      6977.0000         13.235        -999.25        44.6388       47.77549         0.4974         2.1637          1.671       -111.838       -75.0218      0.3143721              0
      6977.5000        13.2339        -999.25         43.884       46.37016         0.4737         2.1471         1.7188       -112.114       -75.3088      0.2844714              0
      6978.0000        13.2328        -999.25        43.3181       45.31537         0.4517          2.133         1.7521      -112.4164       -75.6221      0.2620292              0
      6978.5000        13.2317        -999.25        42.8073       44.36288         0.4321         2.1228         1.6256      -112.7278       -75.9444      0.2417634              0
      6979.0000        13.2338        -999.25        42.5222       43.82928         0.4248         2.1319         1.2039      -113.0555       -76.2831      0.2304102              0
      6979.5000        13.2358        -999.25        42.2816       43.37828         0.4228         2.1508         1.0191      -113.4169       -76.6554      0.2208144              0
      6980.0000        13.2378        -999.25        42.2394       43.29531         0.4189          2.168         1.1831       -113.843       -77.0925      0.2190492              0
      6980.5000        13.2399        -999.25        42.1901       43.19936         0.4109         2.1851         1.3258      -114.2609       -77.5213      0.2170077              0
      6981.0000        13.2419        -999.25        42.0961       43.02043         0.4023         2.1799         1.4374      -114.5132       -77.7845      0.2132007              0
      6981.5000         13.244        -999.25        41.9496       42.74409         0.4023         2.1672         1.4818      -114.4839       -77.7662       0.207321              0
      6982.0000        13.2465        -999.25        41.9012       42.64981         0.4098         2.1544         1.5142      -114.5275       -77.8207       0.205315              0
      6982.5000         13.249        -999.25         42.158       43.12197         0.4129         2.1417         1.4766      -114.6396       -77.9438      0.2153611              0
      6983.0000        13.2515        -999.25        42.4549       43.66855          0.411         2.1344         1.4414      -114.5376       -77.8527      0.2269904              0
      6983.5000        13.2541        -999.25        42.3724       43.51099          0.402         2.1273         1.4127       -113.921        -77.247       0.223638              0
      6984.0000        13.2566        -999.25        42.2148       43.21384         0.3971         2.1203         1.3711      -112.9327       -76.2697      0.2173157              0
      6984.5000        13.2592        -999.25        42.6648       44.04457         0.4119         2.1148         1.3723      -112.0232       -75.3711      0.2349908              0
      6985.0000        13.2617        -999.25        44.1586        46.8126         0.4394         2.1328         1.4114      -110.7336       -74.0925       0.293885     0.01243152
      6985.5000        13.2643        -999.25        45.6989       49.66694         0.4717         2.1558         1.0764      -109.3143       -72.6841      0.3546157      0.0317247
      6986.0000        13.2664        -999.25        45.9839       50.19146         0.5051         2.1801           1.05       -108.356       -71.7367      0.3657756     0.04470271
      6986.5000        13.2684        -999.25        43.8385       46.20514         0.5279         2.2138         1.3975      -108.2665       -71.6582      0.2809603     0.04577804
      6987.0000        13.2704        -999.25        40.9243       40.79195         0.5596          2.248         2.4766      -108.6128       -72.0154      0.1657861     0.04088488
      6987.5000        13.2724        -999.25        39.6849       38.48717         0.5985         2.2845         3.1722      -109.0114       -72.4249      0.1167484     0.03527539
      6988.0000        13.2744        -999.25        40.7546       40.46809         0.6301         2.3298         3.5083      -109.5911       -73.0156      0.1588955     0.02718353
      6988.5000        13.2764        -999.25        42.5441       43.78474         0.6544         2.3664         2.7359      -110.2489       -73.6843      0.2294625     0.01802324
      6989.0000        13.2784        -999.25        44.1132       46.69253         0.6599         2.3959         2.1428      -110.9011       -74.3475      0.2913304    0.008938306
      6989.5000        13.2804        -999.25        45.1854       48.67807         0.6443         2.4156         1.9583      -111.5271       -74.9844      0.3335759   0.0002137276
      6990.0000        13.2823        -999.25        45.0315       48.38797         0.6169         2.2042         1.8703      -111.8616       -75.3298      0.3274037              0
      6990.5000         13.284        -999.25        43.9881       46.44698         0.5879         2.1954         1.8202      -111.6632       -75.1424       0.286106              0
      6991.0000        13.2858        -999.25        42.9394       44.49614         0.5658         2.2126         1.7894      -112.0793       -75.5694      0.2445987              0
      6991.5000        13.2876        -999.25        41.9004       42.56331         0.5505         2.1897         1.7635      -112.7941       -76.2952      0.2034747              0
      6992.0000        13.2893        -999.25        41.2401       41.33334         0.5412         2.1916          1.701      -113.3685       -76.8805      0.1773052              0
      6992.5000        13.2911        -999.25        40.8276       40.56311          0.536         2.1937         1.5304      -113.4203       -76.9432      0.1609172              0
      6993.0000        13.2929        -999.25        40.4586       39.87378         0.5285         2.2027         1.4716       -113.077       -76.6109      0.1462507              0
      6993.5000        13.2951        -999.25        39.8931       38.81977         0.5176         2.2116         1.6322      -112.5204       -76.0652      0.1238248              0
      6994.0000         13.298        -999.25        39.2643       37.64827         0.5047         2.2206         1.8135      -112.0088       -75.5646     0.09889944              0
      6994.5000        13.3009        -999.25        38.9936        37.1414         0.4913         2.2224         1.7936      -111.7897       -75.3564      0.0881148              0
      6995.0000        13.3037        -999.25        39.5975       38.25777         0.4792         2.1992         1.7508      -111.3428       -74.9204      0.1118675    0.001090376
      6995.5000        13.3066        -999.25        40.7739       40.43672          0.468         2.1858         1.7273      -110.6244        -74.213      0.1582281     0.01078086
      6996.0000        13.3095        -999.25        41.8173        42.3688         0.4581         2.1725         1.6025      -110.0321       -73.6316      0.1993362     0.01874521
