#------------------------------------------------------------------------------
# Created by    : vladimir.rabinovich
# Created on    : 09/19/2023 17:20:04
#------------------------------------------------------------------------------
~Version Information Section
VERS.           2.0     :   CWLS log ASCII Standard - VERSION 2.0
WRAP.           NO      :   One line per depth step
~Well Information Section
#MNEM       .UNIT                                         VALUE :DESCRIPTION
#------------------------------------------------------------------------------
STRT        .FT                                             723 :START DEPTH
STOP        .FT                                            8219 :STOP DEPTH
STEP        .FT                                             0.5 :STEP      
NULL        .                                           -999.25 :NULL      
COMP        .                                    MOBIL OIL CORP :COMPANY   
WELL        .                               OCS G02338 ST00BP00 :WELL      
FLD         .                                           WILDCAT :FIELD     
LOC         .                                                   :LOCATION  
CNTY        .                             GALVESTON LARGE BLOCK :LOCATION  
STAT        .                                             TEXAS :STATE     
CTRY        .                                     UNITED STATES :COUNTRY   
SRVC        .                                                   :SERVICE COMPANY
DATE        .                             9/13/2023 11:18:53 AM :LOG DATE  
API         .                                    42706400200000 :API NUMBER
UWI         .                                    42706400200000 :UNIQUE WELL ID
XCOORD      .                                  941616.333010477 :SURFACE X 
YCOORD      .                                  10405518.1254327 :SURFACE Y 
LAT         .                                         28.655687 :LATITUDE  
LON         .                                        -95.179294 :LONGITUDE 
ELEV        .FT                                              84 :ELEVATION VALUE
ELEV_TYPE   .                                                KB :ELEVATION REFERENCE TYPE
~Curve Information Section
#MNEM       .UNIT                                      API CODE :CURVE DESCRIPTION
#------------------------------------------------------------------------------
DEPT        .FT                                                 :DEPTH     
ASFL        .OHMM                                               :          
CALI        .IN                                                 :          
CILD        .MMHO                                               :          
DPHI        .%                                                  :          
DT          .US/F                                               :          
GR          .GAPI                                               :          
GR_1        .GAPI                                               :          
GR_NORM     .GAPI                                               :GammaRay Normalized
ILD         .OHMM                                               :          
NPHI        .DEC                                                :          
SP          .MV                                                 :          
SP_NORM     .MV                                                 :SP Normalized
VSH_GR      .V/V                                                :Volume of Shale from GR
VSH_SP      .V/V                                                :Volume of Shale from SP
~A        DEPTH           ASFL           CALI           CILD           DPHI             DT             GR           GR_1        GR_NORM            ILD           NPHI             SP        SP_NORM         VSH_GR         VSH_SP
# ...
      7203.0000           1.09        10.1759       958.2412          28.59       111.7528        -999.25        84.4849       80.37275         1.1312         0.2859        74.8422       -1.44799              1              1
      7203.5000         1.0813        10.1775       970.5947        28.6618       112.0918        -999.25        83.6042       79.49205         1.1306         0.2866        75.1869      -1.114937      0.9891925              1
      7204.0000         1.0725        10.1841       982.3936        28.5486       112.1099        -999.25        82.8773       78.76514           1.13         0.2855        75.2277      -1.085777      0.9737265              1
      7204.5000         1.0638        10.2202       990.8975        28.2604        111.532        -999.25        82.3031       78.19095         1.1293         0.2826        75.1812      -1.143921      0.9615095              1
      7205.0000          1.055        10.2319       999.4004        27.9599       110.2233        -999.25        82.2886       78.17645         1.1287         0.2796        75.1348      -1.201958       0.961201              1
      7205.5000         1.0555        10.1789       1003.149        27.9273       109.1472        -999.25        82.7711       78.65895          1.128         0.2793        75.0883      -1.260109       0.971467              1
      7206.0000         1.0575        10.1187       1002.218        27.7337       108.1805        -999.25        83.2886       79.17645         1.1274         0.2773        75.0417      -1.318352      0.9824775              1
      7206.5000         1.0595        10.0917       999.2617         27.531       108.5464        -999.25         83.708       79.59585          1.126         0.2753        74.9137         -1.458       0.991401              1
      7207.0000         1.0612        10.1114       996.0625        27.2537       110.1213        -999.25         84.118       80.00584         1.1241         0.2725        74.7576       -1.62574              1              1
      7207.5000         1.0624         10.131        992.125        27.6946       111.8231        -999.25        84.4818       80.36964         1.1222         0.2769        74.6011      -1.793884              1              1
      7208.0000         1.0636        10.1528       988.1885        28.3038       112.6246        -999.25        84.7029       80.59075         1.1203          0.283        74.5887      -1.817924              1              1
      7208.5000         1.0647        10.1937        984.251        28.5913       112.2286        -999.25        84.0835       79.97135         1.1184         0.2859         74.705      -1.713264      0.9993905              1
      7209.0000         1.0659        10.2347       980.3076        28.5305       111.2919        -999.25        83.5594       79.44725         1.1165         0.2853        74.8209      -1.609009      0.9882393              1
      7209.5000         1.0671        10.2619       976.3711        28.3214       110.8976        -999.25        83.5381       79.42595         1.1145         0.2832         74.937      -1.504555      0.9877862              1
      7210.0000         1.0683        10.2887       976.8691        28.5314       112.2336        -999.25        83.8164       79.70425         1.1121         0.2853        74.8928      -1.560402      0.9937074              1
      7210.5000         1.0667        10.3176       978.1172        29.0703       113.4615        -999.25        83.8075       79.69535         1.1097         0.2907        74.8372      -1.627647      0.9935181              1
      7211.0000         1.0633        10.3472        981.542        29.5905       114.5476        -999.25        83.9022       79.79005         1.1073         0.2959        74.7814      -1.695084      0.9955329              1
      7211.5000         1.0599        10.3767       990.2188        30.0101       114.0114        -999.25         84.911       80.79885         1.1049         0.3001        74.9297      -1.558426              1              1
      7212.0000         1.0565        10.4722       998.9072        29.6362       113.4491        -999.25        86.2278       82.11565         1.1025         0.2964        75.1913      -1.308472              1              1
      7212.5000         1.0531        10.5613        1008.36        29.1878       112.8849        -999.25        87.1294       83.01725         1.1001         0.2919        75.4525      -1.058914              1              1
      7213.0000         1.0497        10.5902       1021.048        29.2833       113.1716        -999.25        86.8243       82.71215         1.0954         0.2928        75.8125      -0.710556              1              1
      7213.5000         1.0463        10.5726       1033.734        29.5108       113.9368        -999.25         86.019       81.90685         1.0891         0.2951        76.1854     -0.3492966              1              1
      7214.0000         1.0429        10.5464       1046.559           29.7       113.9006        -999.25        85.0555       80.94334         1.0827          0.297        76.5125    -0.03384399              1              1
      7214.5000         1.0393        10.5105       1057.563        29.4865       113.2015        -999.25        84.0958       79.98365         1.0763         0.2949        76.6664      0.1084137      0.9996521              1
      7215.0000         1.0349        10.5771       1059.082        29.2646       112.4563        -999.25        83.7272       79.61505           1.07         0.2926        76.6985      0.1288681      0.9918096              1
      7215.5000         1.0304        10.6809       1059.875        29.0493       111.8177        -999.25        83.9025       79.79034         1.0636         0.2905        76.5929      0.0116272      0.9955392              1
      7216.0000          1.026        10.7912       1060.156        29.1377       111.7937        -999.25        83.3442       79.23205         1.0573         0.2914        76.5302    -0.06272125      0.9836606              1
      7216.5000         1.0215        10.6946       1060.439        29.3031       112.6616        -999.25        82.9465       78.83435         1.0479          0.293         76.488     -0.1165619      0.9751989              1
      7217.0000         1.0171        10.7243       1059.932        29.5909       113.5791        -999.25         82.726       78.61385         1.0373         0.2959        76.5048     -0.1114044      0.9705074              1
      7217.5000         1.0126        10.8019       1058.953        29.4972       114.2141        -999.25        83.2373       79.12514         1.0267          0.295        75.7765     -0.8513489      0.9813861              1
      7218.0000         1.0082        10.6929       1058.127        29.4034         115.08        -999.25        83.9204       79.80825         1.0162          0.294        75.1371      -1.502388      0.9959202              1
      7218.5000         1.0038        10.6524       1057.781        29.4926       115.4271        -999.25        84.3916       80.27945          1.005         0.2949        75.0233      -1.627831              1              1
      7219.0000              1        10.6883       1057.689        29.3839       114.6744        -999.25        84.0389       79.92675         0.9915         0.2938        74.9094      -1.753372      0.9984415              1
      7219.5000         0.9963        10.6623       1061.158        28.9584       114.0338        -999.25        83.7589       79.64675          0.978         0.2896        75.0122      -1.662224      0.9924841              1
      7220.0000         0.9925         10.624       1065.904        28.7039       113.3794        -999.25        84.0415       79.92934         0.9645          0.287        75.2322      -1.453865      0.9984967              1
      7220.5000         0.9888        10.6156       1071.211        28.6117       112.2822        -999.25        84.5892       80.47705         0.9513         0.2861        75.4525      -1.245209              1              1
