#------------------------------------------------------------------------------
# Created by    : vladimir.rabinovich
# Created on    : 09/19/2023 17:20:04
#------------------------------------------------------------------------------
~Version Information Section
VERS.           2.0     :   CWLS log ASCII Standard - VERSION 2.0
WRAP.           NO      :   One line per depth step
~Well Information Section
#MNEM       .UNIT                                         VALUE :DESCRIPTION
#------------------------------------------------------------------------------
STRT        .FT                                             627 :START DEPTH
STOP        .FT                                            8077 :STOP DEPTH
STEP        .FT                                             0.5 :STEP      
NULL        .                                           -999.25 :NULL      
COMP        .                                    MOBIL OIL CORP :COMPANY   
WELL        .                               OCS G02338 ST00BP00 :WELL      
FLD         .                                           WILDCAT :FIELD     
LOC         .                                                   :LOCATION  
CNTY        .                             GALVESTON LARGE BLOCK :LOCATION  
STAT        .                                             TEXAS :STATE     
CTRY        .                                     UNITED STATES :COUNTRY   
SRVC        .                                                   :SERVICE COMPANY
DATE        .                             9/13/2023 11:18:53 AM :LOG DATE  
API         .                                    42706400220000 :API NUMBER
UWI         .                                    42706400220000 :UNIQUE WELL ID
XCOORD      .                                  948421.875172236 :SURFACE X 
YCOORD      .                                   10402667.405867 :SURFACE Y 
LAT         .                                         28.648189 :LATITUDE  
LON         .                                        -95.157922 :LONGITUDE 
ELEV        .FT                                              76 :ELEVATION VALUE
ELEV_TYPE   .                                                KB :ELEVATION REFERENCE TYPE
~Curve Information Section
#MNEM       .UNIT                                      API CODE :CURVE DESCRIPTION
#------------------------------------------------------------------------------
DEPT        .FT                                                 :DEPTH     
ASFL        .OHMM                                               :          
CALI        .IN                                                 :          
CILD        .MMHO                                               :          
DT          .US/F                                               :          
DT_1        .US/F                                               :          
GR          .GAPI                                               :          
GR_NORM     .GAPI                                               :GammaRay Normalized
ILD         .OHMM                                               :          
SFL         .OHMM                                               :          
SP          .MV                                                 :          
SP_NORM     .MV                                                 :SP Normalized
VSH_GR      .V/V                                                :Volume of Shale from GR
VSH_SP      .V/V                                                :Volume of Shale from SP
~A        DEPTH           ASFL           CALI           CILD             DT           DT_1             GR        GR_NORM            ILD            SFL             SP        SP_NORM         VSH_GR         VSH_SP
# ...
      3135.0000          0.952        -999.25       1248.693        -999.25       139.3816        64.7263       77.91374         0.7607         0.8751       -70.0038      -2.503479      0.9556115      0.9832174
      3135.5000         0.9535        -999.25       1242.346        -999.25       139.8889        67.7682       80.26083         0.7698         0.8688       -69.7014      -2.198441              1      0.9933853
      3136.0000          0.955        -999.25       1238.301        -999.25       140.2566         69.738       81.53581         0.7791         0.8701        -69.567      -2.061401              1      0.9979533
      3136.5000         0.9566        -999.25       1234.814        -999.25       139.7322        70.3641       81.46709         0.7885         0.8731        -70.408      -2.899757              1      0.9700081
      3137.0000         0.9581        -999.25       1231.328        -999.25       139.2495        69.9275       80.33569          0.794         0.8788       -71.4373      -3.926422              1      0.9357859
      3137.5000         0.9596        -999.25        1227.84        -999.25       139.8203        68.9344       78.64777         0.7899         0.8812       -71.7726      -4.259071      0.9712293      0.9246976
      3138.0000         0.9611        -999.25       1224.354        -999.25       140.8906        70.0748       79.09336         0.7859         0.8886       -71.2869      -3.770737      0.9807098      0.9409754
      3138.5000         0.9626        -999.25       1220.869        -999.25       141.3655         71.205       79.52875         0.7819         0.8998       -70.4955      -2.976692      0.9899734      0.9674436
      3139.0000         0.9642        -999.25       1218.959        -999.25       140.7937        72.2013       79.83023         0.7779         0.8963        -71.244      -3.722557      0.9963879      0.9425814
      3139.5000         0.9662        -999.25       1219.531        -999.25       139.7888        72.6624       79.59652         0.7756         0.8929       -71.1671      -3.643013      0.9914153      0.9452329
      3140.0000         0.9685        -999.25       1220.104        -999.25        139.123        72.8695        79.1088         0.7736         0.9002       -71.0858      -3.559067      0.9810383      0.9480311
      3140.5000         0.9708        -999.25       1220.676        -999.25       139.2068        72.8472       78.39169         0.7722         0.9212       -71.7218      -4.192429      0.9657806       0.926919
      3141.0000          0.973        -999.25       1221.248        -999.25       140.3687        73.5338       78.38348         0.7724         0.9235        -71.109      -3.576988      0.9656059      0.9474337
      3141.5000         0.9753        -999.25        1221.82        -999.25       141.6633        74.8044       78.95926         0.7726         0.9148       -70.3621      -2.827446      0.9778566      0.9724185
      3142.0000         0.9776        -999.25       1222.393        -999.25       142.5117        76.0703       79.53035         0.7713          0.914       -70.1134      -2.576111      0.9900075      0.9807963
      3142.5000         0.9798        -999.25       1222.965        -999.25       142.5225        77.5035       80.26874          0.769         0.9186       -69.2742      -1.734268              1              1
      3143.0000         0.9821        -999.25       1223.576        -999.25       142.3889          79.74       81.81042         0.7656         0.9305       -70.2765      -2.733917              1      0.9755361
      3143.5000         0.9829        -999.25        1227.41        -999.25       142.8213        81.5076       82.88321         0.7614         0.9464       -73.9834      -6.438179              1      0.8520607
      3144.0000         0.9836        -999.25       1231.242        -999.25       144.2104         81.217        81.8978         0.7545         0.9395        -75.479      -7.931137              1      0.8022954
      3144.5000         0.9828        -999.25       1235.074        -999.25       145.5205        80.2777       80.26368         0.7472         0.9285        -74.194      -6.643501              1      0.8452166
      3145.0000         0.9814        -999.25       1238.908        -999.25       146.3911        81.2543       80.82246          0.738         0.9178       -73.7311      -6.177963              1      0.8607346
      3145.5000           0.98        -999.25       1251.955        -999.25       145.9177        81.6777       81.22128         0.7288         0.9076       -73.3003      -5.744514              1      0.8751829
      3146.0000         0.9786        -999.25       1266.732        -999.25       144.7764        82.3928        81.9118         0.7135         0.9088       -72.7394      -5.180977              1      0.8939674
      3146.5000         0.9778        -999.25        1281.51        -999.25       144.4822        82.7686       82.26302         0.6971         0.9068       -73.6005      -6.039436              1      0.8653521
      3147.0000         0.9793        -999.25       1296.295        -999.25       144.7668        81.4763       80.94614         0.6811         0.8977       -73.2031      -5.639397              1      0.8786868
      3147.5000         0.9809        -999.25       1309.791        -999.25       145.5481        80.7804       80.22565         0.6687         0.8811       -70.2609      -2.694557              1      0.9768481
      3148.0000         0.9824        -999.25       1322.828        -999.25       147.4585         80.374       79.79467         0.6663         0.9032       -68.1157     -0.5467072      0.9956313              1
      3148.5000          0.984        -999.25       1321.227        -999.25        149.292        80.9697        80.3658         0.6723         0.9011       -65.2648       2.306831              1              1
      3149.0000         0.9855        -999.25       1313.912        -999.25       150.0835        82.5333       81.90482         0.6803         0.8854       -62.3322       5.242073              1              1
      3149.5000         0.9864        -999.25       1299.566        -999.25        147.936        83.0352       82.38213         0.6969         0.8648       -60.5309       7.046013              1              1
      3150.0000         0.9873        -999.25       1285.213        -999.25       145.7021        80.6151       79.93745         0.7136         0.8835        -60.245       7.334553      0.9986691              1
      3150.5000         0.9882        -999.25       1270.859        -999.25        142.396        78.9021       78.19987         0.7344          0.932       -61.0189       6.563297      0.9616993              1
      3151.0000         0.9891        -999.25       1256.514        -999.25       138.5811        80.6487       79.92188         0.7541         0.9585       -63.2673       4.317539      0.9983379              1
      3151.5000         0.9899        -999.25        1242.16        -999.25       135.5784        80.7933       80.04191         0.7719         0.9549       -63.3387       4.248779              1              1
      3152.0000         0.9908        -999.25       1227.889        -999.25       135.4705        79.6974       78.92143         0.7937         0.9032       -63.5068       4.083317      0.9770517              1
      3152.5000         0.9895        -999.25        1213.83        -999.25       136.0347        78.3918       77.59125         0.8129         0.8395       -66.2173       1.375458        0.94875              1
      3153.0000          0.987        -999.25       1199.777        -999.25       138.6638        76.9166       76.09147         0.8191         0.8994       -67.2507      0.3447037      0.9168398              1
      3153.5000         0.9844        -999.25       1185.717        -999.25       143.0952        75.3861       74.53638         0.8051         0.9541       -67.2733      0.3247452      0.8837529              1
