#------------------------------------------------------------------------------
# Created by    : vladimir.rabinovich
# Created on    : 09/19/2023 17:20:33
#------------------------------------------------------------------------------
~Version Information Section
VERS.           2.0     :   CWLS log ASCII Standard - VERSION 2.0
WRAP.           NO      :   One line per depth step
~Well Information Section
#MNEM       .UNIT                                         VALUE :DESCRIPTION
#------------------------------------------------------------------------------
STRT        .FT                                             242 :START DEPTH
STOP        .FT                                            8116 :STOP DEPTH
STEP        .FT                                             0.5 :STEP      
NULL        .                                           -999.25 :NULL      
COMP        .                                       HUNT OIL CO :COMPANY   
WELL        .                                     ST TR 00005-L :WELL      
FLD         .                                           WILDCAT :FIELD     
LOC         .                                                   :LOCATION  
CNTY        .                           HIGH ISLAND LARGE BLOCK :LOCATION  
STAT        .                                             TEXAS :STATE     
CTRY        .                                     UNITED STATES :COUNTRY   
SRVC        .                                                   :SERVICE COMPANY
DATE        .                             9/13/2023 11:19:33 AM :LOG DATE  
API         .                                    42708000010000 :API NUMBER
UWI         .                                    42708000010000 :UNIQUE WELL ID
XCOORD      .                                  1328371.56215902 :SURFACE X 
YCOORD      .                                  10754892.1390607 :SURFACE Y 
LAT         .                                        29.6307718 :LATITUDE  
LON         .                                       -93.9824852 :LONGITUDE 
ELEV        .FT                                              11 :ELEVATION VALUE
ELEV_TYPE   .                                                KB :ELEVATION REFERENCE TYPE
~Curve Information Section
#MNEM       .UNIT                                      API CODE :CURVE DESCRIPTION
#------------------------------------------------------------------------------
DEPT        .FT                                                 :DEPTH     
ASN         .OHMM                                               :          
LAT         .OHMM                                               :          
LN          .OHMM                                               :          
SN          .OHMM                                               :          
SP          .MV                                                 :          
SP_NORM     .MV                                                 :SP Normalized
VSH_SP      .V/V                                                :Volume of Shale from SP
~A        DEPTH            ASN            LAT             LN             SN             SP        SP_NORM         VSH_SP
# ...
      1280.5000         1.3753         0.9558         1.3383         1.2805       -60.0678      -9.793442      0.3505465
      1281.0000         1.4267         0.9581         1.3527         1.3066       -59.9249      -9.674187      0.3604845
      1281.5000         1.4645         0.9605         1.3647         1.3357        -59.782      -9.554928      0.3704227
      1282.0000         1.4963         0.9537         1.3768         1.3668       -59.7055      -9.502071      0.3748274
      1282.5000         1.4755         0.9288         1.3888          1.398       -59.7446      -9.564812       0.369599
      1283.0000         1.4569         0.9038         1.4009         1.4202       -59.7838      -9.627655      0.3643621
      1283.5000         1.4403         0.8788         1.4129         1.4251       -59.8229      -9.690399      0.3591334
      1284.0000         1.4268         0.8538          1.423         1.4301       -60.0317       -9.92284      0.3397633
      1284.5000         1.4275           0.85         1.4234          1.435       -60.2416      -10.15638      0.3203014
      1285.0000         1.4283         0.8492         1.4238         1.4383       -60.4515      -10.38993      0.3008394
      1285.5000         1.4292         0.8485         1.4242         1.4391       -60.6613      -10.62337      0.2813857
      1286.0000          1.439         0.8473         1.4246         1.4399       -60.8712      -10.85691      0.2619238
      1286.5000         1.4487         0.8457          1.425         1.4408       -61.0811      -11.09046      0.2424618
      1287.0000         1.4664          0.844         1.4235         1.4416        -61.424        -11.457      0.2119169
      1287.5000         1.4845         0.8424         1.4217         1.4424        -61.772      -11.82864      0.1809467
      1288.0000         1.5026         0.8278         1.4199         1.4432         -62.12      -12.20028      0.1499764
      1288.5000          1.527         0.8129         1.4181         1.4441        -62.468      -12.57193      0.1190062
      1289.0000         1.5579          0.798         1.4163         1.4456        -62.756      -12.88357      0.0930357
      1289.5000         1.5815          0.818         1.4145         1.4533       -62.8957      -13.04691     0.07942422
      1290.0000         1.5706         0.8393         1.4129          1.461       -63.0353      -13.21016     0.06582037
      1290.5000         1.5396         0.8535         1.4117         1.4687       -63.0662       -13.2647     0.06127517
      1291.0000          1.504         0.8489         1.4105         1.4764       -62.8299      -13.05204     0.07899666
      1291.5000         1.4683         0.8442         1.4093         1.4841       -62.5936      -12.83939     0.09671783
      1292.0000         1.4457         0.8396         1.4081         1.4874       -62.3574      -12.62682      0.1144314
      1292.5000         1.4285         0.8349         1.4069         1.4754       -62.1212      -12.41427      0.1321443
      1293.0000         1.4364         0.8278         1.4057         1.4634       -61.8849      -12.20161      0.1498658
      1293.5000         1.4521         0.8155         1.4038         1.4514       -61.7067      -12.04705      0.1627455
      1294.0000         1.4678         0.8032         1.4013         1.4394       -61.5941       -11.9581      0.1701584
      1294.5000         1.4799         0.7909         1.3988         1.4274       -61.4816      -11.86924       0.177563
      1295.0000         1.4902         0.7826         1.3963         1.4154        -61.369      -11.78028      0.1849766
      1295.5000         1.4591         0.8013         1.3938         1.4034       -61.2565      -11.69143      0.1923812
      1296.0000         1.4258           0.82         1.3945         1.3965        -61.144      -11.60257      0.1997859
      1296.5000          1.403         0.8386         1.3973         1.3965       -61.1454      -11.62761      0.1976989
      1297.0000         1.3875         0.8506         1.4001         1.3965       -61.2255      -11.73135      0.1890538
      1297.5000          1.372         0.8593         1.4028         1.3965       -61.3056      -11.83509      0.1804088
      1298.0000         1.3706         0.8679         1.4056         1.3965       -61.3857      -11.93884      0.1717634
      1298.5000         1.3797         0.8765          1.408         1.3965       -61.4658      -12.04258       0.163118
      1299.0000         1.4003         0.8852         1.4104         1.3966       -61.5494      -12.14983      0.1541812
      1299.5000          1.421         0.8984         1.4128         1.3966       -61.7897      -12.41377      0.1321859
      1300.0000         1.4417         0.9118         1.4146         1.3966       -62.0299      -12.67761      0.1101993
      1300.5000         1.4648         0.9251          1.416         1.3995       -62.2702      -12.94155     0.08820406
      1301.0000         1.4537         0.9384         1.4173         1.4099       -62.5104      -13.20539      0.0662171
      1301.5000         1.4643         0.9518         1.4187         1.4203       -62.7507      -13.46934     0.04422156
      1302.0000         1.4874         0.9651         1.4181         1.4306       -62.9909      -13.73318     0.02223492
      1302.5000         1.5101         0.9722         1.4158          1.441       -63.1029      -13.86882     0.01093133
      1303.0000         1.5201          0.979         1.4135         1.4514       -63.1318      -13.92137    0.006552696
      1303.5000           1.53         0.9859         1.4112         1.4617       -63.1606      -13.97381    0.002182643
      1304.0000           1.54         0.9928         1.4088         1.4772       -63.1895      -14.02635              0
      1304.5000           1.55         0.9996         1.4044         1.4942       -63.1199       -13.9804    0.001633644
      1305.0000         1.5663         0.9983         1.3955         1.5111       -62.9091      -13.79324     0.01723003
      1305.5000         1.5857         0.9862         1.3867          1.528       -62.6982      -13.60598     0.03283501
      1306.0000         1.6052         0.9741         1.3779         1.5449       -62.4873      -13.41872     0.04843966
      1306.5000         1.6275          0.962         1.3691         1.5618       -62.2764      -13.23147     0.06404432
      1307.0000         1.6505         0.9499         1.3644         1.5766       -62.0655      -13.04421     0.07964929
      1307.5000         1.6762         0.9369         1.3691         1.5912       -61.8546      -12.85695     0.09525394
      1308.0000         1.7068         0.9227         1.3738         1.6057       -61.6437      -12.66969      0.1108589
      1308.5000          1.594         0.9085         1.3784         1.6203       -61.4328      -12.48244      0.1264636
      1309.0000         1.5289         0.8943         1.3831         1.6116       -61.2289      -12.30218      0.1414849
      1309.5000         1.4874         0.8802         1.3878         1.5878       -61.1911      -12.28802      0.1426646
      1310.0000         1.4467         0.8689         1.3924         1.5639       -61.1532      -12.27377      0.1438529
      1310.5000         1.4285         0.8633          1.397         1.5401       -61.1154      -12.25961      0.1450329
      1311.0000         1.4242         0.8576         1.4016         1.5163       -61.0775      -12.24535      0.1462208
      1311.5000         1.4341          0.852         1.4061         1.4982       -61.1628      -12.35429      0.1371422
      1312.0000          1.444         0.8464         1.4107         1.4936        -61.308      -12.52314       0.123072
      1312.5000         1.4541         0.8416         1.4153         1.4891       -61.4532      -12.69198      0.1090015
      1313.0000         1.4767         0.8372         1.4199         1.4846       -61.5984      -12.86082     0.09493128
      1313.5000         1.4993         0.8328         1.4241         1.4801       -61.7436      -13.02966     0.08086141
