#------------------------------------------------------------------------------
# Created by    : vladimir.rabinovich
# Created on    : 09/19/2023 17:22:50
#------------------------------------------------------------------------------
~Version Information Section
VERS.           2.0     :   CWLS log ASCII Standard - VERSION 2.0
WRAP.           NO      :   One line per depth step
~Well Information Section
#MNEM       .UNIT                                         VALUE :DESCRIPTION
#------------------------------------------------------------------------------
STRT        .FT                                            1142 :START DEPTH
STOP        .FT                                           15630 :STOP DEPTH
STEP        .FT                                             0.5 :STEP      
NULL        .                                           -999.25 :NULL      
COMP        .                                     PRIMARY FUELS :COMPANY   
WELL        .                                ST TR 00520-L SE/4 :WELL      
FLD         .                                          EL GORDO :FIELD     
LOC         .                                                   :LOCATION  
CNTY        .                      MATAGORDA ISLAND LARGE BLOCK :LOCATION  
STAT        .                                             TEXAS :STATE     
CTRY        .                                     UNITED STATES :COUNTRY   
SRVC        .                                                   :SERVICE COMPANY
DATE        .                             9/13/2023 11:19:05 AM :LOG DATE  
API         .                                    42703303520000 :API NUMBER
UWI         .                                    42703303520000 :UNIQUE WELL ID
XCOORD      .                                  629148.716839967 :SURFACE X 
YCOORD      .                                   10306131.761235 :SURFACE Y 
LAT         .                                        28.3634759 :LATITUDE  
LON         .                                       -96.1446235 :LONGITUDE 
ELEV        .FT                                             101 :ELEVATION VALUE
ELEV_TYPE   .                                                KB :ELEVATION REFERENCE TYPE
~Curve Information Section
#MNEM       .UNIT                                      API CODE :CURVE DESCRIPTION
#------------------------------------------------------------------------------
DEPT        .FT                                                 :DEPTH     
DT          .US/F                                               :          
ILD         .OHMM                                               :          
SP          .MV                                                 :          
SP_NORM     .MV                                                 :SP Normalized
VSH_SP      .V/V                                                :Volume of Shale from SP
~A        DEPTH             DT            ILD             SP        SP_NORM         VSH_SP
# ...
     10778.0000       100.8284         0.6798         5.4904      -94.81541              0
     10778.5000       102.1757         0.6165          5.164       -95.1473              0
     10779.0000       102.9214         0.5772         5.5498        -94.767              0
     10779.5000       103.4834         0.5599         6.6183      -93.70399              0
     10780.0000        103.528         0.5752         8.1164      -92.21138              0
     10780.5000       103.0768         0.6077        10.3823      -89.95098              0
     10781.0000       102.5216         0.6541        13.6686      -86.67017              0
     10781.5000       102.0221         0.7144        18.5056      -81.83867     0.03763489
     10782.0000       101.7263         0.7827        23.1674      -77.18236     0.09306717
     10782.5000       101.5885         0.8654        27.5292      -72.82606      0.1449279
     10783.0000       101.6217          0.957        31.0586      -69.30215      0.1868792
     10783.5000       102.1418         1.0488        33.2813      -67.08495      0.2132744
     10784.0000       102.8988         1.1486        35.0395      -65.33223      0.2341401
     10784.5000       104.0894         1.2128        36.5401      -63.83714      0.2519389
     10785.0000       105.3076         1.2767        38.2458      -62.13693      0.2721794
     10785.5000       106.8491         1.3541        42.9652      -57.42302      0.3282973
     10786.0000       109.3958         1.4363        48.4374      -51.95631      0.3933772
     10786.5000       112.0376         1.5658        52.9192      -47.48001      0.4466666
     10787.0000       113.6655         1.7255        55.4552       -44.9495      0.4767917
     10787.5000       109.8068          1.898        57.2684       -43.1418      0.4983119
     10788.0000       104.6033         2.0714        59.0516      -41.36409      0.5194751
     10788.5000        98.8081         2.2607        61.0525      -39.36869      0.5432299
     10789.0000        92.7925         2.5057        65.2041      -35.22258      0.5925883
     10789.5000        86.7719         2.7199        68.7555      -31.67667      0.6348015
     10790.0000        83.1223         2.8597        72.7871      -27.65057      0.6827313
     10790.5000        80.5907         2.9296        77.8292      -22.61396      0.7426909
     10791.0000        80.6041         2.8974         82.246      -18.20265      0.7952065
     10791.5000        80.3523         2.7297        85.0221      -15.43204        0.82819
     10792.0000         82.606         2.5427        87.7832      -12.67645      0.8609947
     10792.5000        91.6896         2.3666        90.6293      -9.835838      0.8948115
     10793.0000         99.941         2.1974        94.1357      -6.334938      0.9364888
     10793.5000       107.3605         2.0425        96.8494      -3.626724      0.9687295
     10794.0000       111.3759         1.9519        98.2937       -2.18792      0.9858581
     10794.5000       114.0629         1.8656        98.3436      -2.143517      0.9863867
     10795.0000        115.226         1.7883        96.6693      -3.823311      0.9663892
     10795.5000       112.1478         1.7164        93.9056      -6.592499      0.9334226
     10796.0000       108.0322         1.6773        89.5439       -10.9597      0.8814321
     10796.5000        104.894         1.7101        83.9617      -16.54739       0.814912
     10797.0000       102.3298         1.7549        76.8688      -23.64579      0.7304072
     10797.5000       100.9036         1.8049        65.8944      -34.62568      0.5996943
     10798.0000       100.2758         1.8563        56.5206      -44.00497       0.488036
     10798.5000       100.1377          1.879        49.4378      -51.09327      0.4036516
     10799.0000       100.4349         1.8794        38.7335      -61.80306      0.2761541
     10799.5000       100.8867         1.8753        35.2521      -65.28995      0.2346435
     10800.0000       101.7271         1.8146        29.6501      -70.89745      0.1678875
     10800.5000       102.3759         1.7557        26.4788      -74.07425      0.1300685
     10801.0000       102.2283         1.6987         24.558      -76.00054      0.1071364
     10801.5000       101.6919         1.6617        23.1975      -77.36653     0.09087463
     10802.0000       101.1567         1.6318        22.4572      -78.11233      0.0819961
     10802.5000        100.955         1.6024        22.3564      -78.21862     0.08073071
     10803.0000       100.7573         1.5735        22.5003      -78.08022     0.08237839
     10803.5000       100.5691         1.5548        22.6478       -77.9382     0.08406903
     10804.0000       100.5812          1.538        22.6758      -77.91571     0.08433678
     10804.5000       100.5933         1.5217        22.5497       -78.0473     0.08277021
     10805.0000       100.6807         1.5144        22.2771      -78.32539      0.0794596
     10805.5000       100.7766         1.5071        21.7369      -78.87109     0.07296326
     10806.0000       100.9469         1.4999        21.0479      -79.56558     0.06469545
     10806.5000       101.1775         1.4923        20.2738      -80.34517     0.05541465
     10807.0000       101.2336         1.4839        19.3972      -81.22726     0.04491352
     10807.5000       101.1311         1.4755        18.5206      -82.10936     0.03441238
     10808.0000       100.3986         1.4673        17.9503      -82.68516     0.02755764
     10808.5000        99.5588          1.459        17.4439      -83.19705     0.02146367
     10809.0000        98.6729         1.4492        16.9706      -83.67584     0.01576378
     10809.5000        99.3596         1.4272        16.5104      -84.14154     0.01021976
     10810.0000       100.6906         1.4055        16.1271      -84.53033    0.005591256
     10810.5000       102.0441         1.3841         15.802      -84.86092    0.001655669
     10811.0000       103.3086         1.3631        15.4762      -85.19221              0
     10811.5000        103.526         1.3415        15.2415      -85.43241              0
     10812.0000       103.1218         1.3203        15.1266      -85.55281              0
     10812.5000       102.6744         1.2993        15.0117       -85.6732              0
     10813.0000       102.5514         1.2792        15.0261       -85.6643              0
     10813.5000       102.6521         1.2624         15.198      -85.49789              0
     10814.0000       102.8912         1.2458        15.3699      -85.33148              0
     10814.5000        103.184         1.2294        15.7207      -84.98618   0.0001645769
     10815.0000       103.4369         1.2187        16.2147      -84.49767    0.005980083
     10815.5000       103.5044         1.2207        16.7086      -84.00926      0.0117945
     10816.0000       103.5721         1.2226        17.2326      -83.49077     0.01796704
     10816.5000       103.5198         1.2396        17.9641      -82.76476     0.02661006
     10817.0000        103.333         1.2762        18.6969      -82.03745     0.03526842
     10817.5000       103.1464         1.3139        19.4384      -81.30145     0.04403042
     10818.0000        102.895         1.3527        20.4764      -80.26894     0.05632219
     10818.5000       102.2208         1.3995        21.5143      -79.23653     0.06861269
     10819.0000       101.5453         1.4481        22.6848      -78.07153     0.08248184
     10819.5000       100.6617         1.4983        23.8702      -76.89162     0.09652837
     10820.0000         99.723         1.5515        25.1708      -75.59652      0.1119462
     10820.5000        98.8433         1.6127        26.5238      -74.24901       0.127988
     10821.0000        98.0374         1.6762         28.177       -72.6013      0.1476035
     10821.5000        96.9784         1.7469        29.8281       -70.9557      0.1671941
