#------------------------------------------------------------------------------
# Created by    : vladimir.rabinovich
# Created on    : 09/19/2023 17:22:56
#------------------------------------------------------------------------------
~Version Information Section
VERS.           2.0     :   CWLS log ASCII Standard - VERSION 2.0
WRAP.           NO      :   One line per depth step
~Well Information Section
#MNEM       .UNIT                                         VALUE :DESCRIPTION
#------------------------------------------------------------------------------
STRT        .FT                                             890 :START DEPTH
STOP        .FT                                            9495 :STOP DEPTH
STEP        .FT                                             0.5 :STEP      
NULL        .                                           -999.25 :NULL      
COMP        .                                   MARATHON OIL CO :COMPANY   
WELL        .                               OCS G04138 ST00BP00 :WELL      
FLD         .                                           WILDCAT :FIELD     
LOC         .                                                   :LOCATION  
CNTY        .                      MATAGORDA ISLAND LARGE BLOCK :LOCATION  
STAT        .                                             TEXAS :STATE     
CTRY        .                                     UNITED STATES :COUNTRY   
SRVC        .                                                   :SERVICE COMPANY
DATE        .                             9/13/2023 11:12:11 AM :LOG DATE  
API         .                                    42703402070000 :API NUMBER
UWI         .                                    42703402070000 :UNIQUE WELL ID
XCOORD      .                                  590883.400226114 :SURFACE X 
YCOORD      .                                  10259990.6406746 :SURFACE Y 
LAT         .                                         28.233929 :LATITUDE  
LON         .                                        -96.259589 :LONGITUDE 
ELEV        .FT                                              90 :ELEVATION VALUE
ELEV_TYPE   .                                                KB :ELEVATION REFERENCE TYPE
~Curve Information Section
#MNEM       .UNIT                                      API CODE :CURVE DESCRIPTION
#------------------------------------------------------------------------------
DEPT        .FT                                                 :DEPTH     
SP          .MV                                                 :          
SP_NORM     .MV                                                 :SP Normalized
VSH_SP      .V/V                                                :Volume of Shale from SP
~A        DEPTH             SP        SP_NORM         VSH_SP
# ...
      3728.0000        36.2121      -12.04883      0.7716174
      3728.5000         39.205      -15.03995      0.7036376
      3729.0000        41.3787      -17.21185       0.654276
      3729.5000        44.0135      -19.84486      0.5944349
      3730.0000        46.5295      -22.35907      0.5372938
      3730.5000        48.1182      -23.94598      0.5012277
      3731.0000        49.7881       -25.6141       0.463316
      3731.5000        52.7701       -28.5943       0.395584
      3732.0000        54.7715      -30.59391      0.3501383
      3732.5000        56.8675      -32.68813      0.3025426
      3733.0000        58.6279      -34.44673      0.2625743
      3733.5000         59.756      -35.57304      0.2369763
      3734.0000        60.8835      -36.69875       0.211392
      3734.5000         62.011      -37.82447      0.1858076
      3735.0000         63.002      -38.81367      0.1633256
      3735.5000        63.8042      -39.61408      0.1451345
      3736.0000         64.381      -40.18909       0.132066
      3736.5000        64.5405       -40.3468      0.1284818
      3737.0000        64.3541      -40.15862      0.1327587
      3737.5000        62.7064      -38.50912      0.1702472
      3738.0000        54.2836      -30.08454      0.3617151
      3738.5000        45.8607      -21.65985      0.5531853
      3739.0000        39.4914      -15.28876      0.6979828
      3739.5000        33.4983      -9.293865      0.8342304
      3740.0000        30.9387      -6.732475      0.8924437
      3740.5000          29.31      -5.101986      0.9295003
      3741.0000         27.961      -3.751196      0.9602001
      3741.5000         26.933      -2.721407      0.9836044
      3742.0000        25.3941      -1.180717              1
      3742.5000        25.2763      -1.061127              1
      3743.0000        26.8863      -2.669336      0.9847878
      3743.5000        28.4641      -4.245346      0.9489694
      3744.0000        29.6322      -5.411657      0.9224623
      3744.5000        30.6474      -6.425066      0.8994303
      3745.0000        30.8792      -6.655077      0.8942028
      3745.5000        31.0493      -6.823387      0.8903776
      3746.0000        31.0464      -6.818697      0.8904842
      3746.5000        30.7415      -6.512009      0.8974543
      3747.0000        30.4364      -6.205116      0.9044292
      3747.5000        30.1315      -5.898428      0.9113994
      3748.0000        29.6082      -5.373337      0.9233332
      3748.5000        29.0421      -4.805449      0.9362398
      3749.0000        28.4759      -4.237459      0.9491487
      3749.5000        27.8969      -3.656668      0.9623485
      3750.0000        27.3111      -3.069078      0.9757028
      3750.5000        26.7358      -2.491987      0.9888185
      3751.0000        26.3292      -2.083599         0.9981
      3751.5000        25.9229      -1.675507              1
      3752.0000        25.5508      -1.301619              1
      3752.5000          25.43      -1.179029              1
      3753.0000        25.3091      -1.056337              1
      3753.5000        25.1882     -0.9336491              1
      3754.0000         25.064     -0.8076572              1
      3754.5000        24.8775     -0.6193695              1
      3755.0000        24.6912     -0.4312782              1
      3755.5000        24.5049     -0.2431889              1
      3756.0000        24.2535     0.01000023              1
      3756.5000        23.9835      0.2817917              1
      3757.0000        23.8358      0.4312801              1
      3757.5000        23.8094      0.4594707              1
      3758.0000         23.783      0.4876595              1
      3758.5000        23.7566       0.515852              1
      3759.0000        23.7302      0.5440407              1
      3759.5000        23.6989      0.5771294              1
      3760.0000        23.6541      0.6237202              1
      3760.5000        23.6092      0.6704102              1
      3761.0000        23.5644       0.717001              1
      3761.5000        23.5195       0.763689              1
      3762.0000        23.5614      0.7235813              1
      3762.5000        23.7193      0.5674706              1
      3763.0000        23.8772      0.4113598              1
      3763.5000        24.2226     0.06774902              1
      3764.0000        24.6625     -0.3703613              1
      3764.5000        25.1022     -0.8082695              1
      3765.0000        25.5421      -1.246382              1
      3765.5000        25.9818      -1.684292              1
      3766.0000        26.4933         -2.194      0.9955909
      3766.5000        27.0389      -2.737812      0.9832315
      3767.0000        27.5844      -3.281521      0.9708745
      3767.5000        28.3063      -4.001631      0.9545084
      3768.0000        29.2372       -4.93074      0.9333923
      3768.5000         30.168      -5.859751      0.9122784
      3769.0000        33.3685      -9.058462      0.8395804
      3769.5000         36.149      -11.83717       0.776428
      3770.0000        38.1727      -13.85908      0.7304754
      3770.5000        39.1285      -14.81309      0.7087933
      3771.0000        39.9323       -15.6151      0.6905658
      3771.5000        40.3923      -16.07331       0.680152
      3772.0000        39.7566      -15.43582      0.6946404
      3772.5000        36.7339      -12.41133      0.7633789
      3773.0000        34.1622      -9.837843      0.8218672
      3773.5000        30.9399      -6.613752       0.895142
      3774.0000        29.8334      -5.505463      0.9203304
      3774.5000         29.256      -4.926273      0.9334938
      3775.0000        28.7945      -4.462982      0.9440231
      3775.5000        28.4398      -4.106493      0.9521251
      3776.0000        28.0851      -3.750004      0.9602272
      3776.5000        27.4591      -3.122213      0.9744952
      3777.0000        26.7837      -2.445024      0.9898858
      3777.5000        26.3095      -1.969032              1
      3778.0000        25.8355      -1.493244              1
      3778.5000        25.4341      -1.090052              1
      3779.0000         25.036     -0.6901627              1
      3779.5000        24.6908      -0.343174              1
      3780.0000        24.4125    -0.06308365              1
      3780.5000        24.4213    -0.07009506              1
      3781.0000        24.9156      -0.562603              1
      3781.5000        25.4102      -1.055414              1
      3782.0000        25.9044      -1.547823              1
      3782.5000        26.5446      -2.186234      0.9957674
      3783.0000        27.8572      -3.497046      0.9659762
      3783.5000        29.1698      -4.807854      0.9361851
      3784.0000        36.4135      -12.04977      0.7715962
      3784.5000        42.9406      -18.57508      0.6232938
      3785.0000        47.0865      -22.71918      0.5291095
      3785.5000        50.7008       -26.3317      0.4470069
      3786.0000        55.0433      -30.67241      0.3483544
      3786.5000        58.8445      -34.47182      0.2620042
      3787.0000        62.5256      -38.15112      0.1783836
      3787.5000        64.2842      -39.90794       0.138456
      3788.0000        65.7745      -41.39644      0.1046263
      3788.5000        66.8043      -42.42445     0.08126242
      3789.0000        67.5841      -43.20246     0.06358042
      3789.5000        68.1652      -43.78178     0.05041417
      3790.0000        68.6874      -44.30219      0.0385867
      3790.5000        69.1561      -44.76909     0.02797517
      3791.0000         69.499      -45.11021     0.02022258
      3791.5000        69.8418      -45.45121      0.0124725
      3792.0000        70.0243      -45.63193    0.008365285
      3792.5000         70.162      -45.76784     0.00527642
      3793.0000        70.2997      -45.90374    0.002187642
      3793.5000        70.4368      -46.03905              0
