#------------------------------------------------------------------------------
# Created by    : vladimir.rabinovich
# Created on    : 09/19/2023 17:20:36
#------------------------------------------------------------------------------
~Version Information Section
VERS.           2.0     :   CWLS log ASCII Standard - VERSION 2.0
WRAP.           NO      :   One line per depth step
~Well Information Section
#MNEM       .UNIT                                         VALUE :DESCRIPTION
#------------------------------------------------------------------------------
STRT        .FT                                             498 :START DEPTH
STOP        .FT                                            9565 :STOP DEPTH
STEP        .FT                                             0.5 :STEP      
NULL        .                                           -999.25 :NULL      
COMP        .                       BLUE DOLPHIN EXPLORATION CO :COMPANY   
WELL        .                                OCS 00714 ST00BP00 :WELL      
FLD         .                              GALVESTON BLOCK 0288 :FIELD     
LOC         .                                                   :LOCATION  
CNTY        .                             GALVESTON LARGE BLOCK :LOCATION  
STAT        .                                             TEXAS :STATE     
CTRY        .                                     UNITED STATES :COUNTRY   
SRVC        .                                                   :SERVICE COMPANY
DATE        .                             9/13/2023 11:19:25 AM :LOG DATE  
API         .                                    42706000390000 :API NUMBER
UWI         .                                    42706000390000 :UNIQUE WELL ID
XCOORD      .                                  1097340.72850425 :SURFACE X 
YCOORD      .                                  10481267.2561277 :SURFACE Y 
LAT         .                                        28.8709496 :LATITUDE  
LON         .                                       -94.6972159 :LONGITUDE 
ELEV        .FT                                              85 :ELEVATION VALUE
ELEV_TYPE   .                                                KB :ELEVATION REFERENCE TYPE
~Curve Information Section
#MNEM       .UNIT                                      API CODE :CURVE DESCRIPTION
#------------------------------------------------------------------------------
DEPT        .FT                                                 :DEPTH     
ASN         .OHMM                                               :          
CALI        .IN                                                 :          
DT          .US/F                                               :          
ILD         .OHMM                                               :          
SP          .MV                                                 :          
SP_1        .MV                                                 :          
SP_NORM     .MV                                                 :SP Normalized
VSH_SP      .V/V                                                :Volume of Shale from SP
~A        DEPTH            ASN           CALI             DT            ILD             SP           SP_1        SP_NORM         VSH_SP
# ...
      4097.0000         0.8027        10.5316       131.3254         0.7954       -61.6235        -999.25      -3.086914       0.971397
      4097.5000         0.8029         10.535       134.9299         0.7948       -61.8058        -999.25      -3.269215      0.9665996
      4098.0000         0.8031        10.5348       137.2131         0.7942       -61.9882        -999.25      -3.451614      0.9617996
      4098.5000         0.8012        10.5415       135.4187         0.8003       -61.9908        -999.25      -3.454212      0.9617313
      4099.0000         0.7916        10.5563       133.5649         0.8065       -61.8333        -999.25      -3.296715      0.9658759
      4099.5000          0.782        10.5571       136.0083         0.8127       -61.4915        -999.25      -2.954914      0.9748707
      4100.0000         0.7715        10.5079       143.3879         0.8189       -60.9675        -999.25      -2.430912      0.9886602
      4100.5000         0.7646        10.5803       148.1189         0.8419       -60.4197        -999.25      -1.883114              1
      4101.0000         0.7765         10.683       149.0952         0.8648       -60.1234        -999.25      -1.586815              1
      4101.5000         0.8171        10.7211       148.7185         0.8878       -60.7839        -999.25      -2.247314      0.9934917
      4102.0000         0.8967        10.7157       147.2412         0.9107       -61.5424        -999.25      -3.005814      0.9735312
      4102.5000         0.9432        10.7016       144.5962         0.9284       -61.7854        -999.25      -3.248814      0.9671365
      4103.0000         0.9693        10.6799       143.6719         0.9459        -61.855        -999.25      -3.318413      0.9653049
      4103.5000         0.9777        10.7471       145.0916         0.9618       -62.4989        -999.25      -3.962315      0.9483601
      4104.0000         0.9858        10.9014       145.9104         0.9659       -62.7649        -999.25      -4.228313      0.9413602
      4104.5000         0.9934        10.9385       144.8931         0.9701       -62.5145        -999.25      -3.977913      0.9479496
      4105.0000          1.001        10.9244       143.7805         0.9742       -62.5415        -999.25      -4.004913      0.9472391
      4105.5000          1.008        10.8962       144.9485         0.9648       -62.5222        -999.25      -3.985615       0.947747
      4106.0000         1.0102        10.9402       148.0376         0.9492       -61.9313        -999.25      -3.394714       0.963297
      4106.5000         0.9978        11.0613        148.147         0.9335       -61.0872        -999.25      -2.550613      0.9855102
      4107.0000         0.9853        11.1366       147.1592         0.9178       -60.3596        -999.25      -1.823013              1
      4107.5000         0.9631        11.1281       146.8057         0.9021       -60.0013        -999.25      -1.464714              1
      4108.0000         0.9416        11.0862       144.4302         0.8848       -59.8076        -999.25      -1.271011              1
      4108.5000         0.9186        11.0817        143.603         0.8623       -59.8884        -999.25      -1.351814              1
      4109.0000         0.8165        11.0585       146.8132         0.8399       -60.0149        -999.25      -1.478313              1
      4109.5000         0.7972        10.8214       149.4141         0.8174       -60.2469        -999.25      -1.710312              1
      4110.0000         0.7836        10.6094         148.49         0.7949       -60.4905        -999.25      -1.953915              1
      4110.5000         0.7894         10.552       144.7463         0.7883       -60.7848        -999.25      -2.248215       0.993468
      4111.0000         0.7925          10.62       142.5237         0.7857       -60.9918        -999.25      -2.455212      0.9880207
      4111.5000         0.7954        10.6957       141.8376         0.7831       -61.0612        -999.25      -2.524612      0.9861944
      4112.0000         0.7927        10.6765       143.6523         0.7805       -61.1719        -999.25      -2.635315      0.9832812
      4112.5000         0.7849        10.6212       143.3274         0.7779       -61.2418        -999.25      -2.705212      0.9814418
      4113.0000         0.7789        10.6667       140.1912         0.7768       -61.2561        -999.25      -2.719513      0.9810655
      4113.5000         0.7744        10.8077       138.6433          0.779       -61.2235        -999.25      -2.686913      0.9819233
      4114.0000           0.77        10.8495       136.3586         0.7811        -61.085        -999.25      -2.548412      0.9855681
      4114.5000         0.7656        10.8201        136.238         0.7832       -60.3413        -999.25      -1.804714              1
      4115.0000         0.7612        10.7563       136.6257         0.7853       -59.6024        -999.25      -1.065815              1
      4115.5000         0.7568        10.6634       132.8958         0.7879       -59.4531        -999.25     -0.9165115              1
      4116.0000         0.7552        10.5518       132.9944         0.7917       -59.2506        -999.25     -0.7140121              1
      4116.5000         0.7559        10.4847       138.3621         0.7956       -58.8147        -999.25     -0.2781143              1
      4117.0000         0.7852        10.4823       143.9504         0.7994         -58.88        -999.25     -0.3434143              1
      4117.5000         0.7921        10.4783       145.1807         0.8032        -59.324        -999.25     -0.7874146              1
      4118.0000         0.7939        10.4483       143.8293         0.8071       -59.4285        -999.25     -0.8919144              1
      4118.5000         0.7956        10.4153        142.521         0.8109       -60.0459        -999.25      -1.509312              1
      4119.0000         0.8003        10.3761       144.1118         0.8187       -61.1759        -999.25      -2.639313       0.983176
      4119.5000         0.8059        10.3635        145.064         0.8275       -62.2368        -999.25      -3.700214      0.9552575
      4120.0000         0.8385        10.4343       145.2271         0.8362       -62.6658        -999.25      -4.129211      0.9439681
      4120.5000         0.8576        10.5338       145.5579          0.845       -62.8068        -999.25      -4.270214      0.9402575
      4121.0000         0.8621        10.4794       147.4272         0.8538       -62.7386        -999.25      -4.202015      0.9420522
      4121.5000         0.8619        10.4008        148.635         0.8545       -62.6173        -999.25      -4.080711      0.9452444
      4122.0000         0.8601        10.3708       148.2585         0.8545       -62.3578        -999.25      -3.821213      0.9520733
      4122.5000         0.8584        10.4109       148.2771         0.8545       -61.5471        -999.25      -3.010513      0.9734076
      4123.0000         0.8626        10.4813        147.929         0.8545        -60.538        -999.25      -2.001411      0.9999629
      4123.5000         0.8761        10.5543        148.051         0.8545       -60.2666        -999.25      -1.730015              1
      4124.0000         0.8856        10.6453       148.3792         0.8545       -60.3391        -999.25      -1.802513              1
      4124.5000         0.8918        10.7667       147.4778         0.8518       -60.1747        -999.25      -1.638115              1
      4125.0000          0.886        10.8261       146.1787          0.846       -60.4186        -999.25      -1.882011              1
      4125.5000         0.8733         10.786       145.4592         0.8401       -61.1628        -999.25      -2.626213      0.9835207
      4126.0000         0.8597        10.8021       147.1382         0.8342       -61.3165        -999.25      -2.779915      0.9794759
