#------------------------------------------------------------------------------
# Created by    : vladimir.rabinovich
# Created on    : 09/19/2023 17:20:23
#------------------------------------------------------------------------------
~Version Information Section
VERS.           2.0     :   CWLS log ASCII Standard - VERSION 2.0
WRAP.           NO      :   One line per depth step
~Well Information Section
#MNEM       .UNIT                                         VALUE :DESCRIPTION
#------------------------------------------------------------------------------
STRT        .FT                                            3532 :START DEPTH
STOP        .FT                                           13690 :STOP DEPTH
STEP        .FT                                             0.5 :STEP      
NULL        .                                           -999.25 :NULL      
COMP        .                              VASTAR RESOURCES INC :COMPANY   
WELL        .                                     ST TR 00023-L :WELL      
FLD         .                          HIGH ISLAND BLOCK 0024-L :FIELD     
LOC         .                                                   :LOCATION  
CNTY        .                           HIGH ISLAND LARGE BLOCK :LOCATION  
STAT        .                                             TEXAS :STATE     
CTRY        .                                     UNITED STATES :COUNTRY   
SRVC        .                                                   :SERVICE COMPANY
DATE        .                             9/13/2023 11:19:15 AM :LOG DATE  
API         .                                    42708300330000 :API NUMBER
UWI         .                                    42708300330000 :UNIQUE WELL ID
XCOORD      .                                  1290562.53578251 :SURFACE X 
YCOORD      .                                  10712997.1214806 :SURFACE Y 
LAT         .                                        29.5146054 :LATITUDE  
LON         .                                       -94.1002609 :LONGITUDE 
ELEV        .FT                                              79 :ELEVATION VALUE
ELEV_TYPE   .                                                KB :ELEVATION REFERENCE TYPE
~Curve Information Section
#MNEM       .UNIT                                      API CODE :CURVE DESCRIPTION
#------------------------------------------------------------------------------
DEPT        .FT                                                 :DEPTH     
ASN         .OHMM                                               :          
CILD        .MMHO                                               :          
ILD         .OHMM                                               :          
SP          .MV                                                 :          
SP_NORM     .MV                                                 :SP Normalized
VSH_SP      .V/V                                                :Volume of Shale from SP
~A        DEPTH            ASN           CILD            ILD             SP        SP_NORM         VSH_SP
# ...
     10942.0000         0.5058       2175.148         0.4644       -48.9879       1.858379              1
     10942.5000         0.5126       2149.047         0.4681        -48.873       1.971539              1
     10943.0000         0.5194       2122.891         0.4717       -48.7582       2.084595              1
     10943.5000         0.5262       2096.543         0.4754       -48.6432       2.197857              1
     10944.0000          0.533       2070.191          0.479       -48.5284       2.310917              1
     10944.5000         0.5398       2074.082         0.4828       -48.3929       2.444675              1
     10945.0000         0.5472       2085.313         0.4872       -48.2446       2.591236              1
     10945.5000         0.5547       2096.566         0.4916       -48.2896       2.544491              1
     10946.0000         0.5622        2107.82         0.4947       -48.3824       2.449951              1
     10946.5000         0.5647       2119.074         0.4962       -48.4752       2.355408              1
     10947.0000         0.5607       2130.648         0.4977        -48.568       2.260868              1
     10947.5000         0.5567       2143.652         0.4992       -48.6608       2.166325              1
     10948.0000         0.5527       2156.656         0.5008       -48.7535       2.071884              1
     10948.5000         0.5486       2169.633         0.5023       -48.8464       1.977242              1
     10949.0000         0.5466       2182.637         0.5038       -48.9391       1.882805              1
     10949.5000         0.5454       2195.637         0.5053        -49.032       1.788158              1
     10950.0000         0.5443        2192.93         0.5069       -49.1225       1.695919              1
     10950.5000         0.5431       2185.836         0.5084       -49.1722       1.644478              1
     10951.0000         0.5419       2178.746          0.508       -49.2218       1.593136              1
     10951.5000         0.5407       2175.449         0.5074       -49.2714       1.541798              1
     10952.0000         0.5396       2175.012         0.5067        -49.321       1.490456              1
     10952.5000         0.5386       2174.578         0.5061       -49.3707       1.439014              1
     10953.0000         0.5386       2174.141         0.5054       -49.4202       1.387772              1
     10953.5000         0.5387       2173.707         0.5048       -49.4699       1.336334              1
     10954.0000         0.5388        2174.57         0.5041       -49.5195       1.284988              1
     10954.5000         0.5388       2177.262         0.5035       -49.5692       1.233551              1
     10955.0000         0.5389       2179.949         0.5029       -49.6188       1.182205              1
     10955.5000          0.539       2182.641         0.5022       -49.6685       1.130768              1
     10956.0000         0.5391       2185.332         0.5016        -49.718       1.079525              1
     10956.5000         0.5391       2188.023         0.5009       -49.7676       1.028183              1
     10957.0000         0.5406       2190.711         0.5003        -49.802      0.9920425              1
     10957.5000         0.5425        2169.93         0.4996       -49.7991      0.9932022              1
     10958.0000         0.5443       2146.926          0.499       -49.7961      0.9944611              1
     10958.5000         0.5462       2123.926         0.4984       -49.7932      0.9956169              1
     10959.0000         0.5481       2099.301         0.4977       -49.7903      0.9967804              1
     10959.5000           0.55       2072.211         0.4971       -49.7874      0.9979362              1
     10960.0000         0.5519       2051.539         0.4964       -49.7844      0.9991951              1
     10960.5000         0.5535        2046.01         0.4958       -49.7814       1.000454              1
     10961.0000         0.5551       2040.494         0.4951       -49.7785       1.001614              1
     10961.5000         0.5566       2034.965         0.4945       -49.7756       1.002769              1
     10962.0000         0.5582       2029.438         0.4935       -49.7726       1.004032              1
     10962.5000         0.5597       2023.207         0.4917       -49.7697       1.005188              1
     10963.0000         0.5583       2030.816           0.49        -49.783      0.9901466              1
     10963.5000         0.5557       2038.426         0.4882       -49.8134       0.958004              1
     10964.0000         0.5531       2046.035         0.4865       -49.8439       0.925766              1
     10964.5000         0.5505       2053.645         0.4847       -49.8743      0.8936272              1
     10965.0000         0.5479       2061.254          0.483       -49.9047      0.8614807              1
     10965.5000         0.5453       2068.863         0.4812       -49.9352      0.8292427              1
     10966.0000         0.5427       2076.473         0.4795       -49.9656      0.7971001              1
     10966.5000         0.5401       2084.328         0.4777       -49.9961      0.7648582              1
     10967.0000         0.5375       2094.891          0.476       -50.0266      0.7326164              1
     10967.5000         0.5355       2105.434         0.4742       -50.0571      0.7003784              1
     10968.0000         0.5356       2115.973         0.4725       -50.0875       0.668232              1
     10968.5000         0.5357       2122.438         0.4707       -50.1179      0.6360931              1
     10969.0000         0.5358       2127.031          0.469       -50.1484      0.6038513              1
     10969.5000         0.5359       2103.535         0.4672       -50.1788      0.5717125              1
     10970.0000          0.536       2079.992         0.4655       -50.2093      0.5394669              1
     10970.5000         0.5361         2056.5         0.4637       -50.2405      0.5065269              1
     10971.0000         0.5367       2060.906          0.462        -50.272      0.4732895              1
     10971.5000         0.5377       2069.676         0.4602       -50.3035      0.4400444              1
     10972.0000         0.5386       2081.445         0.4585       -50.3349      0.4069061              1
     10972.5000         0.5396       2093.219         0.4567       -50.3664       0.373661              1
     10973.0000         0.5406       2104.988         0.4558       -50.3979      0.3404236              1
     10973.5000         0.5415       2116.762         0.4555       -50.4294      0.3071785              1
     10974.0000         0.5425       2128.531         0.4552       -50.4608      0.2740402              1
     10974.5000         0.5424       2140.305         0.4549       -50.4924       0.240696              1
     10975.0000         0.5407       2145.758         0.4546       -50.5238      0.2075577              1
     10975.5000          0.539       2146.578         0.4543       -50.5553      0.1743126              1
     10976.0000         0.5374       2147.398         0.4539       -50.5829      0.1449738              1
     10976.5000         0.5357       2148.219         0.4536       -50.6025      0.1236305              1
     10977.0000          0.534       2143.344         0.4533        -50.622      0.1023903              1
     10977.5000         0.5324        2135.02          0.453       -50.6416     0.08104706              1
     10978.0000         0.5307       2126.684         0.4527       -50.6611     0.05981064              1
     10978.5000          0.529       2126.391         0.4524       -50.6807     0.03847122              1
     10979.0000         0.5278       2131.352         0.4521       -50.7003     0.01712799              1
     10979.5000         0.5277       2136.387         0.4517       -50.7198   -0.004112244              1
