#------------------------------------------------------------------------------
# Created by    : vladimir.rabinovich
# Created on    : 09/19/2023 17:19:50
#------------------------------------------------------------------------------
~Version Information Section
VERS.           2.0     :   CWLS log ASCII Standard - VERSION 2.0
WRAP.           NO      :   One line per depth step
~Well Information Section
#MNEM       .UNIT                                         VALUE :DESCRIPTION
#------------------------------------------------------------------------------
STRT        .FT                                             816 :START DEPTH
STOP        .FT                                            7470 :STOP DEPTH
STEP        .FT                                             0.5 :STEP      
NULL        .                                           -999.25 :NULL      
COMP        .                                   KERR-MCGEE CORP :COMPANY   
WELL        .                               OCS G05003 ST00BP00 :WELL      
FLD         .                                 BRAZOS BLOCK 0412 :FIELD     
LOC         .                                                   :LOCATION  
CNTY        .                                BRAZOS LARGE BLOCK :LOCATION  
STAT        .                                             TEXAS :STATE     
CTRY        .                                     UNITED STATES :COUNTRY   
SRVC        .                                                   :SERVICE COMPANY
DATE        .                             9/13/2023 11:19:08 AM :LOG DATE  
API         .                                    42704401140000 :API NUMBER
UWI         .                                    42704401140000 :UNIQUE WELL ID
XCOORD      .                                  819493.037302503 :SURFACE X 
YCOORD      .                                  10380289.6446028 :SURFACE Y 
LAT         .                                         28.579682 :LATITUDE  
LON         .                                        -95.558179 :LONGITUDE 
ELEV        .FT                                              90 :ELEVATION VALUE
ELEV_TYPE   .                                                KB :ELEVATION REFERENCE TYPE
~Curve Information Section
#MNEM       .UNIT                                      API CODE :CURVE DESCRIPTION
#------------------------------------------------------------------------------
DEPT        .FT                                                 :DEPTH     
ASFL        .OHMM                                               :          
CALI        .IN                                                 :          
CILD        .MMHO                                               :          
GR          .GAPI                                               :          
GR_NORM     .GAPI                                               :GammaRay Normalized
ILD         .OHMM                                               :          
ILM         .OHMM                                               :          
RHOB        .G/C3                                               :          
SP          .MV                                                 :          
SP_NORM     .MV                                                 :SP Normalized
VSH_GR      .V/V                                                :Volume of Shale from GR
VSH_SP      .V/V                                                :Volume of Shale from SP
~A        DEPTH           ASFL           CALI           CILD             GR        GR_NORM            ILD            ILM           RHOB             SP        SP_NORM         VSH_GR         VSH_SP
# ...
      5244.0000         0.7944        10.1052       1715.316        -999.25        -999.25         0.5937          0.675         2.2951       -92.0361      -37.81851        -999.25      0.3540612
      5244.5000         0.7412        10.0997       1799.695        -999.25        -999.25         0.5662         0.6067         2.2372       -94.5382      -40.35468        -999.25       0.309567
      5245.0000         0.6987        10.0957       1873.379        -999.25        -999.25         0.5403          0.557         2.1994        -97.099      -42.94955        -999.25       0.264043
      5245.5000         0.7365        10.0916       1947.063        -999.25        -999.25         0.5159         0.5152          2.197       -99.4517      -45.33632        -999.25      0.2221699
      5246.0000         0.7776          10.09       2043.227        -999.25        -999.25         0.4914         0.4808         2.2044      -101.7725      -47.69118        -999.25      0.1808564
      5246.5000         0.8106        10.0922        2180.59        -999.25        -999.25         0.4669         0.4546         2.2245      -104.0309      -49.98365        -999.25      0.1406377
      5247.0000         0.8264        10.0954       2777.883        -999.25        -999.25         0.4522         0.4348         2.2335      -105.7178      -51.70462        -999.25      0.1104453
      5247.5000         0.8106        10.0999       2824.926        -999.25        -999.25         0.4392         0.4256         2.2242      -107.0067      -53.02759        -999.25      0.0872353
      5248.0000         0.7799         10.102        2721.43        -999.25        -999.25         0.4261         0.4269         2.2112      -107.3873      -53.44226        -999.25     0.07996041
      5248.5000          0.746        10.1023       2622.195        -999.25        -999.25         0.4134         0.4433         2.2075      -106.6737      -52.76273        -999.25     0.09188201
      5249.0000         0.8504        10.0996       2532.863        -999.25        -999.25         0.4156         0.4766         2.2253       -105.826      -51.94909        -999.25      0.1061563
      5249.5000         0.9743        10.0951       2443.633        -999.25        -999.25         0.4179         0.5205         2.2469      -104.9319      -51.08907        -999.25      0.1212445
      5250.0000         1.0411        10.0914       2352.023        -999.25        -999.25         0.4147         0.5665         2.2509      -104.4722      -50.66343        -999.25      0.1287117
      5250.5000         1.1306        10.0952       2239.418        -999.25        -999.25         0.4105          0.591         2.2225      -104.2228       -50.4481        -999.25      0.1324894
      5251.0000         1.1739        10.0991       2157.664        -999.25        -999.25         0.4062          0.585         2.1668      -103.9996      -50.25898        -999.25      0.1358074
      5251.5000         1.2009         10.103       2127.211        -999.25        -999.25         0.4024          0.564         2.1615      -103.9492      -50.24264        -999.25       0.136094
      5252.0000         1.1327        10.1169       2162.492        -999.25        -999.25         0.3992         0.5307         2.1586      -103.8989      -50.22641        -999.25      0.1363788
      5252.5000         0.9754        10.1316       2328.055        -999.25        -999.25          0.396         0.4994         2.1558      -103.8485      -50.21008        -999.25      0.1366653
      5253.0000         0.8961        10.1463       2535.242        -999.25        -999.25         0.3928         0.4701         2.1539      -103.7981      -50.19375        -999.25      0.1369518
      5253.5000         0.8743        10.1612       2711.922        -999.25        -999.25         0.3899         0.4423         2.1563      -103.7377      -50.16742        -999.25      0.1374138
      5254.0000         0.8524        10.1761       2627.941        -999.25        -999.25         0.3943         0.4165         2.1738      -103.6302      -50.09399        -999.25       0.138702
      5254.5000          0.823          10.19       2543.957        -999.25        -999.25         0.3987         0.4079         2.2159      -103.5228      -50.02065        -999.25      0.1399886
      5255.0000         0.7911        10.2015       2458.191        -999.25        -999.25         0.4038         0.4211         2.2176      -103.4154      -49.94732        -999.25      0.1412751
      5255.5000         0.7607        10.2129        2370.84        -999.25        -999.25         0.4224         0.4427          2.183       -103.246      -49.81199        -999.25      0.1436493
      5256.0000         0.8667        10.2217        2283.59        -999.25        -999.25          0.441         0.4683         2.1477      -102.9926      -49.59266        -999.25      0.1474972
      5256.5000         1.0009        10.2278       2182.074        -999.25        -999.25         0.4596         0.4979         2.1203      -102.7393      -49.37343        -999.25      0.1513433
      5257.0000         1.1283        10.2338       2070.957        -999.25        -999.25         0.4796         0.5279         2.1651      -102.3845      -49.05269        -999.25      0.1569703
      5257.5000         1.1626        10.2361       1911.508        -999.25        -999.25         0.5091         0.5514         2.2076      -101.7878      -48.49007        -999.25      0.1668409
      5258.0000          1.191        10.2378       1792.516        -999.25        -999.25         0.5387         0.5724         2.2414      -101.0479      -47.78423        -999.25       0.179224
      5258.5000         1.0928        10.2411       1733.043        -999.25        -999.25         0.5682         0.5919         2.2573      -100.0808       -46.8512        -999.25      0.1955929
      5259.0000         0.9092        10.2456       1679.713        -999.25        -999.25         0.5963         0.6142         2.2293       -98.6536      -45.45807        -999.25      0.2200338
      5259.5000         0.9034        10.2501       1633.066        -999.25        -999.25          0.586         0.6381         2.2053       -97.4735      -44.31204        -999.25      0.2401396
      5260.0000         0.9603        10.2544       1675.701        -999.25        -999.25         0.5758         0.6639         2.2698       -96.8015      -43.67411        -999.25      0.2513314
      5260.5000         1.0125        10.2587       1720.467        -999.25        -999.25         0.5655         0.6913           2.32       -96.9469      -43.85358        -999.25      0.2481829
      5261.0000         1.0857        10.2625       1765.279        -999.25        -999.25         0.5552         0.7051         2.3442       -97.0922      -44.03295        -999.25       0.245036
      5261.5000         1.1708        10.2611       1810.045        -999.25        -999.25         0.5454         0.6921         2.3202       -97.2375      -44.21232        -999.25      0.2418891
      5262.0000         1.1917        10.2597       1874.963        -999.25        -999.25          0.537         0.6754         2.2812       -97.3829      -44.39178        -999.25      0.2387407
      5262.5000         1.2071        10.2578       1946.766        -999.25        -999.25         0.5287         0.6581         2.2465       -97.5194      -44.56235        -999.25      0.2357482
      5263.0000         1.1804         10.255       2015.102        -999.25        -999.25         0.5203         0.6413         2.2386       -97.5742      -44.65122        -999.25      0.2341891
      5263.5000         1.1536        10.2522       2080.563        -999.25        -999.25         0.5254         0.6249         2.2268        -97.629      -44.74009        -999.25      0.2326301
      5264.0000         1.1261         10.253       2113.988        -999.25        -999.25         0.5397         0.6096           2.21       -97.6838      -44.82896        -999.25      0.2310709
