#------------------------------------------------------------------------------
# Created by    : vladimir.rabinovich
# Created on    : 09/19/2023 17:20:38
#------------------------------------------------------------------------------
~Version Information Section
VERS.           2.0     :   CWLS log ASCII Standard - VERSION 2.0
WRAP.           NO      :   One line per depth step
~Well Information Section
#MNEM       .UNIT                                         VALUE :DESCRIPTION
#------------------------------------------------------------------------------
STRT        .FT                                             495 :START DEPTH
STOP        .FT                                            8683 :STOP DEPTH
STEP        .FT                                             0.5 :STEP      
NULL        .                                           -999.25 :NULL      
COMP        .                                      SHELL OIL CO :COMPANY   
WELL        .                                OCS 00706 ST00BP00 :WELL      
FLD         .                                           WILDCAT :FIELD     
LOC         .                                                   :LOCATION  
CNTY        .                             GALVESTON LARGE BLOCK :LOCATION  
STAT        .                                             TEXAS :STATE     
CTRY        .                                     UNITED STATES :COUNTRY   
SRVC        .                                                   :SERVICE COMPANY
DATE        .                             9/13/2023 11:19:25 AM :LOG DATE  
API         .                                    42706000290000 :API NUMBER
UWI         .                                    42706000290000 :UNIQUE WELL ID
XCOORD      .                                  1097630.70361638 :SURFACE X 
YCOORD      .                                  10500448.3193905 :SURFACE Y 
LAT         .                                          28.92371 :LATITUDE  
LON         .                                        -94.697168 :LONGITUDE 
ELEV        .FT                                              92 :ELEVATION VALUE
ELEV_TYPE   .                                                KB :ELEVATION REFERENCE TYPE
~Curve Information Section
#MNEM       .UNIT                                      API CODE :CURVE DESCRIPTION
#------------------------------------------------------------------------------
DEPT        .FT                                                 :DEPTH     
ASN         .OHMM                                               :          
CILD        .MMHO                                               :          
ILD         .OHMM                                               :          
SP          .MV                                                 :          
SP_NORM     .MV                                                 :SP Normalized
VSH_SP      .V/V                                                :Volume of Shale from SP
~A        DEPTH            ASN           CILD            ILD             SP        SP_NORM         VSH_SP
# ...
      8095.0000         1.7369       657.5127         1.2091       -62.8392      -14.57792      0.7698657
      8095.5000         1.7797       677.5049         1.1461       -64.9408      -16.68216      0.7342008
      8096.0000         1.8154       697.4961         1.0972       -65.8174      -17.56138      0.7192986
      8096.5000         1.8525       731.4893         1.0572       -58.6602      -10.40681      0.8405625
      8097.0000         1.4468       916.5293         1.0171       -56.7623      -8.511543      0.8726857
      8097.5000         1.3752       951.6855          0.977       -53.3503      -5.102177      0.9304716
      8098.0000         1.3363       976.2197         0.9417       -56.8303      -8.584805       0.871444
      8098.5000         1.2975       1144.406         0.9101         -60.49      -12.24714      0.8093705
      8099.0000         1.2955       1208.047         0.8786       -64.1497      -15.90946      0.7472972
      8099.5000         1.3485       1286.785         0.8814       -67.7875       -19.5499       0.685595
      8100.0000         1.3756       1308.117         0.9039       -59.0305      -10.79553      0.8339741
      8100.5000         1.2746       1248.689         0.9261       -56.4008      -8.168457      0.8785007
      8101.0000         1.1968        1189.35         0.9479       -60.0867      -11.85699      0.8159832
      8101.5000         1.2276       1141.158         0.9697       -63.7728      -15.54572      0.7534624
      8102.0000         1.3439       1113.814         0.9915       -66.9723      -18.74785       0.699189
      8102.5000         1.4601       1086.471         1.0133       -67.6516      -19.42979      0.6876307
      8103.0000          1.554       1047.848         1.0352       -68.3309      -20.11171      0.6760727
      8103.5000          1.646       1003.169         1.0362       -67.9036      -19.68705      0.6832704
      8104.0000         1.7208       956.8643          1.037       -67.1859      -18.97197      0.6953903
      8104.5000         1.6665       923.4209         1.0378       -66.4672      -18.25591       0.707527
      8105.0000         1.6123       943.4346         1.0384       -65.6399      -17.43124      0.7215044
      8105.5000         1.5581       989.0361         1.0286        -64.886      -16.67997      0.7342378
      8106.0000         1.4986       1047.234         1.0188       -64.2307      -16.02729      0.7453001
      8106.5000         1.4042       1099.463          1.009       -62.5105      -14.30973      0.7744114
      8107.0000         1.3277       1131.941         0.9992       -62.0867      -13.88856      0.7815499
      8107.5000         1.2396       1157.002         0.9894       -62.8392      -14.64369       0.768751
      8108.0000         1.1947       1182.283         0.9796       -66.3915      -18.19862      0.7084979
      8108.5000         1.1883        1207.75         0.9697       -67.6812      -19.49095      0.6865941
      8109.0000         1.1819       1203.697         0.9599       -64.0182      -15.83058      0.7486342
      8109.5000         1.1703       1197.459         0.9501       -59.5361      -11.35111      0.8245575
      8110.0000         1.1501        1190.82         0.9342       -59.0754      -10.89304      0.8323213
      8110.5000         1.1298        1184.17          0.918       -58.4059      -10.22617      0.8436242
      8111.0000         1.1087       1177.521         0.9019       -56.1334      -7.956303      0.8820966
      8111.5000         1.0889       1170.873         0.8868       -56.6111       -8.43663      0.8739554
      8112.0000         1.0707       1169.979          0.875       -62.0722      -13.90036      0.7813498
      8112.5000         1.0528       1173.281         0.8633       -67.5332      -19.36399      0.6887459
      8113.0000         1.0434        1192.07         0.8516       -72.9943      -24.82772      0.5961403
      8113.5000         1.0341       1264.928          0.838       -78.4554      -30.29145      0.5035347
      8114.0000         1.1163       1335.768         0.8199       -84.2671      -36.10578      0.4049867
      8114.5000         1.1562       1462.521         0.8018       -91.1394      -42.98071      0.2884625
      8115.0000         1.2952       1522.037         0.7915       -98.0031      -49.84704       0.172084
      8115.5000         1.4446       1589.584         0.7815       -93.6377      -45.48428      0.2460292
      8116.0000         1.5951       1587.607         0.7716        -86.704      -38.55321      0.3635049
      8116.5000         1.4711        1548.59         0.7618       -79.7791      -31.63094      0.4808316
      8117.0000          1.347       1513.521         0.7681       -72.8453      -24.69977       0.598309
      8117.5000          1.223       1481.658         0.7743       -67.9485       -19.8056       0.681261
      8118.0000         1.1249       1457.738         0.7806       -67.1465      -19.00623      0.6948097
      8118.5000           1.09       1431.096         0.7869       -66.4452      -18.30756      0.7066515
      8119.0000         1.0569       1405.859          0.793       -66.0693      -17.93429      0.7129782
      8119.5000         1.0433       1419.246         0.7939       -65.6935      -17.56112      0.7193031
      8120.0000         1.2523       1550.389         0.7948       -67.9058      -19.77605      0.6817619
      8120.5000         1.4919       1668.189         0.7957       -78.1135      -29.98639      0.5087053
      8121.0000         1.6439       1724.809         0.7857      -103.3063      -55.18181     0.08166426
      8121.5000         1.7843       1776.424         0.7628      -104.6058      -56.48394     0.05959424
      8122.0000         1.8833       1876.404           0.74      -105.4703      -57.35107     0.04489705
      8122.5000         1.9108       1944.566         0.7172      -105.6293      -57.51271     0.04215751
      8123.0000         1.9373       1969.672         0.6944      -103.3853      -55.27134     0.08014686
      8123.5000         1.9556       1994.775         0.6861      -100.2909      -52.17957      0.1325497
      8124.0000         1.9672       2002.543         0.6784       -97.2009      -49.09219      0.1848781
      8124.5000         1.9249       2002.891         0.6707       -94.1111      -46.00503      0.2372029
      8125.0000         1.6568       2002.904         0.6629       -91.0211      -42.91766      0.2895312
      8125.5000         1.4179       2002.607         0.6552       -85.3978      -37.29699      0.3847969
      8126.0000         1.3519       1998.924         0.6522       -84.6528      -36.55462      0.3973793
      8126.5000         1.2963       1985.998         0.6553       -92.2177      -44.12215      0.2691162
      8127.0000         1.2407       1929.775         0.6583       -96.0275      -47.93458      0.2044987
      8127.5000         1.2922        1801.09         0.6651       -96.9435      -48.85321      0.1889287
      8128.0000         1.3538       1687.326         0.7215       -97.8529      -49.76524      0.1734705
      8128.5000         1.4155       1572.158         0.7781       -96.6224      -48.53737      0.1942819
      8129.0000         1.4771       1447.861         0.8445       -93.8394        -45.757      0.2414067
      8129.5000         1.6901       1365.262          0.911       -88.7815      -40.70174      0.3270892
      8130.0000         1.7621       1275.463         1.0068       -86.8136      -38.73646      0.3603989
      8130.5000         1.8258       831.3828         1.1026       -84.7931      -36.71859      0.3946001
      8131.0000         1.9106        771.583         1.1658        -83.064      -34.99213      0.4238622
      8131.5000         2.4141       752.5342         1.2292       -82.0308      -33.96156      0.4413296
      8132.0000         2.8977       760.8955         1.2863       -81.1125      -33.04589      0.4568494
      8132.5000         2.9457       802.0645          1.257       -81.4971      -33.43312      0.4502861
