#------------------------------------------------------------------------------
# Created by    : vladimir.rabinovich
# Created on    : 09/19/2023 17:22:56
#------------------------------------------------------------------------------
~Version Information Section
VERS.           2.0     :   CWLS log ASCII Standard - VERSION 2.0
WRAP.           NO      :   One line per depth step
~Well Information Section
#MNEM       .UNIT                                         VALUE :DESCRIPTION
#------------------------------------------------------------------------------
STRT        .FT                                             890 :START DEPTH
STOP        .FT                                            9495 :STOP DEPTH
STEP        .FT                                             0.5 :STEP      
NULL        .                                           -999.25 :NULL      
COMP        .                                   MARATHON OIL CO :COMPANY   
WELL        .                               OCS G04138 ST00BP00 :WELL      
FLD         .                                           WILDCAT :FIELD     
LOC         .                                                   :LOCATION  
CNTY        .                      MATAGORDA ISLAND LARGE BLOCK :LOCATION  
STAT        .                                             TEXAS :STATE     
CTRY        .                                     UNITED STATES :COUNTRY   
SRVC        .                                                   :SERVICE COMPANY
DATE        .                             9/13/2023 11:12:11 AM :LOG DATE  
API         .                                    42703402070000 :API NUMBER
UWI         .                                    42703402070000 :UNIQUE WELL ID
XCOORD      .                                  590883.400226114 :SURFACE X 
YCOORD      .                                  10259990.6406746 :SURFACE Y 
LAT         .                                         28.233929 :LATITUDE  
LON         .                                        -96.259589 :LONGITUDE 
ELEV        .FT                                              90 :ELEVATION VALUE
ELEV_TYPE   .                                                KB :ELEVATION REFERENCE TYPE
~Curve Information Section
#MNEM       .UNIT                                      API CODE :CURVE DESCRIPTION
#------------------------------------------------------------------------------
DEPT        .FT                                                 :DEPTH     
SP          .MV                                                 :          
SP_NORM     .MV                                                 :SP Normalized
VSH_SP      .V/V                                                :Volume of Shale from SP
~A        DEPTH             SP        SP_NORM         VSH_SP
# ...
      5444.0000         32.245      -5.659342      0.8805297
      5444.5000        34.7748      -8.192141      0.8155861
      5445.0000        37.3485      -10.76884      0.7495169
      5445.5000        39.8198      -13.24314      0.6860733
      5446.0000        42.7399      -16.16624      0.6111221
      5446.5000        45.6381      -19.06744      0.5367324
      5447.0000        48.8997      -22.33204      0.4530247
      5447.5000        50.7928      -24.22814      0.4044067
      5448.0000         52.176      -25.61433      0.3688632
      5448.5000        53.1409      -26.58224      0.3440453
      5449.0000        52.4785      -25.92283       0.360953
      5449.5000         49.473      -22.92033      0.4379402
      5450.0000        48.7851      -22.23543      0.4555018
      5450.5000        51.9931      -25.44643      0.3731685
      5451.0000        53.9691      -27.42543      0.3224248
      5451.5000        56.1428      -29.60213      0.2666121
      5452.0000        59.4044      -32.86673      0.1829044
      5452.5000        63.2906      -36.75593     0.08318133
      5453.0000        67.1414      -40.60973              0
      5453.5000        68.3953      -41.86663              0
      5454.0000         69.609      -43.08333              0
      5454.5000        71.0471      -44.52442              0
      5455.0000        72.6285      -46.10883              0
      5455.5000        71.3118      -44.79512              0
      5456.0000        68.1428      -41.62912              0
      5456.5000        67.5409      -41.03022              0
      5457.0000        67.0743      -40.56662              0
      5457.5000        66.6373      -40.13262              0
      5458.0000        66.2007      -39.69902    0.007717524
      5458.5000         65.241      -38.74232     0.03224828
      5459.0000        64.1273      -37.63161     0.06072783
      5459.5000        62.0538      -35.56112      0.1138176
      5460.0000        54.5473      -28.05761       0.306215
      5460.5000        48.4533      -21.96662      0.4623945
      5461.0000        39.4709      -12.98722      0.6926355
      5461.5000        35.5359      -9.055212      0.7934561
      5462.0000        33.4379      -6.960213       0.847174
      5462.5000        32.0535      -5.578812      0.8825946
      5463.0000        31.3006      -4.828911      0.9018228
      5463.5000        30.8685      -4.399809      0.9128254
      5464.0000        30.4958      -4.030107      0.9223049
      5464.5000        29.3907      -2.928007      0.9505639
      5465.0000        27.7001      -1.240406      0.9938357
      5465.5000        26.4962    -0.03950691              1
      5466.0000         25.235       1.218695              1
      5466.5000        24.1329       2.317795              1
      5467.0000        23.3633       3.084396              1
      5467.5000        23.7213       2.723398              1
      5468.0000        25.6778      0.7638988              1
      5468.5000        28.1612        -1.7225      0.9814743
      5469.0000        32.8159      -6.380199      0.8620462
      5469.5000        37.4363       -11.0036      0.7434975
      5470.0000        42.1959       -15.7662      0.6213796
      5470.5000        44.7354       -18.3087      0.5561872
      5471.0000        48.3801       -21.9564      0.4626565
      5471.5000        50.7513       -24.3306      0.4017796
      5472.0000         52.803       -26.3853       0.349095
      5472.5000        54.5522       -28.1375      0.3041668
      5473.0000        56.1476      -29.73589      0.2631823
      5473.5000        57.6882      -31.27949      0.2236027
      5474.0000         53.347      -26.94129      0.3348387
      5474.5000        42.0739      -15.67119      0.6238157
      5475.0000        43.4925      -17.09279      0.5873643
      5475.5000        44.9074      -18.51069       0.551008
      5476.0000        45.9357      -19.54199      0.5245644
      5476.5000        46.9603      -20.56959      0.4982157
      5477.0000        47.8831      -21.49538      0.4744773
      5477.5000        48.6735      -22.28879      0.4541337
      5478.0000         49.083      -22.70128      0.4435568
      5478.5000        49.4929      -23.11419      0.4329696
      5479.0000         49.412      -23.03628      0.4349671
      5479.5000        48.6497      -22.27698      0.4544364
      5480.0000        47.4958      -21.12608      0.4839466
      5480.5000        46.3419      -19.97518      0.5134569
      5481.0000        44.1011      -17.73738      0.5708364
      5481.5000        40.2759      -13.91518      0.6688415
      5482.0000        38.0413      -11.68358      0.7260621
      5482.5000        34.0649      -7.710176      0.8279442
      5483.0000        31.9608      -5.609076      0.8818186
      5483.5000        30.3885      -4.039776       0.922057
      5484.0000        29.2358      -2.890074      0.9515366
      5484.5000        28.1127      -1.769974      0.9802571
      5485.0000        27.7184      -1.378672      0.9902905
      5485.5000        27.4113      -1.074572      0.9980879
      5486.0000         27.368      -1.034271      0.9991212
      5486.5000        27.6141      -1.283369      0.9927341
      5487.0000        28.1874      -1.859671      0.9779572
      5487.5000        29.2188      -2.894068      0.9514341
      5488.0000        30.7203      -4.398569      0.9128572
      5488.5000        32.7427      -6.423965      0.8609239
      5489.0000        35.4213      -9.105564       0.792165
      5489.5000        41.9202      -15.60747      0.6254496
      5490.0000        51.4588      -25.14907      0.3807932
      5490.5000        54.6546      -28.34786      0.2987728
      5491.0000          56.86      -30.55626      0.2421471
      5491.5000        59.2544      -32.95366      0.1806754
      5492.0000        60.3302      -34.03246      0.1530138
      5492.5000        61.6464      -35.35166      0.1191882
      5493.0000        63.1662      -36.87446      0.0801421
      5493.5000        64.2316      -37.94286     0.05274729
      5494.0000        65.0001      -38.71436     0.03296524
      5494.5000        65.5286      -39.24586     0.01933699
      5495.0000        65.8511      -39.57135     0.01099102
      5495.5000        65.9773      -39.70056    0.007678007
      5496.0000        66.1036      -39.82985    0.004362742
      5496.5000        65.8262      -39.55546     0.01139851
      5497.0000        65.4526      -39.18485     0.02090122
      5497.5000        64.9684      -38.70365     0.03323971
      5498.0000        64.4902      -38.22845     0.04542444
      5498.5000        65.3885      -39.12975     0.02231422
      5499.0000        66.9401      -40.68435              0
      5499.5000        67.7775      -41.52474              0
      5500.0000         68.474      -42.22425              0
      5500.5000         69.126      -42.87925              0
      5501.0000        69.7438      -43.50004              0
      5501.5000        70.2384      -43.99765              0
      5502.0000        70.0377      -43.79994              0
      5502.5000        69.0918      -42.85704              0
      5503.0000        67.1182      -40.88644              0
      5503.5000        64.3834      -38.15464     0.04731692
      5504.0000        59.1116      -32.88584      0.1824143
      5504.5000        56.3477      -30.12494      0.2532067
      5505.0000        51.7759      -25.55614      0.3703554
      5505.5000        44.2524      -18.03564      0.5631888
      5506.0000         42.341      -16.12724      0.6121221
      5506.5000        39.5636      -13.35283      0.6832606
      5507.0000        33.6111      -7.403334       0.835812
      5507.5000        31.3936      -5.188835       0.892594
      5508.0000        30.3068      -4.105034      0.9203838
      5508.5000        29.4182      -3.219433      0.9430915
      5509.0000        28.3399      -2.144131      0.9706633
      5509.5000        27.8362      -1.643431      0.9835018
