#------------------------------------------------------------------------------
# Created by    : vladimir.rabinovich
# Created on    : 09/19/2023 17:22:38
#------------------------------------------------------------------------------
~Version Information Section
VERS.           2.0     :   CWLS log ASCII Standard - VERSION 2.0
WRAP.           NO      :   One line per depth step
~Well Information Section
#MNEM       .UNIT                                         VALUE :DESCRIPTION
#------------------------------------------------------------------------------
STRT        .FT                                             890 :START DEPTH
STOP        .FT                                            9058 :STOP DEPTH
STEP        .FT                                             0.5 :STEP      
NULL        .                                           -999.25 :NULL      
COMP        .                            COASTAL OIL & GAS CORP :COMPANY   
WELL        .                               OCS G01773 ST00BP00 :WELL      
FLD         .                                           WILDCAT :FIELD     
LOC         .                                                   :LOCATION  
CNTY        .                             GALVESTON LARGE BLOCK :LOCATION  
STAT        .                                             TEXAS :STATE     
CTRY        .                                     UNITED STATES :COUNTRY   
SRVC        .                                                   :SERVICE COMPANY
DATE        .                             9/13/2023 11:19:54 AM :LOG DATE  
API         .                                    42706403500000 :API NUMBER
UWI         .                                    42706403500000 :UNIQUE WELL ID
XCOORD      .                                  1074939.13305719 :SURFACE X 
YCOORD      .                                   10531967.363633 :SURFACE Y 
LAT         .                                         29.009472 :LATITUDE  
LON         .                                        -94.769566 :LONGITUDE 
ELEV        .FT                                              83 :ELEVATION VALUE
ELEV_TYPE   .                                                KB :ELEVATION REFERENCE TYPE
~Curve Information Section
#MNEM       .UNIT                                      API CODE :CURVE DESCRIPTION
#------------------------------------------------------------------------------
DEPT        .FT                                                 :DEPTH     
DCAL        .IN                                                 :          
DPSS        .V/V                                                :          
DRHO        .G/CM3                                              :          
DTLF        .US/FT                                              :          
DTLN        .US/FT                                              :          
GR          .GAPI                                               :          
GRS         .GAPI                                               :          
NPSS        .V/V                                                :Neutron Porosity Sandstone
SFL         .OHMM                                               :          
SP          .MV                                                 :          
SP_NORM     .MV                                                 :SP Normalized
SPHI_SAN    .V/V                                                :          
TENS        .LB                                                 :          
VSH_SP      .V/V                                                :Volume of Shale from SP
~A        DEPTH           DCAL           DPSS           DRHO           DTLF           DTLN             GR            GRS           NPSS            SFL             SP        SP_NORM       SPHI_SAN           TENS         VSH_SP
# ...
      4220.0000         1.7647        -999.25        -999.25        -999.25        -999.25        33.0612        -999.25        -999.25         1.2447       -29.7059      -31.39858         0.2712           2040      0.5813522
      4220.5000         1.7647        -999.25        -999.25        -999.25        -999.25        31.2245        -999.25        -999.25         1.3028       -34.7059      -36.38871         0.2976           2040      0.5148172
      4221.0000         1.7647        -999.25        -999.25        -999.25        -999.25        29.2157        -999.25        -999.25         1.0955       -39.1176      -40.79053         0.3276           2040      0.4561262
      4221.5000         1.7647        -999.25        -999.25        -999.25        -999.25             30        -999.25        -999.25         0.9159       -41.7647      -43.42776          0.342           2040      0.4209632
      4222.0000         1.7647        -999.25        -999.25        -999.25        -999.25        32.8571        -999.25        -999.25         0.7254       -42.3529      -44.00609         0.3432           2040      0.4132521
      4222.5000         1.7647        -999.25        -999.25        -999.25        -999.25        35.7143        -999.25        -999.25         0.6812       -40.8824      -42.52571         0.3396           2040      0.4329905
      4223.0000         1.7647        -999.25        -999.25        -999.25        -999.25             40        -999.25        -999.25         0.6278       -38.2353      -39.86874         0.3384           2040      0.4684168
      4223.5000         1.7647        -999.25        -999.25        -999.25        -999.25             43        -999.25        -999.25         0.6278       -35.8824      -37.50597          0.342           2040      0.4999205
      4224.0000         1.7255        -999.25        -999.25        -999.25        -999.25           44.4        -999.25        -999.25         0.6629       -34.1176      -35.73129         0.3504           2040      0.5235828
      4224.5000         1.7255        -999.25        -999.25        -999.25        -999.25           44.6        -999.25        -999.25          0.669       -32.6471      -34.25092           0.36           2040      0.5433211
      4225.0000         1.7255        -999.25        -999.25        -999.25        -999.25             45        -999.25        -999.25         0.6451       -32.3529      -33.94685         0.3492           2040      0.5473754
      4225.5000         1.6471        -999.25        -999.25        -999.25        -999.25           44.8        -999.25        -999.25         0.6055       -32.9412      -34.52527         0.3264           2040       0.539663
      4226.0000         1.5686        -999.25        -999.25        -999.25        -999.25           44.2        -999.25        -999.25         0.6222       -34.7059      -36.28009          0.318           2040      0.5162654
      4226.5000         1.5686        -999.25        -999.25        -999.25        -999.25           43.2        -999.25        -999.25            0.7       -37.0588      -38.62312         0.3144           2040       0.485025
      4227.0000         1.5686        -999.25        -999.25        -999.25        -999.25           42.4        -999.25        -999.25         0.7517       -40.2941      -41.84855          0.312           2040      0.4420193
      4227.5000         1.5686        -999.25        -999.25        -999.25        -999.25           42.2        -999.25        -999.25         0.7584       -44.1176      -45.66217         0.3072           2040       0.391171
      4228.0000         1.5686        -999.25        -999.25        -999.25        -999.25           41.8        -999.25        -999.25         0.7384       -49.2857       -50.8204         0.2976           2040      0.3223946
      4228.5000         1.6078        -999.25        -999.25        -999.25        -999.25             41        -999.25        -999.25         0.7254       -53.5714      -55.09623            0.3           2040      0.2653836
      4229.0000         1.6863        -999.25        -999.25        -999.25        -999.25           40.4        -999.25        -999.25         0.6569       -57.8571      -59.37206         0.3156           2040      0.2083726
      4229.5000         1.6863        -999.25        -999.25        -999.25        -999.25           41.2        -999.25        -999.25         0.5946       -59.6939      -61.19898         0.3276           2040      0.1840136
      4230.0000         1.6863        -999.25        -999.25        -999.25        -999.25           42.6        -999.25        -999.25         0.5233       -58.1633      -59.65851           0.33           2040      0.2045532
      4230.5000         1.6471        -999.25        -999.25        -999.25        -999.25             44        -999.25        -999.25         0.4431       -54.1837      -55.66903         0.3312           2040      0.2577462
      4231.0000         1.5686        -999.25        -999.25        -999.25        -999.25             45        -999.25        -999.25         0.4269       -49.2857      -50.76116         0.3324           2040      0.3231845
      4231.5000         1.5294        -999.25        -999.25        -999.25        -999.25           44.8        -999.25        -999.25         0.5378       -43.2353      -44.70089         0.3348           2040      0.4039882
      4232.0000         1.4902        -999.25        -999.25        -999.25        -999.25             43        -999.25        -999.25            0.8       -40.5882      -42.04391         0.3348           2040      0.4394145
      4232.5000         1.4902        -999.25        -999.25        -999.25        -999.25           40.8        -999.25        -999.25         1.0955       -43.5294      -44.97524         0.3336           2040      0.4003302
      4233.0000         1.4902        -999.25        -999.25        -999.25        -999.25        38.5714        -999.25        -999.25         1.2792       -48.3673      -49.80326         0.3312           2040      0.3359565
      4233.5000         1.5686        -999.25        -999.25        -999.25        -999.25         37.551        -999.25        -999.25         1.2676       -54.1837      -55.60979         0.3324           2040      0.2585361
      4234.0000         1.6471        -999.25        -999.25        -999.25        -999.25        38.3673        -999.25        -999.25         1.0092       -56.9388      -58.35502          0.336           2040      0.2219331
      4234.5000         1.6863        -999.25        -999.25        -999.25        -999.25        39.3878        -999.25        -999.25         0.7789       -58.1633      -59.56964          0.336           2040      0.2057381
      4235.0000         1.7255        -999.25        -999.25        -999.25        -999.25             41        -999.25        -999.25         0.6451       -56.3265      -57.72297           0.33           2040      0.2303604
      4235.5000         1.6863        -999.25        -999.25        -999.25        -999.25           43.4        -999.25        -999.25         0.5892       -52.3469       -53.7335          0.324           2040      0.2835534
      4236.0000         1.6471        -999.25        -999.25        -999.25        -999.25           47.4        -999.25        -999.25         0.5477       -48.6735      -50.05022         0.3252           2040      0.3326637
      4236.5000         1.5686        -999.25        -999.25        -999.25        -999.25        50.4082        -999.25        -999.25            0.5       -38.2353      -39.60215         0.3312           2040      0.4719714
      4237.0000         1.4902        -999.25        -999.25        -999.25        -999.25        53.8776        -999.25        -999.25         0.4817       -27.6471      -29.00408          0.336           2040       0.613279
      4237.5000         1.4902        -999.25        -999.25        -999.25        -999.25        55.9184        -999.25        -999.25         0.5092       -15.8824       -17.2295         0.3396           2040      0.7702733
