#------------------------------------------------------------------------------
# Created by    : vladimir.rabinovich
# Created on    : 09/19/2023 17:22:33
#------------------------------------------------------------------------------
~Version Information Section
VERS.           2.0     :   CWLS log ASCII Standard - VERSION 2.0
WRAP.           NO      :   One line per depth step
~Well Information Section
#MNEM       .UNIT                                         VALUE :DESCRIPTION
#------------------------------------------------------------------------------
STRT        .FT                                            2877 :START DEPTH
STOP        .FT                                            8775 :STOP DEPTH
STEP        .FT                                             0.5 :STEP      
NULL        .                                           -999.25 :NULL      
COMP        .                                       APACHE CORP :COMPANY   
WELL        .                                  HIGH ISLAND 10-L :WELL      
FLD         .                                           WILDCAT :FIELD     
LOC         .                                                   :LOCATION  
CNTY        .                           HIGH ISLAND LARGE BLOCK :LOCATION  
STAT        .                                             TEXAS :STATE     
CTRY        .                                     UNITED STATES :COUNTRY   
SRVC        .                                                   :SERVICE COMPANY
DATE        .                             9/13/2023 11:19:15 AM :LOG DATE  
API         .                                    42708303590000 :API NUMBER
UWI         .                                    42708303590000 :UNIQUE WELL ID
XCOORD      .                                  1323081.96300683 :SURFACE X 
YCOORD      .                                  10736101.4448574 :SURFACE Y 
LAT         .                                        29.5789626 :LATITUDE  
LON         .                                       -93.9986282 :LONGITUDE 
ELEV        .FT                                             100 :ELEVATION VALUE
ELEV_TYPE   .                                                KB :ELEVATION REFERENCE TYPE
~Curve Information Section
#MNEM       .UNIT                                      API CODE :CURVE DESCRIPTION
#------------------------------------------------------------------------------
DEPT        .FT                                                 :DEPTH     
CNCSS       .%                                                  :          
DCAL        .IN                                                 :          
GRR         .GAPI                                               :          
ILD         .OHMM                                               :          
ILM         .OHMM                                               :          
PORZSS      .%                                                  :          
RFOC        .OHMM                                               :          
SP          .MV                                                 :          
SP_NORM     .MV                                                 :SP Normalized
TENR        .LB                                                 :          
VSH_SP      .V/V                                                :Volume of Shale from SP
ZCOR        .G/CM3                                              :          
~A        DEPTH          CNCSS           DCAL            GRR            ILD            ILM         PORZSS           RFOC             SP        SP_NORM           TENR         VSH_SP           ZCOR
# ...
      6054.5000        36.0341           0.01        44.2532         0.2212         0.2152        34.9588         0.5733       -70.1564      -64.25458       1215.713       0.123175        -0.0656
      6055.0000        36.6281              0        42.4621         0.2172         0.2132        34.9563         0.5707       -71.9428      -66.03963       1215.214     0.09803342        -0.0776
      6055.5000        36.8643              0        39.0314         0.2152         0.2103        35.4313         0.5629       -73.5285      -67.62398       1224.715     0.07571863        -0.0816
      6056.0000        36.5032          -0.01        38.1395         0.2172         0.2103        36.0252         0.5578       -74.5161      -68.61022       1224.217     0.06182786        -0.0737
      6056.5000        35.7837          -0.02        40.3789         0.2202         0.2104        36.6201         0.5578       -75.5027      -69.59547       1223.718     0.04795107        -0.0578
      6057.0000        35.3637          -0.03        41.2752         0.2233         0.2104        37.0361         0.5655       -75.8924      -69.98383        1223.22     0.04248133        -0.0538
      6057.5000        35.5397          -0.04        41.1281         0.2254         0.2113        37.0934         0.5707       -76.6788      -70.76888       1222.721      0.0314243        -0.0459
      6058.0000        36.1331          -0.04        41.4277         0.2285         0.2113        36.9713         0.5527       -77.4644      -71.55312       1212.223     0.02037854        -0.0399
      6058.5000        38.4063          -0.04        42.0246         0.2306         0.2113        36.7891         0.5354       -78.0509      -72.13828       1211.724     0.01213697        -0.0339
      6059.0000        40.3221          -0.04        42.6208         0.2317         0.2114        36.4869         0.5329       -78.6368      -72.72282       1211.226    0.003903886         -0.034
      6059.5000         40.681          -0.03        42.7706         0.2286         0.2123        36.2443         0.5428       -79.0239      -73.10857       1210.727              0         -0.032
      6060.0000        39.9005          -0.03        42.9203         0.2286         0.2123        36.3614         0.5329       -79.0145      -73.09782       1220.228              0         -0.032
      6060.5000          38.82          -0.03        41.7327         0.2255         0.2123          36.72         0.5209       -79.0099      -73.09187           1230              0         -0.032
      6061.0000          37.02          -0.02        40.5446         0.2255         0.2114          36.84         0.5209       -79.2079      -73.28852           1240              0          -0.03
      6061.5000          36.24          -0.02        39.6535         0.2255         0.2114          36.96         0.5305       -79.2079      -73.28717           1240              0         -0.032
      6062.0000          36.36          -0.02        39.9505         0.2275         0.2114          36.96         0.5428       -79.2079      -73.28582           1230              0          -0.03
      6062.5000          38.58          -0.02        40.9901          0.235         0.2133          36.78         0.5527       -79.0099      -73.08647           1220              0         -0.018
      6063.0000          40.14          -0.01        41.7327         0.2361         0.2153          36.48         0.5603       -78.8119      -72.88712           1220    0.001589923         -0.002
      6063.5000          40.44          -0.01        42.1782         0.2361         0.2153        35.7624         0.5655       -78.8119      -72.88577           1220    0.001608943         0.0059
      6064.0000          38.82          -0.01        42.4752         0.2361         0.2153        35.1089         0.5629       -78.8119      -72.88441           1220    0.001627962              0
      6064.5000          37.26           0.01        42.4752         0.2361         0.2153        34.6337         0.5527       -79.0099      -73.08107           1220              0          -0.02
      6065.0000           37.5              0        42.6238         0.2361         0.2153        34.6337         0.5428       -79.0099      -73.07973           1220              0         -0.026
      6065.5000          39.06              0        43.2178         0.2361         0.2143        34.9901         0.5329       -79.2079      -73.27637           1220              0         -0.024
      6066.0000          40.26              0        43.5149         0.2361         0.2123        35.4059         0.5281        -79.802      -73.86913           1220              0         -0.014
      6066.5000          41.34              0        42.4752         0.2361         0.2123         35.703         0.5329          -80.4      -74.46577           1220              0         -0.014
      6067.0000          40.92              0        41.2871         0.2318         0.2123        35.7624         0.5477          -80.8      -74.86443           1230              0         -0.024
      6067.5000          39.54              0        40.2475         0.2255         0.2114        35.6436         0.5603          -80.8      -74.86308           1220              0         -0.026
      6068.0000          38.64              0        39.9505         0.2244         0.2114        35.5842         0.5578          -80.2      -74.26172           1220              0         -0.024
      6068.5000          39.18              0        40.2475         0.2255         0.2104        35.3465         0.5378       -78.8119      -72.87227           1220    0.001799033          -0.02
      6069.0000          39.48          -0.01         39.802         0.2255         0.2114        35.1089         0.5281       -77.6238      -71.68282           1220     0.01855179         -0.018
      6069.5000          38.58          -0.01        38.7624         0.2255         0.2114        34.7525         0.5257       -75.8416      -69.89927           1220     0.04367227         -0.014
      6070.0000           36.9          -0.01        38.1683         0.2244         0.2114        34.3366         0.5233       -74.2574      -68.31372           1230     0.06600393         -0.008
      6070.5000        35.6436          -0.01        37.8713         0.2213         0.2114         34.099         0.5139       -72.4752      -66.53017           1230     0.09112442         -0.006
      6071.0000        35.5842          -0.01        37.1287         0.2173         0.2114        33.9208         0.5092       -70.6931      -64.74672           1240      0.1162434        -0.0022
      6071.5000             36          -0.01        35.9406         0.2153         0.2114        33.6238         0.4955       -69.3069      -63.35917           1240      0.1357864        -0.0003
      6072.0000          36.06          -0.01        36.2376         0.2173         0.2153        33.4455         0.4843       -68.9109      -62.96181           1240      0.1413829         0.0036
      6072.5000          36.06          -0.01        38.7624         0.2213         0.2224        33.3267         0.4734        -70.297      -64.34657           1240      0.1218794        -0.0104
      6073.0000           36.3          -0.02        41.2871         0.2318         0.2318        33.3861         0.4713       -71.6832      -65.73141           1230      0.1023744        -0.0085
      6073.5000          37.38          -0.02        43.6634         0.2518         0.2495        33.3861         0.4821       -72.4752      -66.52206           1230     0.09123854        -0.0066
      6074.0000             39          -0.02        44.1089         0.2736         0.2686        33.5644         0.5233       -72.2772      -66.32272           1220     0.09404626        -0.0087
      6074.5000          39.78          -0.02        42.9208            0.3         0.2891        32.5545         0.5946       -71.6832      -65.72736           1230      0.1024315        -0.0088
