#------------------------------------------------------------------------------
# Created by    : vladimir.rabinovich
# Created on    : 09/19/2023 17:20:25
#------------------------------------------------------------------------------
~Version Information Section
VERS.           2.0     :   CWLS log ASCII Standard - VERSION 2.0
WRAP.           NO      :   One line per depth step
~Well Information Section
#MNEM       .UNIT                                         VALUE :DESCRIPTION
#------------------------------------------------------------------------------
STRT        .FT                                            2998 :START DEPTH
STOP        .FT                                           12526 :STOP DEPTH
STEP        .FT                                             0.5 :STEP      
NULL        .                                           -999.25 :NULL      
COMP        .                                 CALIFORNIA CO THE :COMPANY   
WELL        .                               OCS G01117 ST00BP00 :WELL      
FLD         .                                       HIGH ISLAND :FIELD     
LOC         .                                                   :LOCATION  
CNTY        .                           HIGH ISLAND LARGE BLOCK :LOCATION  
STAT        .                                             TEXAS :STATE     
CTRY        .                                     UNITED STATES :COUNTRY   
SRVC        .                                                   :SERVICE COMPANY
DATE        .                             9/13/2023 11:19:15 AM :LOG DATE  
API         .                                    42708000660000 :API NUMBER
UWI         .                                    42708000660000 :UNIQUE WELL ID
XCOORD      .                                  1214371.69372255 :SURFACE X 
YCOORD      .                                  10618355.5582238 :SURFACE Y 
LAT         .                                         29.252113 :LATITUDE  
LON         .                                        -94.336419 :LONGITUDE 
ELEV        .FT                                              77 :ELEVATION VALUE
ELEV_TYPE   .                                                KB :ELEVATION REFERENCE TYPE
~Curve Information Section
#MNEM       .UNIT                                      API CODE :CURVE DESCRIPTION
#------------------------------------------------------------------------------
DEPT        .FT                                                 :DEPTH     
ASN         .OHMM                                               :          
CILD        .OHMM                                               :          
ILD         .OHMM                                               :          
SP          .MV                                                 :          
SP_NORM     .MV                                                 :SP Normalized
VSH_SP      .V/V                                                :Volume of Shale from SP
~A        DEPTH            ASN           CILD            ILD             SP        SP_NORM         VSH_SP
# ...
      6152.0000         0.7725       1726.002         0.5634        -59.257      -2.287304      0.9841074
      6152.5000         0.7496       1757.176         0.5669       -56.0189      0.9507942              1
      6153.0000         0.7362       1788.326         0.5705       -54.2125       2.757195              1
      6153.5000         0.7229       1813.879          0.574       -52.8792       4.090496              1
      6154.0000         0.7095       1836.316         0.5776        -51.546       5.423695              1
      6154.5000         0.6962       1858.779         0.5811       -50.2128       6.756897              1
      6155.0000         0.6937       1881.217         0.5847       -48.8784       8.091297              1
      6155.5000         0.6933       1898.373         0.5882       -50.2916       6.678097              1
      6156.0000         0.6928       1913.424         0.5893       -51.7789       5.190796              1
      6156.5000         0.6923       1929.936         0.5777       -53.3154       3.654297              1
      6157.0000         0.6918       1954.832         0.5661         -56.63       0.339695              1
      6157.5000         0.7055       1979.703         0.5546       -59.9421      -2.972404      0.9756494
      6158.0000          0.725       1992.328          0.543       -63.2567      -6.287003      0.9347284
      6158.5000         0.7446       1995.895         0.5314       -68.4418      -11.47211      0.8707147
      6159.0000         0.7641       1996.488         0.5199       -77.4022       -20.4325      0.7600926
      6159.5000         0.7836       1997.082         0.5083        -84.332       -27.3623      0.6745394
      6160.0000         0.8262       1997.674         0.4967       -90.0592       -33.0895      0.6038333
      6160.5000         0.8754       1998.268         0.4852       -95.7815      -38.81181      0.5331876
      6161.0000         0.9245       1998.859         0.4736       -98.0537      -41.08401      0.5051357
      6161.5000         1.0007       1999.453         0.4612      -100.0793       -43.1096      0.4801283
      6162.0000         1.0869       2000.045         0.4469      -102.1027        -45.133      0.4551481
      6162.5000         1.1296       2000.639         0.4326      -103.8672      -46.89751      0.4333641
      6163.0000         1.0607       2000.746         0.4182      -105.4615      -48.49181      0.4136814
      6163.5000         0.9485       2000.609         0.4039      -109.4391      -52.46941      0.3645752
      6164.0000         0.8235       2000.473         0.3895      -114.7424      -57.77271      0.2991024
      6164.5000         0.7012       2000.336         0.3715      -119.0206       -62.0509      0.2462851
      6165.0000         0.6428       2000.201         0.3504      -122.8848      -65.91511      0.1985789
      6165.5000         0.5935       2000.064         0.3293      -126.4335      -69.46381      0.1547678
      6166.0000         0.5762       1999.928         0.3082       -128.676       -71.7063      0.1270827
      6166.5000         0.5633       1999.791         0.2941      -130.3284       -73.3587      0.1066827
      6167.0000         0.5504       1999.656         0.2849      -130.0764       -73.1067      0.1097938
      6167.5000         0.5504        1999.52         0.2916      -129.0283      -72.05861      0.1227332
      6168.0000          0.563       1999.383         0.3575      -125.6818       -68.7121      0.1640481
      6168.5000         0.5755       1999.246         0.4233      -120.2231       -63.2534      0.2314395
      6169.0000         0.6082       1999.111         0.4892      -113.6138       -56.6441      0.3130358
      6169.5000         0.6788       1996.057         0.5551      -104.6089      -47.63921      0.4242073
      6170.0000         0.7493       1992.014          0.621       -92.4744      -35.50471       0.574016
      6170.5000         0.8191           1934         0.6852       -83.3265       -26.3568      0.6869531
      6171.0000         0.8686       1269.682         0.7485       -73.8436       -16.8739      0.8040259
      6171.5000         0.9181       1230.502         0.8118       -67.1431       -10.1734      0.8867481
      6172.0000         0.9676        1191.32         0.8752       -67.4757        -10.506      0.8826419
      6172.5000         1.0003        1232.74         0.7958       -70.5808      -13.61111      0.8443073
      6173.0000         0.9837       1334.854         0.7077       -73.8387        -16.869      0.8040864
      6173.5000         0.9508       1436.967         0.6196       -77.0941       -20.1244      0.7638962
      6174.0000          0.918        1539.08         0.5315       -80.3521       -23.3824      0.7236741
      6174.5000         0.8851       1641.289          0.486       -83.6075       -26.6378      0.6834839
      6175.0000         0.8522       1743.402         0.4417       -86.5056       -29.5359      0.6477049
      6175.5000         0.8194       1845.516         0.3974       -88.8812      -31.91151      0.6183764
      6176.0000         0.7865       1963.398         0.3531        -91.257      -34.28731      0.5890456
      6176.5000         0.7536       2014.844         0.3088       -93.6301       -36.6604      0.5597482
      6177.0000         0.7463       2027.844         0.2783       -96.0057        -39.036      0.5304197
      6177.5000         0.7591       2040.844         0.2949      -115.1713      -58.20161      0.2938073
      6178.0000         0.7718        2066.91         0.3114       -119.124       -62.1543      0.2450086
      6178.5000         0.7866       2200.707         0.3279      -121.6124       -64.6427      0.2142877
      6179.0000         0.8091       2408.242         0.3444      -122.3999      -65.43021      0.2045654
      6179.5000         0.8316       2290.457         0.3609      -122.4731       -65.5034      0.2036617
      6180.0000         0.8541       2182.406         0.3774      -121.8096       -64.8399       0.211853
      6180.5000         0.8765        2009.18         0.3939      -121.1467        -64.177       0.220037
      6181.0000          0.899       2010.488         0.4062      -120.4832       -63.5135      0.2282283
      6181.5000         0.9215       2011.797         0.4097      -119.9706       -63.0009      0.2345568
      6182.0000          0.944       2013.105         0.4132      -120.4906       -63.5209       0.228137
      6182.5000         0.9451       2014.412          0.401      -121.5293       -64.5596      0.2153136
      6183.0000         0.9412       2015.721         0.3763      -123.5304      -66.56071      0.1906086
      6183.5000         0.9186       2017.029         0.3515      -125.5289       -68.5592      0.1659358
      6184.0000          0.896       2018.336         0.3391        -127.53       -70.5603      0.1412308
      6184.5000         0.8733        2044.91         0.3302      -129.5286       -72.5589      0.1165568
      6185.0000         0.8507       2128.285         0.3213      -131.5298       -74.5601     0.09185056
      6185.5000         0.8281       2270.988         0.3124      -132.8437      -75.87401     0.07562953
      6186.0000         0.8055       2575.574         0.3034      -133.4021       -76.4324     0.06873576
      6186.5000         0.7853       2406.297         0.2945      -133.9602      -76.99051     0.06184557
      6187.0000         0.7752       2247.527         0.2886      -134.5183       -77.5486     0.05495556
      6187.5000         0.7652       2154.957         0.2917      -135.0767      -78.10701     0.04806161
      6188.0000         0.7552       2077.617         0.2947      -135.6348       -78.6651      0.0411716
      6188.5000         0.7452       2020.379         0.2978      -136.1929      -79.22321     0.03428141
      6189.0000         0.7351        2011.16         0.3008       -136.751      -79.78131     0.02739122
      6189.5000         0.7251       2014.648         0.3038      -137.3093       -80.3396     0.02049877
