#------------------------------------------------------------------------------
# Created by    : vladimir.rabinovich
# Created on    : 09/19/2023 17:20:38
#------------------------------------------------------------------------------
~Version Information Section
VERS.           2.0     :   CWLS log ASCII Standard - VERSION 2.0
WRAP.           NO      :   One line per depth step
~Well Information Section
#MNEM       .UNIT                                         VALUE :DESCRIPTION
#------------------------------------------------------------------------------
STRT        .FT                                             510 :START DEPTH
STOP        .FT                                            8711 :STOP DEPTH
STEP        .FT                                             0.5 :STEP      
NULL        .                                           -999.25 :NULL      
COMP        .                                      SHELL OIL CO :COMPANY   
WELL        .                                OCS 00708 ST00BP00 :WELL      
FLD         .                                           WILDCAT :FIELD     
LOC         .                                                   :LOCATION  
CNTY        .                             GALVESTON LARGE BLOCK :LOCATION  
STAT        .                                             TEXAS :STATE     
CTRY        .                                     UNITED STATES :COUNTRY   
SRVC        .                                                   :SERVICE COMPANY
DATE        .                             9/13/2023 11:19:25 AM :LOG DATE  
API         .                                    42706000300000 :API NUMBER
UWI         .                                    42706000300000 :UNIQUE WELL ID
XCOORD      .                                  1082576.09526943 :SURFACE X 
YCOORD      .                                  10493698.2734572 :SURFACE Y 
LAT         .                                         28.904546 :LATITUDE  
LON         .                                        -94.743912 :LONGITUDE 
ELEV        .FT                                              92 :ELEVATION VALUE
ELEV_TYPE   .                                                KB :ELEVATION REFERENCE TYPE
~Curve Information Section
#MNEM       .UNIT                                      API CODE :CURVE DESCRIPTION
#------------------------------------------------------------------------------
DEPT        .FT                                                 :DEPTH     
ASN         .OHMM                                               :          
CILD        .MMHO                                               :          
DT          .US/F                                               :          
ILD         .OHMM                                               :          
SP          .MV                                                 :          
SP_NORM     .MV                                                 :SP Normalized
VSH_SP      .V/V                                                :Volume of Shale from SP
~A        DEPTH            ASN           CILD             DT            ILD             SP        SP_NORM         VSH_SP
       510.0000          0.372       818.9004        -999.25         1.2769        -65.933       2.635709              1
       510.5000          0.423       828.0957        -999.25         1.2771       -74.2152     -0.1549087              1
       511.0000         0.4891       841.6846        -999.25         1.2601       -78.6927    -0.06100904              1
       511.5000         0.5552       940.0781        -999.25         1.2345       -80.1174        2.53281              1
       512.0000         0.6212       1034.213        -999.25         1.1891       -81.2926       2.827868              1
       512.5000         0.6873       1035.379        -999.25         1.1239       -82.1727       1.127338              1
       513.0000         0.7534       1002.606        -999.25          1.411       -83.6155      0.4212419              1
       513.5000         0.8195       854.3896        -999.25         1.5498       -85.7703      0.6194808              1
       514.0000         0.9624       717.1338        -999.25         1.6336       -86.7115      0.1461751              1
       514.5000         1.0259       605.2227        -999.25         1.6946       -87.2806     -0.1561694              1
       515.0000          1.049       611.9805        -999.25         1.6783       -87.6208         2.7079              1
       515.5000         1.0683       621.6973        -999.25         1.6742       -87.9523     -0.2265113              1
       516.0000          1.082       620.5557        -999.25         1.6716       -88.2838       2.244006              1
       516.5000         1.0903       621.2627        -999.25         1.6714       -88.6256       2.989479              1
       517.0000          1.094       626.5898        -999.25         1.6756       -88.9773      0.3749675              1
       517.5000         1.0977       640.8242        -999.25         1.6469       -89.3109       2.887407              1
       518.0000         1.1015       662.2871        -999.25         1.5948       -89.6245      0.9928292              1
       518.5000         1.1033        685.415        -999.25         1.5443       -89.9255     0.05717126              1
       519.0000         1.1045       728.1318        -999.25          1.506       -90.2198        3.33151              1
       519.5000         1.1057       763.1768        -999.25         1.4677       -90.5895     -0.9426827              1
       520.0000         1.1069       805.4824        -999.25         1.4246       -90.8367       1.800043              1
       520.5000         1.1081       837.4717        -999.25         1.3796       -90.3446      0.3859031              1
       521.0000         1.1076       844.8848        -999.25         1.3306       -90.0853      -0.374521              1
       521.5000         1.1069       845.6572        -999.25         1.3258       -90.5344     -0.5914078              1
       522.0000          1.107       845.9063        -999.25          1.321       -90.9377       2.519376              1
       522.5000         1.1169        843.917        -999.25         1.3197        -91.314     -0.1352178              1
       523.0000         1.1268       841.9268        -999.25          1.319       -91.6902      -1.117936              1
       523.5000         1.1367       840.0332        -999.25         1.3183       -92.0475       1.495892              1
       524.0000         1.1466       838.2969        -999.25         1.3177       -92.3872       3.003671              1
       524.5000         1.1609       836.5615        -999.25         1.3174       -92.5751      0.1733963              1
       525.0000          1.177       834.6348        -999.25         1.3176       -92.5055       2.886251              1
       525.5000          1.193       831.7715        -999.25         1.3177       -92.4359       2.604415              1
       526.0000         1.2014       828.9072        -999.25          1.336       -92.3185     -0.8123756              1
       526.5000         1.2093       820.6553        -999.25         1.3609       -92.1863     -0.3397988              1
       527.0000         1.2169       811.6709        -999.25         1.3846       -92.2744        1.55739              1
       527.5000         1.2244       798.8818        -999.25         1.4066       -92.5107       1.836985              1
       528.0000         1.2349       783.7471        -999.25         1.4287        -92.714       2.784186              1
       528.5000         1.2509       769.9971        -999.25         1.4507        -92.908       2.786459              1
       529.0000         1.2695       757.3154        -999.25         1.4738       -92.9579       1.686159              1
       529.5000         1.2884       742.9111        -999.25         1.5027       -92.8976      0.6197909              1
       530.0000         1.3073       722.9414        -999.25         1.5316       -92.7955       1.643395              1
       530.5000         1.3262       704.4189        -999.25         1.5583       -92.7397      -2.495796      0.9690127
       531.0000         1.3366       698.8057        -999.25         1.5604       -92.9031      -2.659195      0.9588003
       531.5000         1.3367       699.2578        -999.25         1.5509       -93.0663      -2.822395      0.9486003
       532.0000         1.3333       700.6865        -999.25         1.5415       -93.1708      -2.926895      0.9420691
       532.5000           1.33       703.6396        -999.25         1.5367       -93.2466      -3.002693      0.9373317
       533.0000         1.3267       707.9639        -999.25          1.534       -93.2666      -3.022697      0.9360814
       533.5000         1.3264       714.2412        -999.25         1.5313       -93.2395      -2.995598      0.9377751
       534.0000         1.3292        723.332        -999.25         1.5286        -93.144      -2.900093      0.9437442
       534.5000         1.3357        734.292        -999.25         1.5141       -93.0486      -2.804695      0.9497066
       535.0000         1.3392       741.6914        -999.25         1.4898       -92.9532      -2.709297      0.9556689
       535.5000         1.3318       748.0586        -999.25          1.458       -92.9347      -2.690796      0.9568253
       536.0000          1.325       751.9492        -999.25         1.4442       -92.9563      -2.712395      0.9554753
       536.5000         1.3182       754.9023        -999.25         1.4468       -92.9779      -2.733994      0.9541254
       537.0000         1.3177       755.7949        -999.25         1.4493       -92.9994      -2.755493      0.9527817
       537.5000          1.319        753.376        -999.25         1.4518        -93.021        -2.7771      0.9514313
       538.0000         1.3201        750.958        -999.25         1.4543       -93.1494      -2.905495      0.9434066
       538.5000         1.3211        748.749        -999.25         1.4568       -93.0719      -2.827995      0.9482503
       539.0000         1.3222       746.6025        -999.25         1.4592       -92.8727      -2.628799         0.9607
       539.5000         1.3181       744.6162        -999.25         1.4614       -92.7668      -2.522896       0.967319
       540.0000         1.3115       743.4746        -999.25         1.4635       -92.7468      -2.502899      0.9685688
       540.5000         1.3068        742.332        -999.25         1.4657       -92.9749      -2.730995      0.9543128
       541.0000         1.3025       746.4687        -999.25         1.4679       -93.2922      -3.048294      0.9344816
       541.5000         1.2983       752.3105        -999.25         1.4668       -93.6095      -3.365593      0.9146504
       542.0000         1.2939       765.9258        -999.25          1.439       -93.8226      -3.578697      0.9013314
       542.5000          1.284       788.3916        -999.25         1.3872       -93.9889      -3.744995      0.8909378
       543.0000         1.2253       903.9072        -999.25         1.3252        -94.155      -3.911095      0.8805566
