#------------------------------------------------------------------------------
# Created by    : vladimir.rabinovich
# Created on    : 09/19/2023 17:20:25
#------------------------------------------------------------------------------
~Version Information Section
VERS.           2.0     :   CWLS log ASCII Standard - VERSION 2.0
WRAP.           NO      :   One line per depth step
~Well Information Section
#MNEM       .UNIT                                         VALUE :DESCRIPTION
#------------------------------------------------------------------------------
STRT        .FT                                             396 :START DEPTH
STOP        .FT                                           11006 :STOP DEPTH
STEP        .FT                                             0.5 :STEP      
NULL        .                                           -999.25 :NULL      
COMP        .                                 CALIFORNIA CO THE :COMPANY   
WELL        .                                OCS 00507 ST00BP00 :WELL      
FLD         .                            HIGH ISLAND BLOCK 0052 :FIELD     
LOC         .                                                   :LOCATION  
CNTY        .                           HIGH ISLAND LARGE BLOCK :LOCATION  
STAT        .                                             TEXAS :STATE     
CTRY        .                                     UNITED STATES :COUNTRY   
SRVC        .                                                   :SERVICE COMPANY
DATE        .                             9/13/2023 11:19:15 AM :LOG DATE  
API         .                                    42708000170000 :API NUMBER
UWI         .                                    42708000170000 :UNIQUE WELL ID
XCOORD      .                                  1293108.02889945 :SURFACE X 
YCOORD      .                                   10685731.628563 :SURFACE Y 
LAT         .                                         29.439677 :LATITUDE  
LON         .                                        -94.091453 :LONGITUDE 
ELEV        .FT                                              70 :ELEVATION VALUE
ELEV_TYPE   .                                                KB :ELEVATION REFERENCE TYPE
~Curve Information Section
#MNEM       .UNIT                                      API CODE :CURVE DESCRIPTION
#------------------------------------------------------------------------------
DEPT        .FT                                                 :DEPTH     
ASN         .OHMM                                               :          
CILD        .MMHO                                               :          
ILM         .OHMM                                               :          
SP          .MV                                                 :          
SP_NORM     .MV                                                 :SP Normalized
VSH_SP      .V/V                                                :Volume of Shale from SP
~A        DEPTH            ASN           CILD            ILM             SP        SP_NORM         VSH_SP
# ...
      1118.0000         1.0294       763.8779         1.2993       -72.7994         2.6723              1
      1118.5000         1.0344       755.7168         1.3195       -72.9348         2.5369              1
      1119.0000         1.0423       741.5713         1.3397       -73.0702         2.4015              1
      1119.5000         1.0503       720.2246         1.3603       -73.2056         2.2661              1
      1120.0000         1.0606       698.8721         1.3901       -73.5111         1.9606              1
      1120.5000         1.0818       677.5254           1.42       -73.8641         1.6076              1
      1121.0000          1.103       657.1436         1.4498       -74.2172         1.2545              1
      1121.5000         1.1242        637.665           1.47       -74.5702         0.9015              1
      1122.0000         1.1453       622.9834         1.4762       -74.8737          0.598              1
      1122.5000         1.1659       633.5625         1.4825       -75.1531         0.3186              1
      1123.0000         1.1865       651.5293         1.4365       -75.4326         0.0391              1
      1123.5000         1.2071       669.4971         1.3892       -75.7122        -0.2405              1
      1124.0000         1.1935       700.6738         1.3418       -75.9916        -0.5199              1
      1124.5000         1.1687       732.0293         1.2944        -76.265        -0.7933              1
      1125.0000         1.1438       777.8047          1.247       -76.5363        -1.0646              1
      1125.5000         1.1083       825.2695         1.1996       -76.8077         -1.336              1
      1126.0000          1.078       843.0703         1.1775       -77.0791        -1.6074              1
      1126.5000         1.0552       860.8711         1.1641       -77.3435        -1.8718              1
      1127.0000         1.0406        869.958         1.1507       -77.5996        -2.1279       0.993605
      1127.5000         1.0341       874.8555         1.1373       -77.8557         -2.384         0.9808
      1128.0000         1.0276       879.7539         1.1239       -78.1118        -2.6401       0.967995
      1128.5000         1.0212       884.6504         1.1105       -78.1121        -2.6404        0.96798
      1129.0000         1.0147       868.8418         1.0971       -78.1055        -2.6338        0.96831
      1129.5000         1.0173       852.0801         1.0837        -77.976        -2.5043       0.974785
      1130.0000          1.023       835.3193         1.0879       -77.7406        -2.2689       0.986555
      1130.5000         1.0286       812.6357         1.1064       -77.5051        -2.0334        0.99833
      1131.0000         1.0342       789.8428         1.1248       -77.2698        -1.7981              1
      1131.5000         1.0407        767.043         1.1432       -77.0343        -1.5626              1
      1132.0000         1.0539       744.2432         1.1617        -76.799        -1.3273              1
      1132.5000          1.067       729.3125         1.1801       -76.5309        -1.0592              1
      1133.0000         1.0802        715.667         1.1986       -76.2483        -0.7766              1
      1133.5000         1.0933       702.0215          1.217       -75.9656        -0.4939              1
      1134.0000         1.1068        688.373         1.2388        -75.683        -0.2113              1
      1134.5000         1.1204       678.3076         1.2702        -75.397         0.0747              1
      1135.0000         1.1341       672.2832         1.3015       -75.1106         0.3611              1
      1135.5000         1.1478       666.2578         1.3328       -74.8242         0.6475              1
      1136.0000         1.1563       660.2334         1.3642       -74.5377          0.934              1
      1136.5000         1.1485       658.3057         1.3722       -74.3566         1.1151              1
      1137.0000         1.1368       661.9961         1.3502       -74.1952         1.2765              1
      1137.5000         1.1191       668.5713         1.3281       -74.0337          1.438              1
      1138.0000         1.0952       690.9766          1.306       -73.8861         1.5856              1
      1138.5000         1.0713       713.3828          1.284       -73.7926         1.6791              1
      1139.0000         1.0499       735.4717         1.2588       -73.6991         1.7726              1
      1139.5000         1.0295       757.0186         1.2323       -73.6055         1.8662              1
      1140.0000         1.0091       778.5703         1.2059       -73.6215         1.8502              1
      1140.5000         0.9972       786.2744         1.1794       -73.6415         1.8302              1
      1141.0000         0.9883       790.7949         1.1529       -73.6987          1.773              1
      1141.5000         0.9794       795.3145         1.1265       -73.8341         1.6376              1
      1142.0000         0.9704       792.0674         1.1041       -73.9696         1.5021              1
      1142.5000         0.9695       785.7383          1.112       -74.1049         1.3668              1
      1143.0000         0.9706       779.4092         1.1198       -74.1187          1.353              1
      1143.5000         0.9717       773.0801         1.1276       -74.1119         1.3598              1
      1144.0000         0.9812        766.751         1.1354       -74.1052         1.3665              1
      1144.5000          0.991       760.4453         1.1432       -74.0985         1.3732              1
      1145.0000         1.0009       754.5371         1.1511       -74.0919         1.3798              1
      1145.5000         1.0108       748.6309         1.1589       -74.0852         1.3865              1
      1146.0000         1.0205       742.7227         1.1614       -74.2104         1.2613              1
      1146.5000         1.0296       736.8164         1.1562       -74.3761         1.0956              1
      1147.0000         1.0388       734.7314          1.151       -74.5417           0.93              1
      1147.5000         1.0479       748.6514         1.1458       -74.9882         0.4835              1
      1148.0000          1.057       762.5713         1.1406       -75.4633         0.0084              1
      1148.5000         1.0643       777.9912         1.1354       -75.9384        -0.4667              1
      1149.0000         1.0711       797.9404         1.1302       -76.4606        -0.9889              1
      1149.5000         1.0778       817.8896          1.125       -77.0529        -1.5812              1
      1150.0000         1.0796       837.7061         1.1198        -77.645        -2.1733       0.991335
      1150.5000          1.072       855.3516         1.1073       -78.2373        -2.7656        0.96172
      1151.0000         1.0579       872.9971         1.0905       -78.8239        -3.3522        0.93239
      1151.5000         1.0409       890.6182         1.0736       -79.3134        -3.8417       0.907915
      1152.0000         1.0239       907.9893         1.0568       -79.8027         -4.331        0.88345
      1152.5000         1.0065       925.3604         1.0399        -80.205        -4.7333       0.863335
      1153.0000         0.9891       942.7314         1.0231       -80.5834        -5.1117       0.844415
      1153.5000         0.9717       956.8486         1.0063       -80.9619        -5.4902        0.82549
      1154.0000         0.9564        970.665         0.9894       -81.3071        -5.8354        0.80823
      1154.5000         0.9416       984.4824         0.9726        -81.619        -6.1473       0.792635
      1155.0000         0.9268       997.3682         0.9669       -81.9308        -6.4591       0.777045
      1155.5000         0.9193       1004.149         0.9685       -81.9709        -6.4992        0.77504
