#------------------------------------------------------------------------------
# Created by    : vladimir.rabinovich
# Created on    : 09/19/2023 17:22:43
#------------------------------------------------------------------------------
~Version Information Section
VERS.           2.0     :   CWLS log ASCII Standard - VERSION 2.0
WRAP.           NO      :   One line per depth step
~Well Information Section
#MNEM       .UNIT                                         VALUE :DESCRIPTION
#------------------------------------------------------------------------------
STRT        .FT                                            3600 :START DEPTH
STOP        .FT                                            7940 :STOP DEPTH
STEP        .FT                                             0.5 :STEP      
NULL        .                                           -999.25 :NULL      
COMP        .                          SEAGULL ENERGY E & P INC :COMPANY   
WELL        .                               OCS G09015 ST00BP00 :WELL      
FLD         .                                 BRAZOS BLOCK 0431 :FIELD     
LOC         .                                                   :LOCATION  
CNTY        .                                BRAZOS LARGE BLOCK :LOCATION  
STAT        .                                             TEXAS :STATE     
CTRY        .                                     UNITED STATES :COUNTRY   
SRVC        .                                                   :SERVICE COMPANY
DATE        .                             9/13/2023 11:09:51 AM :LOG DATE  
API         .                                    42704402370000 :API NUMBER
UWI         .                                    42704402370000 :UNIQUE WELL ID
XCOORD      .                                  876086.487249857 :SURFACE X 
YCOORD      .                                  10366258.6106956 :SURFACE Y 
LAT         .                                        28.5443209 :LATITUDE  
LON         .                                       -95.3810825 :LONGITUDE 
ELEV        .FT                                              90 :ELEVATION VALUE
ELEV_TYPE   .                                                KB :ELEVATION REFERENCE TYPE
~Curve Information Section
#MNEM       .UNIT                                      API CODE :CURVE DESCRIPTION
#------------------------------------------------------------------------------
DEPT        .FT                                                 :DEPTH     
DCAL        .IN                                                 :          
DPHI        .%                                                  :          
GR          .GAPI                                               :          
GR_NORM     .GAPI                                               :GammaRay Normalized
ILD         .OHMM                                               :          
ILM         .OHMM                                               :          
NPHI        .%                                                  :          
SGRD        .OHMM                                               :          
SP          .MV                                                 :          
SP_NORM     .MV                                                 :SP Normalized
VSH_GR      .V/V                                                :Volume of Shale from GR
VSH_SP      .V/V                                                :Volume of Shale from SP
~A        DEPTH           DCAL           DPHI             GR        GR_NORM            ILD            ILM           NPHI           SGRD             SP        SP_NORM         VSH_GR         VSH_SP
# ...
      3887.0000         2.0064        33.9048        52.1696       70.94673         0.3791          0.457        42.9383         0.6721       -70.0471      -11.08756      0.8073773      0.2427034
      3887.5000         1.8038        33.1788        54.6759       74.57024          0.354         0.4532        43.2401         0.6773       -70.1134      -11.15387      0.8844731      0.2371778
      3888.0000         1.6249        34.0636        54.1496       73.79784         0.3313         0.4263        43.5955         0.6843       -70.1768      -11.21727      0.8680391      0.2318945
      3888.5000         1.4922        35.6636        48.0663       64.97029         0.3099         0.3967        43.8644         0.6687       -70.3158      -11.35627      0.6802189      0.2203112
      3889.0000         1.3781        37.8464        44.4034       59.65124         0.2868         0.3643         43.719         0.6408       -70.4717      -11.51217      0.5670476      0.2073196
      3889.5000         1.2737        40.2633        42.1238       56.33735         0.2631         0.3372        42.9664         0.6168       -70.5752      -11.61567      0.4965394      0.1986945
      3890.0000         1.2202        40.9625        41.0765       54.80974         0.2444         0.3185        41.8449         0.6002       -70.4503      -11.49076       0.464037      0.2091029
      3890.5000         1.1978         41.101        42.3804        56.6903         0.2363         0.3038         40.913         0.5948       -70.2377      -11.27816       0.504049      0.2268197
      3891.0000         1.1989        40.8259         43.713       58.61248         0.2388         0.2942        40.2537         0.5961       -70.0015      -11.04197      0.5449463      0.2465029
      3891.5000         1.2111         40.415        44.9218       60.35519         0.2479         0.2993        40.1465         0.5989       -69.7616      -10.80206      0.5820252      0.2664951
      3892.0000          1.256        40.0994        46.5657       62.72862         0.2607         0.3191        40.5591          0.604       -69.5629      -10.60336      0.6325238      0.2830534
      3892.5000         1.2844        39.9424          47.29       63.76902         0.2822         0.3432        41.2661         0.6124       -69.3632      -10.40366      0.6546599       0.299695
      3893.0000         1.2718        40.1172        45.1368       60.63833         0.3092         0.3653        42.5038         0.6228       -69.1586      -10.19906      0.5880497      0.3167448
      3893.5000         1.1952        40.4192        44.1174       59.15118          0.337         0.3869        43.0598         0.6332       -68.9747      -10.01516      0.5564081      0.3320697
      3894.0000         1.1127        40.7789        44.1988       59.25967         0.3558         0.4038        43.6486         0.6383       -68.8051      -9.845562      0.5587163      0.3462032
      3894.5000         1.0406        40.7358        44.2735       59.35844         0.3632         0.4144        44.5321         0.6394       -68.7737      -9.814159       0.560818      0.3488201
      3895.0000         1.0224        40.4495         44.398       59.52941         0.3682         0.4109        44.8087         0.6381       -69.1331      -10.17356      0.5644554      0.3188696
      3895.5000         1.1018        40.0786        44.3666        59.4744         0.3546         0.4027        44.9451         0.6332       -69.3895      -10.42997      0.5632851      0.2975028
      3896.0000          1.171        39.6404        42.3374       56.52347         0.3348         0.3864        44.4277          0.626       -69.6281      -10.66856      0.5004994        0.27762
      3896.5000         1.1909         39.028        36.4965       48.04731         0.3144         0.3664        42.7828          0.617       -69.9901      -11.03056      0.3201554      0.2474534
      3897.0000         1.1999        38.8665        32.4661       42.19555         0.2967         0.3457        41.9034         0.6097       -70.4279      -11.46836      0.1956499      0.2109696
      3897.5000         1.1931        38.7885        28.2013       36.00401         0.2792         0.3285        41.1755         0.6063       -70.8385      -11.87896     0.06391517       0.176753
      3898.0000         1.1573        38.8364        24.2752       30.30344          0.267          0.313        40.4994         0.6029       -71.2355      -12.27596              0      0.1436701
      3898.5000         1.1073        39.1791        22.4134       27.59518         0.2606          0.301        40.2785         0.5998       -71.4824      -12.52286              0      0.1230949
      3899.0000         1.0606        39.5056        22.8885       28.27435         0.2568         0.2914        40.4886         0.5973       -71.5591      -12.59956              0      0.1167034
      3899.5000         1.0136        39.3154        24.1391       30.07766         0.2543         0.2877        40.5786         0.5961       -71.5612      -12.60167              0      0.1165279
      3900.0000         0.9643        38.8312        26.2708       33.15816         0.2529         0.2856        40.7161         0.5954       -71.5614      -12.60186    0.003365212      0.1165113
      3900.5000         0.9277        38.2837        28.3811       36.20765          0.252         0.2853        40.8702          0.596       -71.5568      -12.59726     0.06824794      0.1168947
      3901.0000          0.897        37.7306        30.5044       39.27597          0.252         0.2856        40.9517         0.5965       -71.5245      -12.56496      0.1335313      0.1195866
      3901.5000         0.8703        37.2139        32.5065       42.16862         0.2519         0.2857        40.6697         0.5965       -71.5154      -12.55587       0.195077      0.1203445
      3902.0000          0.858        36.9077        34.2012       44.61568         0.2516         0.2837        39.9863         0.5966       -71.4565      -12.49696      0.2471421      0.1252534
      3902.5000         0.9308        36.7656        33.0497       42.93702         0.2516         0.2815        39.9933         0.5966       -71.3085      -12.34896      0.2114259      0.1375863
      3903.0000         1.0088        36.9747        30.7466       39.58906         0.2515         0.2805        40.4569         0.5967       -71.1428      -12.18326      0.1401927      0.1513948
      3903.5000         1.0654        37.5951        28.4938       36.31401         0.2512         0.2793        41.2168         0.5967       -71.0331      -12.07356     0.07051095      0.1605368
      3904.0000         1.1204        37.8629        28.8162       36.77185         0.2506         0.2792        41.8625         0.5964       -70.9814      -12.02186     0.08025214      0.1648448
      3904.5000         1.1561        37.9049        29.5326       37.80081         0.2498         0.2794        42.6778         0.5957       -71.0574      -12.09787      0.1021449      0.1585112
      3905.0000         1.1599        37.8163         28.413        36.1684         0.2484         0.2801        43.1928         0.5959       -71.2736      -12.31406     0.06741276       0.140495
      3905.5000           1.18        37.7025        26.9742       34.07328         0.2468         0.2817        43.1786          0.596       -71.4987      -12.53917     0.02283567      0.1217362
      3906.0000            1.2        37.5377        25.2691       31.59216         0.2451         0.2823        42.6802         0.5962         -71.66      -12.70047              0      0.1082945
      3906.5000         1.2113        37.4171        23.7548       29.38761         0.2429         0.2817        41.2862         0.5963       -71.7429      -12.78336              0      0.1013867
      3907.0000         1.2038        37.3931        23.4182        28.8902         0.2404         0.2799        40.6296         0.5965       -71.8374      -12.87786              0     0.09351126
