#------------------------------------------------------------------------------
# Created by    : vladimir.rabinovich
# Created on    : 09/19/2023 17:20:39
#------------------------------------------------------------------------------
~Version Information Section
VERS.           2.0     :   CWLS log ASCII Standard - VERSION 2.0
WRAP.           NO      :   One line per depth step
~Well Information Section
#MNEM       .UNIT                                         VALUE :DESCRIPTION
#------------------------------------------------------------------------------
STRT        .FT                                             520 :START DEPTH
STOP        .FT                                           11478 :STOP DEPTH
STEP        .FT                                             0.5 :STEP      
NULL        .                                           -999.25 :NULL      
COMP        .                                      SHELL OIL CO :COMPANY   
WELL        .                                OCS 00730 ST00BP00 :WELL      
FLD         .                                           WILDCAT :FIELD     
LOC         .                                                   :LOCATION  
CNTY        .                             GALVESTON LARGE BLOCK :LOCATION  
STAT        .                                             TEXAS :STATE     
CTRY        .                                     UNITED STATES :COUNTRY   
SRVC        .                                                   :SERVICE COMPANY
DATE        .                             9/13/2023 11:19:42 AM :LOG DATE  
API         .                                    42706000260000 :API NUMBER
UWI         .                                    42706000260000 :UNIQUE WELL ID
XCOORD      .                                  961416.888637646 :SURFACE X 
YCOORD      .                                  10353223.2377546 :SURFACE Y 
LAT         .                                         28.512881 :LATITUDE  
LON         .                                        -95.114699 :LONGITUDE 
ELEV        .FT                                              72 :ELEVATION VALUE
ELEV_TYPE   .                                                KB :ELEVATION REFERENCE TYPE
~Curve Information Section
#MNEM       .UNIT                                      API CODE :CURVE DESCRIPTION
#------------------------------------------------------------------------------
DEPT        .FT                                                 :DEPTH     
ASN         .OHMM                                               :          
CILD        .MMHO                                               :          
ILD         .OHMM                                               :          
LAT         .OHMM                                               :          
LN          .OHMM                                               :          
SP          .MV                                                 :          
SP_NORM     .MV                                                 :SP Normalized
VSH_SP      .V/V                                                :Volume of Shale from SP
~A        DEPTH            ASN           CILD            ILD            LAT             LN             SP        SP_NORM         VSH_SP
# ...
      7069.0000          0.534       1766.537          0.404        -999.25        -999.25       -43.2681      0.6343384              1
      7069.5000         0.5342       1775.441         0.4031        -999.25        -999.25       -43.4319      0.4705391              1
      7070.0000         0.5344       1784.346         0.4023        -999.25        -999.25       -43.5958      0.3066406              1
      7070.5000         0.5346        1793.25         0.4014        -999.25        -999.25       -43.2736      0.6288376              1
      7071.0000         0.5348       1791.947         0.4006        -999.25        -999.25       -42.7827        1.11974              1
      7071.5000         0.5338       1780.289         0.3997        -999.25        -999.25       -42.2917       1.610741              1
      7072.0000         0.5328       1768.621         0.3989        -999.25        -999.25       -41.8014        2.10104              1
      7072.5000         0.5318       1756.953          0.398        -999.25        -999.25       -41.3104       2.592041              1
      7073.0000         0.5308       1745.297         0.3972        -999.25        -999.25       -40.8195       3.082939              1
      7073.5000         0.5297       1733.629         0.3972        -999.25        -999.25         -41.14        2.76244              1
      7074.0000         0.5287       1721.973          0.398        -999.25        -999.25       -41.4631       2.439339              1
      7074.5000         0.5277       1710.305         0.3988        -999.25        -999.25       -41.7862       2.116238              1
      7075.0000         0.5256       1698.648         0.3996        -999.25        -999.25       -42.1093        1.79314              1
      7075.5000         0.5217        1690.23         0.4004        -999.25        -999.25       -42.4326       1.469841              1
      7076.0000         0.5177       1693.834         0.4012        -999.25        -999.25       -42.7557        1.14674              1
      7076.5000         0.5138       1703.043          0.402        -999.25        -999.25       -43.0787      0.8237381              1
      7077.0000         0.5098       1713.533         0.4028        -999.25        -999.25       -42.9564      0.9460373              1
      7077.5000         0.5059       1724.012         0.4035        -999.25        -999.25       -42.6376       1.264839              1
      7078.0000         0.5019       1734.502         0.4043        -999.25        -999.25       -42.3184       1.584038              1
      7078.5000         0.4979       1744.992         0.4051        -999.25        -999.25       -41.9819        1.92054              1
      7079.0000          0.494       1755.471         0.4059        -999.25        -999.25       -41.6186        2.28384              1
      7079.5000           0.49       1765.959         0.4067        -999.25        -999.25       -41.2548        2.64764              1
      7080.0000         0.4861       1776.449         0.4075        -999.25        -999.25       -40.9651        2.93734              1
      7080.5000         0.4821       1786.939         0.4083        -999.25        -999.25       -41.2576        2.64484              1
      7081.0000         0.4782       1797.441         0.4091        -999.25        -999.25       -41.5497       2.352737              1
      7081.5000         0.4768       1808.123         0.4106        -999.25        -999.25       -41.8422       2.060238              1
      7082.0000         0.4759       1818.805         0.4124        -999.25        -999.25       -42.1346       1.767838              1
      7082.5000          0.475       1829.488         0.4142        -999.25        -999.25       -42.4267       1.475739              1
      7083.0000         0.4741        1840.17         0.4161        -999.25        -999.25       -42.7191       1.183338              1
      7083.5000         0.4732       1850.854         0.4179        -999.25        -999.25        -42.488        1.41444              1
      7084.0000         0.4723       1861.535         0.4197        -999.25        -999.25       -41.9554       1.947041              1
      7084.5000         0.4714       1872.037         0.4215        -999.25        -999.25       -41.4235       2.478939              1
      7085.0000         0.4705       1878.799         0.4233        -999.25        -999.25       -40.8909       3.011539              1
      7085.5000         0.4696       1885.178         0.4251        -999.25        -999.25       -40.3589       3.543541              1
      7086.0000         0.4687       1868.818          0.427        -999.25        -999.25       -39.8264       4.076038              1
      7086.5000         0.4693       1852.484         0.4288        -999.25        -999.25       -39.3354       4.567039              1
      7087.0000          0.475       1836.148         0.4306        -999.25        -999.25       -38.8817       5.020741              1
      7087.5000         0.4808       1819.791         0.4324        -999.25        -999.25       -38.4283        5.47414              1
      7088.0000         0.4865       1803.455         0.4342        -999.25        -999.25       -37.9745        5.92794              1
      7088.5000         0.4923       1787.121         0.4361        -999.25        -999.25       -38.2316       5.670837              1
      7089.0000          0.498       1770.785         0.4379        -999.25        -999.25       -40.1728       3.729641              1
      7089.5000         0.5038       1754.428         0.4397        -999.25        -999.25       -42.1118       1.790638              1
      7090.0000         0.5095       1736.643         0.4437        -999.25        -999.25        -42.578        1.32444              1
      7090.5000         0.5153       1718.563          0.448        -999.25        -999.25       -43.0414      0.8610382              1
      7091.0000          0.521       1700.506         0.4523        -999.25        -999.25       -43.5047      0.3977394              1
      7091.5000         0.5267       1682.426         0.4566        -999.25        -999.25       -43.9687    -0.06626129              1
      7092.0000         0.5325       1664.346         0.4609        -999.25        -999.25          -44.4     -0.4975624              1
      7092.5000         0.5382       1646.268         0.4652        -999.25        -999.25        -44.752     -0.8495598              1
      7093.0000          0.544       1628.188         0.4695        -999.25        -999.25       -45.1041       -1.20166              1
      7093.5000         0.5485       1610.799         0.4738        -999.25        -999.25       -45.4555      -1.553062              1
      7094.0000         0.5529       1600.535         0.4781        -999.25        -999.25       -45.8076      -1.905159              1
      7094.5000         0.5573        1590.26         0.4824        -999.25        -999.25       -46.1596       -2.25716      0.9888191
      7095.0000         0.5617       1579.996         0.4867        -999.25        -999.25       -46.5117      -2.609261      0.9735104
      7095.5000         0.5661       1569.723          0.491        -999.25        -999.25       -46.9238      -3.021362      0.9555929
      7096.0000         0.5705       1554.645         0.4952        -999.25        -999.25       -47.3372      -3.434761      0.9376191
      7096.5000         0.5748       1556.434         0.4949        -999.25        -999.25        -47.751       -3.84856      0.9196278
      7097.0000         0.5792       1561.334         0.4946        -999.25        -999.25       -48.1649      -4.262463      0.9016321
      7097.5000         0.5788       1566.238         0.4944        -999.25        -999.25       -48.5782      -4.675762      0.8836625
      7098.0000         0.5783       1571.139         0.4941        -999.25        -999.25       -49.0135      -5.111061      0.8647365
