#------------------------------------------------------------------------------
# Created by    : vladimir.rabinovich
# Created on    : 09/19/2023 17:21:24
#------------------------------------------------------------------------------
~Version Information Section
VERS.           2.0     :   CWLS log ASCII Standard - VERSION 2.0
WRAP.           NO      :   One line per depth step
~Well Information Section
#MNEM       .UNIT                                         VALUE :DESCRIPTION
#------------------------------------------------------------------------------
STRT        .FT                                            4234 :START DEPTH
STOP        .FT                                            7516 :STOP DEPTH
STEP        .FT                                             0.5 :STEP      
NULL        .                                           -999.25 :NULL      
COMP        .                          SEAGULL ENERGY E & P INC :COMPANY   
WELL        .                               OCS G11311 ST00BP00 :WELL      
FLD         .                                           WILDCAT :FIELD     
LOC         .                                                   :LOCATION  
CNTY        .                             GALVESTON LARGE BLOCK :LOCATION  
STAT        .                                             TEXAS :STATE     
CTRY        .                                     UNITED STATES :COUNTRY   
SRVC        .                                                   :SERVICE COMPANY
DATE        .                             9/13/2023 11:19:54 AM :LOG DATE  
API         .                                    42706403550000 :API NUMBER
UWI         .                                    42706403550000 :UNIQUE WELL ID
XCOORD      .                                  972569.007613557 :SURFACE X 
YCOORD      .                                  10477919.1442114 :SURFACE Y 
LAT         .                                         28.856272 :LATITUDE  
LON         .                                        -95.086774 :LONGITUDE 
ELEV        .FT                                              94 :ELEVATION VALUE
ELEV_TYPE   .                                                KB :ELEVATION REFERENCE TYPE
~Curve Information Section
#MNEM       .UNIT                                      API CODE :CURVE DESCRIPTION
#------------------------------------------------------------------------------
DEPT        .FT                                                 :DEPTH     
CALI        .IN                                                 :          
DPHI        .%                                                  :          
DRHO        .G/C3                                               :          
DTLN        .US/F                                               :          
GR          .GAPI                                               :          
GR_NORM     .GAPI                                               :GammaRay Normalized
IDPH        .OHMM                                               :          
IMPH        .OHMM                                               :          
NPHI        .%                                                  :          
SFLU        .OHMM                                               :          
SP          .MV                                                 :          
SP_NORM     .MV                                                 :SP Normalized
VSH_GR      .V/V                                                :Volume of Shale from GR
VSH_SP      .V/V                                                :Volume of Shale from SP
~A        DEPTH           CALI           DPHI           DRHO           DTLN             GR        GR_NORM           IDPH           IMPH           NPHI           SFLU             SP        SP_NORM         VSH_GR         VSH_SP
# ...
      5890.0000        10.2505        21.9748        -0.0134       114.0908        94.2826       95.61658         0.8083         0.8056        53.2587         0.7706       -52.2083       2.713949              1              1
      5890.5000        10.2519        21.6967        -0.0128       113.1079        96.3236       97.60822         0.7921         0.7963        50.9083         0.7471       -52.5261       2.410562              1              1
      5891.0000        10.2624        21.6471        -0.0136       113.2213        97.9784        99.2228          0.776         0.7906        49.0116         0.7238       -52.8156       2.133589              1              1
      5891.5000        10.2917        22.0092        -0.0143       113.9141        97.2583       98.51874         0.7542         0.7788        48.6995         0.6996       -52.1396       2.757752              1              1
      5892.0000        10.3034        22.8513        -0.0156       115.4861        92.4661         93.839         0.7401         0.7632        51.0356         0.6744        -51.827       3.042736              1              1
      5892.5000         10.284        23.1616        -0.0175       115.5388        88.4967       89.96259           0.73         0.7508        54.1405         0.6585       -52.1857       2.701178              1              1
      5893.0000         10.332        22.8315        -0.0188       113.1405        83.9253       85.49844         0.7182         0.7424        53.2752          0.685       -53.1315       1.811655              1              1
      5893.5000        10.4045        22.3416        -0.0196        109.738        79.4742       81.15173         0.7044         0.7335        49.1972         0.7945       -56.2521      -1.107678              1       0.984176
      5894.0000        10.4873         21.785        -0.0186        106.847        77.1671       78.89824          0.689         0.7215        41.7299         0.9735       -59.6005       -4.23962      0.9765583       0.939434
      5894.5000        10.5703        21.4834        -0.0153       106.6721        76.9736       78.70831         0.6785         0.7134        37.2013         0.9454       -62.9489      -7.371569      0.9725173      0.8946919
      5895.0000        10.6046        21.4245        -0.0119       108.9257        77.0325       78.76479         0.6758         0.7057        39.6505         0.8319        -65.245      -9.521372      0.9737188      0.8639804
      5895.5000        10.6185        21.6267        -0.0097       112.1702        77.6627       79.37904         0.6745         0.6995        44.8019         0.7389       -63.4611      -7.863173       0.986788       0.887669
      5896.0000        10.5854        22.5594        -0.0096       117.4907        80.0538       81.71249         0.6815          0.705        48.6163         0.6894       -59.7173       -4.37573              1      0.9374896
      5896.5000        10.5224        23.3146         -0.011       120.2853        84.6528       86.20156         0.6909         0.7162        52.7161          0.727       -56.1843      -1.085038              1      0.9844995
      5897.0000        10.4876        23.4771        -0.0125       119.8615        88.6272       90.08081         0.6949          0.728        54.6218         0.7386       -52.9752       1.903349              1              1
      5897.5000        10.4899        23.1908        -0.0123       118.2681        89.0411       90.48389         0.6922         0.7393        54.9355         0.7349       -51.9828       2.822819              1              1
      5898.0000        10.5183        22.7577        -0.0125       117.0038         87.542       89.01927         0.6877         0.7426        54.1644         0.7389       -51.8364       2.952683              1              1
      5898.5000        10.5245        22.6393        -0.0144       117.4745        87.1526       88.63808         0.6848         0.7402        51.1105           0.75        -52.077       2.721351              1              1
      5899.0000        10.5058        22.7299        -0.0167       118.4436         87.082       88.56813         0.6808         0.7341        50.7287          0.765       -52.3567       2.453521              1              1
      5899.5000        10.5082        22.9131        -0.0196       119.4008        86.6718       88.16662         0.6776          0.724        51.2886         0.7569       -52.6589       2.164696              1              1
      5900.0000        10.5146        23.2753        -0.0239       120.1038        86.5889       88.08466         0.6763         0.7117        51.8957         0.7177       -53.2116       1.642071              1              1
      5900.5000        10.5207        23.8491         -0.029       120.1893        86.8256       88.31474         0.6693         0.6949        52.1472         0.6418       -52.7512       2.065001              1              1
      5901.0000         10.544        24.6175        -0.0318       119.5123        86.3848       87.88336         0.6599         0.6797        51.4061         0.6013       -50.8961       3.789659              1              1
      5901.5000        10.5707        24.5435        -0.0309       119.1024        85.9342       87.44241         0.6499         0.6677         49.872         0.6236       -49.7376       4.864151              1              1
      5902.0000        10.6086        23.5766        -0.0269       119.2672        86.1438       87.64601         0.6528          0.659        49.8617         0.6432       -50.3255        4.30867              1              1
      5902.5000        10.6493        22.6267        -0.0222        120.447        86.7172       88.20481         0.6622          0.657        51.5715         0.6338       -51.8397       2.888643              1              1
      5903.0000        10.6269         22.309        -0.0168       121.2117        87.3557       88.82717         0.6762         0.6632         52.725         0.6064       -52.8735       1.916989              1              1
      5903.5000        10.6106        22.0294        -0.0113       120.7216        87.2534       88.72629         0.6994         0.6776        50.0056         0.5998       -53.9244      0.9293777              1              1
      5904.0000        10.6093        21.1678        -0.0085       115.4247        85.7418       87.24953         0.7336         0.7213        48.1912         0.6719       -54.9743    -0.05730438              1      0.9991814
      5904.5000        10.7559        19.4058         -0.007       108.9407        80.3624       81.99657         0.7797         0.8077        40.8018         0.8917       -56.0242      -1.043983              1       0.985086
      5905.0000        11.0683        16.9686        -0.0065       102.4617        73.6232       75.41602         0.8285          0.893        35.7267          1.162       -57.0741      -2.030665      0.9024686      0.9709905
      5905.5000        11.2274        15.9836        -0.0065        95.9775        68.9764       70.87832         0.8686         0.9942        30.2864          1.188        -58.027       -2.92681      0.8059217      0.9581884
      5906.0000         11.259        15.0921        -0.0069         92.046        67.0043       68.95198         0.8869         1.0998        28.3852         1.1504       -58.9696      -3.813342      0.7649357      0.9455237
      5906.5000        11.2223        14.2769        -0.0078        89.4083         65.332       67.31833         0.8878         1.1452         27.207         1.1634       -60.1335      -4.906423      0.7301772      0.9299082
      5907.0000        11.1155        13.8332        -0.0103        88.6219          61.66       63.73235         0.8712         1.1283        26.2242         1.2187       -62.0487      -6.700714      0.6538798      0.9042755
      5907.5000        10.9647         13.976        -0.0157        88.6761        57.7661       59.92971         0.8318         1.0692        26.1905         1.2703       -66.0751      -10.46547      0.5729725      0.8504933
