#------------------------------------------------------------------------------
# Created by    : vladimir.rabinovich
# Created on    : 09/19/2023 17:22:29
#------------------------------------------------------------------------------
~Version Information Section
VERS.           2.0     :   CWLS log ASCII Standard - VERSION 2.0
WRAP.           NO      :   One line per depth step
~Well Information Section
#MNEM       .UNIT                                         VALUE :DESCRIPTION
#------------------------------------------------------------------------------
STRT        .FT                                            1202 :START DEPTH
STOP        .FT                                           11047 :STOP DEPTH
STEP        .FT                                             0.5 :STEP      
NULL        .                                           -999.25 :NULL      
COMP        .                                 MESA PETROLEUM CO :COMPANY   
WELL        .                               OCS G03305 ST00BP00 :WELL      
FLD         .                                           WILDCAT :FIELD     
LOC         .                                                   :LOCATION  
CNTY        .                      MATAGORDA ISLAND LARGE BLOCK :LOCATION  
STAT        .                                             TEXAS :STATE     
CTRY        .                                     UNITED STATES :COUNTRY   
SRVC        .                                                   :SERVICE COMPANY
DATE        .                             9/13/2023 11:12:09 AM :LOG DATE  
API         .                                    42703400870000 :API NUMBER
UWI         .                                    42703400870000 :UNIQUE WELL ID
XCOORD      .                                  540264.325087739 :SURFACE X 
YCOORD      .                                   10226560.637492 :SURFACE Y 
LAT         .                                         28.138272 :LATITUDE  
LON         .                                        -96.413655 :LONGITUDE 
ELEV        .FT                                              80 :ELEVATION VALUE
ELEV_TYPE   .                                                KB :ELEVATION REFERENCE TYPE
~Curve Information Section
#MNEM       .UNIT                                      API CODE :CURVE DESCRIPTION
#------------------------------------------------------------------------------
DEPT        .FT                                                 :DEPTH     
CILD        .MMHO                                               :          
DPHI        .%                                                  :          
GR          .GAPI                                               :          
GR_NORM     .GAPI                                               :GammaRay Normalized
ILD         .OHMM                                               :          
ILM         .OHMM                                               :          
SFL         .OHMM                                               :          
SP          .MV                                                 :          
SP_NORM     .MV                                                 :SP Normalized
VSH_GR      .V/V                                                :Volume of Shale from GR
VSH_SP      .V/V                                                :Volume of Shale from SP
~A        DEPTH           CILD           DPHI             GR        GR_NORM            ILD            ILM            SFL             SP        SP_NORM         VSH_GR         VSH_SP
# ...
      9077.0000        -999.25        18.9384        50.1264       65.76851         0.4601         0.6752         0.6127       -41.2463     -0.1348495      0.6972023              1
      9077.5000        -999.25        19.3664        50.7062       67.14901         0.4545         0.6686         0.6041       -41.0107      0.1016083      0.7265747              1
      9078.0000        -999.25        20.0355        51.4666       68.95899         0.4506         0.6663         0.6003       -41.1334    -0.02023315      0.7650849              1
      9078.5000        -999.25        20.9172        52.3792       71.13091         0.4469         0.6637         0.5972       -41.8038     -0.6897774       0.811296              1
      9079.0000        -999.25        21.6358        51.8854       69.95837          0.441          0.658         0.5946       -42.3993       -1.28442      0.7863482      0.9935359
      9079.5000        -999.25        21.6897        50.8487       67.49487         0.4351         0.6519          0.592       -42.9518      -1.836063      0.7339334      0.9809986
      9080.0000        -999.25        20.7252        49.8829       65.19997         0.4276         0.6411         0.5908       -42.5368      -1.420204      0.6851057      0.9904499
      9080.5000        -999.25        19.9203        50.2886       66.16647         0.4203         0.6304         0.5906       -42.1058     -0.9883499      0.7056696              1
      9081.0000        -999.25        19.6475        50.8978       67.61688         0.4214         0.6259         0.5907       -41.6908     -0.5724907      0.7365294              1
      9081.5000        -999.25        19.5802        52.9148       72.41502         0.4243         0.6227         0.5921       -41.4394     -0.3202324      0.8386175              1
      9082.0000        -999.25        19.5569        55.1577       77.75039         0.4297         0.6286         0.5967        -41.274     -0.1539726      0.9521359              1
      9082.5000        -999.25        19.7781        55.8137        79.3121         0.4405         0.6349         0.6063       -41.2728     -0.1519165      0.9853639              1
      9083.0000        -999.25        20.0333        54.1996       75.47552         0.4561         0.6424         0.6213       -41.3301     -0.2083626      0.9037344              1
      9083.5000        -999.25        20.2271        53.7064       74.30446         0.4754         0.6605         0.6396       -41.4474     -0.3248024      0.8788183              1
      9084.0000        -999.25        20.1232        54.0912       75.22123         0.4947         0.6849         0.6533       -41.5327     -0.4092445       0.898324              1
      9084.5000        -999.25        19.9937        53.9945       74.99303         0.4979         0.6975         0.6642       -41.5765     -0.4521866      0.8934687              1
      9085.0000        -999.25        19.7692        52.9467       72.50314         0.4961         0.6971         0.6607       -41.6279     -0.5027313      0.8404924              1
      9085.5000        -999.25        19.5576         51.184       68.31319         0.4936         0.6952         0.6571       -41.6985     -0.5724754      0.7513444              1
      9086.0000        -999.25        19.4199        52.4652       71.36163         0.4939         0.6928         0.6531       -41.6718     -0.5449142       0.816205              1
      9086.5000        -999.25        19.3332        55.1627       77.77802          0.494          0.691         0.6497       -41.4486      -0.320858      0.9527239              1
      9087.0000        -999.25        19.5067        57.2189       82.66937         0.4891         0.6894         0.6468       -41.5105     -0.3819046              1              1
      9087.5000        -999.25        19.9985        55.8038       79.30603         0.4784         0.6812         0.6381       -41.6337     -0.5042458      0.9852347              1
      9088.0000        -999.25        20.5775        53.7402       74.40058         0.4659         0.6715         0.6269       -41.8032     -0.6728859      0.8808634              1
      9088.5000        -999.25        20.9062        51.4432       68.94008         0.4512         0.6605          0.613       -41.8973     -0.7661285      0.7646825              1
      9089.0000        -999.25        21.1698        50.3512       66.34505         0.4387         0.6493         0.6067       -41.9073     -0.7752724      0.7094691              1
      9089.5000        -999.25        21.2776        49.8199        65.0834          0.433         0.6465         0.6047        -41.895     -0.7621155      0.6826255              1
      9090.0000        -999.25        21.4896        49.6732       64.73627         0.4409         0.6485         0.6078       -41.8628     -0.7290573      0.6752397              1
      9090.5000        -999.25        21.5966        50.4507       66.58691         0.4498          0.653         0.6205       -41.7455     -0.6108971       0.714615              1
      9091.0000        -999.25        21.3441        51.2995       68.60708          0.457         0.6532         0.6318       -41.6325     -0.4970398      0.7575974              1
      9091.5000        -999.25        20.5244        52.3239       71.04484         0.4595         0.6534         0.6294        -41.597     -0.4606857      0.8094646              1
      9092.0000        -999.25        19.5229        53.2133       73.16157         0.4599         0.6525         0.6209       -41.7369     -0.5997276      0.8545014              1
      9092.5000        -999.25        18.8757        53.3496       73.48745         0.4582         0.6516         0.6162       -41.9358     -0.7977676      0.8614351              1
      9093.0000        -999.25        19.6603        52.2029       70.76236         0.4639         0.6544         0.6202       -42.0911     -0.9522095      0.8034545              1
      9093.5000        -999.25        20.2112         51.738       69.65859         0.4728         0.6575         0.6345       -42.2012      -1.061455        0.77997      0.9986033
      9094.0000        -999.25        20.4302        53.5977       74.08266         0.4888         0.6637         0.6515       -42.4749      -1.334297      0.8740991      0.9924023
      9094.5000        -999.25        20.0222        55.6909         79.062          0.508         0.6704         0.6741       -42.7484      -1.606941      0.9800425      0.9862059
      9095.0000        -999.25         19.376        56.9634       82.08979         0.5363         0.6952         0.6988       -42.8765       -1.73418              1      0.9833141
      9095.5000        -999.25        18.9875        55.1381       77.75095         0.5755         0.7272         0.7306       -43.0182      -1.875027       0.952148       0.980113
      9096.0000        -999.25         18.413          53.33       73.45309          0.605         0.7662         0.7621       -43.3515       -2.20747       0.860704      0.9725575
      9096.5000        -999.25        17.7062        54.5558       76.36977         0.6188         0.7924         0.7713       -43.5365      -2.391609       0.922761      0.9683725
      9097.0000        -999.25         16.916        56.6194       81.27876          0.616         0.8033         0.7492       -43.4504      -2.304653              1      0.9703488
      9097.5000        -999.25        16.9722        57.7686       84.01331         0.5945         0.8001         0.7283       -42.9525      -1.805893              1      0.9816843
      9098.0000        -999.25        17.8052        56.2288       80.35341         0.5766         0.7869         0.7223       -42.4601      -1.312637              1      0.9928946
      9098.5000        -999.25        18.6693        52.7649         72.118         0.5784         0.7739         0.7369       -42.0358     -0.8874817      0.8322978              1
      9099.0000        -999.25        18.7527        49.7874        65.0393         0.5832         0.7612         0.7307        -41.767     -0.6178207      0.6816872              1
