#------------------------------------------------------------------------------
# Created by    : vladimir.rabinovich
# Created on    : 09/19/2023 17:21:20
#------------------------------------------------------------------------------
~Version Information Section
VERS.           2.0     :   CWLS log ASCII Standard - VERSION 2.0
WRAP.           NO      :   One line per depth step
~Well Information Section
#MNEM       .UNIT                                         VALUE :DESCRIPTION
#------------------------------------------------------------------------------
STRT        .FT                                            6712 :START DEPTH
STOP        .FT                                           10254 :STOP DEPTH
STEP        .FT                                             0.5 :STEP      
NULL        .                                           -999.25 :NULL      
COMP        .                                SHELL OFFSHORE INC :COMPANY   
WELL        .                               OCS G17145 ST00BP00 :WELL      
FLD         .                                           WILDCAT :FIELD     
LOC         .                                                   :LOCATION  
CNTY        .                           HIGH ISLAND LARGE BLOCK :LOCATION  
STAT        .                                             TEXAS :STATE     
CTRY        .                                     UNITED STATES :COUNTRY   
SRVC        .                                                   :SERVICE COMPANY
DATE        .                             9/13/2023 11:19:48 AM :LOG DATE  
API         .                                    42708404610000 :API NUMBER
UWI         .                                    42708404610000 :UNIQUE WELL ID
XCOORD      .                                  1236256.25309123 :SURFACE X 
YCOORD      .                                  10648843.7308139 :SURFACE Y 
LAT         .                                         29.336637 :LATITUDE  
LON         .                                        -94.268822 :LONGITUDE 
ELEV        .FT                                             110 :ELEVATION VALUE
ELEV_TYPE   .                                                KB :ELEVATION REFERENCE TYPE
~Curve Information Section
#MNEM       .UNIT                                      API CODE :CURVE DESCRIPTION
#------------------------------------------------------------------------------
DEPT        .FT                                                 :DEPTH     
CALI        .IN                                                 :          
CPCHM       .MMHO                                               :          
CPCM        .MMHO                                               :          
DFL         .OHMM                                               :          
DPHI        .%                                                  :          
DRHO        .G/C3                                               :          
DT          .US/F                                               :          
GR          .GAPI                                               :          
GR_NORM     .GAPI                                               :GammaRay Normalized
GRAM        .GAPI                                               :          
HDCN        .MMHO                                               :          
HDRS        .OHMM                                               :          
HMRS        .OHMM                                               :          
NPHI        .%                                                  :          
PE          .G/C3                                               :          
RACHM       .OHMM                                               :          
RACM        .OHMM                                               :          
RHOB        .G/C3                                               :          
ROPS        .F/HR                                               :          
RPCHM       .OHMM                                               :          
RPCM        .OHMM                                               :          
RPTHM       .MINS                                               :          
RPTM        .MINS                                               :          
SP01        .MV                                                 :          
TENS        .LBS                                                :          
VSH_GR      .V/V                                                :Volume of Shale from GR
~A        DEPTH           CALI          CPCHM           CPCM            DFL           DPHI           DRHO             DT             GR        GR_NORM           GRAM           HDCN           HDRS           HMRS           NPHI             PE          RACHM           RACM           RHOB           ROPS          RPCHM           RPCM          RPTHM           RPTM           SP01           TENS         VSH_GR
# ...
      9582.0000         9.9781       216.3259        -999.25         0.5663        19.3925        -0.0304       129.5811        52.1777       19.75042         41.805       2213.445         0.4518         0.4689        38.0128         7.8441          1.679        -999.25           2.33         18.174          4.626        -999.25        68.9125        -999.25       483.0132       4476.117              0
      9582.5000         9.9292       262.4009        -999.25         0.5534          21.42        -0.0298       129.0046        53.9565       21.18576         42.808        2175.48         0.4597         0.4795        38.5793         7.3515          1.598        -999.25         2.2966         15.583          3.839        -999.25        67.8529        -999.25       482.6738       4493.633              0
      9583.0000         9.8479       459.2139        -999.25         0.5358        20.4937        -0.0121       125.9109        57.9041       22.82923         43.959       2177.098         0.4593         0.4795        39.7144          6.699          1.505        -999.25         2.3119         15.583          2.257        -999.25         66.608        -999.25       482.2803       4494.453              0
      9583.5000         9.8886       583.9365        -999.25         0.5231        20.5796        -0.0159       124.2859        56.5934       29.36646          48.59       2177.844         0.4592         0.4795        40.2607         6.9611          1.368        -999.25         2.3104         18.637          1.718        -999.25        65.3876        -999.25       481.9941        4478.68              0
      9584.0000        10.0187       435.9048        -999.25          0.509        20.4115        -0.0209         126.25        56.7339       36.79524         53.855       2149.215         0.4653         0.4862        40.1787         7.1217          1.157        -999.25         2.3132         18.637          2.301        -999.25        65.2194        -999.25       481.6392       4465.969     0.08074976
      9584.5000         9.9211       589.5557        -999.25         0.5262        20.6813         -0.038       125.2812        58.0914       44.37309         59.226       2088.289         0.4789         0.5003         39.135         7.3875           0.93        -999.25         2.3088         52.894          1.734        -999.25        66.1644        -999.25       481.3765       4462.875      0.2419805
      9585.0000         9.9374       1049.617        -999.25         0.5452         18.894        -0.0273       123.0984        57.1552       49.59687         62.923       2025.389         0.4937         0.5158        38.6547         6.7507          0.776        -999.25         2.3382         52.894          0.966        -999.25        67.3213        -999.25       481.1064       4468.109      0.3531248
      9585.5000         9.9862       1680.723        -999.25         0.5923        17.9536        -0.0254       121.8562        54.8615       49.10283         62.554        1987.33         0.5032         0.5241        37.8396         7.3649          0.657        -999.25         2.3538         17.691            0.6        -999.25        61.8045        -999.25       480.3843       4462.148      0.3426134
      9586.0000        10.1245       2023.664        -999.25         0.6295        17.2426        -0.0225        121.325        54.5806       47.35162         61.291       1973.506         0.5067         0.5243        37.2317         6.7466          0.557        -999.25         2.3655         17.691          0.494        -999.25        62.6731        -999.25       478.9844       4446.648      0.3053535
      9586.5000        10.0676       2177.855        -999.25         0.6544        17.7014        -0.0161       120.5656        51.6783       48.47337         62.071       1953.826         0.5118          0.524        37.1678         6.3183          0.484        -999.25         2.3579       126.2799           0.46        -999.25        63.3152        -999.25       477.1875       4430.766      0.3292206
      9587.0000         9.6282       2377.125        -999.25         0.6419        19.8075        -0.0141       120.7609        48.4017       51.63262        64.2999        1908.17         0.5241         0.5315        34.4429         5.7341          0.446        -999.25         2.3232       126.2799          0.421        -999.25        63.9302        -999.25       475.2949       4423.375      0.3964387
      9587.5000         9.2133       2427.223        -999.25          0.669        21.0381         0.0112       121.4171         46.576       53.79375         65.819       1832.082         0.5458         0.5501        32.5975         5.0128          0.426        -999.25         2.3029       186.3679          0.412        -999.25        64.4421        -999.25       473.7339       4428.117      0.4424202
      9588.0000         9.0181       2286.523        -999.25         0.6836        21.6992         0.0157       113.8937        46.6697       57.69846         68.578       1760.945         0.5679         0.5733         31.353         5.0377          0.418        -999.25          2.292       186.3679          0.437        -999.25        65.0608        -999.25       472.8936       4442.063      0.5254992
      9588.5000         9.0343       2162.477        -999.25         0.6556        22.4233         0.0096       104.4453         46.342       60.90132        70.8379       1740.541         0.5745         0.5869        31.0494          5.178          0.431        -999.25           2.28       147.6619          0.463        -999.25         65.761        -999.25       472.3589       4456.477       0.593645
      9589.0000         8.9855       1908.754        -999.25          0.565        21.5882         0.0005        97.5844        45.8739       59.16136        69.5829       1746.357         0.5726         0.5951        30.7813         5.3026          0.447        -999.25         2.2938       147.6619          0.525        -999.25        66.5135        -999.25        471.459       4464.336      0.5566247
      9589.5000         8.9367       1837.229        -999.25          0.508        18.8429         0.0007        98.0453        45.2186       49.62091        62.7809       1641.824         0.6091         0.6486         28.019         5.0164          0.429        -999.25         2.3391          83.23          0.546        -999.25        67.2904        -999.25        470.229       4467.516      0.3536365
      9590.0000         8.7984       2630.012        -999.25         0.6491        15.4359        -0.0042       100.9093        42.5036       36.49046         53.426       1305.143         0.7662         0.8466        21.7441         5.2574          0.367        -999.25         2.3953          83.23          0.384        -999.25        68.0729        -999.25       468.4844       4465.016     0.07426517
      9590.5000          8.652       3481.898        -999.25         1.8403        10.0691        -0.0048        99.2062        37.5885       29.50096         48.438        863.999         1.1574         1.3798        15.2448         5.8852          0.303        -999.25         2.4839         166.46          0.287        -999.25        68.8629        -999.25       466.0757       4474.281              0
      9591.0000         8.4323       3568.855        -999.25         5.7683         5.8226        -0.0086        98.6655        35.4352       27.51055        47.0049         574.25         1.7414         2.3845        10.5745         5.8914          0.295        -999.25         2.5539         166.46           0.28        -999.25        69.7437        -999.25         463.79       4480.891              0
      9591.5000          8.351       3552.676        -999.25        10.2443         2.3878        -0.0017        91.9187        32.7203       28.38354         47.608       501.3721         1.9945         2.8804         8.8001         5.8023          0.295        -999.25         2.6106       244.1409          0.281        -999.25        70.7677        -999.25       461.8511       4489.984              0
