#------------------------------------------------------------------------------
# Created by    : vladimir.rabinovich
# Created on    : 09/19/2023 17:21:46
#------------------------------------------------------------------------------
~Version Information Section
VERS.           2.0     :   CWLS log ASCII Standard - VERSION 2.0
WRAP.           NO      :   One line per depth step
~Well Information Section
#MNEM       .UNIT                                         VALUE :DESCRIPTION
#------------------------------------------------------------------------------
STRT        .FT                                            2869 :START DEPTH
STOP        .FT                                           10002 :STOP DEPTH
STEP        .FT                                             0.5 :STEP      
NULL        .                                           -999.25 :NULL      
COMP        .                          SEAGULL ENERGY E & P INC :COMPANY   
WELL        .                               OCS G06145 ST00BP00 :WELL      
FLD         .                                           WILDCAT :FIELD     
LOC         .                                                   :LOCATION  
CNTY        .                           HIGH ISLAND LARGE BLOCK :LOCATION  
STAT        .                                             TEXAS :STATE     
CTRY        .                                     UNITED STATES :COUNTRY   
SRVC        .                                                   :SERVICE COMPANY
DATE        .                             9/13/2023 11:19:59 AM :LOG DATE  
API         .                                    42708402850000 :API NUMBER
UWI         .                                    42708402850000 :UNIQUE WELL ID
XCOORD      .                                  1277324.30822617 :SURFACE X 
YCOORD      .                                   10672684.104362 :SURFACE Y 
LAT         .                                         29.403374 :LATITUDE  
LON         .                                        -94.140646 :LONGITUDE 
ELEV        .FT                                              88 :ELEVATION VALUE
ELEV_TYPE   .                                                KB :ELEVATION REFERENCE TYPE
~Curve Information Section
#MNEM       .UNIT                                      API CODE :CURVE DESCRIPTION
#------------------------------------------------------------------------------
DEPT        .FT                                                 :DEPTH     
CALI        .IN                                                 :          
DPHI        .%                                                  :          
DRHO        .G/C3                                               :          
GR          .GAPI                                               :          
GR_NORM     .GAPI                                               :GammaRay Normalized
ILD         .OHMM                                               :          
ILM         .OHMM                                               :          
NPHI        .%                                                  :          
SFL         .OHMM                                               :          
SP          .MV                                                 :          
SP_NORM     .MV                                                 :SP Normalized
VSH_GR      .V/V                                                :Volume of Shale from GR
VSH_SP      .V/V                                                :Volume of Shale from SP
~A        DEPTH           CALI           DPHI           DRHO             GR        GR_NORM            ILD            ILM           NPHI            SFL             SP        SP_NORM         VSH_GR         VSH_SP
# ...
      9044.0000         9.0069        17.8136        -0.0084        55.6205       66.30933         0.8509         0.8576        35.4866         0.8218       -21.3931      -2.917929      0.7087091      0.9583153
      9044.5000         9.0259         18.091        -0.0063        57.2051       68.29008         0.8187         0.8293        37.0562         0.8172       -20.1725      -1.902469      0.7508529      0.9728219
      9045.0000         9.0015        18.0723        -0.0055        58.2048        69.5397         0.7731         0.7938        36.6968         0.8669       -19.0445     -0.9632671      0.7774405       0.986239
      9045.5000         8.9782        17.8967        -0.0046        58.6911       70.14758         0.7283         0.7504        36.2437         0.8937       -18.1399     -0.2080437      0.7903741      0.9970279
      9046.0000         8.9485        17.7388        -0.0034        58.9385       70.45683         0.6808         0.7045        36.5385         0.8311       -17.4685      0.3551342      0.7969539              1
      9046.5000         8.9166        17.7888        -0.0017        59.0743       70.62659          0.634         0.6528        37.4058         0.7228        -17.081      0.6845127      0.8005657              1
      9047.0000         8.8371        18.2623         0.0009        58.9099       70.42108         0.5895         0.6067        38.3242         0.6178       -16.7699      0.9509712      0.7961932              1
      9047.5000         8.7411        18.8948         0.0022        59.3353       70.95284         0.5545         0.5712        38.9454         0.5564       -16.7465      0.9805015      0.8075072              1
      9048.0000         8.6297         19.435         0.0028         61.152       73.22371         0.5315         0.5495        39.5464         0.5314       -16.7608      0.9789857      0.8558236              1
      9048.5000         8.5385         19.564         0.0034         63.413       76.04996         0.5177         0.5455        40.2734         0.5619       -16.4836       1.217526      0.9159566              1
      9049.0000           8.45        18.9893         0.0042        63.6845       76.38933         0.5125         0.5483        39.9718         0.5834       -17.0291      0.7785507      0.9231772              1
      9049.5000         8.3453        18.1325         0.0056        61.7395       73.95807         0.5085         0.5572        38.6153         0.6021       -17.5222      0.3827293      0.8714483              1
      9050.0000         8.2577        17.4355         0.0078        60.5547       72.47707         0.5105         0.5662        37.6204         0.6142       -18.0152    -0.01301216      0.8399377      0.9998141
      9050.5000         8.1862         17.437         0.0099        60.8287       72.81958         0.5183          0.574        37.4359         0.6229       -19.0791     -0.8789049      0.8472251      0.9874442
      9051.0000         8.1617        18.1355         0.0078        63.1711       75.74759         0.5308         0.5821        38.4397         0.6231       -20.3811       -1.94088      0.9095232      0.9722732
      9051.5000         8.1628        18.9368         0.0016        65.3259       78.44108         0.5407         0.5897        39.5231         0.5823       -21.9214      -3.199104      0.9668314      0.9542985
      9052.0000         8.1597        19.3795        -0.0047         64.973       77.99995         0.5382         0.5966        40.2937         0.4954       -23.3036      -4.327127      0.9574459      0.9381839
      9052.5000         7.8968        19.8319        -0.0098        62.6528       75.09971          0.525         0.6025        39.6432         0.5359       -24.9549      -5.676761      0.8957385      0.9189034
      9053.0000         7.3963        20.4584        -0.0149        60.1746       72.00195         0.5036         0.6075        38.0376         0.9297       -27.2184       -7.53056      0.8298288      0.8924206
      9053.5000          7.025        21.3767        -0.0219        57.6618       68.86095         0.4809         0.5967         36.621         1.2361       -30.8715      -10.52874      0.7629989      0.8495895
      9054.0000         6.7742        22.7287         -0.031        54.9269       65.44233          0.454         0.5834        35.5433         1.6415       -36.3907       -15.0637      0.6902623      0.7848043
      9054.5000         6.6511        24.0943        -0.0413          51.96        61.7337         0.4338         0.5378        35.2563         1.5849       -42.7985      -20.33045      0.6113554       0.709565
      9055.0000         6.6809        25.2602        -0.0445        48.1489       56.96983         0.4219         0.5087        34.8166         1.5008       -49.2853      -25.66226      0.5099964      0.6333963
      9055.5000         6.7168        26.1591        -0.0454        45.0091       53.04508         0.4156         0.4974        33.6184         2.1271       -55.5943      -30.84765      0.4264911      0.5593193
      9056.0000         6.7566        26.7623        -0.0455        43.7404        51.4592         0.4136         0.4927        32.2754         2.3648       -63.0289      -36.96001       0.392749      0.4719999
      9056.5000         6.7966        26.6602        -0.0375        46.3568       54.72971         0.4211         0.4963        31.4523          2.253       -67.4768      -40.61272      0.4623342      0.4198183
      9057.0000          6.828        24.9556        -0.0283        50.6616        60.1107         0.4381          0.501        34.1361         1.5001       -69.5428      -42.30387      0.5768235       0.395659
      9057.5000         6.8483        22.2245        -0.0197        53.7717       63.99833         0.4662         0.5163         36.408         0.8988       -69.1504      -41.97046       0.659539      0.4004221
      9058.0000         6.8686        20.0037        -0.0119        56.5659       67.49107         0.5056         0.5368        37.6594         0.5123       -60.3632      -34.72368      0.7338526      0.5039474
      9058.5000         6.8957        18.9908        -0.0086        58.0432       69.33771         0.5426         0.5742        34.6343         0.5705       -47.8832      -24.43577      0.7731427      0.6509175
      9059.0000         6.8745        18.7473        -0.0067         56.319       67.18246         0.5709         0.6393        32.1313         0.8178       -38.1284      -16.39215      0.7272863      0.7658265
      9059.5000         6.8145        18.8284        -0.0064        54.6807       65.13457         0.5891         0.6956        31.4081         1.0407       -33.3102      -12.41396      0.6837143      0.8226577
      9060.0000         6.7744        19.1142        -0.0071        54.8134       65.30045          0.605         0.7109         32.553         1.1293       -32.8604      -12.03328      0.6872437       0.828096
      9060.5000         6.7993        19.4042        -0.0084        57.1879       68.26859         0.6202         0.6892          33.92         0.8997       -33.2516      -12.34518      0.7503954      0.8236403
      9061.0000         6.9421        19.8446        -0.0094        60.0018       71.78596         0.6285           0.67         35.098          0.705       -32.0119      -11.31399      0.8252332      0.8383715
      9061.5000          7.104        20.1436          -0.01        62.1887       74.51958         0.6295         0.6529        36.0853         0.6267       -29.0598      -8.872593      0.8833953      0.8732487
      9062.0000         7.3059        19.7126        -0.0082        63.1329       75.69983         0.6268         0.6437        37.0967          0.607        -26.236      -6.536851       0.908507      0.9066164
      9062.5000         7.4698        18.5767        -0.0052        63.5475       76.21808         0.6196          0.636        37.8181         0.6078        -23.817      -4.534473      0.9195336      0.9352218
