#------------------------------------------------------------------------------
# Created by    : vladimir.rabinovich
# Created on    : 09/19/2023 17:22:51
#------------------------------------------------------------------------------
~Version Information Section
VERS.           2.0     :   CWLS log ASCII Standard - VERSION 2.0
WRAP.           NO      :   One line per depth step
~Well Information Section
#MNEM       .UNIT                                         VALUE :DESCRIPTION
#------------------------------------------------------------------------------
STRT        .FT                                            3080 :START DEPTH
STOP        .FT                                           13004 :STOP DEPTH
STEP        .FT                                             0.5 :STEP      
NULL        .                                           -999.25 :NULL      
COMP        .                                     INEXCO OIL CO :COMPANY   
WELL        .                                     ST TR 00006-L :WELL      
FLD         .                                           WILDCAT :FIELD     
LOC         .                                                   :LOCATION  
CNTY        .                           HIGH ISLAND LARGE BLOCK :LOCATION  
STAT        .                                             TEXAS :STATE     
CTRY        .                                     UNITED STATES :COUNTRY   
SRVC        .                                                   :SERVICE COMPANY
DATE        .                             9/13/2023 11:19:15 AM :LOG DATE  
API         .                                    42708302350000 :API NUMBER
UWI         .                                    42708302350000 :UNIQUE WELL ID
XCOORD      .                                  1306008.37969423 :SURFACE X 
YCOORD      .                                  10751503.0860356 :SURFACE Y 
LAT         .                                          29.62091 :LATITUDE  
LON         .                                         -94.05279 :LONGITUDE 
ELEV        .FT                                              84 :ELEVATION VALUE
ELEV_TYPE   .                                                KB :ELEVATION REFERENCE TYPE
~Curve Information Section
#MNEM       .UNIT                                      API CODE :CURVE DESCRIPTION
#------------------------------------------------------------------------------
DEPT        .FT                                                 :DEPTH     
DT          .US/F                                               :          
GR          .GAPI                                               :          
GR_NORM     .GAPI                                               :GammaRay Normalized
ILD         .OHMM                                               :          
SFL         .OHMM                                               :          
SP          .MV                                                 :          
SP_NORM     .MV                                                 :SP Normalized
VSH_GR      .V/V                                                :Volume of Shale from GR
VSH_SP      .V/V                                                :Volume of Shale from SP
~A        DEPTH             DT             GR        GR_NORM            ILD            SFL             SP        SP_NORM         VSH_GR         VSH_SP
# ...
     12964.5000        -999.25        55.9764       85.02821         0.3272         0.4502       -40.2275     -0.2275009              1              1
     12965.0000        -999.25        56.1137       85.31524         0.3274         0.4606        -40.426     -0.4259987              1              1
     12965.5000        -999.25        56.1365       85.36293         0.3276         0.4833       -40.6152        -0.6152              1              1
     12966.0000        -999.25        55.9462       84.96506         0.3315         0.5201       -40.7674     -0.7673988              1              1
     12966.5000        -999.25        55.5886       84.21738         0.3372         0.5424        -40.876     -0.8759995              1              1
     12967.0000        -999.25        54.9698       82.92365          0.344         0.5184       -40.7436     -0.7435989              1              1
     12967.5000        -999.25        54.1528       81.21552         0.3519         0.4698       -40.3326     -0.3325996              1              1
     12968.0000        -999.25        53.6069       80.07417         0.3583         0.4519       -39.8456      0.1543999              1              1
     12968.5000        -999.25        53.6741       80.21465         0.3643         0.4601       -39.5231      0.4768982              1              1
     12969.0000        -999.25        53.9809       80.85609         0.3678         0.4719       -39.4108      0.5891991              1              1
     12969.5000        -999.25         54.567        82.0815          0.371         0.4829       -39.3957      0.6043015              1              1
     12970.0000        -999.25        55.4392       83.90504         0.3744         0.4941       -39.4515      0.5485001              1              1
     12970.5000        -999.25        56.2236       85.54504         0.3782         0.5023       -39.5931      0.4068985              1              1
     12971.0000        -999.25        56.8951       86.94896         0.3842         0.5136        -39.621      0.3790016              1              1
     12971.5000        -999.25        57.0833       87.34244         0.3901         0.5264       -39.6956      0.3044014              1              1
     12972.0000        -999.25        56.8192       86.79028         0.3952         0.5379       -39.8309      0.1691017              1              1
     12972.5000        -999.25        56.5339       86.19379         0.4003         0.5408        -39.962      0.0379982              1              1
     12973.0000        -999.25        56.3821        85.8764         0.4052         0.5413        -40.084    -0.08399963              1              1
     12973.5000        -999.25        56.3538       85.81725         0.4102         0.5411        -40.131     -0.1310005              1              1
     12974.0000        -999.25          56.49       86.10201         0.4151         0.5427       -40.0729    -0.07289886              1              1
     12974.5000        -999.25        56.7244       86.59206         0.4199         0.5548       -40.0264    -0.02640152              1              1
     12975.0000        -999.25        56.4614       86.04221          0.424         0.5673       -40.0587    -0.05870056              1              1
     12975.5000        -999.25        56.2716       85.64536         0.4268         0.5741        -40.004   -0.004001617              1              1
     12976.0000        -999.25        56.4533       86.02526         0.4286         0.5677       -39.8635      0.1365013              1              1
     12976.5000        -999.25        56.8599       86.87537         0.4301         0.5591       -39.6699       0.330101              1              1
     12977.0000        -999.25         57.249       87.68885         0.4319         0.5551        -39.468      0.5320015              1              1
     12977.5000        -999.25        55.5698       84.17809         0.4335         0.5571       -39.4708      0.5292015              1              1
     12978.0000        -999.25        54.3235       81.57241         0.4348         0.5647       -39.6806      0.3194008              1              1
     12978.5000        -999.25        53.9153       80.71895         0.4359         0.5853        -40.133     -0.1329994              1              1
     12979.0000        -999.25        53.9983       80.89247         0.4367         0.6028       -40.7367     -0.7366982              1              1
     12979.5000        -999.25        54.1936        81.3008         0.4325         0.5767       -41.0112        -1.0112              1      0.9998487
     12980.0000        -999.25        54.4917       81.92406          0.423         0.5408       -41.0511      -1.051102              1      0.9993094
     12980.5000        -999.25        54.9209       82.82141         0.4125          0.515       -41.0743      -1.074299              1       0.998996
     12981.0000        -999.25        55.3903        83.8028          0.402         0.5094       -41.3115      -1.311501              1      0.9957905
     12981.5000        -999.25        -999.25        -999.25         0.3902         0.5129       -41.7708      -1.770802        -999.25      0.9895838
     12982.0000        -999.25        -999.25        -999.25         0.3804         0.5188       -42.3331      -2.333099        -999.25      0.9819852
     12982.5000        -999.25        -999.25        -999.25         0.3745          0.504       -42.7541      -2.754101        -999.25      0.9762959
     12983.0000        -999.25        -999.25        -999.25          0.371         0.4874        -42.985      -2.985001        -999.25      0.9731756
     12983.5000        -999.25        -999.25        -999.25         0.3708         0.4718       -43.1896      -3.189602        -999.25      0.9704108
     12984.0000        -999.25        -999.25        -999.25         0.3722         0.4634       -42.9405      -2.940498        -999.25      0.9737771
     12984.5000        -999.25        -999.25        -999.25         0.3745          0.484       -42.5314      -2.531399        -999.25      0.9793054
     12985.0000        -999.25        -999.25        -999.25         0.3776          0.521        -42.003      -2.002998        -999.25       0.986446
     12985.5000        -999.25        -999.25        -999.25         0.3802         0.5426       -41.7476      -1.747601        -999.25      0.9898973
     12986.0000        -999.25        -999.25        -999.25         0.3823         0.5382       -41.7958      -1.795799        -999.25       0.989246
     12986.5000        -999.25        -999.25        -999.25          0.386         0.5238       -41.7793      -1.779301        -999.25      0.9894689
     12987.0000        -999.25        -999.25        -999.25         0.3827          0.507       -41.4294      -1.429401        -999.25      0.9941972
     12987.5000        -999.25        -999.25        -999.25          0.377         0.4921       -41.0686        -1.0686        -999.25       0.999073
     12988.0000        -999.25        -999.25        -999.25         0.3694         0.4814       -40.8572     -0.8572006        -999.25              1
     12988.5000        -999.25        -999.25        -999.25         0.3601         0.4793       -40.7776     -0.7775993        -999.25              1
     12989.0000        -999.25        -999.25        -999.25         0.3512         0.4835       -41.1332      -1.133202        -999.25         0.9982
     12989.5000        -999.25        -999.25        -999.25         0.3451         0.4844       -41.4602      -1.460201        -999.25      0.9937811
     12990.0000        -999.25        -999.25        -999.25          0.341         0.4861       -41.6295      -1.629501        -999.25      0.9914932
     12990.5000        -999.25        -999.25        -999.25         0.3393         0.4985       -41.4778      -1.477798        -999.25      0.9935433
