#------------------------------------------------------------------------------
# Created by    : vladimir.rabinovich
# Created on    : 09/19/2023 17:21:35
#------------------------------------------------------------------------------
~Version Information Section
VERS.           2.0     :   CWLS log ASCII Standard - VERSION 2.0
WRAP.           NO      :   One line per depth step
~Well Information Section
#MNEM       .UNIT                                         VALUE :DESCRIPTION
#------------------------------------------------------------------------------
STRT        .FT                                            3376 :START DEPTH
STOP        .FT                                            7813 :STOP DEPTH
STEP        .FT                                             0.5 :STEP      
NULL        .                                           -999.25 :NULL      
COMP        .                                MARINER ENERGY INC :COMPANY   
WELL        .                               OCS G27491 ST00BP00 :WELL      
FLD         .                                           WILDCAT :FIELD     
LOC         .                                                   :LOCATION  
CNTY        .                             GALVESTON LARGE BLOCK :LOCATION  
STAT        .                                             TEXAS :STATE     
CTRY        .                                     UNITED STATES :COUNTRY   
SRVC        .                                                   :SERVICE COMPANY
DATE        .                             9/13/2023 11:19:33 AM :LOG DATE  
API         .                                    42706404580000 :API NUMBER
UWI         .                                    42706404580000 :UNIQUE WELL ID
XCOORD      .                                  1038987.60828679 :SURFACE X 
YCOORD      .                                  10490484.8642062 :SURFACE Y 
LAT         .                                         28.893877 :LATITUDE  
LON         .                                         -94.87996 :LONGITUDE 
ELEV        .FT                                             110 :ELEVATION VALUE
ELEV_TYPE   .                                                KB :ELEVATION REFERENCE TYPE
~Curve Information Section
#MNEM       .UNIT                                      API CODE :CURVE DESCRIPTION
#------------------------------------------------------------------------------
DEPT        .FT                                                 :DEPTH     
CALI        .IN                                                 :          
DPSS        .%                                                  :          
DRHO        .G/CM3                                              :          
GR          .GAPI                                               :          
GR_NORM     .GAPI                                               :GammaRay Normalized
M2R1        .OHMM                                               :          
M2R2        .OHMM                                               :          
M2R3        .OHMM                                               :          
M2R6        .OHMM                                               :          
M2R9        .OHMM                                               :          
M2RX        .OHMM                                               :          
NPSS        .%                                                  :Neutron Porosity Sandstone
SP          .MV                                                 :          
SP_NORM     .MV                                                 :SP Normalized
TENS        .LB                                                 :          
VSH_GR      .V/V                                                :Volume of Shale from GR
VSH_SP      .V/V                                                :Volume of Shale from SP
~A        DEPTH           CALI           DPSS           DRHO             GR        GR_NORM           M2R1           M2R2           M2R3           M2R6           M2R9           M2RX           NPSS             SP        SP_NORM           TENS         VSH_GR         VSH_SP
# ...
      3511.0000        -999.25        -999.25        -999.25           51.4       45.38118        -999.25        -999.25        -999.25        -999.25        -999.25        -999.25          56.88        -999.25      -2.877826        39.9358        -999.25      0.9520362
      3511.5000        -999.25        -999.25        -999.25           51.4       45.38118        -999.25        -999.25        -999.25        -999.25        -999.25        -999.25        60.3588        -999.25      -2.842077         39.896        -999.25      0.9526321
      3512.0000        -999.25        -999.25        -999.25        48.9796        42.2583        -999.25        -999.25        -999.25        -999.25        -999.25        -999.25        61.1956        -999.25      -2.806328        39.8562        -999.25      0.9532279
      3512.5000        -999.25        -999.25        -999.25        48.1633       41.20509        -999.25        -999.25        -999.25        -999.25        -999.25        -999.25        62.6277        -999.25      -2.770578        59.7246        -999.25      0.9538237
      3513.0000        -999.25        -999.25        -999.25        47.3469       40.15174        -999.25        -999.25        -999.25        -999.25        -999.25        -999.25        62.0285        -999.25      -2.734829        59.6652        -999.25      0.9544195
      3513.5000        -999.25        -999.25        -999.25        46.1224       38.57185        -999.25        -999.25        -999.25        -999.25        -999.25        -999.25        60.7153        -999.25       -2.69908        59.6059        -999.25      0.9550154
      3514.0000        -999.25        -999.25        -999.25         45.102       37.25531        -999.25        -999.25        -999.25        -999.25        -999.25        -999.25        61.5482        -999.25       -2.66333        59.5467        -999.25      0.9556112
      3514.5000        -999.25        -999.25        -999.25        44.0816       35.93875        -999.25        -999.25        -999.25        -999.25        -999.25        -999.25        62.0225        -999.25      -2.627581        59.4877        -999.25       0.956207
      3515.0000        -999.25        -999.25        -999.25        44.0816       35.93875        -999.25        -999.25        -999.25        -999.25        -999.25        -999.25        60.1189        -999.25      -2.591831        59.4288        -999.25      0.9568028
      3515.5000        -999.25        -999.25        -999.25         45.102       37.25531        -999.25        -999.25        -999.25        -999.25        -999.25        -999.25          58.08        -999.25      -2.556082          59.37        -999.25      0.9573987
      3516.0000        -999.25        -999.25        -999.25        45.5102       37.78197        -999.25        -999.25        -999.25        -999.25        -999.25        -999.25        59.7628        -999.25      -2.520332        59.3113        -999.25      0.9579945
      3516.5000        -999.25        -999.25        -999.25        45.7143       38.04531        -999.25        -999.25        -999.25        -999.25        -999.25        -999.25        60.3555        -999.25      -2.484583        59.2527        -999.25      0.9585903
      3517.0000        -999.25        -999.25        -999.25        45.5102       37.78197        -999.25        -999.25        -999.25        -999.25        -999.25        -999.25          57.84        -999.25      -2.448834        59.1943        -999.25      0.9591861
      3517.5000        -999.25        -999.25        -999.25        46.7347       39.36186        -999.25        -999.25        -999.25        -999.25        -999.25        -999.25          55.44        -999.25      -2.413084        59.1359        -999.25      0.9597819
      3518.0000         10.835          45.24         -0.348           53.6       48.21969         0.4472         1.2599        10.6872             20        20.3834        20.1908          54.48       -93.0612      -2.377335        59.0777        -999.25      0.9603778
      3518.5000         11.755        41.4118         -0.088        60.3922        56.9832         0.2505         0.5233         1.1277         3.5127        20.3834        20.1908        53.2941            -78      -2.341585        59.0196        -999.25      0.9609736
      3519.0000         12.973        41.7647          0.056        64.5098       62.29586         0.2597         0.4152         0.6165         1.2599         3.3847        20.1908        49.7647          -64.4      -2.305836        58.9616        -999.25      0.9615694
      3519.5000        13.7574          44.04          0.068        66.2745       64.57272            0.4         0.5046         0.5838         0.8825         1.5018         9.0732          46.44          -57.6      -2.270087        58.9037        -999.25      0.9621652
      3520.0000         14.555          45.12          0.076        69.0196       68.11455         0.5733         0.5946         0.6222         0.7929         1.1173         2.9163           44.4          -54.4      -2.234337        58.8459        -999.25       0.962761
      3520.5000         14.915          45.72          0.076        70.2041       69.64283          0.651         0.5733         0.5838         0.6751          0.832         1.1701          44.76          -53.2      -2.198588        58.8235        -999.25      0.9633569
      3521.0000         15.395          45.24          0.076        68.8235       67.86154         0.6335         0.5281         0.5329         0.5733          0.651         0.8159          46.44            -52      -2.162838        58.8235        -999.25      0.9639527
      3521.5000         15.675          44.28          0.076        66.6667       65.07877         0.5785         0.5281         0.5329         0.5681          0.611         0.6937        48.7059          -50.8      -2.127089        58.8235        -999.25      0.9645485
      3522.0000         15.355          43.32          0.084         65.098       63.05476         0.5329         0.5428         0.5477         0.5785            0.6         0.6278        51.2941            -50       -2.09134        58.8235        -999.25      0.9651443
      3522.5000         14.715          42.48          0.092        65.6863       63.81382         0.5092         0.5578         0.5733         0.5838            0.6          0.611        53.0588          -49.2       -2.05559        58.8235        -999.25      0.9657401
      3523.0000         14.035        41.7647          0.096        68.4314       67.35564         0.4954         0.5629         0.5838         0.5946         0.5946         0.5892        52.5882          -48.4      -2.019841        58.8235        -999.25       0.966336
      3523.5000        13.5613        41.5294          0.092        69.8039       69.12647         0.4954         0.5629         0.5946            0.6         0.5946         0.5681        50.8235            -48      -1.984092        58.8235        -999.25      0.9669318
      3524.0000        13.1299        41.0588          0.088             70       69.37949         0.5046         0.5629         0.5946            0.6         0.5892         0.5527        49.0588          -47.2      -1.948342        58.8235      0.7740316              1
      3524.5000        12.8162        40.4706          0.092        69.6078       68.87346         0.5139         0.5681         0.5946            0.6         0.5838         0.5428           47.4          -46.4      -1.912593        58.8235      0.7632651              1
      3525.0000        13.1691        40.9412          0.096        69.6078       68.87346         0.5186         0.5681         0.5946            0.6         0.5785         0.5428          47.88            -46      -1.876843        58.8235      0.7632651              1
      3525.5000        13.6005          42.36          0.084        69.6078       68.87346         0.5186         0.5681         0.5892         0.5892         0.5785         0.5428        50.7059          -45.6      -1.841094        58.8235      0.7632651              1
