#------------------------------------------------------------------------------
# Created by    : vladimir.rabinovich
# Created on    : 09/19/2023 17:20:48
#------------------------------------------------------------------------------
~Version Information Section
VERS.           2.0     :   CWLS log ASCII Standard - VERSION 2.0
WRAP.           NO      :   One line per depth step
~Well Information Section
#MNEM       .UNIT                                         VALUE :DESCRIPTION
#------------------------------------------------------------------------------
STRT        .FT                                             495 :START DEPTH
STOP        .FT                                            6623 :STOP DEPTH
STEP        .FT                                             0.5 :STEP      
NULL        .                                           -999.25 :NULL      
COMP        .                                      SHELL OIL CO :COMPANY   
WELL        .                                     ST TR 00691-L :WELL      
FLD         .                                           WILDCAT :FIELD     
LOC         .                                                   :LOCATION  
CNTY        .                      MATAGORDA ISLAND LARGE BLOCK :LOCATION  
STAT        .                                             TEXAS :STATE     
CTRY        .                                     UNITED STATES :COUNTRY   
SRVC        .                                                   :SERVICE COMPANY
DATE        .                             9/13/2023 11:12:05 AM :LOG DATE  
API         .                                    42703000200000 :API NUMBER
UWI         .                                    42703000200000 :UNIQUE WELL ID
XCOORD      .                                  411465.852171861 :SURFACE X 
YCOORD      .                                  10158718.0598508 :SURFACE Y 
LAT         .                                        27.9414781 :LATITUDE  
LON         .                                       -96.8060481 :LONGITUDE 
ELEV        .FT                                              11 :ELEVATION VALUE
ELEV_TYPE   .                                                KB :ELEVATION REFERENCE TYPE
~Curve Information Section
#MNEM       .UNIT                                      API CODE :CURVE DESCRIPTION
#------------------------------------------------------------------------------
DEPT        .FT                                                 :DEPTH     
ASN         .OHMM                                               :          
CILD        .OHMM                                               :          
ILD         .OHMM                                               :          
SP          .MV                                                 :          
SP_NORM     .MV                                                 :SP Normalized
VSH_SP      .V/V                                                :Volume of Shale from SP
~A        DEPTH            ASN           CILD            ILD             SP        SP_NORM         VSH_SP
       495.0000          1.687       979.7422         0.1042       -20.2284        -1.3605              1
       495.5000         1.5877       1256.719         0.1266       -20.2386        -1.3707              1
       496.0000         1.4883       1499.119         0.1501       -20.2426        -1.3747              1
       496.5000         1.3889       1547.568          0.182       -20.3482        -1.2726              1
       497.0000         1.2895       1608.516         0.2421       -26.4598        -1.7711              1
       497.5000         1.1984       1352.721         0.3114       -31.4234        -1.1216              1
       498.0000         1.1663       1282.021         0.3714       -36.3867        -0.4718              1
       498.5000         1.1478       1197.258         0.5708       -41.3503         0.1777              1
       499.0000         1.1321       1112.611         0.6703       -46.0281        -0.7451              1
       499.5000         1.1018       1067.121         0.7029       -47.8987        -2.6157      0.9120429
       500.0000         1.0353       1023.546         0.7217       -48.7706        -3.4876      0.7874857
       500.5000         0.9812       1332.098         0.7176       -49.9925        -4.7095      0.6129286
       501.0000         0.9671       1397.762         0.7136       -50.3438        -5.0608      0.5627428
       501.5000         0.9574       1411.832         0.7087       -50.4451        -5.1621      0.5482715
       502.0000         0.9494       1423.748            0.7       -50.0189        -4.7359      0.6091571
       502.5000         0.9418        1435.35         0.6914       -49.5643        -4.2813         0.6741
       503.0000         0.9341       1449.311         0.6868       -49.0621        -3.7791      0.7458429
       503.5000         0.9275       1459.518         0.6831       -48.6191        -3.3361      0.8091286
       504.0000         0.9227       1466.629         0.6868       -48.2513        -2.9683      0.8616714
       504.5000         0.9222        1444.17         0.7008       -47.8942        -2.6112      0.9126857
       505.0000         0.9307       1353.385          0.737       -47.5459        -2.2629      0.9624428
       505.5000         0.9517       1280.516         0.7766       -47.3039        -2.0209      0.9970143
       506.0000         0.9721        1238.49         0.8314       -47.1169        -1.8339              1
       506.5000         0.9869       1199.098         0.8814       -46.9949        -1.7119              1
       507.0000         1.0016       1162.896         0.9217       -46.9688        -1.6858              1
       507.5000         1.0169       1123.244         0.9586       -46.9426        -1.6596              1
       508.0000          1.035       1087.223         0.9921       -47.0013        -1.7183              1
       508.5000         1.0544       1054.363         1.0148       -47.0815        -1.7985              1
       509.0000         1.0776        1026.02         1.0359        -47.193          -1.91              1
       509.5000         1.1126       997.6748         1.0536       -47.4084        -2.1254      0.9820857
       510.0000         1.1831       970.9258         1.0709       -47.6238        -2.3408      0.9513143
       510.5000         1.2264       947.5088         1.0884       -47.8392        -2.5562      0.9205428
       511.0000         1.2517       925.7412          1.106       -48.0375        -2.7545      0.8922143
       511.5000          1.272       905.0303          1.122       -48.1475        -2.8645         0.8765
       512.0000         1.2956       885.4258          1.136       -48.2576        -2.9746      0.8607714
       512.5000         1.3216       868.4629           1.15       -48.3577        -3.0747      0.8464714
       513.0000         1.3496        854.749         1.1657       -48.4209        -3.1379      0.8374428
       513.5000         1.3831       844.8467         1.1838       -48.5114        -3.2284      0.8245143
       514.0000         1.4235       838.1738         1.2018        -48.691         -3.408      0.7988572
       514.5000         1.4278       833.1885         1.2197       -48.8882        -3.6052      0.7706857
       515.0000         1.4402       828.1973         1.2265       -49.0937        -3.8107      0.7413286
       515.5000         1.4591       822.7539         1.2333       -49.0637        -3.7807      0.7456143
       516.0000         1.4834       817.3096         1.2343       -48.8342        -3.5512         0.7784
       516.5000         1.5071       811.5254         1.2339       -48.6046        -3.3216         0.8112
       517.0000         1.5185       803.9346         1.2381       -48.2921        -3.0091      0.8558429
       517.5000         1.5319       796.3438         1.2449       -47.9659        -2.6829      0.9024429
       518.0000         1.5482       722.0215         1.2629       -47.6397        -2.3567      0.9490429
       518.5000         1.6206       689.7178         1.2959       -47.4012        -2.1182      0.9831143
       519.0000         1.6368       660.9805         1.3341       -47.3633        -2.0803      0.9885285
       519.5000           1.65         638.21         1.3864       -47.3254        -2.0424      0.9939429
       520.0000         1.6569       619.0889         1.4535       -47.3163        -2.0333      0.9952429
       520.5000          1.658       600.5879         1.5246       -47.3366        -2.0536      0.9923428
       521.0000         1.6534       584.4775          1.578       -47.3312        -2.0482      0.9931143
       521.5000          1.498       575.6494         1.5406       -47.1073        -1.8243              1
       522.0000          1.453        667.999         1.4494       -46.8875        -1.6045              1
       522.5000         1.4179       742.0762         1.3408        -46.754         -1.471              1
       523.0000         1.3905       816.1543         1.2151       -46.6205        -1.3375              1
       523.5000         1.3694       890.2314         1.1498       -46.5421        -1.2591              1
       524.0000         1.3509       1020.066         1.1044       -46.6888        -1.4058              1
       524.5000         1.3332       1048.691         1.0534       -47.2233        -1.9403              1
       525.0000         1.3171       1058.699         1.0025       -47.8221        -2.5391      0.9229857
       525.5000         1.3108       1063.334         0.9668       -48.3901        -3.1071      0.8418428
       526.0000         1.3193       1039.477         0.9522       -48.7363        -3.4533      0.7923857
       526.5000         1.3279       1006.255         0.9643       -48.4644        -3.1814      0.8312286
       527.0000         1.3367       977.4512         0.9869       -48.0576        -2.7746      0.8893428
       527.5000          1.344       951.9033         1.0094       -47.8511        -2.5681      0.9188429
       528.0000         1.3487       930.1338         1.0359       -47.6447        -2.3617      0.9483286
       528.5000         1.3583       907.5459         1.0721       -47.4383        -2.1553      0.9778143
       529.0000         1.3714       862.2422         1.1135       -47.2585        -1.9755              1
       529.5000          1.382       833.8408         1.1606       -47.1341        -1.8511              1
       530.0000         1.3814       816.1533         1.2058       -47.0096        -1.7266              1
       530.5000         1.3807       817.4033         1.2087       -46.6518        -1.3688              1
       531.0000         1.3794       870.2041         1.1825       -46.2644        -0.9814              1
       531.5000         1.3775       1024.076         1.1563       -45.9639        -0.6809              1
       532.0000         1.3473       1062.055         1.1163       -45.6645        -0.3815              1
       532.5000         1.2952       1095.906          1.074       -45.5355        -0.2525              1
