#------------------------------------------------------------------------------
# Created by    : vladimir.rabinovich
# Created on    : 09/19/2023 17:22:53
#------------------------------------------------------------------------------
~Version Information Section
VERS.           2.0     :   CWLS log ASCII Standard - VERSION 2.0
WRAP.           NO      :   One line per depth step
~Well Information Section
#MNEM       .UNIT                                         VALUE :DESCRIPTION
#------------------------------------------------------------------------------
STRT        .FT                                             252 :START DEPTH
STOP        .FT                                           11321 :STOP DEPTH
STEP        .FT                                             0.5 :STEP      
NULL        .                                           -999.25 :NULL      
COMP        .                          HUMBLE OIL & REFINING CO :COMPANY   
WELL        .                                OCS 00615 ST00BP00 :WELL      
FLD         .                                           WILDCAT :FIELD     
LOC         .                                                   :LOCATION  
CNTY        .                             GALVESTON LARGE BLOCK :LOCATION  
STAT        .                                             TEXAS :STATE     
CTRY        .                                     UNITED STATES :COUNTRY   
SRVC        .                                                   :SERVICE COMPANY
DATE        .                             9/13/2023 11:19:42 AM :LOG DATE  
API         .                                    42706000270000 :API NUMBER
UWI         .                                    42706000270000 :UNIQUE WELL ID
XCOORD      .                                  1043929.24471964 :SURFACE X 
YCOORD      .                                  10527500.2798036 :SURFACE Y 
LAT         .                                         28.995876 :LATITUDE  
LON         .                                        -94.866344 :LONGITUDE 
ELEV        .FT                                              67 :ELEVATION VALUE
ELEV_TYPE   .                                                KB :ELEVATION REFERENCE TYPE
~Curve Information Section
#MNEM       .UNIT                                      API CODE :CURVE DESCRIPTION
#------------------------------------------------------------------------------
DEPT        .FT                                                 :DEPTH     
LAT         .OHMM                                               :          
LN          .OHMM                                               :          
SN          .OHMM                                               :          
SP          .MV                                                 :          
SP_NORM     .MV                                                 :SP Normalized
VSH_SP      .V/V                                                :Volume of Shale from SP
~A        DEPTH            LAT             LN             SN             SP        SP_NORM         VSH_SP
# ...
      7586.0000         0.5862         0.9049         0.8702       -69.5488      -1.978378      0.9842197
      7586.5000         0.5869         0.9106          0.869       -70.0288      -2.452461      0.9765732
      7587.0000         0.5876         0.9163         0.8678       -70.5083      -2.926041      0.9689348
      7587.5000         0.5862         0.9219         0.8666       -70.8633      -3.275116      0.9633046
      7588.0000         0.5849         0.9276         0.8654       -71.1484      -3.554306      0.9588015
      7588.5000         0.5836         0.9333         0.8642        -70.876      -3.275986      0.9632906
      7589.0000         0.5822         0.9246          0.863        -70.519      -2.913063      0.9691442
      7589.5000         0.5809         0.9153         0.8617       -70.1621      -2.550247       0.974996
      7590.0000         0.5796         0.9061         0.8585       -69.8057      -2.187927      0.9808399
      7590.5000         0.5782         0.8969         0.8523       -69.4487      -1.825012      0.9866933
      7591.0000         0.5769         0.8876         0.8461       -69.5581       -1.92849      0.9850243
      7591.5000         0.5781         0.8827           0.84       -69.8877      -2.252174      0.9798036
      7592.0000          0.584         0.8787         0.8338       -70.2173      -2.575851       0.974583
      7592.5000           0.59         0.8747         0.8276       -70.5474      -2.900032      0.9693543
      7593.0000         0.5959         0.8706         0.8235       -70.8892      -3.235916      0.9639369
      7593.5000         0.6018         0.8666          0.822       -71.2354      -3.576195      0.9584485
      7594.0000         0.6078         0.8626         0.8205       -71.5811      -3.915977      0.9529681
      7594.5000         0.6137         0.8586         0.8189       -71.9272      -4.256157      0.9474813
      7595.0000         0.6198         0.8546         0.8174       -72.2729       -4.59594       0.942001
      7595.5000         0.6266         0.8504         0.8158       -72.6191      -4.936226      0.9365125
      7596.0000         0.6334         0.8461         0.8143       -72.9648      -5.276001      0.9310322
      7596.5000         0.6402         0.8419         0.8127       -73.1547      -5.459984      0.9280648
      7597.0000          0.647         0.8376         0.8112       -73.2681      -5.567459      0.9263313
      7597.5000         0.6538         0.8333         0.8097       -73.3408      -5.634239      0.9252542
      7598.0000         0.6606          0.829         0.8079       -73.0586       -5.34613      0.9299011
      7598.5000         0.6674         0.8247         0.8058       -72.7764      -5.058006      0.9345483
      7599.0000         0.6741         0.8204         0.8036       -72.4937      -4.769386      0.9392034
      7599.5000         0.6746         0.8161         0.8015       -72.2114      -4.481171      0.9438521
      7600.0000         0.6741         0.8118         0.7994       -71.9913       -4.25515      0.9474976
      7600.5000         0.6736         0.8091         0.7972       -71.9042      -4.162132      0.9489979
      7601.0000         0.6731         0.8064         0.7951       -71.8171      -4.069115      0.9504982
      7601.5000         0.6727         0.8037         0.7928       -71.7301      -3.976196      0.9519969
      7602.0000         0.6722         0.8011         0.7901       -71.6431       -3.88327      0.9534956
      7602.5000         0.6717         0.7984         0.7875       -71.5559      -3.790154      0.9549975
      7603.0000         0.6712         0.7957         0.7848       -71.4689      -3.697243      0.9564961
      7603.5000         0.6707          0.793         0.7821       -71.3818      -3.604218      0.9579965
      7604.0000         0.6702         0.7903         0.7794       -71.2948      -3.511299      0.9594952
      7604.5000          0.666         0.7876         0.7767       -71.2076      -3.418182       0.960997
      7605.0000         0.6601          0.785         0.7741       -71.1844      -3.389061      0.9614667
      7605.5000         0.6542         0.7823         0.7714       -71.1943      -3.393036      0.9614027
      7606.0000         0.6483         0.7796         0.7684       -71.2043      -3.397125      0.9613367
      7606.5000         0.6424         0.7769         0.7653       -71.2144      -3.401306      0.9612693
      7607.0000         0.6365         0.7742         0.7622       -71.2242      -3.405182      0.9612067
      7607.5000         0.6306         0.7715         0.7592       -71.2343      -3.409363      0.9611393
      7608.0000         0.6247         0.7688         0.7561       -71.2441      -3.413246      0.9610767
      7608.5000         0.6188         0.7662          0.753       -71.2542      -3.417435      0.9610091
      7609.0000         0.6129         0.7635           0.75        -71.264       -3.42131      0.9609466
      7609.5000         0.6085         0.7608         0.7469       -71.4404      -3.591789      0.9581969
      7610.0000         0.6047         0.7593         0.7438        -71.637      -3.782471      0.9551215
      7610.5000         0.6009          0.759         0.7408       -71.8337      -3.973251      0.9520443
      7611.0000         0.5971         0.7587         0.7377       -72.0305      -4.164139      0.9489655
      7611.5000         0.5933         0.7584         0.7346       -72.2271      -4.354813      0.9458901
      7612.0000         0.5895         0.7581         0.7316       -72.4238      -4.545593       0.942813
      7612.5000         0.5857         0.7578         0.7315       -72.6204      -4.736275      0.9397375
      7613.0000         0.5819         0.7575         0.7341       -72.9204      -5.030357      0.9349942
      7613.5000         0.5782         0.7572         0.7367       -73.3071       -5.41114      0.9288526
      7614.0000         0.5744         0.7569         0.7393       -73.6934      -5.791519      0.9227175
      7614.5000         0.5706         0.7566         0.7418       -73.9255        -6.0177      0.9190693
      7615.0000         0.5668         0.7563         0.7444       -73.9073      -5.993584      0.9194583
      7615.5000          0.563          0.756          0.747       -73.8893      -5.969658      0.9198442
      7616.0000         0.5596         0.7557         0.7495       -73.8711      -5.945549      0.9202331
      7616.5000         0.5562         0.7554         0.7521        -73.765      -5.833527      0.9220399
      7617.0000         0.5528         0.7551         0.7547       -73.6357      -5.698303      0.9242209
      7617.5000         0.5495         0.7548         0.7573       -73.5065      -5.563187      0.9264002
      7618.0000         0.5461         0.7545         0.7598       -73.3772      -5.427963      0.9285812
      7618.5000         0.5427         0.7557         0.7624       -73.2479      -5.292755       0.930762
      7619.0000         0.5393         0.7592          0.765       -73.1187      -5.157631      0.9329414
      7619.5000         0.5359         0.7627          0.769       -72.9894      -5.022415      0.9351223
      7620.0000         0.5326         0.7662          0.773       -72.8602      -4.887291      0.9373018
      7620.5000          0.529         0.7698         0.7771       -72.9343      -4.955475       0.936202
      7621.0000         0.5214         0.7733         0.7811        -73.145      -5.160255      0.9328991
      7621.5000         0.5139         0.7768         0.7852       -73.3555      -5.364838      0.9295994
      7622.0000         0.5063         0.7804         0.7892       -73.5662      -5.569618      0.9262965
      7622.5000         0.4987         0.7839         0.7932       -73.7769      -5.774399      0.9229935
      7623.0000         0.4911         0.7874         0.7912       -73.9873      -5.978874      0.9196956
      7623.5000         0.4835         0.7909         0.7892        -74.198      -6.183662      0.9163926
