#------------------------------------------------------------------------------
# Created by    : vladimir.rabinovich
# Created on    : 09/19/2023 17:20:37
#------------------------------------------------------------------------------
~Version Information Section
VERS.           2.0     :   CWLS log ASCII Standard - VERSION 2.0
WRAP.           NO      :   One line per depth step
~Well Information Section
#MNEM       .UNIT                                         VALUE :DESCRIPTION
#------------------------------------------------------------------------------
STRT        .FT                                             582 :START DEPTH
STOP        .FT                                            8015 :STOP DEPTH
STEP        .FT                                             0.5 :STEP      
NULL        .                                           -999.25 :NULL      
COMP        .                                CONTINENTAL OIL CO :COMPANY   
WELL        .                                OCS 00719 ST00BP00 :WELL      
FLD         .                                           WILDCAT :FIELD     
LOC         .                                                   :LOCATION  
CNTY        .                             GALVESTON LARGE BLOCK :LOCATION  
STAT        .                                             TEXAS :STATE     
CTRY        .                                     UNITED STATES :COUNTRY   
SRVC        .                                                   :SERVICE COMPANY
DATE        .                             9/13/2023 11:19:25 AM :LOG DATE  
API         .                                    42706000350000 :API NUMBER
UWI         .                                    42706000350000 :UNIQUE WELL ID
XCOORD      .                                  1010979.62119212 :SURFACE X 
YCOORD      .                                  10432235.4027546 :SURFACE Y 
LAT         .                                          28.73246 :LATITUDE  
LON         .                                        -94.964458 :LONGITUDE 
ELEV        .FT                                              63 :ELEVATION VALUE
ELEV_TYPE   .                                                KB :ELEVATION REFERENCE TYPE
~Curve Information Section
#MNEM       .UNIT                                      API CODE :CURVE DESCRIPTION
#------------------------------------------------------------------------------
DEPT        .FT                                                 :DEPTH     
ASN         .OHMM                                               :          
DT          .US/F                                               :          
LN          .OHMM                                               :          
SP          .MV                                                 :          
SP_NORM     .MV                                                 :SP Normalized
VSH_SP      .V/V                                                :Volume of Shale from SP
~A        DEPTH            ASN             DT             LN             SP        SP_NORM         VSH_SP
# ...
      5522.0000         0.7503        -999.25         0.7448       -49.5872      -4.403264       0.949932
      5522.5000         0.7509        -999.25         0.7442        -50.271      -5.434224      0.9284537
      5523.0000         0.7515        -999.25         0.7436        -51.116      -6.708225       0.901912
      5523.5000         0.7521        -999.25          0.743       -51.9617       -7.98328      0.8753483
      5524.0000         0.7527        -999.25         0.7424       -52.8788      -9.365983       0.846542
      5524.5000         0.7538        -999.25         0.7418        -54.044      -11.12275      0.8099428
      5525.0000         0.7588        -999.25         0.7412       -56.6944      -15.11874       0.726693
      5525.5000         0.7638        -999.25         0.7406        -58.192      -17.37666       0.679653
      5526.0000         0.7687        -999.25         0.7406       -59.5384      -19.40661      0.6373623
      5526.5000         0.7737        -999.25         0.7411       -60.0449      -20.17026       0.621453
      5527.0000         0.7825        -999.25         0.7416       -60.5513      -20.93375      0.6055468
      5527.5000         0.7914        -999.25         0.7421       -60.9357      -21.51331      0.5934727
      5528.0000         0.8003        -999.25         0.7426       -61.1946      -21.90365      0.5853406
      5528.5000         0.8093        -999.25          0.743       -61.1528      -21.84063      0.5866535
      5529.0000         0.8061        -999.25         0.7435       -60.9735       -21.5703      0.5922855
      5529.5000         0.8018        -999.25         0.7445       -60.9822      -21.58342      0.5920121
      5530.0000          0.798        -999.25         0.7473       -62.6734      -24.13323      0.5388911
      5530.5000         0.7942        -999.25         0.7501       -64.3589      -26.67444      0.4859491
      5531.0000          0.792        -999.25         0.7529       -66.0355      -29.20224      0.4332867
      5531.5000          0.797        -999.25         0.7558       -67.1716      -30.91513      0.3976015
      5532.0000          0.802        -999.25         0.7586       -67.9299      -32.05841       0.373783
      5532.5000          0.807        -999.25         0.7614       -68.6887      -33.20245       0.349949
      5533.0000          0.812        -999.25         0.7643       -69.1121      -33.84081      0.3366499
      5533.5000          0.817        -999.25         0.7671       -67.0653      -30.75486      0.4009404
      5534.0000          0.822        -999.25         0.7699       -64.4753      -26.84994      0.4822929
      5534.5000          0.827        -999.25         0.7727       -61.5743      -22.47612      0.5734141
      5535.0000         0.8321        -999.25         0.7756       -58.3262      -17.57899      0.6754378
      5535.5000         0.8372        -999.25         0.7761       -56.4302       -14.7204      0.7349917
      5536.0000         0.8423        -999.25         0.7761       -55.1644      -12.81196      0.7747508
      5536.5000         0.8474        -999.25         0.7761       -54.0272      -11.09741      0.8104705
      5537.0000         0.8525        -999.25         0.7761       -53.2896      -9.985344      0.8336387
      5537.5000         0.8576        -999.25         0.7761       -52.6545      -9.027806      0.8535874
      5538.0000         0.8614        -999.25         0.7761       -52.0649      -8.138872      0.8721069
      5538.5000         0.8357        -999.25         0.7761       -51.8444      -7.806425      0.8790329
      5539.0000         0.8073        -999.25         0.7761       -51.6242      -7.474431      0.8859494
      5539.5000         0.7861        -999.25         0.7732        -51.404      -7.142438      0.8928658
      5540.0000         0.7648        -999.25         0.7664       -51.1838      -6.810445      0.8997824
      5540.5000         0.7447        -999.25         0.7595       -51.0204       -6.56409      0.9049148
      5541.0000         0.7314        -999.25         0.7526       -50.8773      -6.348338      0.9094096
      5541.5000         0.7181        -999.25         0.7457       -50.7458      -6.150076      0.9135401
      5542.0000         0.7048        -999.25         0.7389       -50.6636      -6.026145       0.916122
      5542.5000         0.6915        -999.25          0.732       -50.6645      -6.027503      0.9160937
      5543.0000         0.6883        -999.25         0.7251       -50.6653      -6.028704      0.9160687
      5543.5000         0.6861        -999.25         0.7217       -51.3645      -7.082883      0.8941066
      5544.0000          0.684        -999.25         0.7205       -52.2868      -8.473431      0.8651369
      5544.5000         0.6818        -999.25         0.7193       -56.4034         -14.68      0.7358334
      5545.0000         0.6796        -999.25         0.7181       -57.2277      -15.92279       0.709942
      5545.5000         0.6792        -999.25          0.717       -56.9143      -15.45027      0.7197859
      5546.0000          0.683        -999.25         0.7158       -55.1364      -12.76975      0.7756303
      5546.5000         0.6867        -999.25         0.7135       -53.1307       -9.74577      0.8386298
      5547.0000         0.6905        -999.25         0.7106       -51.8856      -7.868545      0.8777387
      5547.5000         0.6942        -999.25         0.7076       -51.2834      -6.960614      0.8966539
      5548.0000         0.6979        -999.25         0.7047       -50.6807      -6.051923      0.9155849
      5548.5000         0.7017        -999.25         0.7018       -50.0785      -5.143991      0.9345002
      5549.0000         0.7054        -999.25         0.6989       -49.4758      -4.235306      0.9534311
      5549.5000         0.7092        -999.25          0.696       -48.8737      -3.327524      0.9723433
      5550.0000         0.7129        -999.25          0.693       -48.4262      -2.652834      0.9863993
      5550.5000         0.7137        -999.25         0.6901       -48.1867      -2.291739      0.9939221
      5551.0000         0.7134        -999.25         0.6872       -48.6397      -2.974728      0.9796932
      5551.5000         0.7144        -999.25         0.6885       -49.4836      -4.247068      0.9531861
      5552.0000         0.7226        -999.25         0.6908       -49.8939      -4.865676      0.9402984
      5552.5000         0.7309        -999.25          0.693       -50.2039      -5.333057      0.9305613
      5553.0000         0.7392        -999.25         0.6953       -50.5136      -5.799989      0.9208336
      5553.5000         0.7497        -999.25         0.6975       -50.3995      -5.627965      0.9244174
      5554.0000          0.761        -999.25         0.7009       -50.1784      -5.294609      0.9313623
      5554.5000          0.778        -999.25         0.7044       -50.1915      -5.314365      0.9309507
      5555.0000         0.7965        -999.25         0.7078       -51.0556      -6.617158      0.9038092
      5555.5000         0.8118        -999.25         0.7112       -51.9969      -8.036348      0.8742427
      5556.0000         0.8232        -999.25         0.7179       -53.0624      -9.642797      0.8407751
      5556.5000         0.8346        -999.25         0.7254       -54.1279      -11.24924      0.8073075
      5557.0000         0.8394        -999.25         0.7328       -55.0853      -12.69271      0.7772353
      5557.5000         0.8411        -999.25         0.7402       -55.2904      -13.00194       0.770793
      5558.0000         0.8428        -999.25         0.7476       -55.4955      -13.31116      0.7643508
      5558.5000         0.8444        -999.25         0.7552       -55.7006      -13.62039      0.7579085
      5559.0000         0.8461        -999.25         0.7668       -55.9057      -13.92962      0.7514663
      5559.5000         0.8474        -999.25         0.7783       -56.1238      -14.25844      0.7446158
