#------------------------------------------------------------------------------
# Created by    : vladimir.rabinovich
# Created on    : 09/19/2023 17:22:29
#------------------------------------------------------------------------------
~Version Information Section
VERS.           2.0     :   CWLS log ASCII Standard - VERSION 2.0
WRAP.           NO      :   One line per depth step
~Well Information Section
#MNEM       .UNIT                                         VALUE :DESCRIPTION
#------------------------------------------------------------------------------
STRT        .FT                                             272 :START DEPTH
STOP        .FT                                            9222 :STOP DEPTH
STEP        .FT                                             0.5 :STEP      
NULL        .                                           -999.25 :NULL      
COMP        .                   MCMORAN OFFSHORE EXPLORATION CO :COMPANY   
WELL        .                               OCS G03108 ST00BP00 :WELL      
FLD         .                       MATAGORDA ISLAND BLOCK 0700 :FIELD     
LOC         .                                                   :LOCATION  
CNTY        .                      MATAGORDA ISLAND LARGE BLOCK :LOCATION  
STAT        .                                             TEXAS :STATE     
CTRY        .                                     UNITED STATES :COUNTRY   
SRVC        .                                                   :SERVICE COMPANY
DATE        .                             9/13/2023 11:12:09 AM :LOG DATE  
API         .                                    42703400850000 :API NUMBER
UWI         .                                    42703400850000 :UNIQUE WELL ID
XCOORD      .                                  483045.974763742 :SURFACE X 
YCOORD      .                                  10146137.6323278 :SURFACE Y 
LAT         .                                         27.912878 :LATITUDE  
LON         .                                       -96.5835889 :LONGITUDE 
ELEV        .FT                                              85 :ELEVATION VALUE
ELEV_TYPE   .                                                KB :ELEVATION REFERENCE TYPE
~Curve Information Section
#MNEM       .UNIT                                      API CODE :CURVE DESCRIPTION
#------------------------------------------------------------------------------
DEPT        .FT                                                 :DEPTH     
CILD        .MMHO                                               :          
DT          .US/F                                               :          
GR          .GAPI                                               :          
GR_NORM     .GAPI                                               :GammaRay Normalized
ILD         .OHMM                                               :          
ILM         .OHMM                                               :          
SFL         .OHMM                                               :          
SP          .MV                                                 :          
SP_NORM     .MV                                                 :SP Normalized
VSH_GR      .V/V                                                :Volume of Shale from GR
VSH_SP      .V/V                                                :Volume of Shale from SP
~A        DEPTH           CILD             DT             GR        GR_NORM            ILD            ILM            SFL             SP        SP_NORM         VSH_GR         VSH_SP
# ...
      2072.0000        2097.77       198.7322        49.8542       68.24438         0.4704         0.4405         0.4392       -40.2042       -10.0155      0.7498806      0.6307632
      2072.5000       2111.117       197.2317        49.7108         68.061         0.4674         0.4466         0.4504       -40.4273       -10.2386      0.7459788      0.6190211
      2073.0000       2127.672       196.4502        49.6376        67.9672         0.4617         0.4506         0.4564       -38.5259        -8.3372       0.743983      0.7190948
      2073.5000       2147.199       196.7085        49.9987       68.42765         0.4565         0.4434         0.4494        -37.067        -6.8783      0.7537798      0.7958789
      2074.0000       2172.477        197.145        50.5196       69.09202         0.4491         0.4323         0.4399        -36.231        -6.0423      0.7679153      0.8398789
      2074.5000       2201.648       197.7004           51.4       70.21506         0.4402         0.4204         0.4291       -36.2579        -6.0692      0.7918097      0.8384631
      2075.0000       2233.488        198.342        53.2765        72.6094         0.4313         0.4108         0.4178        -36.363        -6.1743      0.8427532      0.8329316
      2075.5000       2278.445       199.5896         56.531       76.76233         0.4226         0.4064         0.4115       -35.7029        -5.5142      0.9311134      0.8676737
      2076.0000           2303       201.1816        58.9953       79.90681         0.4203         0.4064         0.4085       -34.7493        -4.5606      0.9980173      0.9178632
      2076.5000       2314.242        203.095        60.4993        81.8258          0.421         0.4081         0.4137       -33.9397         -3.751              1      0.9604737
      2077.0000       2315.582       205.0198        61.0946       82.58512         0.4231           0.41         0.4181        -33.591        -3.4023              1      0.9788263
      2077.5000       2294.574       206.1267        61.2777        82.8184         0.4267         0.4139         0.4224       -34.1478        -3.9591              1      0.9495211
      2078.0000       2268.008          206.3        60.8391       82.25815         0.4304         0.4187         0.4257       -35.2234        -5.0347              1      0.8929105
      2078.5000       2238.137       205.2043        60.0429       81.24169         0.4358         0.4236         0.4292       -35.9196        -5.7309              1      0.8562684
      2079.0000       2204.438       204.6038        58.7844       79.63525         0.4419         0.4287         0.4332       -35.7116        -5.5229      0.9922393      0.8672158
      2079.5000       2168.074       204.4797        57.5923       78.11353         0.4484         0.4332         0.4371       -35.3992        -5.2105      0.9598624      0.8836579
      2080.0000       2129.523        204.835        56.4268       76.62577         0.4552         0.4375         0.4391       -35.2246        -5.0359      0.9282079      0.8928474
      2080.5000       2106.301        204.696        55.4134       75.33212         0.4618         0.4421          0.441       -35.4221        -5.2334      0.9006833      0.8824527
      2081.0000       2090.465       204.2971        55.2334        75.1019         0.4677         0.4467         0.4428       -35.9056        -5.7169      0.8957851      0.8570053
      2081.5000       2076.832       203.4956        55.2902         75.174          0.473         0.4504         0.4463        -36.311        -6.1223      0.8973192      0.8356684
      2082.0000       2063.801        202.322          55.33        75.2244         0.4755         0.4535         0.4508       -36.2624        -6.0737      0.8983915      0.8382263
      2082.5000       2053.113       200.5142         55.559       75.51627         0.4776         0.4549         0.4539       -36.1046        -5.9159      0.9046016      0.8465316
      2083.0000       2044.459       198.5188        56.7936       77.09145         0.4768         0.4549         0.4563       -36.0072        -5.8185      0.9381159      0.8516579
      2083.5000       2046.412        197.688        58.9517       79.84517          0.476         0.4561         0.4525       -35.9697         -5.781      0.9967057      0.8536316
      2084.0000       2053.715       198.1931        60.0174        81.2048         0.4764         0.4577         0.4495       -35.6105        -5.4218              1      0.8725368
      2084.5000       2064.156       198.9255        59.0488       79.96832         0.4767         0.4586         0.4472       -35.3068        -5.1181       0.999326       0.888521
      2085.0000       2080.527       199.6077        55.7594       75.76998         0.4766          0.459         0.4455       -34.9019        -4.7132      0.9099996      0.9098316
      2085.5000        2094.25       200.2798        53.3571       72.70384         0.4752         0.4584         0.4439       -34.2558        -4.0671      0.8447626      0.9438369
      2086.0000        2106.02       200.8811        53.6156       73.03335         0.4739         0.4571         0.4426       -33.5988        -3.4101      0.8517734      0.9784158
      2086.5000       2111.723       201.4773        56.3157       76.47875         0.4728         0.4568         0.4414       -33.9838        -3.7951      0.9250798      0.9581527
      2087.0000       2111.672         202.05        58.3718       79.10231         0.4728         0.4568         0.4393       -34.8213        -4.6326      0.9809002      0.9140737
      2087.5000       2098.992       202.6541        60.0662       81.26427         0.4732         0.4564         0.4376       -34.8236        -4.6349              1      0.9139526
      2088.0000       2075.629       203.1819        61.6867        83.3318         0.4766         0.4576         0.4387       -33.9126        -3.7239              1         0.9619
      2088.5000       2044.316        203.207         61.546       83.15186         0.4819         0.4629         0.4447       -33.7342        -3.5455              1      0.9712895
      2089.0000       2007.363        203.072        60.4384       81.73798         0.4893         0.4699         0.4544       -33.7798        -3.5911              1      0.9688895
      2089.5000       1966.893        202.896        59.8119       80.93809         0.4991         0.4782         0.4654       -33.7112        -3.5225              1         0.9725
      2090.0000        1929.41       202.5696        58.9019       79.77638          0.507         0.4836         0.4761        -33.748        -3.5593      0.9952422      0.9705632
      2090.5000       1897.324       201.7783        57.4869       77.97022         0.5143         0.4883         0.4847       -34.1921        -4.0034      0.9568132      0.9471895
      2091.0000       1871.766        200.689        56.2374       76.37526         0.5158         0.4907           0.49       -34.5728        -4.3841      0.9228778      0.9271526
      2091.5000       1857.398       199.6826        56.1627       76.27942         0.5172         0.4928         0.4868        -34.746        -4.5573      0.9208387      0.9180368
      2092.0000       1853.598       198.8596        56.0499       76.13507         0.5178         0.4945         0.4831       -34.7064        -4.5177      0.9177675       0.920121
      2092.5000       1854.328       198.2434        55.0746       74.89005         0.5185         0.4935         0.4811       -34.5409        -4.3522      0.8912777      0.9288316
      2093.0000       1862.131       197.7622        54.1464       73.70512         0.5183         0.4912         0.4792       -34.1104        -3.9217      0.8660663      0.9514894
      2093.5000        1875.59       197.7209        53.6366       73.05415         0.5143         0.4904          0.477       -33.6266        -3.4379      0.8522159      0.9769526
      2094.0000       1888.881       198.0537        53.8191       73.28667         0.5103         0.4899         0.4756       -33.2777         -3.089      0.8571631      0.9953158
