#------------------------------------------------------------------------------
# Created by    : vladimir.rabinovich
# Created on    : 09/19/2023 17:20:57
#------------------------------------------------------------------------------
~Version Information Section
VERS.           2.0     :   CWLS log ASCII Standard - VERSION 2.0
WRAP.           NO      :   One line per depth step
~Well Information Section
#MNEM       .UNIT                                         VALUE :DESCRIPTION
#------------------------------------------------------------------------------
STRT        .FT                                             601 :START DEPTH
STOP        .FT                                            9006 :STOP DEPTH
STEP        .FT                                             0.5 :STEP      
NULL        .                                           -999.25 :NULL      
COMP        .                                        SUN OIL CO :COMPANY   
WELL        .                               OCS G01715 ST00BP00 :WELL      
FLD         .                                           WILDCAT :FIELD     
LOC         .                                                   :LOCATION  
CNTY        .                                BRAZOS LARGE BLOCK :LOCATION  
STAT        .                                             TEXAS :STATE     
CTRY        .                                     UNITED STATES :COUNTRY   
SRVC        .                                                   :SERVICE COMPANY
DATE        .                             9/13/2023 11:18:52 AM :LOG DATE  
API         .                                    42704000710000 :API NUMBER
UWI         .                                    42704000710000 :UNIQUE WELL ID
XCOORD      .                                  842225.693118258 :SURFACE X 
YCOORD      .                                  10368215.6352389 :SURFACE Y 
LAT         .                                          28.54781 :LATITUDE  
LON         .                                        -95.486614 :LONGITUDE 
ELEV        .FT                                              79 :ELEVATION VALUE
ELEV_TYPE   .                                                KB :ELEVATION REFERENCE TYPE
~Curve Information Section
#MNEM       .UNIT                                      API CODE :CURVE DESCRIPTION
#------------------------------------------------------------------------------
DEPT        .FT                                                 :DEPTH     
ASN         .OHMM                                               :          
CALI        .IN                                                 :          
CILD        .MMHO                                               :          
DT          .US/F                                               :          
ILD         .OHMM                                               :          
SP          .MV                                                 :          
SP_NORM     .MV                                                 :SP Normalized
VSH_SP      .V/V                                                :Volume of Shale from SP
~A        DEPTH            ASN           CALI           CILD             DT            ILD             SP        SP_NORM         VSH_SP
# ...
      7858.0000         0.5101         9.3265       2774.824       182.5984         0.3919       -44.6216      -6.526363      0.9199077
      7858.5000         0.5092         9.1382       2750.332       183.4829         0.3868       -43.8724      -5.777161      0.9307658
      7859.0000         0.5084          9.334        2725.84       184.2942         0.3807       -44.3335      -6.238262      0.9240832
      7859.5000         0.5074         9.4939       2701.324        183.563         0.3722       -44.2621      -6.166862      0.9251179
      7860.0000         0.5051         9.6481       2689.531       182.3623         0.3657       -44.1194      -6.024162      0.9271861
      7860.5000         0.5011         9.4721       2698.074       183.3879         0.3596       -44.2355      -6.140263      0.9255034
      7861.0000         0.4953         9.5926       2706.668        184.061         0.3561       -44.2467      -6.151463      0.9253411
      7861.5000         0.4891         9.4628       2721.723       184.0779         0.3539       -44.0997      -6.004463      0.9274715
      7862.0000         0.4904         9.2072       2736.777       185.1191          0.351       -44.8806      -6.785362      0.9161541
      7862.5000         0.4963         8.9928       2751.805       184.7529         0.3446       -46.4272      -8.331963      0.8937397
      7863.0000         0.5003         9.0915       2766.859       183.5317         0.3398       -48.2281      -10.13286      0.8676397
      7863.5000         0.4989         9.1409       2793.629       183.2766         0.3441       -49.6393      -11.54406      0.8471875
      7864.0000         0.4953         9.1792       2822.754       183.9641          0.347       -50.6753      -12.58006       0.832173
      7864.5000         0.4946         9.2542       2851.074       184.2573         0.3485       -51.9134      -13.81816      0.8142295
      7865.0000         0.4954         9.3532       2866.395        185.043         0.3448       -52.9724      -14.87716      0.7988817
      7865.5000         0.4937         9.4084       2881.742       185.8091         0.3822       -53.6895      -15.59426       0.788489
      7866.0000         0.4831         9.3642        2897.09       185.1528         0.3807       -53.1273      -15.03206      0.7966368
      7866.5000         0.4731         9.3261       2911.848       186.4978         0.3774       -50.9028      -12.80756      0.8288759
      7867.0000         0.4779         9.3263       2926.313       188.0054         0.3811       -48.8696      -10.77436      0.8583426
      7867.5000         0.4838         9.2373       2940.805       188.8503         0.3869        -47.715      -9.619762      0.8750759
      7868.0000          0.487         9.1954       2955.145       188.1653         0.3941       -46.9101      -8.814861      0.8867412
      7868.5000         0.4898         9.2657       2968.605       186.8103         0.3963       -45.8862      -7.790962      0.9015803
      7869.0000          0.491         9.3278       2976.426       186.0835         0.3945       -44.8575       -6.76226       0.916489
      7869.5000         0.4912         9.4279       2945.094       186.3679         0.3891        -44.584      -6.488762      0.9204527
      7870.0000         0.4906         9.6125       2913.762       187.3879         0.3865       -44.7571      -6.661861       0.917944
      7870.5000         0.4882         9.5381        2882.43       188.1296         0.3843       -44.8676      -6.772362      0.9163426
      7871.0000         0.4857         9.5233       2851.098       188.5547         0.3807       -44.3807      -6.285461      0.9233991
      7871.5000         0.4821         9.4707       2819.766       188.9321         0.3748          -43.7      -5.604763      0.9332643
      7872.0000         0.4774          9.258       2829.719       188.8889         0.3692        -43.565      -5.469761      0.9352208
      7872.5000         0.4695         9.1306       2854.113       190.0691         0.3651       -43.7651      -5.669861      0.9323208
      7873.0000         0.4678         9.0108       2878.508       191.0415         0.3609        -43.605      -5.509762      0.9346411
      7873.5000           0.47          8.947       2900.141       191.7363         0.3671       -42.9889      -4.893661      0.9435701
      7874.0000         0.4741         8.8998       2908.441       192.7563          0.374        -42.238      -4.142761      0.9544528
      7874.5000         0.4784         8.8709       2916.754       193.3437         0.3742       -41.8331      -3.737862      0.9603208
      7875.0000         0.4801         8.8649       2925.051       192.5276         0.3736       -41.6914      -3.596161      0.9623745
      7875.5000         0.4793         8.8258       2933.363       191.6482         0.3718       -41.4961      -3.400864      0.9652049
      7876.0000         0.4768          8.804        2941.66       191.1077         0.3696        -41.107      -3.011761       0.970844
      7876.5000         0.4748         8.7956       2944.188       189.6829         0.3684       -41.1396      -3.044361      0.9703716
      7877.0000          0.475         8.7743       2938.426       188.9326         0.3707       -42.4165      -4.321262      0.9518658
      7877.5000         0.4743         8.7764       2932.656       188.9641         0.3729       -43.4167      -5.321461      0.9373701
      7878.0000         0.4718         8.8905       2926.891       188.6384         0.3744       -43.8942      -5.798962      0.9304498
      7878.5000         0.4698         8.9053       2921.121       189.6978         0.3753       -44.4618      -6.366562      0.9222237
      7879.0000         0.4737         8.8081       2915.133       190.8926         0.3764       -45.7302      -7.634964      0.9038411
      7879.5000         0.4812         8.8096       2908.453       191.7876         0.3795        -48.158      -10.06276      0.8686556
      7880.0000         0.4871         8.9038       2901.773       191.4314         0.3826       -49.8983      -11.80306      0.8434339
      7880.5000         0.4896         8.8487       2907.707       189.8176         0.3838       -50.5328      -12.43756      0.8342382
      7881.0000         0.4875         8.8794       2920.344       188.6929         0.3849       -50.4477      -12.35246      0.8354716
      7881.5000         0.4801         9.0268       2932.996       187.7683         0.3865       -49.9539      -11.85866      0.8426281
      7882.0000         0.4724         9.1444       2945.633       187.9641         0.3887       -48.6711      -10.57586      0.8612194
      7882.5000         0.4754         9.1965       2952.332       188.5171         0.3929       -46.7516      -8.656361      0.8890383
      7883.0000          0.483         9.2177       2956.281       188.7166         0.3913       -46.0406      -7.945362      0.8993426
      7883.5000         0.4878         9.2025       2960.219       187.6179         0.3863       -46.7589      -8.663662      0.8889324
      7884.0000         0.4858         9.1437        2964.16       186.8848          0.385       -47.7465       -9.65126      0.8746194
      7884.5000         0.4806         9.1636       2968.102        187.446         0.3843       -47.4342      -9.338963      0.8791454
      7885.0000         0.4768         9.3792       2946.418        187.936         0.3818        -44.837      -6.741764       0.916786
      7885.5000          0.476         9.3596       2920.625       188.7202         0.3792       -42.4153      -4.320061      0.9518832
      7886.0000          0.478         9.2152       2893.414       188.4302         0.3805       -41.3375      -3.242264      0.9675034
      7886.5000         0.4817         9.0981       2866.148       186.2903          0.382       -42.6053      -4.510063      0.9491295
      7887.0000          0.479          9.018       2861.055       184.5229         0.3842        -45.689      -7.593761      0.9044383
