#------------------------------------------------------------------------------
# Created by    : vladimir.rabinovich
# Created on    : 09/19/2023 17:19:50
#------------------------------------------------------------------------------
~Version Information Section
VERS.           2.0     :   CWLS log ASCII Standard - VERSION 2.0
WRAP.           NO      :   One line per depth step
~Well Information Section
#MNEM       .UNIT                                         VALUE :DESCRIPTION
#------------------------------------------------------------------------------
STRT        .FT                                             880 :START DEPTH
STOP        .FT                                            8374 :STOP DEPTH
STEP        .FT                                             0.5 :STEP      
NULL        .                                           -999.25 :NULL      
COMP        .                                        EXXON CORP :COMPANY   
WELL        .                               OCS G04552 ST00BP00 :WELL      
FLD         .                                 BRAZOS BLOCK 0451 :FIELD     
LOC         .                                                   :LOCATION  
CNTY        .                                BRAZOS LARGE BLOCK :LOCATION  
STAT        .                                             TEXAS :STATE     
CTRY        .                                     UNITED STATES :COUNTRY   
SRVC        .                                                   :SERVICE COMPANY
DATE        .                             9/13/2023 11:19:08 AM :LOG DATE  
API         .                                    42704401130000 :API NUMBER
UWI         .                                    42704401130000 :UNIQUE WELL ID
XCOORD      .                                  760277.642000753 :SURFACE X 
YCOORD      .                                  10343629.6463693 :SURFACE Y 
LAT         .                                         28.475327 :LATITUDE  
LON         .                                        -95.739931 :LONGITUDE 
ELEV        .FT                                              95 :ELEVATION VALUE
ELEV_TYPE   .                                                KB :ELEVATION REFERENCE TYPE
~Curve Information Section
#MNEM       .UNIT                                      API CODE :CURVE DESCRIPTION
#------------------------------------------------------------------------------
DEPT        .FT                                                 :DEPTH     
ASFL        .OHMM                                               :          
CALI        .IN                                                 :          
CILD        .MMHO                                               :          
DT          .US/F                                               :          
GR          .GAPI                                               :          
GR_NORM     .GAPI                                               :GammaRay Normalized
ILD         .OHMM                                               :          
ILM         .OHMM                                               :          
RHOB        .G/C3                                               :          
SP          .MV                                                 :          
SP_NORM     .MV                                                 :SP Normalized
VSH_GR      .V/V                                                :Volume of Shale from GR
VSH_SP      .V/V                                                :Volume of Shale from SP
~A        DEPTH           ASFL           CALI           CILD             DT             GR        GR_NORM            ILD            ILM           RHOB             SP        SP_NORM         VSH_GR         VSH_SP
# ...
      8328.0000         0.7372        16.7724       2456.371       123.8544        39.2831       54.32178         0.3736         0.3962         2.1449       -41.2163        -2.0006       0.453655       0.959988
      8328.5000         0.7344        16.7631       2475.836        123.665        39.0018       53.77811         0.3718         0.3923         2.1537       -41.0968        -1.8811      0.4420875       0.962378
      8329.0000         0.7316         16.751       2495.977       123.7424        38.1449       52.12148           0.37         0.3885         2.1351       -41.0491        -1.8334      0.4068399       0.963332
      8329.5000         0.7286        16.7347       2516.117       124.1949        36.9449       49.80149         0.3682         0.3856         2.1207       -41.0012        -1.7855      0.3574784        0.96429
      8330.0000         0.7256        16.7324       2536.234       124.2782        36.4831       48.90849         0.3664          0.383         2.1505       -40.9535        -1.7378      0.3384786       0.965244
      8330.5000         0.7225          16.73       2557.324       124.1625        37.1434       50.18505         0.3646         0.3804         2.1683       -40.9658        -1.7501      0.3656395       0.964998
      8331.0000         0.7191        16.7204       2580.219       123.7675        37.8823       51.61359         0.3628         0.3778         2.1646       -40.9813        -1.7656      0.3960338       0.964688
      8331.5000         0.7156        16.6997       2603.137       123.6278        38.6198       53.03941          0.361         0.3752         2.1348       -40.9966        -1.7809      0.4263705       0.964382
      8332.0000         0.7122        16.6965       2627.207       123.8281        39.2123       54.18489         0.3592         0.3726         2.1066       -41.0121        -1.7964      0.4507424       0.964072
      8332.5000         0.7089        16.6886       2659.031       123.9822        39.7626       55.24881         0.3574         0.3697         2.0919       -41.0275        -1.8118      0.4733789       0.963764
      8333.0000         0.7063        16.6387       2690.809       124.1393        40.3124       56.31174         0.3576         0.3666         2.1007       -41.0185        -1.8028      0.4959945       0.963944
      8333.5000         0.7037         16.505       2714.926       124.5255        40.8087       57.27145         0.3579         0.3634         2.1239       -41.0028        -1.7871      0.5164137       0.964258
      8334.0000          0.701         16.284       2735.969       125.7368        41.2265       58.07917         0.3582          0.362         2.1419       -40.9871        -1.7714      0.5335993       0.964572
      8334.5000         0.6991        15.7054       2757.035       126.5868        41.6437       58.88555         0.3585         0.3619         2.1327       -40.9714        -1.7557      0.5507564       0.964886
      8335.0000         0.6994        14.3927       2752.207        127.118        42.0615       59.69331         0.3588         0.3617         1.9855       -40.9556        -1.7399      0.5679427       0.965202
      8335.5000         0.6997        13.0801       2744.625        127.068        41.9917       59.55854         0.3591         0.3578         1.7439       -40.9896        -1.7739      0.5650753       0.964522
      8336.0000         0.7017        11.3367       2737.055       126.2106        41.8325       59.25059         0.3594         0.3588         1.6561       -41.0541        -1.8384      0.5585231       0.963232
      8336.5000        -999.25        -999.25        -999.25       126.3505        -999.25        -999.25        -999.25         0.3654        -999.25        -999.25        -999.25        -999.25        -999.25
      8337.0000        -999.25        -999.25        -999.25       126.0912        -999.25        -999.25        -999.25         0.3728        -999.25        -999.25        -999.25        -999.25        -999.25
      8337.5000        -999.25        -999.25        -999.25       125.6705        -999.25        -999.25        -999.25         0.3794        -999.25        -999.25        -999.25        -999.25        -999.25
      8338.0000        -999.25        -999.25        -999.25        124.943        -999.25        -999.25        -999.25         0.3835        -999.25        -999.25        -999.25        -999.25        -999.25
      8338.5000        -999.25        -999.25        -999.25       123.8181        -999.25        -999.25        -999.25         0.3879        -999.25        -999.25        -999.25        -999.25        -999.25
      8339.0000        -999.25        -999.25        -999.25       122.5006        -999.25        -999.25        -999.25         0.3932        -999.25        -999.25        -999.25        -999.25        -999.25
      8339.5000        -999.25        -999.25        -999.25       121.2294        -999.25        -999.25        -999.25         0.3977        -999.25        -999.25        -999.25        -999.25        -999.25
      8340.0000        -999.25        -999.25        -999.25       120.5719        -999.25        -999.25        -999.25         0.4018        -999.25        -999.25        -999.25        -999.25        -999.25
      8340.5000        -999.25        -999.25        -999.25       120.5347        -999.25        -999.25        -999.25         0.4037        -999.25        -999.25        -999.25        -999.25        -999.25
      8341.0000        -999.25        -999.25        -999.25       120.8101        -999.25        -999.25        -999.25         0.4054        -999.25        -999.25        -999.25        -999.25        -999.25
      8341.5000        -999.25        -999.25        -999.25       121.1134        -999.25        -999.25        -999.25         0.4075        -999.25        -999.25        -999.25        -999.25        -999.25
      8342.0000        -999.25        -999.25        -999.25       121.2231        -999.25        -999.25        -999.25         0.4096        -999.25        -999.25        -999.25        -999.25        -999.25
      8342.5000        -999.25        -999.25        -999.25       120.6675        -999.25        -999.25        -999.25         0.4124        -999.25        -999.25        -999.25        -999.25        -999.25
      8343.0000        -999.25        -999.25        -999.25       119.8219        -999.25        -999.25        -999.25         0.4118        -999.25        -999.25        -999.25        -999.25        -999.25
      8343.5000        -999.25        -999.25        -999.25       119.4244        -999.25        -999.25        -999.25          0.409        -999.25        -999.25        -999.25        -999.25        -999.25
      8344.0000        -999.25        -999.25        -999.25       119.8719        -999.25        -999.25        -999.25         0.4034        -999.25        -999.25        -999.25        -999.25        -999.25
      8344.5000        -999.25        -999.25        -999.25       120.5519        -999.25        -999.25        -999.25         0.3983        -999.25        -999.25        -999.25        -999.25        -999.25
      8345.0000        -999.25        -999.25        -999.25       121.4031        -999.25        -999.25        -999.25         0.3943        -999.25        -999.25        -999.25        -999.25        -999.25
      8345.5000        -999.25        -999.25        -999.25       122.5607        -999.25        -999.25        -999.25         0.3905        -999.25        -999.25        -999.25        -999.25        -999.25
      8346.0000        -999.25        -999.25        -999.25       124.3181        -999.25        -999.25        -999.25         0.3965        -999.25        -999.25        -999.25        -999.25        -999.25
      8346.5000        -999.25        -999.25        -999.25        126.288        -999.25        -999.25        -999.25         0.4035        -999.25        -999.25        -999.25        -999.25        -999.25
