#------------------------------------------------------------------------------
# Created by    : vladimir.rabinovich
# Created on    : 09/19/2023 17:19:58
#------------------------------------------------------------------------------
~Version Information Section
VERS.           2.0     :   CWLS log ASCII Standard - VERSION 2.0
WRAP.           NO      :   One line per depth step
~Well Information Section
#MNEM       .UNIT                                         VALUE :DESCRIPTION
#------------------------------------------------------------------------------
STRT        .FT                                             782 :START DEPTH
STOP        .FT                                            8251 :STOP DEPTH
STEP        .FT                                             0.5 :STEP      
NULL        .                                           -999.25 :NULL      
COMP        .                                     TALOS ERT LLC :COMPANY   
WELL        .                               OCS G06037 ST00BP00 :WELL      
FLD         .                       MATAGORDA ISLAND BLOCK 0619 :FIELD     
LOC         .                                                   :LOCATION  
CNTY        .                      MATAGORDA ISLAND LARGE BLOCK :LOCATION  
STAT        .                                             TEXAS :STATE     
CTRY        .                                     UNITED STATES :COUNTRY   
SRVC        .                                                   :SERVICE COMPANY
DATE        .                             9/13/2023 11:18:52 AM :LOG DATE  
API         .                                    42703402240000 :API NUMBER
UWI         .                                    42703402240000 :UNIQUE WELL ID
XCOORD      .                                  606760.800591327 :SURFACE X 
YCOORD      .                                  10227689.0556145 :SURFACE Y 
LAT         .                                        28.1463556 :LATITUDE  
LON         .                                       -96.2076889 :LONGITUDE 
ELEV        .FT                                              77 :ELEVATION VALUE
ELEV_TYPE   .                                                KB :ELEVATION REFERENCE TYPE
~Curve Information Section
#MNEM       .UNIT                                      API CODE :CURVE DESCRIPTION
#------------------------------------------------------------------------------
DEPT        .FT                                                 :DEPTH     
ASFL        .OHMM                                               :          
CALI        .IN                                                 :          
CILD        .MMHO                                               :          
DRHO        .G/C3                                               :          
DT          .US/F                                               :          
GR          .GAPI                                               :          
GR_NORM     .GAPI                                               :GammaRay Normalized
ILD         .OHMM                                               :          
ILM         .OHMM                                               :          
NPHI        .%                                                  :          
RHOB        .G/C3                                               :          
SFL         .OHMM                                               :          
SP          .MV                                                 :          
SP_NORM     .MV                                                 :SP Normalized
VSH_GR      .V/V                                                :Volume of Shale from GR
VSH_SP      .V/V                                                :Volume of Shale from SP
~A        DEPTH           ASFL           CALI           CILD           DRHO             DT             GR        GR_NORM            ILD            ILM           NPHI           RHOB            SFL             SP        SP_NORM         VSH_GR         VSH_SP
# ...
      4270.0000          0.785        15.6698        1893.33         0.0161        86.6403        51.1375       51.87423         0.5138         0.5885        32.4626         2.1974         0.7627       -67.8328      -19.80005      0.4015794      0.2260847
      4270.5000         0.7499        15.0445       2000.506         0.0154        86.3043        50.7173       51.12648         0.5287         0.6151        31.5761         2.2489         0.9006        -67.929      -19.89874      0.3856698      0.2217938
      4271.0000         0.7148        14.6588       2168.598         0.0207        88.3206        50.0161       49.87786         0.5208         0.6233        30.6154         2.2606         0.9869       -68.0958      -20.06804      0.3591035      0.2144331
      4271.5000         0.6784        14.6062       2333.523         0.0295        91.0972         49.092       48.23195          0.494          0.606        30.0005         2.2496         0.9074       -68.2833      -20.25803      0.3240841      0.2061726
      4272.0000         0.6233         14.629       2409.297         0.0387        94.9655        48.4261       47.04627         0.4696         0.5755         29.916         2.2269         0.7845        -68.429      -20.40622      0.2988568      0.1997294
      4272.5000         0.5994        14.6943       2398.203         0.0431        99.6185        47.5018       45.40001         0.4464         0.5308        30.3253         2.1636         0.6707       -68.4962      -20.47592      0.2638299      0.1966992
      4273.0000          0.581         15.319       2331.145         0.0578       104.9218        45.8051       42.37706         0.4264         0.4757        30.9249         2.1295         0.5824       -68.4398        -20.422      0.1995119      0.1990433
      4273.5000         0.5857        16.2015       2231.496          0.095       112.1283        43.6827       38.59538         0.4198         0.4529        31.4047         2.1006         0.5583       -68.0547      -20.03941      0.1190507       0.215678
      4274.0000         0.6173        18.4654       2084.602         0.1344       115.4078        41.9798        35.5614         0.4405         0.4595        31.9695         2.0496         0.5399       -67.0409       -19.0281     0.05449782      0.2596479
      4274.5000         0.6509         20.281       1907.297         0.1506       113.1389        42.9214        37.2408         0.4709         0.4954        33.2222         1.9957          0.531       -65.8036      -17.79329     0.09022976      0.3133354
      4275.0000         0.6994         21.182       1744.057         0.1084       108.4049        45.6436       42.09389         0.5013         0.5533        36.3792         1.9691         0.5427       -64.5762      -16.56839      0.1934871      0.3665919
      4275.5000         0.7744        20.9526       1635.295         0.0606        103.244        51.0002       51.64238         0.5315         0.6332        39.5674         1.9983         0.6272       -63.7968      -15.79147      0.3966465      0.4003707
      4276.0000         0.8366        16.6122       1564.918         0.0457        97.3816        55.4579       59.58875         0.5637         0.7137        42.7557         2.0754         0.7774       -63.4847      -15.48187      0.5657181      0.4138318
      4276.5000         0.8604        15.2343       1515.193          0.072        89.2919        58.4337       64.89383         0.6013         0.7533        41.2299         2.2553         0.8749       -63.9394      -15.93906      0.6785921      0.3939537
      4277.0000         0.8895        14.9438       1477.539         0.0878        88.0098        55.5531       59.76078         0.6479          0.777        36.3911         2.2955         0.9147       -64.5494      -16.55156      0.5693783      0.3673237
      4277.5000         0.9099        14.7236        1546.84         0.0733        88.5682        52.9261       55.07969         0.6826         0.7895        32.4749         2.2588         0.9158       -65.1028      -17.10745      0.4697807      0.3431544
      4278.0000         0.8817        14.5363       1686.309         0.0435        89.2937        50.8224       51.33134         0.6381         0.7745        31.6964         2.2418         0.9242       -65.4574      -17.46454      0.3900284      0.3276286
      4278.5000         0.8534        14.5054       1804.875          0.042        91.3156        48.6519       47.46392         0.5784         0.6969        31.6865         2.2352         0.9616        -65.226      -17.23563      0.3077429      0.3375811
      4279.0000          0.824        14.5376       1917.201         0.0676        94.6196        48.0814       46.44826         0.5149         0.6144        30.8986         2.2451         0.9538       -64.4573      -16.46943      0.2861331      0.3708944
      4279.5000         0.7305        14.6013       2029.527          0.088       100.3251          48.64       47.44505          0.462         0.5519        28.5304         2.2556         0.8756       -63.5791      -15.59372      0.3073415      0.4089685
      4280.0000         0.6306        15.0615        2165.23         0.1024       103.8669        50.3442        50.4837         0.4221           0.51        27.7936         2.2485         0.7069       -62.7012      -14.71832      0.3719936      0.4470298
      4280.5000         0.5826        15.4409       2701.207          0.114       107.3329        52.0715       53.56352         0.3818         0.4721        28.6105         2.2311         0.6062       -63.4198      -15.43941      0.4375218      0.4156778
      4281.0000         0.5542        15.7868       2797.887          0.114       110.4039        52.8005       54.86401         0.3529          0.439        32.0807         2.1421         0.5365       -63.3681       -15.3902      0.4651918      0.4178173
      4281.5000         0.5497        16.3277       2882.477         0.0967       112.6619        52.7501       54.77535         0.3395         0.4231         35.833         2.0772         0.4858       -63.3097       -15.3343      0.4633054      0.4202479
      4282.0000         0.5596        17.0499       2898.969         0.0691        113.785        52.8763       55.00146         0.3409           0.42        39.5853          1.998         0.4826       -63.0357      -15.06279      0.4681161      0.4320524
      4282.5000         0.5731        17.2292        2856.82         0.0447       112.5944         54.356       57.63997         0.3506         0.4295        44.4299         1.9993         0.5225       -60.9266      -12.95618      0.5242547      0.5236441
      4283.0000         0.5893        16.1033       2638.211          0.043       111.1901        55.4573       59.60405         0.3717         0.4481        45.9172         2.0484         0.5798       -57.9501      -9.982178      0.5660436      0.6529488
      4283.5000         0.6255        15.2546       2433.664         0.0444       110.4644        56.0189       60.60619           0.41         0.4727        45.6619         2.0718         0.6341       -55.3188      -7.353371      0.5873658      0.7672448
      4284.0000         0.6557        15.0506       2304.449         0.0486       110.3665        57.7093       63.62024         0.4625         0.5124        45.7769          2.178          0.678       -53.2238      -5.260864      0.6514946      0.8582233
      4284.5000         0.6892        15.1621       2216.938         0.0569       110.6686        60.2862       68.21433         0.5162         0.5615        46.2771         2.2323         0.7098       -51.3466      -3.386158      0.7492411      0.9397323
      4285.0000         0.7012        15.2857       2108.375         0.0703       111.3973         61.472       70.32901         0.5788         0.5966         45.319          2.269          0.732       -50.3114      -2.353451      0.7942343      0.9846326
      4285.5000          0.696        15.4408       1697.203         0.0748       113.4186        61.7466        70.8196         0.6194         0.6234        44.0128         2.2925         0.7503       -50.3386      -2.383144      0.8046724      0.9833416
