#------------------------------------------------------------------------------
# Created by    : vladimir.rabinovich
# Created on    : 09/19/2023 17:19:44
#------------------------------------------------------------------------------
~Version Information Section
VERS.           2.0     :   CWLS log ASCII Standard - VERSION 2.0
WRAP.           NO      :   One line per depth step
~Well Information Section
#MNEM       .UNIT                                         VALUE :DESCRIPTION
#------------------------------------------------------------------------------
STRT        .FT                                            3520 :START DEPTH
STOP        .FT                                           13769 :STOP DEPTH
STEP        .FT                                             0.5 :STEP      
NULL        .                                           -999.25 :NULL      
COMP        .                           WILLIAMS EXPLORATION CO :COMPANY   
WELL        .                                          SL 73414 :WELL      
FLD         .                                           WILDCAT :FIELD     
LOC         .                                                   :LOCATION  
CNTY        .                           HIGH ISLAND LARGE BLOCK :LOCATION  
STAT        .                                             TEXAS :STATE     
CTRY        .                                     UNITED STATES :COUNTRY   
SRVC        .                                                   :SERVICE COMPANY
DATE        .                             9/13/2023 11:19:15 AM :LOG DATE  
API         .                                    42708301040000 :API NUMBER
UWI         .                                    42708301040000 :UNIQUE WELL ID
XCOORD      .                                  1272749.25589155 :SURFACE X 
YCOORD      .                                  10699068.0748216 :SURFACE Y 
LAT         .                                        29.4758188 :LATITUDE  
LON         .                                       -94.1558378 :LONGITUDE 
ELEV        .FT                                             106 :ELEVATION VALUE
ELEV_TYPE   .                                                KB :ELEVATION REFERENCE TYPE
~Curve Information Section
#MNEM       .UNIT                                      API CODE :CURVE DESCRIPTION
#------------------------------------------------------------------------------
DEPT        .FT                                                 :DEPTH     
ASFL        .OHMM                                               :          
CILD        .MMHO                                               :          
ILD         .OHMM                                               :          
SP          .MV                                                 :          
SP_NORM     .MV                                                 :SP Normalized
VSH_SP      .V/V                                                :Volume of Shale from SP
~A        DEPTH           ASFL           CILD            ILD             SP        SP_NORM         VSH_SP
      3520.0000         0.5083       4009.457         0.2694      -111.0258      -22.54095       0.417812
      3520.5000         0.5307       4010.703         0.2667      -111.7573      -23.27245      0.3980418
      3521.0000         0.5506       4059.547         0.2641      -111.5568      -23.07195      0.4034607
      3521.5000         0.5618       4333.422         0.2614      -110.9327      -22.44785      0.4203283
      3522.0000         0.5519       4537.875         0.2587      -110.3021      -21.81725      0.4373716
      3522.5000          0.532       4595.219         0.2587      -109.6715      -21.18665      0.4544148
      3523.0000         0.5173       4622.281         0.2631      -109.0404      -20.55555      0.4714716
      3523.5000         0.5026       4631.242         0.2676      -108.4347      -19.94985      0.4878418
      3524.0000         0.4911       4588.766         0.2721      -107.9103      -19.42545      0.5020148
      3524.5000          0.492       4546.313         0.2765      -108.1317      -19.64685      0.4960311
      3525.0000         0.4929        3971.73          0.281      -108.3533      -19.86845      0.4900418
      3525.5000         0.4944        3956.25         0.2848      -108.5747      -20.08985      0.4840581
      3526.0000         0.4968        3931.59         0.2887      -108.6594      -20.17455      0.4817688
      3526.5000         0.4992       3903.633         0.2925      -108.7323      -20.24745      0.4797986
      3527.0000         0.4948       3837.551         0.2963      -108.8054      -20.32055       0.477823
      3527.5000         0.4831       3790.695         0.2891      -108.4342      -19.94935      0.4878554
      3528.0000         0.4715        3755.32         0.2804      -107.9186      -19.43375      0.5017904
      3528.5000         0.4602        3727.09         0.2717      -107.4028      -18.91795       0.515731
      3529.0000         0.4492       3776.438          0.263      -106.8873      -18.40245      0.5296635
      3529.5000         0.4381       3893.367         0.2542        -105.27      -16.78515      0.5733744
      3530.0000         0.4271       3940.352         0.2504      -102.4252      -13.94035      0.6502607
      3530.5000         0.4113       4021.945         0.2471      -104.6362      -16.15135       0.590504
      3531.0000         0.3943       4055.043         0.2439      -106.9026      -18.41776      0.5292498
      3531.5000         0.4036       4477.156         0.2406      -109.1689      -20.68405      0.4679986
      3532.0000         0.4151        4780.68         0.2373      -110.6099      -22.12505      0.4290526
      3532.5000         0.4263        4786.25          0.234       -110.205      -21.72015      0.4399959
      3533.0000         0.4295       4771.234         0.2307      -109.4817      -20.99685      0.4595446
      3533.5000         0.4326       4720.578         0.2321      -108.2698      -19.78495      0.4922986
      3534.0000         0.4358       4666.703          0.235      -106.9919      -18.50705      0.5268365
      3534.5000         0.4389       4612.828         0.2379      -105.7141      -17.22926      0.5613714
      3535.0000          0.442       4538.375         0.2407      -104.4363      -15.95145      0.5959066
      3535.5000          0.445       3991.625         0.2436      -103.3433      -14.85845      0.6254473
      3536.0000         0.4496       3972.961         0.2465       -102.527      -14.04215      0.6475094
      3536.5000         0.4635       3938.063         0.2494      -101.7112      -13.22635      0.6695582
      3537.0000         0.4821        3867.59         0.2523      -100.9552      -12.47035      0.6899905
      3537.5000         0.5292       3902.848         0.2551      -100.9962      -12.51135      0.6888824
      3538.0000         0.5424        3952.57         0.2579      -101.0374      -12.55255      0.6877689
      3538.5000          0.548       4188.172         0.2595      -101.0756      -12.59075      0.6867365
      3539.0000         0.5518       4244.234          0.261      -101.1072      -12.62235      0.6858824
      3539.5000         0.5556       4287.438         0.2626      -100.3569      -11.87206      0.7061607
      3540.0000         0.5605       4301.617         0.2642        -98.882      -10.39716      0.7460228
      3540.5000         0.5771        4237.07         0.2657        -97.407       -8.92215      0.7858878
      3541.0000         0.6019       3993.652         0.2974         -95.37      -6.885155      0.8409418
      3541.5000         0.6333       2471.055         0.3312       -93.3901      -4.905251      0.8944527
      3542.0000         0.6445         2481.5         0.3649       -92.5135      -4.028648      0.9181446
      3542.5000         0.6498        2626.18         0.3919       -92.9569      -4.472054      0.9061607
      3543.0000         0.6456       3168.859         0.4189       -93.4003      -4.915451       0.894177
      3543.5000         0.6347       3331.105         0.4215       -93.8436      -5.358749      0.8821959
      3544.0000         0.6114       3427.805         0.4116        -94.287      -5.802155       0.870212
      3544.5000         0.5766       3684.664         0.4017       -93.8901      -5.405251      0.8809392
      3545.0000         0.5275       4041.879         0.3917       -93.4091      -4.924255       0.893939
      3545.5000         0.4676       4360.352         0.3751       -92.1943      -3.779404       0.924881
      3546.0000         0.4324       4439.484         0.3554       -90.9349      -2.869965      0.9494604
      3546.5000         0.4198       3592.691         0.3356       -89.6747      -1.959717      0.9740617
      3547.0000         0.4199       3542.125         0.3158       -88.4968      -1.131775      0.9964385
      3547.5000         0.4216       3497.707         0.3078       -87.5732     -0.5581284              1
      3548.0000         0.4252       3465.195         0.3122         -86.65     0.01511383              1
      3548.5000         0.4305       3437.238         0.3166       -85.7269      0.5882645              1
      3549.0000         0.4359       3409.293         0.3209       -84.6343       1.330902              1
      3549.5000         0.4412       3386.223         0.3253       -83.5251       2.090149              1
      3550.0000         0.4446       3434.523         0.3345        -82.309       2.956291              1
      3550.5000         0.4411        3525.75          0.344       -81.0146       3.900734              1
      3551.0000          0.434       3624.543         0.3534        -79.868       4.697388              1
      3551.5000         0.4221       4318.938         0.3629       -79.0348       5.180626              1
      3552.0000         0.4102         4391.5         0.3724       -80.0348       3.830673              1
      3552.5000          0.406       4458.938         0.3819       -81.0353       2.480217              1
      3553.0000         0.4149       4439.023         0.3914        -82.022       1.143555              1
      3553.5000         0.4254        4410.75         0.4008       -82.7889     0.02670288              1
      3554.0000         0.4412       3984.668         0.4103       -83.5555      -1.089851      0.9975716
      3554.5000         0.4569       3879.359         0.4198        -84.322      -2.206306      0.9673971
      3555.0000         0.4748       2844.563         0.4297       -85.0383       -3.27256      0.9385794
      3555.5000         0.5024        2765.68         0.4399       -85.0367      -3.620918      0.9291644
      3556.0000         0.5474       2673.855         0.4501       -85.0353       -3.83252      0.9234454
      3556.5000         0.5859       2455.969         0.4603       -85.0338      -3.853355      0.9228823
      3557.0000         0.6104       2260.676         0.4706       -85.0994      -3.941299      0.9205054
      3557.5000         0.6252       2120.066         0.4808       -85.2301       -4.09433      0.9163694
