#------------------------------------------------------------------------------
# Created by    : vladimir.rabinovich
# Created on    : 09/19/2023 17:19:40
#------------------------------------------------------------------------------
~Version Information Section
VERS.           2.0     :   CWLS log ASCII Standard - VERSION 2.0
WRAP.           NO      :   One line per depth step
~Well Information Section
#MNEM       .UNIT                                         VALUE :DESCRIPTION
#------------------------------------------------------------------------------
STRT        .FT                                             305 :START DEPTH
STOP        .FT                                          9892.5 :STOP DEPTH
STEP        .FT                                             0.5 :STEP      
NULL        .                                           -999.25 :NULL      
COMP        .                         ATLANTIC RICHFIELD CO THE :COMPANY   
WELL        .                               OCS G07247 ST00BP00 :WELL      
FLD         .                                           WILDCAT :FIELD     
LOC         .                                                   :LOCATION  
CNTY        .                             GALVESTON LARGE BLOCK :LOCATION  
STAT        .                                             TEXAS :STATE     
CTRY        .                                     UNITED STATES :COUNTRY   
SRVC        .                                                   :SERVICE COMPANY
DATE        .                             9/13/2023 11:19:27 AM :LOG DATE  
API         .                                    42706401220000 :API NUMBER
UWI         .                                    42706401220000 :UNIQUE WELL ID
XCOORD      .                                  995038.545578968 :SURFACE X 
YCOORD      .                                  10445559.0196594 :SURFACE Y 
LAT         .                                         28.768363 :LATITUDE  
LON         .                                        -95.014888 :LONGITUDE 
ELEV        .FT                                              98 :ELEVATION VALUE
ELEV_TYPE   .                                                KB :ELEVATION REFERENCE TYPE
~Curve Information Section
#MNEM       .UNIT                                      API CODE :CURVE DESCRIPTION
#------------------------------------------------------------------------------
DEPT        .FT                                                 :DEPTH     
ALL         .OHMM                                               :          
CILD        .MMHO                                               :          
GR          .GAPI                                               :          
GR_NORM     .GAPI                                               :GammaRay Normalized
ILD         .OHMM                                               :          
SP          .MV                                                 :          
VSH_GR      .V/V                                                :Volume of Shale from GR
~A        DEPTH            ALL           CILD             GR        GR_NORM            ILD             SP         VSH_GR
# ...
      5430.5000         0.7667        1349.75        42.6049       54.02492         0.7395        85.4197      0.4473387
      5431.0000         0.7684       1318.742        41.7349       51.97967         0.7501        84.9376      0.4038227
      5431.5000         0.7701       1288.236        43.0888       55.16247         0.7559        84.0862      0.4715419
      5432.0000         0.7718       1277.441         43.881       57.02484         0.7611        81.5677      0.5111668
      5432.5000         0.7735       1268.557        44.5804       58.66903         0.7662        83.0485      0.5461495
      5433.0000         0.7767       1260.709        45.2797       60.31296         0.7714        85.6478      0.5811267
      5433.5000         0.7801       1255.121         45.979       61.95692         0.7765        87.0548      0.6161046
      5434.0000         0.7834       1249.525        46.6331       63.49459         0.7817        88.4619      0.6488212
      5434.5000         0.7868        1243.93        46.8717       64.05551         0.7869         88.325      0.6607556
      5435.0000          0.792        1238.34        47.0883       64.56471          0.792        86.9836      0.6715896
      5435.5000          0.801        1228.82        47.1786       64.77699         0.7972        85.1638      0.6761061
      5436.0000         0.8101       1218.912        47.2691       64.98975         0.8002        83.3441      0.6806331
      5436.5000         0.8192       1208.896        47.0622       64.50334         0.8019        81.9177      0.6702839
      5437.0000         0.8255       1198.018        46.8509       64.00661         0.8037        80.5239      0.6597151
      5437.5000         0.8309       1187.127        46.6397       63.51011         0.8054        79.3965      0.6491513
      5438.0000         0.8364       1176.248        46.4284       63.01337         0.8072        79.0242      0.6385824
      5438.5000         0.8338       1167.195         46.129       62.30954          0.809        78.6516      0.6236073
      5439.0000         0.8261       1158.826        45.8282       61.60241         0.8107        78.4163      0.6085619
      5439.5000          0.802       1150.463         45.238       60.21492         0.8125        79.0988      0.5790408
      5440.0000         0.7778       1142.094        43.8569       56.96817         0.8143        79.7817      0.5099611
      5440.5000         0.7679       1134.451        42.7292       54.31712          0.816        81.1031      0.4535557
      5441.0000         0.7811       1131.488        41.0168       50.29154         0.8177        83.8448      0.3679051
      5441.5000          0.802       1128.525         39.293       46.23915         0.8195        86.4587      0.2816841
      5442.0000          0.823       1134.982        39.2308       46.09291         0.8212        88.4572      0.2785726
      5442.5000         0.8439       1150.008         40.303       48.61349         0.8229        90.4554       0.332202
      5443.0000         0.8521       1170.268        41.1671       50.64487         0.8246        92.3344      0.3754228
      5443.5000         0.8366       1203.863        42.0311         52.676         0.8263        94.1505      0.4186383
      5444.0000         0.8193       1237.436        43.8431       56.93573         0.8281        93.6703      0.5092709
      5444.5000         0.8095       1273.955        46.2155       62.51289         0.8238        91.5367      0.6279337
      5445.0000         0.8012       1312.439        45.0197       59.70176         0.8144        89.4032      0.5681224
      5445.5000         0.7928       1334.533        44.0446       57.40945         0.8051        87.2697      0.5193499
      5446.0000         0.7845        1350.24        43.3417       55.75703         0.7692        85.2157      0.4841922
      5446.5000         0.7761       1364.438         42.156        52.9696         0.7231        83.1787      0.4248852
      5447.0000         0.7772       1376.982        40.8515       49.90295          0.677        82.4957      0.3596372
      5447.5000         0.7863       1389.527        39.5458       46.83342         0.6222        87.5206       0.294328
      5448.0000          0.796       1402.072        38.6776       44.79243         0.5627         93.453      0.2509028
      5448.5000         0.8089       1438.482        38.0911       43.41365         0.5034        99.3855       0.221567
      5449.0000         0.8218       1480.369        36.8004       40.37941         0.4541       111.2117      0.1570087
      5449.5000         0.8177       1708.016        35.3029       36.85903         0.4221       119.1086     0.08210698
      5450.0000         0.8024       2005.152        34.4045       34.74701         0.3901       122.3464     0.03717049
      5450.5000         0.7585       2302.289        34.4056       34.74961         0.3581       123.2627     0.03722568
      5451.0000         0.7131       2646.203        34.4068       34.75242         0.3431       123.4696     0.03728558
      5451.5000         0.6773       2902.891         34.408       34.75525         0.3299       123.6764     0.03734564
      5452.0000          0.688        2941.23        34.4091       34.75783         0.3167       124.6453     0.03740067
      5452.5000         0.7376       2971.566         34.621       35.25597         0.3118       127.3484     0.04799944
      5453.0000         0.7869       2992.031        35.0832       36.34254         0.3162       131.6638      0.0711178
      5453.5000         0.8213       3012.496        35.5822        37.5156         0.3206        134.835     0.09607664
      5454.0000         0.8513       3032.984        36.1138       38.76532         0.3251       137.1467      0.1226664
      5454.5000         0.8765       3046.258        36.8788       40.56372         0.3344       137.8628      0.1609301
      5455.0000         0.9071       3053.809        37.9734       43.13697         0.3445       137.4392      0.2156801
      5455.5000         0.9174       3061.355        39.0788        45.7356         0.3547       131.9775      0.2709701
      5456.0000         0.8702       2755.473        40.2047       48.38242         0.3649       124.0468      0.3272855
      5456.5000         0.8318        2651.57        41.2974       50.95118         0.3744       118.8179      0.3819399
      5457.0000         0.8052       2552.363        42.1868       53.04204         0.3819       117.0753      0.4264264
      5457.5000         0.7949       2504.055        43.0762       55.13286         0.3894       115.3328      0.4709119
      5458.0000          0.789       2458.934        43.4496       56.01068          0.397       113.7325      0.4895889
      5458.5000         0.7831       2424.379        43.7489        56.7143         0.4045       112.7418      0.5045595
      5459.0000         0.7839       2390.305        42.7992       54.48169         0.4118       111.7511      0.4570571
      5459.5000         0.7891       2364.688        42.2018       53.07729           0.41       111.2805      0.4271764
      5460.0000         0.7948       2410.887        41.9371       52.45501         0.4079       111.0425      0.4139365
      5460.5000         0.8006       2526.484        41.8091       52.15411          0.379       112.3231      0.4075342
      5461.0000         0.8064       2614.332         38.053       43.32409         0.3501       123.0765      0.2196615
      5461.5000         0.8045       2758.156        41.4319       51.26738         0.3279       128.2366      0.3886677
      5462.0000         0.7981       3015.609        44.1037       57.54838         0.3166       128.0193      0.5223059
      5462.5000         0.7916       3153.063        44.6691       58.87754         0.3054       115.9952       0.550586
      5463.0000         0.7851       2976.313        45.1992       60.12372         0.2942       111.8054      0.5771004
      5463.5000         0.7726       2778.477        45.4535       60.72154         0.2914       108.6726        0.58982
