#------------------------------------------------------------------------------
# Created by    : vladimir.rabinovich
# Created on    : 09/19/2023 17:22:54
#------------------------------------------------------------------------------
~Version Information Section
VERS.           2.0     :   CWLS log ASCII Standard - VERSION 2.0
WRAP.           NO      :   One line per depth step
~Well Information Section
#MNEM       .UNIT                                         VALUE :DESCRIPTION
#------------------------------------------------------------------------------
STRT        .FT                                            1705 :START DEPTH
STOP        .FT                                           10298 :STOP DEPTH
STEP        .FT                                             0.5 :STEP      
NULL        .                                           -999.25 :NULL      
COMP        .                            STANOLIND OIL & GAS CO :COMPANY   
WELL        .                                       ST TR 00219 :WELL      
FLD         .                                           WILDCAT :FIELD     
LOC         .                                                   :LOCATION  
CNTY        .                             GALVESTON LARGE BLOCK :LOCATION  
STAT        .                                             TEXAS :STATE     
CTRY        .                                     UNITED STATES :COUNTRY   
SRVC        .                                                   :SERVICE COMPANY
DATE        .                             9/13/2023 11:19:42 AM :LOG DATE  
API         .                                    42706000170000 :API NUMBER
UWI         .                                    42706000170000 :UNIQUE WELL ID
XCOORD      .                                  1024804.26554262 :SURFACE X 
YCOORD      .                                  10549089.4715911 :SURFACE Y 
LAT         .                                        29.0543948 :LATITUDE  
LON         .                                       -94.9272588 :LONGITUDE 
ELEV        .FT                                              60 :ELEVATION VALUE
ELEV_TYPE   .                                                GL :ELEVATION REFERENCE TYPE
~Curve Information Section
#MNEM       .UNIT                                      API CODE :CURVE DESCRIPTION
#------------------------------------------------------------------------------
DEPT        .FT                                                 :DEPTH     
LAT         .OHMM                                               :          
LN          .OHMM                                               :          
SN          .OHMM                                               :          
SP          .MV                                                 :          
SP_NORM     .MV                                                 :SP Normalized
VSH_SP      .V/V                                                :Volume of Shale from SP
~A        DEPTH            LAT             LN             SN             SP        SP_NORM         VSH_SP
# ...
      3985.0000         0.4262         0.3865         0.7554       -86.6407        1.63755              1
      3985.5000          0.427         0.4165         0.7571        -87.374      0.8995056              1
      3986.0000         0.4204         0.4465         0.7685       -88.0474      0.2213669              1
      3986.5000         0.4137         0.4764         0.7799       -88.7659     -0.5018768              1
      3987.0000         0.4071         0.4957         0.7913       -90.5333      -2.274017      0.9959703
      3987.5000         0.4005         0.5117         0.8027       -92.3009      -4.046356      0.9699065
      3988.0000         0.3938         0.5278         0.8251       -94.2292      -5.979401      0.9414794
      3988.5000         0.3872         0.5398         0.8508       -96.6228      -8.377739      0.9062097
      3989.0000         0.3876         0.5322         0.8764       -98.6647      -10.42439       0.876112
      3989.5000          0.389         0.5246         0.9027       -99.5797      -11.34412      0.8625865
      3990.0000         0.3903          0.517         0.9299        -99.249      -11.01817      0.8673799
      3990.5000         0.3917         0.5091         0.9572       -98.2045      -9.978401      0.8826706
      3991.0000         0.3932         0.4996         0.9844       -97.1599      -8.938545      0.8979626
      3991.5000         0.3982         0.4902         0.9928       -97.0099      -8.793289      0.9000987
      3992.0000         0.4033         0.4808         0.9699       -97.0143      -8.802422      0.8999644
      3992.5000         0.4083         0.4681         0.9471       -96.7297      -8.522568      0.9040799
      3993.0000         0.4133         0.4408         0.9153       -96.2947      -8.092308      0.9104072
      3993.5000         0.4184         0.4135          0.881       -96.3135      -8.115852       0.910061
      3994.0000         0.4246         0.3862         0.8466       -96.5615      -8.368591      0.9063442
      3994.5000         0.4325         0.3636         0.8123       -98.1259      -9.937737      0.8832686
      3995.0000         0.4405         0.3484          0.778      -101.2412      -13.05778      0.8373857
      3995.5000         0.4484         0.3332         0.7422      -105.9509      -17.77221      0.7680557
      3996.0000         0.4528          0.318         0.6997      -113.2172      -25.04326      0.6611285
      3996.5000         0.4562         0.3028         0.6573      -121.6694       -33.5002      0.5367618
      3997.0000         0.4454         0.2876         0.6148      -128.6802      -40.51575       0.433592
      3997.5000         0.4306         0.2837         0.5699      -133.8481      -45.68838      0.3575239
      3998.0000         0.3987         0.2799         0.5146      -138.3755      -50.22053      0.2908746
      3998.5000         0.3618         0.2761         0.5181      -143.2539      -55.10367      0.2190637
      3999.0000         0.3293         0.2723         0.5221      -148.0227       -59.8772      0.1488646
      3999.5000         0.3184         0.2685         0.5261       -152.249      -64.10824     0.08664355
      4000.0000         0.3074         0.2647         0.5301      -155.5581      -67.42209     0.03791046
      4000.5000         0.2965         0.2712         0.5341      -155.7825      -67.65123     0.03454074
      4001.0000         0.2855         0.2806         0.5381      -155.4661      -67.33956      0.0391241
      4001.5000         0.2746           0.29          0.542      -155.1497      -67.02792     0.04370712
      4002.0000         0.2773         0.2994          0.546      -154.8689      -66.75185     0.04776696
      4002.5000         0.2845         0.3077           0.55      -154.6086      -66.49629     0.05152512
      4003.0000         0.2918         0.3077          0.554      -153.2888      -65.18124     0.07086417
      4003.5000          0.299         0.3076          0.555      -149.3113      -61.20847      0.1292873
      4004.0000         0.3124         0.3076         0.5486       -145.124      -57.02591      0.1907955
      4004.5000         0.3283         0.3074         0.5422      -141.1238      -53.03045      0.2495522
      4005.0000         0.3443         0.3048         0.5357      -137.1096        -49.021      0.3085147
      4005.5000         0.3602         0.3023         0.5245      -132.6577      -44.57384      0.3739142
      4006.0000         0.3762         0.2998         0.5124      -128.2058      -40.12668      0.4393136
      4006.5000         0.3966         0.2972         0.5147      -124.7073      -36.63292      0.4906924
      4007.0000         0.4194         0.2947         0.5371      -121.3159      -33.24626      0.5404962
      4007.5000         0.4423         0.2895         0.5594      -118.4969      -30.43201      0.5818822
      4008.0000         0.4651         0.2739         0.5818      -116.0532      -27.99304      0.6177494
      4008.5000         0.4879         0.2583         0.5964      -113.8489      -25.79349      0.6500958
      4009.0000         0.5088         0.2428         0.5709      -111.4382      -23.38753      0.6854776
      4009.5000         0.5208         0.2272         0.5455      -108.8564      -20.81047      0.7233754
      4010.0000         0.5329         0.2116         0.5201      -106.2383      -18.19711      0.7618073
      4010.5000         0.5421         0.2025         0.4958      -110.2477      -22.21125      0.7027757
      4011.0000         0.5348         0.1987         0.4801      -131.0659      -43.03419       0.396556
      4011.5000         0.5244          0.195         0.4643      -136.2385      -48.21152      0.3204187
      4012.0000         0.4932         0.1912         0.4486      -140.6492      -52.62698      0.2554857
      4012.5000         0.4559         0.1875         0.4329       -144.271      -56.25351      0.2021543
      4013.0000         0.4161         0.1837         0.4171      -146.8186      -58.80586      0.1646197
      4013.5000         0.3764           0.18         0.4021       -149.373        -61.365      0.1269853
      4014.0000         0.3366         0.1762         0.4006      -150.2161      -62.21284      0.1145171
      4014.5000         0.3032         0.1761          0.399      -149.9241      -61.92558      0.1187414
      4015.0000         0.2868         0.1779         0.3975      -149.6323      -61.63851      0.1229631
      4015.5000         0.2704         0.1797         0.3959      -149.3403      -61.35126      0.1271873
      4016.0000          0.254         0.1815         0.3943      -149.0483        -61.064      0.1314118
      4016.5000         0.2421         0.1834         0.3926      -148.7563      -60.77675       0.135636
      4017.0000         0.2451         0.1852         0.3908      -148.8721      -60.89729      0.1338634
      4017.5000         0.2482          0.187         0.3891      -149.1951      -61.22503      0.1290437
      4018.0000         0.2512         0.1888         0.3873      -149.8953      -61.92996       0.118677
      4018.5000         0.2543         0.1888         0.4027      -150.6633      -62.70271      0.1073132
      4019.0000         0.2574         0.1881         0.4191      -151.4312      -63.47535     0.09595075
      4019.5000         0.2604         0.1874         0.4418      -152.2466      -64.29549      0.0838899
      4020.0000         0.2635         0.1867         0.4671      -153.2175      -65.27113     0.06954215
      4020.5000         0.2665         0.1861          0.475      -154.1892      -66.24757     0.05518285
      4021.0000         0.2696         0.1854         0.4749      -155.1609      -67.22402     0.04082321
      4021.5000         0.2726         0.1847         0.4626      -155.0107      -67.07855     0.04296247
      4022.0000         0.2757         0.1841         0.4358      -154.1692       -66.2418     0.05526767
      4022.5000         0.2788         0.1834          0.409      -153.3271      -65.40444     0.06758174
