#------------------------------------------------------------------------------
# Created by    : vladimir.rabinovich
# Created on    : 09/19/2023 17:22:54
#------------------------------------------------------------------------------
~Version Information Section
VERS.           2.0     :   CWLS log ASCII Standard - VERSION 2.0
WRAP.           NO      :   One line per depth step
~Well Information Section
#MNEM       .UNIT                                         VALUE :DESCRIPTION
#------------------------------------------------------------------------------
STRT        .FT                                             606 :START DEPTH
STOP        .FT                                           12703 :STOP DEPTH
STEP        .FT                                             0.5 :STEP      
NULL        .                                           -999.25 :NULL      
COMP        .                                       PURE OIL CO :COMPANY   
WELL        .                                OCS 00099 ST00BP00 :WELL      
FLD         .                                           WILDCAT :FIELD     
LOC         .                                                   :LOCATION  
CNTY        .                             GALVESTON LARGE BLOCK :LOCATION  
STAT        .                                             TEXAS :STATE     
CTRY        .                                     UNITED STATES :COUNTRY   
SRVC        .                                                   :SERVICE COMPANY
DATE        .                             9/13/2023 11:19:42 AM :LOG DATE  
API         .                                    42706000130000 :API NUMBER
UWI         .                                    42706000130000 :UNIQUE WELL ID
XCOORD      .                                  1105531.03723184 :SURFACE X 
YCOORD      .                                  10576678.2721464 :SURFACE Y 
LAT         .                                         29.133654 :LATITUDE  
LON         .                                        -94.675857 :LONGITUDE 
ELEV        .FT                                              66 :ELEVATION VALUE
ELEV_TYPE   .                                                KB :ELEVATION REFERENCE TYPE
~Curve Information Section
#MNEM       .UNIT                                      API CODE :CURVE DESCRIPTION
#------------------------------------------------------------------------------
DEPT        .FT                                                 :DEPTH     
LAT         .OHMM                                               :          
LN          .OHMM                                               :          
SN          .OHMM                                               :          
SP          .MV                                                 :          
SP_NORM     .MV                                                 :SP Normalized
VSH_SP      .V/V                                                :Volume of Shale from SP
~A        DEPTH            LAT             LN             SN             SP        SP_NORM         VSH_SP
# ...
      6230.0000         0.5937         0.7234          0.539       -49.7519     -0.6995964              1
      6230.5000         0.5769         0.7522         0.5566       -49.6834     -0.6303139              1
      6231.0000         0.5601         0.7786           0.59       -49.6149     -0.5610275              1
      6231.5000         0.5433         0.8051         0.6234       -49.5465      -0.491848              1
      6232.0000         0.5489         0.8411         0.6567        -49.478     -0.4225616              1
      6232.5000         0.5799         0.8892         0.6955       -49.4095     -0.3532791              1
      6233.0000          0.611         0.9372         0.7514       -49.3411     -0.2840958              1
      6233.5000          0.642         0.9907         0.8072       -49.2726     -0.2148094              1
      6234.0000         0.6755         1.0452         0.8632       -49.2042     -0.1456299              1
      6234.5000         0.6952         1.0996          0.919        -49.212     -0.1526451              1
      6235.0000         0.6673         1.1541         0.9912       -49.4229     -0.3627625              1
      6235.5000         0.6393         1.2085         1.0724       -49.6335     -0.5725746              1
      6236.0000         0.6114         1.2652         1.1536       -49.8442     -0.7824936              1
      6236.5000         0.5835         1.3243         1.2347       -50.0547     -0.9922104              1
      6237.0000          0.569         1.3835         1.3046       -50.2654      -1.202126      0.9948173
      6237.5000         0.5619         1.4427         1.3728       -50.4763      -1.412243      0.9894297
      6238.0000         0.5547         1.5037         1.4403       -50.6869      -1.622059      0.9840498
      6238.5000         0.5475         1.5649         1.4996       -51.1132      -2.047577       0.973139
      6239.0000         0.5403         1.6262          1.559       -51.8118      -2.745388      0.9552464
      6239.5000         0.5518         1.6638         1.6297       -52.5106      -3.443409      0.9373485
      6240.0000         0.5669         1.6451         1.6907       -53.2092      -4.141228      0.9194557
      6240.5000          0.582         1.6264         1.6475       -53.9085      -4.839741      0.9015451
      6241.0000         0.5971         1.6078         1.5629       -54.6072      -5.537659      0.8836498
      6241.5000         0.6122         1.5768         1.4784        -55.492      -6.421673      0.8609828
      6242.0000         0.6273         1.5332          1.394        -56.671      -7.599892       0.830772
      6242.5000         0.6424         1.4896         1.3423         -57.85      -8.778103      0.8005615
      6243.0000         0.6575         1.4459         1.2921       -58.7894      -9.716721      0.7764943
      6243.5000         0.6722         1.4023          1.235       -58.2706       -9.19714      0.7898169
      6244.0000         0.6698         1.3587         1.1778       -57.7519      -8.677654      0.8031371
      6244.5000         0.6674         1.3151         1.1206       -57.2332      -8.158173      0.8164571
      6245.0000          0.665         1.2737         1.0596       -56.7144      -7.638588      0.8297798
      6245.5000         0.6626          1.262         0.9877       -56.1957      -7.119106      0.8430998
      6246.0000         0.6602         1.2503         0.9169       -55.6062       -6.52882      0.8582354
      6246.5000         0.6579         1.2387         0.8489       -54.9615      -5.883335      0.8747863
      6247.0000         0.6555          1.227          0.781       -54.3169      -5.237953      0.8913345
      6247.5000         0.6531         1.2188         0.7131       -53.6722      -4.592468      0.9078854
      6248.0000         0.6534         1.2202         0.6685        -53.027      -3.946487       0.924449
      6248.5000         0.6538         1.2216         0.6387       -52.3824      -3.301102      0.9409974
      6249.0000         0.6541         1.2229         0.6557       -51.7377      -2.655621      0.9575482
      6249.5000         0.6544         1.2243         0.6728       -51.2722      -2.189335      0.9695042
      6250.0000         0.6547         1.2257         0.6898       -51.0861      -2.002453      0.9742961
      6250.5000         0.6551          1.227         0.7069          -50.9      -1.815571      0.9790879
      6251.0000         0.6756         1.2284          0.724       -50.7139      -1.628685      0.9838799
      6251.5000         0.7013         1.2156          0.741       -50.5278      -1.441803      0.9886717
      6252.0000          0.727         1.1867          0.758        -50.598      -1.511215      0.9868919
      6252.5000         0.7528         1.1578         0.7734       -50.8468      -1.759235      0.9805324
      6253.0000         0.7785         1.1289         0.7888       -51.0953      -2.006947      0.9741809
      6253.5000         0.8294         1.0931         0.8042       -51.3438      -2.254665      0.9678291
      6254.0000         0.9212         1.0377         0.8197       -51.5923      -2.502384      0.9614773
      6254.5000          1.013         0.9824         0.8351       -51.8408      -2.750099      0.9551257
      6255.0000         1.5465          0.927         0.8505       -52.0893      -2.997814       0.948774
      6255.5000         2.1407         0.8716         0.8641       -52.4147       -3.32243      0.9404505
      6256.0000         2.9718         0.8397          0.872       -52.8794      -3.786346      0.9285552
      6256.5000         3.6782         0.8376         0.8799       -53.3435       -4.24966      0.9166754
      6257.0000         3.7713         0.8354         0.8878       -53.8082      -4.713581        0.90478
      6257.5000         3.5103         0.8654         0.8957       -54.2723      -5.176899         0.8929
      6258.0000         2.9872         0.9134         0.9037        -54.296      -5.199814      0.8923125
      6258.5000         2.1343         0.9614         0.9116       -53.9199      -4.822929      0.9019762
      6259.0000         1.7138         1.0093          0.932       -53.5433      -4.445545      0.9116527
      6259.5000         1.4343         1.0573          0.968       -53.1666      -4.068062      0.9213318
      6260.0000          1.215         1.1052          1.004         -52.79      -3.690678      0.9310083
      6260.5000         1.1047         1.1532           1.04       -52.4133      -3.313194      0.9406873
      6261.0000         0.9944         1.2011         1.0759       -52.1417      -3.040813      0.9476715
      6261.5000          0.912         1.2491         1.1119        -52.079      -2.977325      0.9492993
      6262.0000         0.8818         1.2822         1.1479       -52.0164      -2.913944      0.9509245
      6262.5000         0.8516         1.2984         1.1839       -52.5501      -3.446857      0.9372601
      6263.0000         0.8306         1.3147          1.218       -53.3023      -4.198277      0.9179929
      6263.5000         0.8129          1.331         1.2257       -54.0556      -4.950794      0.8986976
      6264.0000         0.7952         1.3472         1.2334       -54.8078      -5.702209      0.8794305
      6264.5000         0.7848         1.3402         1.2411       -55.5611      -6.454727      0.8601352
      6265.0000         0.7808         1.3297         1.2462       -56.3144      -7.207241        0.84084
      6265.5000         0.7768         1.3193          1.213       -57.0666       -7.95866      0.8215728
      6266.0000         0.7728         1.3088         1.1797       -57.8199      -8.711174      0.8022776
      6266.5000         0.7688         1.2983         1.1465       -58.7404       -9.63089      0.7786951
      6267.0000         0.7758         1.2879         1.1132       -59.6898      -10.57951      0.7543715
      6267.5000         0.7927         1.2774           1.08       -60.6381      -11.52702      0.7300763
