#------------------------------------------------------------------------------
# Created by    : vladimir.rabinovich
# Created on    : 09/19/2023 17:20:37
#------------------------------------------------------------------------------
~Version Information Section
VERS.           2.0     :   CWLS log ASCII Standard - VERSION 2.0
WRAP.           NO      :   One line per depth step
~Well Information Section
#MNEM       .UNIT                                         VALUE :DESCRIPTION
#------------------------------------------------------------------------------
STRT        .FT                                             495 :START DEPTH
STOP        .FT                                            7007 :STOP DEPTH
STEP        .FT                                             0.5 :STEP      
NULL        .                                           -999.25 :NULL      
COMP        .                                      SHELL OIL CO :COMPANY   
WELL        .                                OCS 00718 ST00BP00 :WELL      
FLD         .                                           WILDCAT :FIELD     
LOC         .                                                   :LOCATION  
CNTY        .                             GALVESTON LARGE BLOCK :LOCATION  
STAT        .                                             TEXAS :STATE     
CTRY        .                                     UNITED STATES :COUNTRY   
SRVC        .                                                   :SERVICE COMPANY
DATE        .                             9/13/2023 11:19:25 AM :LOG DATE  
API         .                                    42706000330000 :API NUMBER
UWI         .                                    42706000330000 :UNIQUE WELL ID
XCOORD      .                                  1012682.17104467 :SURFACE X 
YCOORD      .                                  10442833.5651685 :SURFACE Y 
LAT         .                                         28.761679 :LATITUDE  
LON         .                                        -94.959691 :LONGITUDE 
ELEV        .FT                                              75 :ELEVATION VALUE
ELEV_TYPE   .                                                KB :ELEVATION REFERENCE TYPE
~Curve Information Section
#MNEM       .UNIT                                      API CODE :CURVE DESCRIPTION
#------------------------------------------------------------------------------
DEPT        .FT                                                 :DEPTH     
ASN         .OHMM                                               :          
CILD        .MMHO                                               :          
DT          .US/F                                               :          
ILD         .OHMM                                               :          
LAT         .OHMM                                               :          
LN          .OHMM                                               :          
SP          .MV                                                 :          
SP_NORM     .MV                                                 :SP Normalized
VSH_SP      .V/V                                                :Volume of Shale from SP
~A        DEPTH            ASN           CILD             DT            ILD            LAT             LN             SP        SP_NORM         VSH_SP
# ...
      2668.0000         0.8739        -999.25        -999.25        -999.25         1.0937         0.9325       -60.1262       1.324068              1
      2668.5000         0.8827        -999.25        -999.25        -999.25         1.0844         0.9465       -59.9923       1.539451              1
      2669.0000         0.8901        -999.25        -999.25        -999.25         1.0862         0.9589       -60.1213       1.327964              1
      2669.5000         0.8954        -999.25        -999.25        -999.25         1.0895          0.955       -60.2897       1.052513              1
      2670.0000         0.8955        -999.25        -999.25        -999.25         1.0867         0.9406       -60.4028      0.8668414              1
      2670.5000         0.8853        -999.25        -999.25        -999.25         1.0862          0.922       -60.4166      0.8424069              1
      2671.0000         0.8783        -999.25        -999.25        -999.25         1.0846         0.9079       -60.2893       1.047069              1
      2671.5000         0.8828        -999.25        -999.25        -999.25         1.0753         0.9031       -60.0639       1.411011              1
      2672.0000         0.8921        -999.25        -999.25        -999.25         1.0639         0.9055       -59.7993         1.8386              1
      2672.5000         0.9044        -999.25        -999.25        -999.25         1.0492         0.9231       -59.5481       2.244437              1
      2673.0000         0.9168        -999.25        -999.25        -999.25         1.0348         0.9449       -59.3775        2.51941              1
      2673.5000          0.928        -999.25        -999.25        -999.25          1.021         0.9646       -59.4802       2.350623              1
      2674.0000         0.9382        -999.25        -999.25        -999.25         1.0138         0.9824       -59.7853       1.853211              1
      2674.5000         0.9444        -999.25        -999.25        -999.25         1.0077         0.9874       -60.1838        1.20415              1
      2675.0000         0.9482        -999.25        -999.25        -999.25         1.0041         0.9905       -60.4861      0.7112841              1
      2675.5000         0.9494        -999.25        -999.25        -999.25         1.0035         0.9893       -60.5984      0.5269131              1
      2676.0000         0.9472        -999.25        -999.25        -999.25         1.0071         0.9872        -60.506      0.6749141              1
      2676.5000         0.9428        -999.25        -999.25        -999.25         1.0184         0.9815       -60.3804      0.8768135              1
      2677.0000         0.9365        -999.25        -999.25        -999.25          1.023         0.9806       -60.3409      0.9389188              1
      2677.5000         0.9289        -999.25        -999.25        -999.25         1.0369         0.9788       -60.3111      0.9852732              1
      2678.0000         0.9206        -999.25        -999.25        -999.25         1.0661         0.9738       -60.2402        1.09836              1
      2678.5000         0.9115        -999.25        -999.25        -999.25         1.1017         0.9647       -60.1571       1.231254              1
      2679.0000         0.9022        -999.25        -999.25        -999.25          1.106         0.9553       -60.4842      0.6981223              1
      2679.5000         0.8938        -999.25        -999.25        -999.25         1.0849         0.9461       -61.2252     -0.5070434      0.9898591
      2680.0000         0.8848        -999.25        -999.25        -999.25         1.0709         0.9354        -61.209     -0.4827699      0.9903446
      2680.5000         0.8717        -999.25        -999.25        -999.25         1.0854         0.9262       -60.9282    -0.02887551      0.9994225
      2681.0000         0.8624        -999.25        -999.25        -999.25         1.1053         0.9187       -60.6027      0.4975978              1
      2681.5000         0.8758        -999.25        -999.25        -999.25         1.1097         0.9173       -60.3621      0.8862219              1
      2682.0000         0.8764        -999.25        -999.25        -999.25         1.1004         0.9169       -60.3245      0.9452364              1
      2682.5000         0.8678        -999.25        -999.25        -999.25         1.0818         0.9174       -60.4061      0.8107194              1
      2683.0000         0.8688        -999.25        -999.25        -999.25         1.0758         0.9177       -60.6074       0.481847              1
      2683.5000         0.8715        -999.25        -999.25        -999.25         1.0703         0.9166       -61.0042     -0.1644579      0.9967108
      2684.0000         0.8737        -999.25        -999.25        -999.25         1.0603         0.8906       -61.9611      -1.720181      0.9655964
      2684.5000         0.8703        -999.25        -999.25        -999.25         1.0489         0.8968       -62.4212      -2.469259      0.9506148
      2685.0000         0.8648        -999.25        -999.25        -999.25         1.0399         0.9026       -62.4384      -2.499219      0.9500156
      2685.5000         0.8576        -999.25        -999.25        -999.25         1.0356         0.9038       -62.8453      -3.161918      0.9367616
      2686.0000         0.8511        -999.25        -999.25        -999.25         1.0433         0.9032       -63.2185      -3.769896      0.9246021
      2686.5000          0.844        -999.25        -999.25        -999.25         1.0528         0.9118       -63.2295       -3.78979      0.9242042
      2687.0000         0.8368        -999.25        -999.25        -999.25          1.054         0.9207       -63.1022      -3.585129      0.9282974
      2687.5000         0.8321        -999.25        -999.25        -999.25         1.0519         0.9271       -62.6805       -2.90246      0.9419508
      2688.0000          0.835        -999.25        -999.25        -999.25         1.0506          0.933       -62.1305      -2.011475      0.9597705
      2688.5000         0.8522        -999.25        -999.25        -999.25         1.0498         0.9363       -62.6283      -2.821767      0.9435647
      2689.0000         0.8721        -999.25        -999.25        -999.25          1.047         0.9356        -63.033      -3.480893      0.9303821
      2689.5000          0.897        -999.25        -999.25        -999.25         1.0346         0.9356       -63.1282      -3.637497        0.92725
      2690.0000         0.9251        -999.25        -999.25        -999.25         1.0175         0.9402       -62.9437      -3.339959      0.9332008
      2690.5000         0.9457        -999.25        -999.25        -999.25         1.0005         0.9514       -62.6726      -2.901816      0.9419637
      2691.0000         0.9604        -999.25        -999.25        -999.25         0.9939         0.9665       -62.3339      -2.353912      0.9529217
      2691.5000         0.9738        -999.25        -999.25        -999.25         1.0019         0.9859       -61.8751      -1.611002      0.9677799
      2692.0000         0.9889        -999.25        -999.25        -999.25         1.0112          0.998       -61.4201     -0.8742679      0.9825146
      2692.5000         1.0075        -999.25        -999.25        -999.25         1.0244         1.0124       -61.0179     -0.2232495       0.995535
      2693.0000         1.0199        -999.25        -999.25        -999.25         1.0439         1.0318       -60.7017      0.2881234              1
      2693.5000         1.0176        -999.25        -999.25        -999.25         1.0633         1.0461       -60.6494      0.3710089              1
      2694.0000         1.0119        -999.25        -999.25        -999.25         1.0817         1.0526       -61.0016     -0.2028781      0.9959424
