#------------------------------------------------------------------------------
# Created by    : vladimir.rabinovich
# Created on    : 09/19/2023 17:22:44
#------------------------------------------------------------------------------
~Version Information Section
VERS.           2.0     :   CWLS log ASCII Standard - VERSION 2.0
WRAP.           NO      :   One line per depth step
~Well Information Section
#MNEM       .UNIT                                         VALUE :DESCRIPTION
#------------------------------------------------------------------------------
STRT        .FT                                            3420 :START DEPTH
STOP        .FT                                           11707 :STOP DEPTH
STEP        .FT                                             0.5 :STEP      
NULL        .                                           -999.25 :NULL      
COMP        .                        TRI-UNION DEVELOPMENT CORP :COMPANY   
WELL        .                               OCS G08154 ST00BP00 :WELL      
FLD         .                                           WILDCAT :FIELD     
LOC         .                                                   :LOCATION  
CNTY        .                           HIGH ISLAND LARGE BLOCK :LOCATION  
STAT        .                                             TEXAS :STATE     
CTRY        .                                     UNITED STATES :COUNTRY   
SRVC        .                                                   :SERVICE COMPANY
DATE        .                             9/13/2023 11:19:57 AM :LOG DATE  
API         .                                    42708403520000 :API NUMBER
UWI         .                                    42708403520000 :UNIQUE WELL ID
XCOORD      .                                  1180527.91159004 :SURFACE X 
YCOORD      .                                  10524923.1623167 :SURFACE Y 
LAT         .                                        28.9940426 :LATITUDE  
LON         .                                       -94.4389714 :LONGITUDE 
ELEV        .FT                                             100 :ELEVATION VALUE
ELEV_TYPE   .                                                KB :ELEVATION REFERENCE TYPE
~Curve Information Section
#MNEM       .UNIT                                      API CODE :CURVE DESCRIPTION
#------------------------------------------------------------------------------
DEPT        .FT                                                 :DEPTH     
DCAL        .IN                                                 :          
DPHI        .%                                                  :          
DRHO        .G/C3                                               :          
GR          .GAPI                                               :          
GR_NORM     .GAPI                                               :GammaRay Normalized
ILD         .OHMM                                               :          
ILM         .OHMM                                               :          
NPHI        .%                                                  :          
SFL         .OHMM                                               :          
SP          .MV                                                 :          
SP_NORM     .MV                                                 :SP Normalized
VSH_GR      .V/V                                                :Volume of Shale from GR
VSH_SP      .V/V                                                :Volume of Shale from SP
~A        DEPTH           DCAL           DPHI           DRHO             GR        GR_NORM            ILD            ILM           NPHI            SFL             SP        SP_NORM         VSH_GR         VSH_SP
# ...
      6232.0000         1.1799         21.771        -0.0012        64.6261       64.18028          0.754         0.7427        36.7759         0.7268       -37.4751        -3.5128      0.6634102      0.9541576
      6232.5000         1.2068        21.8081         0.0019        65.0065       64.61211          0.758         0.7462        35.4813         0.7097       -37.0383         -3.076       0.672598      0.9673939
      6233.0000         1.2118        21.6988         0.0027        62.7966       62.10457         0.7637         0.7567        34.5308         0.6986        -36.845        -2.8827      0.6192461      0.9732515
      6233.5000         1.2042        21.8497         0.0011        60.5869       59.59727         0.7679         0.7674        34.2847         0.7107       -36.8375        -2.8752      0.5658994      0.9734788
      6234.0000         1.2586        22.5177        -0.0014        58.8721       57.65156           0.77         0.7765        34.9557         0.7494       -37.0975        -3.1352      0.5245012         0.9656
      6234.5000         1.3684        23.0986         -0.004        59.5905       58.46692         0.7738         0.7831        35.5317         0.7747       -37.6572        -3.6949      0.5418493      0.9486394
      6235.0000         1.4717        22.8184        -0.0047         60.441       59.43219         0.7762         0.7823        36.1078         0.7799       -38.3574        -4.3951       0.562387      0.9274212
      6235.5000         1.4967        21.8786        -0.0019        60.6555       59.67575         0.7725         0.7723        35.6949         0.7744       -39.2484        -5.2861      0.5675691      0.9004212
      6236.0000          1.456        20.9374        -0.0005        59.6416       58.52538         0.7626         0.7715         34.298         0.7572       -40.4593         -6.497      0.5430933      0.8637273
      6236.5000         1.3028        19.9954        -0.0004        57.5914       56.19908         0.7149         0.7712        33.4491          0.761       -41.7039        -7.7416      0.4935975      0.8260121
      6237.0000          1.142        19.4951        -0.0014        55.5388       53.87004         0.6627         0.7442        33.5646         0.7644       -43.3712        -9.4089      0.4440434      0.7754879
      6237.5000           0.95        21.0205        -0.0022        53.8203       51.92014          0.616            0.7        33.9852         0.7407       -45.9676       -12.0053      0.4025562      0.6968091
      6238.0000         0.7639        23.5592        -0.0025        52.5845       50.51796         0.5726          0.653        34.9268         0.7005       -48.9306       -14.9683      0.3727225      0.6070212
      6238.5000         0.6069        26.1008        -0.0013        51.5282       49.31948         0.5323         0.6003        35.3724         0.6615       -51.2402       -17.2779      0.3472229      0.5370333
      6239.0000          0.448        27.8474              0        53.0671       51.06591         0.4948         0.5607        34.7548         0.6246       -53.5497       -19.5874      0.3843811      0.4670485
      6239.5000         0.2859        26.6442         0.0012        56.6486       55.13019         0.4599         0.5311        34.3045         0.6013       -55.8618       -21.8995      0.4708551      0.3969848
      6240.0000         0.2548        24.9205         0.0013        59.5643       58.43894         0.4293         0.5095        34.1381         0.5999       -57.1718       -23.2095       0.541254      0.3572879
      6240.5000         0.3766        25.8202         0.0004        57.8209       56.46077         0.4148         0.4915        34.2063         0.6049       -57.4835       -23.5212      0.4991654      0.3478424
      6241.0000         0.4697        27.5706         -0.002        57.2709       55.83681         0.4005         0.4774        34.5034         0.5922       -57.3396       -23.3773      0.4858897       0.352203
      6241.5000         0.4568        29.0009         -0.006        58.3222       57.02995         0.3753         0.4677        35.1803         0.5665        -57.488       -23.5257      0.5112755      0.3477061
      6242.0000         0.3688        27.9536        -0.0091        58.9385       57.72945         0.3465         0.4558        36.5727         0.5586       -58.0713        -24.109      0.5261585      0.3300303
      6242.5000         0.2871        26.8802        -0.0112        57.6039       56.21517         0.3195         0.4349        37.8487         0.5615       -58.2266       -24.2643      0.4939398      0.3253243
      6243.0000         0.2107        26.6063        -0.0139        53.6058       51.67848         0.2945         0.4002        37.9221         0.5598       -58.2191       -24.2568      0.3974145      0.3255515
      6243.5000         0.1792        28.4108        -0.0151        49.5803       47.11069         0.2736         0.3676        35.4843         0.5099       -58.9308       -24.9685      0.3002275      0.3039849
      6244.0000         0.1859         30.801        -0.0145        46.0424       43.09621         0.2689         0.3377          33.22         0.3948       -59.7676       -25.8053       0.214813      0.2786273
      6244.5000         0.2307        32.5165         -0.012        49.6401       47.17887         0.2817          0.314        31.9329         0.3165       -59.2737       -25.3114       0.301678      0.2935939
      6245.0000         0.3044        31.6665        -0.0069         54.783       53.01494          0.299         0.3376        34.7755         0.3329       -57.3957       -23.4334      0.4258498      0.3505031
      6245.5000         0.4013        29.7618              0        59.9259       58.85102         0.3206         0.3782        37.7531         0.4033       -53.1157       -19.1534      0.5500216         0.4802
      6246.0000         0.5574        27.7368         0.0062        65.0687       64.68698          0.354         0.4237        40.6965         0.4886       -49.4694       -15.5071      0.6741911       0.590694
      6246.5000         0.7352        25.7148         0.0073          66.66       66.49287         0.3917         0.4746        41.0197         0.5667       -45.7681       -11.8058      0.7126144      0.7028545
      6247.0000         0.9421        24.5153         0.0035        66.5834       66.40611         0.4567         0.5167        39.0194         0.5987       -42.1641        -8.2018      0.7107682      0.8120667
      6247.5000         1.0639        23.5978         0.0002        65.8906       65.62011         0.5328          0.568        36.7388         0.6334       -41.1309        -7.1686      0.6940449      0.8433757
      6248.0000          1.155        22.4339        -0.0024        64.8717       64.46406         0.6218         0.6241        34.4582         0.6877       -40.7213         -6.759       0.669448      0.8557879
      6248.5000         1.2136        21.7116        -0.0023        63.2406       62.61333         0.7039          0.682         33.061           0.74       -40.8222        -6.8599      0.6300709      0.8527303
      6249.0000         1.2425        21.8512         0.0015        60.9884        60.0578         0.7465         0.7286        33.2111          0.773       -41.1433         -7.181      0.5756979          0.843
      6249.5000         1.2203        24.2866         0.0089        59.2188       58.04991         0.7734         0.7517        34.2906         0.7724       -41.3607        -7.3984      0.5329769      0.8364121
      6250.0000         1.2593        27.8318         0.0134         57.746        56.3788         0.7763         0.7543        35.6622         0.7621       -41.5486        -7.5863      0.4974213      0.8307182
      6250.5000          1.594          31.38         0.0198        56.2608       54.69362         0.7688         0.7526        37.3853         0.7609       -41.7432        -7.7809      0.4615664      0.8248212
