#------------------------------------------------------------------------------
# Created by    : vladimir.rabinovich
# Created on    : 09/19/2023 17:21:52
#------------------------------------------------------------------------------
~Version Information Section
VERS.           2.0     :   CWLS log ASCII Standard - VERSION 2.0
WRAP.           NO      :   One line per depth step
~Well Information Section
#MNEM       .UNIT                                         VALUE :DESCRIPTION
#------------------------------------------------------------------------------
STRT        .FT                                            1924 :START DEPTH
STOP        .FT                                            6497 :STOP DEPTH
STEP        .FT                                             0.5 :STEP      
NULL        .                                           -999.25 :NULL      
COMP        .                                ATP OIL & GAS CORP :COMPANY   
WELL        .                               OCS G12451 ST00BP00 :WELL      
FLD         .                                           WILDCAT :FIELD     
LOC         .                                                   :LOCATION  
CNTY        .                                BRAZOS LARGE BLOCK :LOCATION  
STAT        .                                             TEXAS :STATE     
CTRY        .                                     UNITED STATES :COUNTRY   
SRVC        .                                                   :SERVICE COMPANY
DATE        .                             9/13/2023 11:09:51 AM :LOG DATE  
API         .                                    42704402900000 :API NUMBER
UWI         .                                    42704402900000 :UNIQUE WELL ID
XCOORD      .                                  861130.254262163 :SURFACE X 
YCOORD      .                                  10349158.9913488 :SURFACE Y 
LAT         .                                        28.4964901 :LATITUDE  
LON         .                                       -95.4265639 :LONGITUDE 
ELEV        .FT                                              91 :ELEVATION VALUE
ELEV_TYPE   .                                                KB :ELEVATION REFERENCE TYPE
~Curve Information Section
#MNEM       .UNIT                                      API CODE :CURVE DESCRIPTION
#------------------------------------------------------------------------------
DEPT        .FT                                                 :DEPTH     
CALI        .IN                                                 :          
DPHI        .G/C3                                               :          
DRHO        .G/C3                                               :          
GR          .GAPI                                               :          
GR_NORM     .GAPI                                               :GammaRay Normalized
ILD         .OHMM                                               :          
ILM         .OHMM                                               :          
NPHI        .%                                                  :          
SFL         .OHMM                                               :          
SP          .MV                                                 :          
SP_NORM     .MV                                                 :SP Normalized
VSH_GR      .V/V                                                :Volume of Shale from GR
VSH_SP      .V/V                                                :Volume of Shale from SP
~A        DEPTH           CALI           DPHI           DRHO             GR        GR_NORM            ILD            ILM           NPHI            SFL             SP        SP_NORM         VSH_GR         VSH_SP
# ...
      2893.0000        -999.25        -999.25        -999.25       112.3351       82.76421         0.6368         0.6031        -999.25         0.6701        -63.066      -1.762016              1      0.9856223
      2893.5000        -999.25        -999.25        -999.25       111.7063       82.13811         0.6587         0.6169        -999.25         0.7219       -62.8586      -1.559803              1      0.9894377
      2894.0000        -999.25        -999.25        -999.25       110.7267        81.1612         0.6749         0.6313        -999.25         0.7447       -62.4722      -1.178585              1      0.9966305
      2894.5000        -999.25        -999.25        -999.25       108.0192       78.45641         0.6941         0.6465        -999.25         0.7549       -62.3362      -1.047775      0.9671575      0.9990986
      2895.0000        -999.25        -999.25        -999.25       106.3784        76.8183         0.7153         0.6605        -999.25         0.8104       -62.8696      -1.586361      0.9323042      0.9889366
      2895.5000        -999.25        -999.25        -999.25       105.7622       76.20479         0.7304         0.6705        -999.25         0.8547       -63.5521      -2.274048      0.9192508      0.9759614
      2896.0000        -999.25        -999.25        -999.25       105.3682       75.81349           0.74         0.6752        -999.25         0.8111       -64.4684      -3.195534      0.9109253      0.9585748
      2896.5000        -999.25        -999.25        -999.25        105.532       75.97998         0.7442         0.6666        -999.25         0.7533       -64.7173      -3.449623      0.9144677      0.9537807
      2897.0000        -999.25        -999.25        -999.25       107.2407       77.69138          0.739         0.6515        -999.25         0.7573       -64.6346      -3.372105      0.9508803      0.9552433
      2897.5000        -999.25        -999.25        -999.25       109.8911       80.34447         0.7218         0.6385        -999.25         0.7957       -64.7026      -3.445293              1      0.9538624
      2898.0000        -999.25        -999.25        -999.25       110.4659       80.92197         0.6974         0.6216        -999.25         0.7857        -64.387      -3.134884              1      0.9597192
      2898.5000        -999.25        -999.25        -999.25       110.2588       80.71757         0.6779         0.6092        -999.25         0.7198       -64.1788       -2.93187              1      0.9635496
      2899.0000        -999.25        -999.25        -999.25       110.5841       81.04556         0.6634         0.6039        -999.25         0.6649       -63.7408      -2.499054              1       0.971716
      2899.5000        -999.25        -999.25        -999.25       111.9872       82.45135         0.6516         0.6046        -999.25         0.6502        -63.585      -2.348442              1      0.9745577
      2900.0000        -999.25        -999.25        -999.25       113.9604       84.42726         0.6439         0.6031        -999.25         0.6533       -63.4363      -2.204926              1      0.9772655
      2900.5000        -999.25        -999.25        -999.25       115.2827       85.75225         0.6396         0.6012        -999.25         0.6699       -63.3234      -2.097214              1      0.9792979
      2901.0000        -999.25        -999.25        -999.25       113.6068       84.07904         0.6376         0.6008        -999.25         0.7073       -63.0577        -1.8367              1      0.9842132
      2901.5000        -999.25        -999.25        -999.25       108.8239       79.29884         0.6364         0.5979        -999.25         0.7457       -62.9429      -1.727089      0.9850818      0.9862813
      2902.0000        -999.25        -999.25        -999.25       105.4222       75.89984         0.6342         0.5945        -999.25         0.7461       -63.1317      -1.921074      0.9127626      0.9826213
      2902.5000        -999.25        -999.25        -999.25       105.0455       75.52584         0.6344         0.5936        -999.25         0.7288       -63.4719       -2.26646      0.9048051      0.9761045
      2903.0000        -999.25        -999.25        -999.25        105.244       75.72704         0.6346         0.5907        -999.25         0.7044       -63.7007      -2.500446      0.9090859      0.9716897
      2903.5000        -999.25        -999.25        -999.25        105.083       75.56873         0.6354         0.5921        -999.25         0.6879       -64.0723      -2.877239      0.9057176      0.9645804
      2904.0000        -999.25        -999.25        -999.25        105.329       75.81743         0.6373         0.5933        -999.25         0.6798       -64.3716      -3.181717      0.9110091      0.9588355
      2904.5000        -999.25        -999.25        -999.25       109.0039       79.49502         0.6381         0.5944        -999.25         0.6873       -64.2778      -3.093109      0.9892557      0.9605074
      2905.0000        -999.25        -999.25        -999.25        111.287       81.78082         0.6388         0.5957        -999.25         0.7196       -63.9857      -2.806194              1      0.9659209
      2905.5000        -999.25        -999.25        -999.25       110.1743       80.67081          0.639         0.5941        -999.25         0.7224       -63.6968       -2.52248              1       0.971274
      2906.0000        -999.25        -999.25        -999.25       106.3235       76.82271         0.6374         0.5907        -999.25         0.6981       -63.6004      -2.431267       0.932398       0.972995
      2906.5000        -999.25        -999.25        -999.25        104.673        75.1749         0.6371         0.5901        -999.25         0.6775        -63.853      -2.689053      0.8973382      0.9681311
      2907.0000        -999.25        -999.25        -999.25       105.8011        76.3057         0.6378         0.5922        -999.25         0.6665       -63.8052      -2.646439      0.9213979      0.9689351
      2907.5000        -999.25        -999.25        -999.25       106.9468       77.45409         0.6335          0.594        -999.25         0.6714       -63.4836      -2.330029      0.9458318      0.9749051
      2908.0000        -999.25        -999.25        -999.25       105.7505        76.2605         0.6306         0.5937        -999.25         0.6957       -62.9747      -1.826313      0.9204361      0.9844092
      2908.5000        -999.25        -999.25        -999.25        102.332       72.84469         0.6296         0.5921        -999.25          0.726       -62.3235      -1.180302      0.8477593      0.9965981
      2909.0000        -999.25        -999.25        -999.25        99.3328       69.84818         0.6296         0.5954        -999.25         0.7276       -61.8597     -0.7216873      0.7840039              1
      2909.5000        -999.25        -999.25        -999.25         98.718       69.23608         0.6336         0.5984        -999.25         0.7048       -61.6161     -0.4832726      0.7709805              1
      2910.0000        -999.25        -999.25        -999.25       101.4917       72.01247         0.6385         0.5972        -999.25         0.6832       -61.4113     -0.2836609      0.8300526              1
      2910.5000        -999.25        -999.25        -999.25       106.0028       76.52627         0.6424         0.5966        -999.25         0.6853       -61.1437    -0.02124786      0.9260908              1
      2911.0000        -999.25        -999.25        -999.25       109.6079       80.13407         0.6443         0.5968        -999.25         0.6934       -60.7844      0.3328667              1              1
      2911.5000        -999.25        -999.25        -999.25       111.0391       81.56796         0.6459          0.599        -999.25         0.6776        -59.983       1.129078              1              1
