#------------------------------------------------------------------------------
# Created by    : vladimir.rabinovich
# Created on    : 09/19/2023 17:22:39
#------------------------------------------------------------------------------
~Version Information Section
VERS.           2.0     :   CWLS log ASCII Standard - VERSION 2.0
WRAP.           NO      :   One line per depth step
~Well Information Section
#MNEM       .UNIT                                         VALUE :DESCRIPTION
#------------------------------------------------------------------------------
STRT        .FT                                            3496 :START DEPTH
STOP        .FT                                          7091.5 :STOP DEPTH
STEP        .FT                                             0.5 :STEP      
NULL        .                                           -999.25 :NULL      
COMP        .                          SEAGULL ENERGY E & P INC :COMPANY   
WELL        .                               OCS G07251 ST00BP00 :WELL      
FLD         .                              GALVESTON BLOCK 0349 :FIELD     
LOC         .                                                   :LOCATION  
CNTY        .                             GALVESTON LARGE BLOCK :LOCATION  
STAT        .                                             TEXAS :STATE     
CTRY        .                                     UNITED STATES :COUNTRY   
SRVC        .                                                   :SERVICE COMPANY
DATE        .                             9/13/2023 11:19:36 AM :LOG DATE  
API         .                                    42706402300000 :API NUMBER
UWI         .                                    42706402300000 :UNIQUE WELL ID
XCOORD      .                                  1015542.86720011 :SURFACE X 
YCOORD      .                                  10434819.2372955 :SURFACE Y 
LAT         .                                         28.739771 :LATITUDE  
LON         .                                        -94.950355 :LONGITUDE 
ELEV        .FT                                              93 :ELEVATION VALUE
ELEV_TYPE   .                                                KB :ELEVATION REFERENCE TYPE
~Curve Information Section
#MNEM       .UNIT                                      API CODE :CURVE DESCRIPTION
#------------------------------------------------------------------------------
DEPT        .FT                                                 :DEPTH     
DCAL        .IN                                                 :          
DPHI        .%                                                  :          
DRHO        .G/C3                                               :          
GR          .GAPI                                               :          
GR_NORM     .GAPI                                               :GammaRay Normalized
ILD         .OHMM                                               :          
ILM         .OHMM                                               :          
NPHI        .%                                                  :          
SGRD        .OHMM                                               :          
SP          .MV                                                 :          
SP_NORM     .MV                                                 :SP Normalized
VSH_GR      .V/V                                                :Volume of Shale from GR
VSH_SP      .V/V                                                :Volume of Shale from SP
~A        DEPTH           DCAL           DPHI           DRHO             GR        GR_NORM            ILD            ILM           NPHI           SGRD             SP        SP_NORM         VSH_GR         VSH_SP
# ...
      4693.0000         0.0816        31.7052         0.0033        36.9208       32.53545         0.2756         0.3344        38.0762         0.7651       -87.6718      -52.61994              0      0.1904625
      4693.5000         0.0869        31.8071         0.0027        36.5927       32.15279         0.2754          0.329        37.9841         0.7597       -87.9379      -52.89243              0      0.1862703
      4694.0000         0.0854         32.515              0        35.5923       30.98317          0.276         0.3256        37.9241         0.7486       -88.1655      -53.12643              0      0.1826704
      4694.5000         0.0999        33.3489        -0.0026         33.951       29.06334         0.2757         0.3227        37.9501         0.7359       -87.9974      -52.96473              0      0.1851581
      4695.0000         0.0968        34.1353        -0.0064         33.567       28.61526          0.275          0.323        38.0996         0.7223        -87.728      -52.70172              0      0.1892043
      4695.5000         0.0832        34.5958          -0.01        33.7634       28.84655         0.2733         0.3226        38.4264         0.7078       -87.5271      -52.50722              0      0.1921966
      4696.0000          0.069         34.748        -0.0131        35.1196       30.43546         0.2745          0.323         38.795         0.6998       -87.2953      -52.28182              0      0.1956643
      4696.5000         0.0623        34.6468        -0.0155        37.4855       33.20628         0.2773          0.324        39.3406          0.697       -87.0389      -52.03181    0.004389012      0.1995105
      4697.0000         0.0624        34.0592        -0.0162        39.0292       35.01467         0.2792         0.3263        39.9271         0.6997       -86.8842      -51.88351     0.04286527      0.2017922
      4697.5000         0.0562        33.5807         -0.016        38.6585       34.58215         0.2827         0.3309        40.8024         0.7051       -86.8241       -51.8298     0.03366267      0.2026184
      4698.0000         0.0495        33.1408        -0.0165        36.6111       32.18695         0.2874         0.3371        41.7875         0.7207       -86.8927       -51.9048              0      0.2014646
      4698.5000         0.0511        32.8502        -0.0184        36.4622       32.01407         0.2937         0.3447        41.8044          0.744       -86.9335        -51.952              0      0.2007385
      4699.0000         0.0472        32.4752        -0.0215        36.2346       31.74905         0.3014         0.3526        41.3832         0.7662       -86.8921      -51.91699              0       0.201277
      4699.5000         0.0386        31.7589        -0.0244        36.4845       32.04298         0.3157         0.3611        40.6913         0.7789       -86.8214       -51.8527              0      0.2022662
      4700.0000         0.0279        30.8132        -0.0277        37.1385       32.80992         0.3401         0.3766        39.5927         0.7809       -86.6844      -51.72209              0      0.2042756
      4700.5000         0.0215        30.4658        -0.0307        37.7612       33.54023         0.3566         0.3989        38.4841         0.7831       -86.6611      -51.70518     0.01149417      0.2045356
      4701.0000         0.0206        29.4932        -0.0307         36.674         32.269         0.3721         0.4168        36.9827         0.8152       -86.6516      -51.70208              0      0.2045833
      4701.5000          0.028        28.2422        -0.0297        35.2109       30.55777         0.3887         0.4325        35.1692          0.934       -86.5811      -51.63798              0      0.2055696
      4702.0000         0.0454        26.6789        -0.0268        33.6978         28.788         0.4098         0.4449        33.7217         1.0207       -86.9915      -52.05477              0      0.1991574
      4702.5000         0.0522        26.9337        -0.0242        31.9759       26.77382         0.4272         0.4528        33.3591         1.0358       -86.1805      -51.25016              0      0.2115359
      4703.0000         0.0475         27.574        -0.0227        31.2068       25.87495         0.4398         0.4582        33.5458          0.955       -85.2733      -50.34937              0      0.2253944
      4703.5000         0.0425         28.264        -0.0233        30.9199       25.54052         0.4432         0.4553        33.8115         0.8241       -84.2804      -49.36287              0      0.2405713
      4704.0000         0.0512        29.2135        -0.0224        30.2827       24.79604         0.4334         0.4749        33.9926         0.7392       -83.2656      -48.35446              0      0.2560853
      4704.5000         0.0472        28.4012        -0.0211        29.9434       24.40028         0.4173         0.4783        33.6238         0.8358       -82.1677      -47.26295              0      0.2728776
      4705.0000         0.0418        26.5308        -0.0199        30.1452       24.63791         0.4071         0.4646        33.1683          0.898       -80.5345      -45.63615              0      0.2979054
      4705.5000         0.0362        26.6177        -0.0198         31.063       25.71364         0.4141         0.4492        33.4082         0.9066       -78.0961      -43.20415              0      0.3353208
      4706.0000         0.0332        27.8845        -0.0185        36.2463       31.78238         0.4332         0.4376        34.3877         0.8385       -71.4561      -36.57054              0      0.4373763
      4706.5000         0.0347        28.3313         -0.018        45.4299        42.5337         0.4461         0.4503        35.9161         0.6931       -61.8423      -26.96314      0.2028447      0.5851825
      4707.0000         0.0237        28.5124        -0.0153        54.6035       53.27332         0.4613         0.4783        37.8826         0.6016       -52.4387      -17.56594      0.4313472      0.7297548
      4707.5000         0.0215        28.5437        -0.0071        63.5969       63.80199         0.4779            0.5        39.4644         0.6046       -47.5405      -12.67413      0.6553616      0.8050134
      4708.0000         0.0211        25.7162         0.0001        70.8972       72.34879         0.4927         0.5257        40.2507          0.627       -47.9894      -13.12943      0.8372084      0.7980088
      4708.5000         0.0161        23.7325         0.0048        75.0488       77.20988            0.5         0.5508        40.1907         0.6612       -50.2353      -15.38172      0.9406359      0.7633581
      4709.0000         0.0098        23.2595         0.0035        77.5073        80.0891          0.498         0.5553        39.2101         0.6981       -53.8642      -19.01702              1      0.7074304
      4709.5000         0.0113        23.1029        -0.0018        74.6613       76.75909         0.4866         0.5446        37.8369         0.7204       -57.9508      -23.11002      0.9310446      0.6444612
      4710.0000         0.0127        25.0443        -0.0106        69.8694       71.15131          0.469          0.516        37.5579         0.7147        -62.485      -27.65062      0.8117299      0.5746059
      4710.5000         0.0142        27.9332        -0.0226        63.8458       62.96616         0.4463         0.4841        38.1249         0.6728       -66.0714      -31.24341      0.6375779      0.5193321
      4711.0000         0.0404        29.7077        -0.0337        59.9755       58.11367         0.4253         0.4497        39.0631         0.6356       -68.0201      -33.19851      0.5343334      0.4892537
      4711.5000         0.0594          30.97        -0.0427        56.3216       51.64205         0.4091         0.4342        40.0247         0.6057       -68.1226       -33.3074      0.3966394      0.4875785
