#------------------------------------------------------------------------------
# Created by    : vladimir.rabinovich
# Created on    : 09/19/2023 17:22:48
#------------------------------------------------------------------------------
~Version Information Section
VERS.           2.0     :   CWLS log ASCII Standard - VERSION 2.0
WRAP.           NO      :   One line per depth step
~Well Information Section
#MNEM       .UNIT                                         VALUE :DESCRIPTION
#------------------------------------------------------------------------------
STRT        .FT                                            3512 :START DEPTH
STOP        .FT                                           11028 :STOP DEPTH
STEP        .FT                                             0.5 :STEP      
NULL        .                                           -999.25 :NULL      
COMP        .                          SEAGULL ENERGY E & P INC :COMPANY   
WELL        .                   ST TR 147-L NE/4 /ST LSE 88034/ :WELL      
FLD         .                                           WILDCAT :FIELD     
LOC         .                                                   :LOCATION  
CNTY        .                             GALVESTON LARGE BLOCK :LOCATION  
STAT        .                                             TEXAS :STATE     
CTRY        .                                     UNITED STATES :COUNTRY   
SRVC        .                                                   :SERVICE COMPANY
DATE        .                             9/13/2023 11:18:53 AM :LOG DATE  
API         .                                    42706302000000 :API NUMBER
UWI         .                                    42706302000000 :UNIQUE WELL ID
XCOORD      .                                  1107149.67333588 :SURFACE X 
YCOORD      .                                  10638300.0198507 :SURFACE Y 
LAT         .                                        29.3031745 :LATITUDE  
LON         .                                         -94.67354 :LONGITUDE 
ELEV        .FT                                              25 :ELEVATION VALUE
ELEV_TYPE   .                                                KB :ELEVATION REFERENCE TYPE
~Curve Information Section
#MNEM       .UNIT                                      API CODE :CURVE DESCRIPTION
#------------------------------------------------------------------------------
DEPT        .FT                                                 :DEPTH     
DT          .US/F                                               :          
GR          .GAPI                                               :          
GR_NORM     .GAPI                                               :GammaRay Normalized
ILD         .OHMM                                               :          
ILM         .OHMM                                               :          
SFL         .OHMM                                               :          
SP          .MV                                                 :          
SP_NORM     .MV                                                 :SP Normalized
VSH_GR      .V/V                                                :Volume of Shale from GR
VSH_SP      .V/V                                                :Volume of Shale from SP
~A        DEPTH             DT             GR        GR_NORM            ILD            ILM            SFL             SP        SP_NORM         VSH_GR         VSH_SP
      3512.0000       152.2659        46.4834       54.37281         0.1973         0.3048         0.7716       -93.5809      -5.048515      0.4547407      0.9250275
      3512.5000       137.2722        44.8083       51.94257         0.2315         0.3229         0.7857       -90.9668      -3.519958      0.4030335      0.9533341
      3513.0000       125.8885        44.0641       50.86288         0.2648         0.3495          0.781        -88.856      -2.494705      0.3800612      0.9723203
      3513.5000       124.0476        44.1769       51.02653         0.2801         0.3824         0.7582       -87.1416      -1.865852      0.3835432      0.9839657
      3514.0000       143.6528        44.2113       51.07644         0.2912         0.4123         0.7108       -85.6481      -1.457893      0.3846052      0.9915205
      3514.5000       159.5374        44.2155       51.08254         0.3012         0.4352         0.7075       -84.5342      -1.429543      0.3847349      0.9920455
      3515.0000       160.3474        44.2935        51.1957         0.3119         0.4473         0.7225       -83.4985      -1.479378      0.3871426      0.9911227
      3515.5000       169.6272        44.6714       51.74396         0.3181         0.4512         0.7583       -82.2887      -1.355125      0.3988077      0.9934236
      3516.0000       167.4146        46.0576       53.75506         0.3223         0.4508         0.7484       -80.3416     -0.4935684      0.4415971              1
      3516.5000       159.5967        47.4877       55.82987         0.3283         0.4424         0.6946       -77.3152       1.447281       0.485742              1
      3517.0000       149.3472        45.6724       53.19621         0.3332         0.4266         0.6279       -74.1177       3.559242      0.4297067              1
      3517.5000       151.0906         43.249       49.68032         0.3339         0.4006         0.5535       -71.5823       5.009094      0.3549005              1
      3518.0000       159.7029        42.6312       48.78402         0.3232          0.368         0.5047       -69.5134       5.992455      0.3358302              1
      3518.5000       159.6853         46.316       54.12995         0.3064          0.339         0.4649       -67.8052       6.615105      0.4495734              1
      3519.0000        159.668        50.2902       59.89574         0.2908          0.318          0.464       -67.0491        6.28566      0.5722498              1
      3519.5000       159.6506        52.4747       63.06506         0.2776         0.3008         0.5509       -66.7067       5.542511      0.6396821              1
      3520.0000       148.2778        54.3061       65.72205         0.2677         0.2851         0.7083       -66.3873       4.776375      0.6962139              1
      3520.5000       141.5046        57.4544        70.2896         0.2645          0.274         0.7207       -65.7449       4.333221      0.7933958              1
      3521.0000       134.5115        60.7479       75.06786         0.2615         0.2689         0.5855       -64.7874       4.493645      0.8950608              1
      3521.5000       131.0408        63.3251       78.80687         0.2614         0.2661         0.4128         -63.54       5.741043      0.9746143              1
      3522.0000       130.5388        62.6297       77.79797         0.2624         0.2647         0.3589       -62.2994       6.981644      0.9531484              1
      3522.5000       132.6816        60.7258       75.03579         0.2633         0.2658         0.3688       -61.5052       7.775845      0.8943785              1
      3523.0000       136.2251        61.8285       76.63558          0.261         0.2668         0.4068       -61.0764       8.204643      0.9284166              1
      3523.5000       140.0774        65.8112       82.41373         0.2552         0.2672         0.4293        -60.831       8.450043              1              1
      3524.0000       142.4614        70.2371       88.83484         0.2484         0.2609         0.4349        -60.572       8.695518              1              1
      3524.5000       144.3059         69.957       88.42848          0.247         0.2566         0.4071       -61.0045       8.224831              1              1
      3525.0000        145.011        68.6826       86.57957         0.2477         0.2568         0.3739       -61.5769       7.614254              1              1
      3525.5000       144.8298        67.8278        85.3394         0.2502         0.2655         0.3523        -63.511       5.641975              1              1
      3526.0000       143.9905        66.3134       83.14231         0.2529         0.2764          0.368       -67.8088       1.305992              1              1
      3526.5000       142.2502        64.0968       79.92647          0.255         0.2866         0.4548       -72.2002      -3.123589      0.9984355      0.9606743
      3527.0000       142.1943        63.2396       78.68282         0.2543         0.2939         0.5525       -76.9066      -7.868172       0.971975      0.8728116
      3527.5000       143.0725        62.7383       77.95553         0.2517         0.2978         0.6281       -80.3798      -11.37955      0.9565006      0.8077862
      3528.0000       145.1394        60.2778       74.38584         0.2509         0.2998         0.6554       -81.6499      -12.68783      0.8805498      0.7835587
      3528.5000       151.2634        57.5209       70.38609         0.2523         0.3007         0.6669       -81.8522      -12.92831      0.7954486      0.7791053
      3529.0000       150.7917        56.3652        68.7094         0.2516         0.3004         0.6459       -80.9459      -12.06019      0.7597746      0.7951817
      3529.5000       146.2629        58.9412       72.44667         0.2493         0.2973         0.5774       -80.1567      -11.30917      0.8392909      0.8090894
      3530.0000       144.1973        60.8045       75.14998         0.2457         0.2964         0.5259       -79.9742      -11.16485       0.896808      0.8117621
      3530.5000       144.9766        61.5365       76.21196         0.2401         0.2979         0.5054       -81.3274      -12.55623      0.9194034      0.7859958
      3531.0000       147.3743         60.775       75.10716         0.2355         0.3006          0.532       -83.1157      -14.38271      0.8958971       0.752172
      3531.5000       148.8787        58.9891       72.51617         0.2315         0.3009         0.5671       -84.9089      -16.21409      0.8407696      0.7182576
      3532.0000        149.457        57.3959       70.20475         0.2293          0.301         0.5993       -86.2098      -17.55318      0.7915905      0.6934597
      3532.5000       149.5937        56.7027       69.19904         0.2291         0.3007         0.6245       -87.4856      -18.86716      0.7701924      0.6691267
      3533.0000        149.553        56.1083       68.33668         0.2301         0.2981         0.6335       -88.3699      -19.78963      0.7518442      0.6520438
      3533.5000       149.1646         55.175       66.98265         0.2322         0.2967         0.6136       -89.1206      -20.57851      0.7230351      0.6374349
      3534.0000        148.094        54.1618       65.51268         0.2355          0.298          0.603       -88.9526      -20.44869      0.6917592      0.6398391
      3534.5000       145.6919        55.8987        68.0326           0.24         0.3019         0.6219       -87.7821      -19.31638      0.7453745      0.6608078
      3535.0000       144.9404        60.7725       75.10354         0.2452         0.3073         0.6441       -86.2886      -17.86105        0.89582      0.6877583
      3535.5000       144.7859        63.0217       78.36669         0.2503         0.3122         0.6401       -84.8351      -16.44574      0.9652488      0.7139678
      3536.0000       144.8201        63.5079       79.07208         0.2554         0.3161         0.6126       -83.3792      -15.02802      0.9802571      0.7402218
