#------------------------------------------------------------------------------
# Created by    : vladimir.rabinovich
# Created on    : 09/19/2023 17:20:06
#------------------------------------------------------------------------------
~Version Information Section
VERS.           2.0     :   CWLS log ASCII Standard - VERSION 2.0
WRAP.           NO      :   One line per depth step
~Well Information Section
#MNEM       .UNIT                                         VALUE :DESCRIPTION
#------------------------------------------------------------------------------
STRT        .FT                                             325 :START DEPTH
STOP        .FT                                           10896 :STOP DEPTH
STEP        .FT                                             0.5 :STEP      
NULL        .                                           -999.25 :NULL      
COMP        .                                      GETTY OIL CO :COMPANY   
WELL        .                               OCS G03737 ST00BP00 :WELL      
FLD         .                                           WILDCAT :FIELD     
LOC         .                                                   :LOCATION  
CNTY        .                             GALVESTON LARGE BLOCK :LOCATION  
STAT        .                                             TEXAS :STATE     
CTRY        .                                     UNITED STATES :COUNTRY   
SRVC        .                                                   :SERVICE COMPANY
DATE        .                             9/13/2023 11:10:15 AM :LOG DATE  
API         .                                    42706400540000 :API NUMBER
UWI         .                                    42706400540000 :UNIQUE WELL ID
XCOORD      .                                  1098214.74516992 :SURFACE X 
YCOORD      .                                   10573216.961531 :SURFACE Y 
LAT         .                                         29.123847 :LATITUDE  
LON         .                                        -94.698615 :LONGITUDE 
ELEV        .FT                                              99 :ELEVATION VALUE
ELEV_TYPE   .                                                KB :ELEVATION REFERENCE TYPE
~Curve Information Section
#MNEM       .UNIT                                      API CODE :CURVE DESCRIPTION
#------------------------------------------------------------------------------
DEPT        .FT                                                 :DEPTH     
ASFL        .OHMM                                               :          
DT          .US/F                                               :          
DTL         .US/F                                               :          
GR          .GAPI                                               :          
GR_1        .GAPI                                               :          
GR_NORM     .GAPI                                               :GammaRay Normalized
ILD         .OHMM                                               :          
RHOB        .G/CC                                               :          
SP          .MV                                                 :          
SP_NORM     .MV                                                 :SP Normalized
VSH_GR      .V/V                                                :Volume of Shale from GR
VSH_SP      .V/V                                                :Volume of Shale from SP
~A        DEPTH           ASFL             DT            DTL             GR           GR_1        GR_NORM            ILD           RHOB             SP        SP_NORM         VSH_GR         VSH_SP
# ...
      5962.5000         0.7248       116.3375        112.362        56.3391         51.663        77.7998         0.3133         2.2434       -44.4493        -2.9453         0.9532         0.9741
      5963.0000         0.7224       115.6443       112.0352        55.8263        51.6652        76.9573         0.3141         2.2361       -44.3177        -2.8111         0.9353         0.9759
      5963.5000         0.7207       115.6013       113.1083        55.3665        51.7055        76.2017         0.3149         2.2309       -44.2352        -2.7259         0.9192          0.977
      5964.0000         0.7198       116.3817       114.4758         55.439        51.8096        76.3194         0.3158         2.2345       -44.1528        -2.6408         0.9217         0.9781
      5964.5000         0.7188       117.7756       114.9612        55.7789        51.9137        76.8757         0.3166         2.2402       -44.0703        -2.5556         0.9335         0.9793
      5965.0000         0.7179       118.8644       114.8844        56.7232        52.0178        78.4236         0.3164         2.2401       -43.9879        -2.4705         0.9665         0.9804
      5965.5000         0.7171       119.0205       115.0348         57.665        52.1218        79.9673          0.316         2.2377       -43.9913        -2.4713         0.9993         0.9804
      5966.0000         0.7163       119.0754       115.7397        57.6238        52.2347        79.8985         0.3156         2.2293       -44.0247         -2.502         0.9978           0.98
      5966.5000         0.7156       119.5393       117.2135        57.0236        52.4143        78.9126         0.3152         2.2187       -44.1113        -2.5859         0.9769         0.9789
      5967.0000         0.7148       120.4364       118.2352        56.4468        52.5938        77.9651         0.3148         2.2092       -44.2354        -2.7073         0.9567         0.9772
      5967.5000          0.714        120.726       118.1437        55.7961        52.7734        76.8963         0.3144         2.2113       -44.3596        -2.8288          0.934         0.9756
      5968.0000         0.7139       120.1957       117.6994        54.6155         52.955        74.9583         0.3141          2.223       -44.5008        -2.9674         0.8927         0.9738
      5968.5000         0.7146        119.546       116.7765        53.6484        53.1444        73.3704         0.3137         2.2404       -44.6934        -3.1573         0.8589         0.9712
      5969.0000         0.7153       118.9326       116.0849        54.2264        53.3338        74.3174         0.3135         2.2509       -44.7413        -3.2025         0.8791         0.9706
      5969.5000          0.716       118.4064       115.3283        55.3394        53.5232         76.142         0.3136         2.2513       -44.7195         -3.178         0.9179          0.971
      5970.0000         0.7165       118.0157       114.6316        56.4905        53.6888        78.0291         0.3136          2.243       -44.6978        -3.1536         0.9581         0.9713
      5970.5000         0.7168       117.6591       113.9611        57.5185         53.809        79.7143         0.3137         2.2291       -44.6761        -3.1293         0.9939         0.9716
      5971.0000         0.7171       117.3495       113.7224        58.4603        53.9291         81.258         0.3138         2.2271       -44.6119        -3.0624              1         0.9725
      5971.5000         0.7174       117.4072       114.3742        59.2513         54.032        82.5544         0.3139          2.229        -44.535        -2.9828              1         0.9736
      5972.0000         0.7181       118.7067       116.5279        59.6815        54.1115        83.2589          0.314         2.2337       -44.4581        -2.9032              1         0.9746
      5972.5000         0.7197       120.2019       117.6194        59.5702        54.1909         83.075         0.3141         2.2398       -44.3812        -2.8236              1         0.9757
      5973.0000         0.7212        120.252        117.061        58.5059        54.2704        81.3277         0.3142         2.2405        -44.298        -2.7378              1         0.9768
      5973.5000         0.7227       119.9744       115.8936        56.6481        54.3499        78.2787         0.3143         2.2413       -44.2117        -2.6488         0.9634          0.978
      5974.0000         0.7239       118.8613        113.582        54.4493        54.4294        74.6703         0.3145         2.2405       -44.1254        -2.5598         0.8866         0.9792
      5974.5000         0.7251       115.2678       111.1977         53.449        54.5089         73.028         0.3146         2.2364       -44.0606        -2.4923         0.8517         0.9801
      5975.0000         0.7264       113.8741       110.6873        53.7919        54.5333        73.5893         0.3147         2.2326       -43.9972        -2.4262         0.8636          0.981
      5975.5000         0.7275       114.8503       112.1035        55.2816        54.5572        76.0319         0.3149         2.2284       -43.9337        -2.3601         0.9156         0.9819
      5976.0000         0.7286       117.3065       114.4135        56.5865        54.5811        78.1713          0.315          2.218       -43.7816        -2.2053         0.9611         0.9839
      5976.5000         0.7298       119.2261       115.8591        57.1498         54.605        79.0941         0.3151         2.2111       -43.6106        -2.0316         0.9807         0.9862
      5977.0000         0.7307       120.1001       116.7686        56.9559        54.6288        78.7747         0.3152         2.2087       -43.4368        -1.8551         0.9739         0.9886
      5977.5000         0.7316       119.7168       116.4158        56.1815        54.5945        77.5031         0.3154         2.2148       -43.2886        -1.7042         0.9469         0.9906
      5978.0000         0.7328       118.5211       114.9968        55.5099         54.537           76.4         0.3155          2.221       -43.4905        -1.9035         0.9234          0.988
      5978.5000         0.7346       117.4595       113.5065          55.36        54.4797        76.1529         0.3156         2.2276       -43.7472        -2.1575         0.9181         0.9846
      5979.0000         0.7361       116.5255       112.3348        55.5407        54.4223         76.448         0.3157         2.2334       -44.1099        -2.5175         0.9244         0.9798
      5979.5000         0.7375        115.804       112.6739        55.3372        54.2804        76.1129         0.3158          2.238       -44.6454        -3.0503         0.9173         0.9727
      5980.0000         0.7395       115.8207       113.5571         54.725        53.8273        75.1073         0.3159         2.2427       -45.1487        -3.5509         0.8959          0.966
      5980.5000         0.7439       116.6421       112.2576        53.4496        53.3737        73.0137          0.316         2.2459       -45.6377        -4.0373         0.8514         0.9595
      5981.0000         0.7587       116.6925       109.3515        55.1313        52.9052        75.7713         0.3161         2.2487        -46.117        -4.5139           0.91         0.9531
      5981.5000         0.7704       113.3519       107.2212        57.7709        52.4312        80.1003         0.3163         2.2451       -46.6586        -5.0528              1          0.946
      5982.0000         0.7814       110.4094       105.5433        59.7973        51.9411        83.4233         0.3164         2.2415       -47.3953        -5.7868              1         0.9362
      5982.5000          0.786       109.0007        106.039         59.843        52.1852         83.497         0.3165         2.2348       -47.6229        -6.0117              1         0.9332
