#------------------------------------------------------------------------------
# Created by    : vladimir.rabinovich
# Created on    : 09/19/2023 17:21:35
#------------------------------------------------------------------------------
~Version Information Section
VERS.           2.0     :   CWLS log ASCII Standard - VERSION 2.0
WRAP.           NO      :   One line per depth step
~Well Information Section
#MNEM       .UNIT                                         VALUE :DESCRIPTION
#------------------------------------------------------------------------------
STRT        .FT                                            4200 :START DEPTH
STOP        .FT                                            8641 :STOP DEPTH
STEP        .FT                                             0.5 :STEP      
NULL        .                                           -999.25 :NULL      
COMP        .                                       HUNT OIL CO :COMPANY   
WELL        .                               OCS G25526 ST00BP00 :WELL      
FLD         .                                           WILDCAT :FIELD     
LOC         .                                                   :LOCATION  
CNTY        .                             GALVESTON LARGE BLOCK :LOCATION  
STAT        .                                             TEXAS :STATE     
CTRY        .                                     UNITED STATES :COUNTRY   
SRVC        .                                                   :SERVICE COMPANY
DATE        .                             9/13/2023 11:19:33 AM :LOG DATE  
API         .                                    42706404520000 :API NUMBER
UWI         .                                    42706404520000 :UNIQUE WELL ID
XCOORD      .                                  1090250.84236946 :SURFACE X 
YCOORD      .                                  10532258.5226608 :SURFACE Y 
LAT         .                                         29.010895 :LATITUDE  
LON         .                                        -94.721682 :LONGITUDE 
ELEV        .FT                                             108 :ELEVATION VALUE
ELEV_TYPE   .                                                KB :ELEVATION REFERENCE TYPE
~Curve Information Section
#MNEM       .UNIT                                      API CODE :CURVE DESCRIPTION
#------------------------------------------------------------------------------
DEPT        .FT                                                 :DEPTH     
CALI        .IN                                                 :          
DCAL        .IN                                                 :          
DFL         .OHMM                                               :          
DLOD        .LB                                                 :          
DPHI        .DEC                                                :          
DRHO        .G/C3                                               :          
GR          .GAPI                                               :          
GR_NORM     .GAPI                                               :GammaRay Normalized
HDCN        .MMHO                                               :          
HO24        .OHMM                                               :          
HO30        .OHMM                                               :          
HO40        .OHMM                                               :          
HO60        .OHMM                                               :          
HO90        .OHMM                                               :          
HT24        .OHMM                                               :          
HT30        .OHMM                                               :          
HT40        .OHMM                                               :          
HT60        .OHMM                                               :          
HT90        .OHMM                                               :          
NPHI        .DEC                                                :          
RHOB        .G/C3                                               :          
RWA         .OHMM                                               :          
SP_NORM     .MV                                                 :SP Normalized
SPA         .MV                                                 :          
TENS        .LBS                                                :          
VSH_GR      .V/V                                                :Volume of Shale from GR
VSH_SP      .V/V                                                :Volume of Shale from SP
~A        DEPTH           CALI           DCAL            DFL           DLOD           DPHI           DRHO             GR        GR_NORM           HDCN           HO24           HO30           HO40           HO60           HO90           HT24           HT30           HT40           HT60           HT90           NPHI           RHOB            RWA        SP_NORM            SPA           TENS         VSH_GR         VSH_SP
# ...
      8040.0000        13.8462         1.5962         0.7603       1495.901         0.1762         0.0232        77.8508        77.6045       1192.769         0.8467          0.849         0.8508         0.8532          0.856         0.8151         0.8208         0.8253         0.8311         0.8384         0.3335         2.3593         0.0623      -2.952778       151.4252       3981.053      0.9490319              1
      8040.5000        13.7371         1.4871         0.8411       1469.403         0.1715         0.0229        80.2915       80.32491       1172.923         0.8951         0.8937         0.8927         0.8913         0.8897         0.8329         0.8377         0.8415         0.8465         0.8526         0.3198         2.3671         0.0564      -2.845507       151.4725       3969.452              1              1
      8041.0000        14.0845         1.8345         0.8253       1471.442          0.181         0.0147        84.1767       84.65535       1199.423         0.8224         0.8275         0.8315         0.8367         0.8432         0.8019         0.8096         0.8157         0.8237         0.8337         0.3307         2.3514         0.0671       -2.80516       151.4903       3974.229              1              1
      8041.5000        14.3631         2.1131         0.7774       1475.518         0.1939         0.0068        84.6513       85.18434       1244.247         0.7421         0.7546         0.7646         0.7778         0.7946          0.751         0.7635         0.7735         0.7868         0.8037         0.3543         2.3301         0.0767      -2.899039       151.4489       3984.978              1              1
      8042.0000        14.5002         2.2502         0.7209       1469.403         0.1959         0.0084        83.9629       84.41705       1281.316         0.7123         0.7292         0.7428         0.7611         0.7848         0.7096         0.7261         0.7394         0.7573         0.7804         0.3671         2.3268         0.0719      -2.791768       151.4962       3997.262              1              1
      8042.5000        14.5583         2.3083         0.6578       1491.824         0.1883         0.0188        86.9772       87.77679       1317.581         0.6795         0.6994         0.7157         0.7378         0.7668         0.6816         0.6994         0.7139         0.7335          0.759         0.3682         2.3394         0.0678      -2.563627       151.5968       4006.475              1              1
      8043.0000         15.103          2.853         0.6289       1506.092         0.1864         0.0269        90.3253       91.50859       1363.109         0.6653         0.6821         0.6958         0.7143         0.7382         0.6619         0.6785          0.692         0.7101         0.7336         0.3729         2.3425         0.0659      -2.550236       151.6027       4009.375              1              1
      8043.5000        14.5028         2.2528         0.6216       1497.939         0.1914         0.0257        91.4987       92.81646       1411.369         0.6508         0.6641         0.6748         0.6891         0.7074         0.6463         0.6608         0.6725         0.6883         0.7085         0.3833         2.3342         0.0726      -2.550236       151.6027        4013.47              1              1
      8044.0000        14.5567         2.3067         0.6202       1502.016         0.1994         0.0184        89.9394       91.07847       1445.545         0.6284         0.6407         0.6506         0.6637         0.6806         0.6357         0.6489         0.6595         0.6736         0.6918         0.3878          2.321         0.0764      -2.751628       151.5139       4015.346              1              1
      8044.5000        14.5748         2.3248         0.6434       1506.092         0.2011          0.018        86.5235        87.2711       1454.046         0.6358         0.6481         0.6581         0.6714         0.6884         0.6313         0.6445         0.6552         0.6695         0.6877         0.3903         2.3181         0.0719       -3.30158       151.2714       4014.664              1      0.9947091
      8045.0000        14.5569         2.3069         0.6421       1502.016         0.1945         0.0226        86.1063       86.80609       1446.572         0.6356         0.6488         0.6594         0.6736         0.6919         0.6292         0.6437         0.6554         0.6711         0.6913         0.3973         2.3291         0.0708      -3.999357       150.9637       4009.375              1      0.9824674
      8045.5000        14.3045         2.0545         0.6461       1481.633          0.186         0.0318        87.9315       88.84046        1429.47          0.626          0.642          0.655         0.6726         0.6954         0.6277         0.6443         0.6578         0.6759         0.6996         0.4049          2.343         0.0739      -3.824956       151.0406       4002.551              1      0.9855271
      8046.0000        14.2017         1.9517         0.6562       1467.365         0.1868         0.0338        90.4504       91.64803       1402.586         0.6314         0.6503         0.6658         0.6869         0.7146         0.6287         0.6478         0.6636         0.6849          0.713         0.4077         2.3417         0.0805      -3.382067       151.2359       3994.873              1       0.993297
      8046.5000        14.3242         2.0742         0.6717       1453.097         0.1936         0.0277         91.629       92.96169       1375.063         0.6362         0.6582         0.6764         0.7013         0.7344         0.6331         0.6543         0.6717         0.6956         0.7272         0.4021         2.3306         0.0785      -3.167526       151.3305        3994.02              1       0.997061
      8047.0000        14.3176         2.0676         0.6921       1457.173          0.199         0.0208        90.9615        92.2177       1353.056         0.6375         0.6606         0.6797         0.7061         0.7411         0.6442         0.6656         0.6832         0.7072         0.7391         0.3929         2.3216         0.0815      -3.435807       151.2122       3996.068              1      0.9923543
      8047.5000        14.1769         1.9269         0.6546       1467.365         0.1962         0.0182        87.6812       88.56147       1325.067          0.657         0.6759         0.6915         0.7125         0.7401         0.6704         0.6897         0.7054         0.7268         0.7547         0.3803         2.3263         0.0811      -3.288188       151.2773       3997.262              1       0.994944
      8048.0000        14.1675         1.9175         0.6886       1459.212         0.1884         0.0197        83.0919       83.44624       1283.723         0.7277         0.7432         0.7557         0.7724         0.7938         0.7096         0.7258         0.7389         0.7564          0.779         0.3628         2.3392         0.0717       -2.99316       151.4074       3995.897              1              1
      8048.5000        14.0938         1.8438         0.7156       1487.748         0.1926         0.0146        79.2119       79.12158       1260.365         0.7756         0.7859          0.794         0.8047         0.8182          0.741         0.7535         0.7634         0.7766         0.7934         0.3459         2.3322          0.071       -3.26144       151.2891       3988.219      0.9813102      0.9954133
      8049.0000          14.05            1.8         0.7349       1459.212         0.2035         0.0113        80.7921       80.88288         1264.6         0.7557         0.7626         0.7681         0.7752         0.7841         0.7496         0.7595         0.7673         0.7777         0.7908         0.3413         2.3143         0.0717      -3.288188       151.2773       3981.224              1       0.994944
      8049.5000        14.0218         1.7718         0.7065       1457.173         0.2081         0.0123        82.3983       82.67315       1264.117         0.7407         0.7502         0.7578         0.7677         0.7803         0.7486         0.7588         0.7669         0.7776         0.7911         0.3529         2.3067         0.0729      -3.221058       151.3069       3976.959              1      0.9961218
