#------------------------------------------------------------------------------
# Created by    : vladimir.rabinovich
# Created on    : 09/19/2023 17:21:32
#------------------------------------------------------------------------------
~Version Information Section
VERS.           2.0     :   CWLS log ASCII Standard - VERSION 2.0
WRAP.           NO      :   One line per depth step
~Well Information Section
#MNEM       .UNIT                                         VALUE :DESCRIPTION
#------------------------------------------------------------------------------
STRT        .FT                                            4185 :START DEPTH
STOP        .FT                                            8075 :STOP DEPTH
STEP        .FT                                             0.5 :STEP      
NULL        .                                           -999.25 :NULL      
COMP        .                                         HESS CORP :COMPANY   
WELL        .                               OCS G07236 ST00BP00 :WELL      
FLD         .                              GALVESTON BLOCK 0210 :FIELD     
LOC         .                                                   :LOCATION  
CNTY        .                             GALVESTON LARGE BLOCK :LOCATION  
STAT        .                                             TEXAS :STATE     
CTRY        .                                     UNITED STATES :COUNTRY   
SRVC        .                                                   :SERVICE COMPANY
DATE        .                             9/13/2023 11:19:34 AM :LOG DATE  
API         .                                    42706402930000 :API NUMBER
UWI         .                                    42706402930000 :UNIQUE WELL ID
XCOORD      .                                   1127714.7472722 :SURFACE X 
YCOORD      .                                  10563055.4663979 :SURFACE Y 
LAT         .                                         29.097041 :LATITUDE  
LON         .                                        -94.605794 :LONGITUDE 
ELEV        .FT                                              89 :ELEVATION VALUE
ELEV_TYPE   .                                                KB :ELEVATION REFERENCE TYPE
~Curve Information Section
#MNEM       .UNIT                                      API CODE :CURVE DESCRIPTION
#------------------------------------------------------------------------------
DEPT        .FT                                                 :DEPTH     
CALI        .IN                                                 :          
DRHO        .G/CC                                               :          
DT          .US/F                                               :          
ILD         .OHMM                                               :          
ILM         .OHMM                                               :          
NPHI        .%                                                  :          
RFOC        .OHMM                                               :          
RHOB        .G/CC                                               :          
SP          .MV                                                 :          
SP_NORM     .MV                                                 :SP Normalized
VSH_SP      .V/V                                                :Volume of Shale from SP
~A        DEPTH           CALI           DRHO             DT            ILD            ILM           NPHI           RFOC           RHOB             SP        SP_NORM         VSH_SP
# ...
      7807.5000        11.8417          0.001        97.5074         0.3251         0.3072        10.8268         1.3579         2.4683       -108.902      -68.83177     0.08224304
      7808.0000         11.874         0.0008        83.9519         0.3519         0.3483         7.7512         3.5931         2.5345       -110.191      -70.12698     0.06497355
      7808.5000        11.9377        -0.0026        64.4061         0.3568         0.3633        14.1287         9.1717           2.43      -112.0765       -72.0187     0.03975067
      7809.0000        12.0285        -0.0023        62.5436         0.3483         0.3449        16.9019         4.4849         2.2821       -116.022      -75.97041              0
      7809.5000        12.1807         0.0012        65.2145         0.3396         0.3091        21.3168         3.4071         2.1654       -119.298      -79.25262              0
      7810.0000        12.3611         0.0058        70.6969         0.3319         0.2819        24.6436         1.3842          2.079      -120.5114      -80.47224              0
      7810.5000        12.2978         0.0087       102.4198         0.3056         0.2589         30.927         0.9578         2.0658      -121.1469      -81.11395              0
      7811.0000        12.1628         0.0074       110.4775          0.253         0.2466        34.5087         0.8185         2.0675      -122.0864      -82.05967              0
      7811.5000         11.997         0.0064       113.1306         0.2295         0.2362        36.2322         0.7767          2.077      -123.1652      -83.14468              0
      7812.0000        11.8521         0.0056       113.3704         0.2138          0.227        35.9217         0.7627         2.0875      -123.8383        -83.824              0
      7812.5000        11.7384         0.0046        113.411         0.2005         0.2195        35.6477         0.7697         2.0981       -123.446      -83.43791              0
      7813.0000        11.7246         0.0037       113.8741         0.1965         0.2135        35.6254         0.7803         2.1074      -122.6444      -82.64252              0
      7813.5000        11.7467         0.0034       114.7085         0.1975         0.2105        35.6363         0.7784         2.1154      -121.9604      -81.96474              0
      7814.0000        11.7935         0.0035       115.7888         0.1992          0.211        35.7698         0.7763         2.1206      -121.8527      -81.86325              0
      7814.5000        11.8318         0.0041        115.798         0.2014         0.2125        35.8937         0.7737         2.1188      -121.7806      -81.79736              0
      7815.0000        11.8527         0.0048       115.2538         0.2048         0.2147        36.0729         0.7699         2.1159      -121.7935      -81.81648              0
      7815.5000         11.835         0.0054       114.6088         0.2089         0.2164        36.1285         0.7601         2.1139        -121.64      -81.66919              0
      7816.0000        11.8123         0.0057       113.9927           0.21         0.2169        35.8024         0.7367          2.114       -121.298       -81.3334              0
      7816.5000        11.7805         0.0056       113.4803          0.208         0.2174        35.4969         0.7176         2.1163      -121.2072      -81.24883              0
      7817.0000        11.7381          0.005       113.1102         0.2061         0.2167        35.5728         0.7003         2.1175      -121.2384      -81.28624              0
      7817.5000        11.6759         0.0043       113.1021         0.2052         0.2168        35.8312         0.6848         2.1191      -121.2347      -81.28876              0
      7818.0000        11.6422         0.0038       113.5303         0.2045         0.2177        36.3189         0.6909         2.1182      -120.7678      -80.82806              0
      7818.5000        11.6448         0.0034       113.9772          0.204           0.22        37.1887         0.7094         2.1129      -119.3518      -79.41827              0
      7819.0000        11.6539          0.003       114.8225          0.204         0.2222        37.4521         0.7206         2.0975      -117.4252      -77.49789              0
      7819.5000        11.6671         0.0026       116.3407         0.2036         0.2235        36.9493         0.7224         2.0756      -114.7855      -74.86441    0.001807861
      7820.0000        11.6837         0.0055       117.5228         0.2005         0.2245        34.6299         0.6961         2.0419      -112.3947      -72.47982      0.0336024
      7820.5000        11.7104         0.0076       117.8196         0.1947         0.2243        35.1662         0.6701         2.0428      -111.7225      -71.81384      0.0424821
      7821.0000        11.7255         0.0062       117.3914         0.1902         0.2227        35.9979         0.6787         2.0599      -113.6285      -73.72605     0.01698598
      7821.5000        11.7349         0.0041       116.5609         0.1899         0.2215        35.9165         0.6822          2.083      -115.3678      -75.47156              0
      7822.0000        11.7428         0.0024       115.4974         0.1935         0.2239        35.2789         0.6716          2.107      -117.0995      -77.20947              0
      7822.5000        11.7408         0.0024       114.3431          0.202         0.2304        34.4581         0.6749         2.1182      -118.5328      -78.64899              0
      7823.0000        11.7438         0.0027       113.3289         0.2153         0.2435         34.258         0.7405         2.1295      -116.8839       -77.0063              0
      7823.5000        11.7563         0.0033       112.5153         0.2377         0.2705        34.2836         0.8315         2.1465       -111.035      -71.16362     0.05115173
      7824.0000        11.7894         0.0049       111.8397         0.2838         0.3065          34.79         0.7963         2.1781       -99.0549      -59.18973      0.2108036
      7824.5000        11.8242         0.0072       111.1758         0.3472         0.3511          35.83         0.7267         2.2167         -84.14      -44.28104      0.4095861
      7825.0000        11.8023         0.0073       110.5533         0.4235         0.4227        38.9608         0.6868         2.2701       -60.0465      -20.19376      0.7307498
      7825.5000         11.725         0.0068       110.2949         0.5095         0.5018         41.162         0.7017         2.3241        -43.064      -3.217472      0.9571004
      7826.0000        11.6528          0.007       110.9957          0.708         0.6312        42.8892         0.7407         2.3473        -34.424       5.416313              1
      7826.5000        11.6759         0.0078       111.7198         0.8808         0.7355        43.4717         0.7991          2.345       -30.9506       8.883499              1
      7827.0000        11.7341         0.0088       112.5153          1.122         0.7724        42.9249         0.8217         2.3354       -30.2156       9.612286              1
      7827.5000        11.7881         0.0094       113.2925         1.2631         0.7904        42.2837         0.8435          2.332       -29.8744       9.947271              1
      7828.0000        11.7929         0.0087       113.9584         1.2931         0.7952        42.0588         0.8618         2.3328       -29.3312       10.48426              1
      7828.5000        11.7319         0.0077       114.3198         1.2384         0.7732        42.8441         0.8598         2.3296       -29.5948       10.21444              1
      7829.0000        11.6553          0.008       114.4716         1.1455         0.7318        44.3364         0.8251         2.3191        -30.249       9.554028              1
      7829.5000        11.6231         0.0089       114.4849         0.9827         0.6624        45.0636         0.7699          2.303       -31.3726       8.424213              1
