#------------------------------------------------------------------------------
# Created by    : vladimir.rabinovich
# Created on    : 09/19/2023 17:19:45
#------------------------------------------------------------------------------
~Version Information Section
VERS.           2.0     :   CWLS log ASCII Standard - VERSION 2.0
WRAP.           NO      :   One line per depth step
~Well Information Section
#MNEM       .UNIT                                         VALUE :DESCRIPTION
#------------------------------------------------------------------------------
STRT        .FT                                            3127 :START DEPTH
STOP        .FT                                           13892 :STOP DEPTH
STEP        .FT                                             0.5 :STEP      
NULL        .                                           -999.25 :NULL      
COMP        .                                       MONSANTO CO :COMPANY   
WELL        .                                     ST TR 00010-L :WELL      
FLD         .                                           WILDCAT :FIELD     
LOC         .                                                   :LOCATION  
CNTY        .                           HIGH ISLAND LARGE BLOCK :LOCATION  
STAT        .                                             TEXAS :STATE     
CTRY        .                                     UNITED STATES :COUNTRY   
SRVC        .                                                   :SERVICE COMPANY
DATE        .                             9/13/2023 11:19:15 AM :LOG DATE  
API         .                                    42708300750000 :API NUMBER
UWI         .                                    42708300750000 :UNIQUE WELL ID
XCOORD      .                                  1327265.43976741 :SURFACE X 
YCOORD      .                                  10725214.5969587 :SURFACE Y 
LAT         .                                        29.5491158 :LATITUDE  
LON         .                                       -93.9851741 :LONGITUDE 
ELEV        .FT                                              54 :ELEVATION VALUE
ELEV_TYPE   .                                                KB :ELEVATION REFERENCE TYPE
~Curve Information Section
#MNEM       .UNIT                                      API CODE :CURVE DESCRIPTION
#------------------------------------------------------------------------------
DEPT        .FT                                                 :DEPTH     
ASFL        .OHMM                                               :          
CILD        .MMHO                                               :          
ILD         .OHMM                                               :          
SP          .MV                                                 :          
SP_NORM     .MV                                                 :SP Normalized
VSH_SP      .V/V                                                :Volume of Shale from SP
~A        DEPTH           ASFL           CILD            ILD             SP        SP_NORM         VSH_SP
# ...
      6699.0000         0.7461       5339.898        -999.25      -131.9998      -87.97464     0.07473788
      6699.5000         0.7415       5667.297        -999.25      -131.9849      -87.95973     0.07489647
      6700.0000         0.7352       5995.094        -999.25        -131.97      -87.94484      0.0750549
      6700.5000         0.7278       6163.063        -999.25      -131.9038      -87.87863     0.07575924
      6701.0000         0.7203       6243.914        -999.25      -131.7405      -87.71533     0.07749647
      6701.5000         0.7129       6324.969        -999.25      -131.5769      -87.55174     0.07923678
      6702.0000         0.7055       6396.586        -999.25      -130.6033      -86.57814     0.08959425
      6702.5000         0.7047       6441.391        -999.25      -125.6998      -81.67464      0.1417592
      6703.0000         0.7145       6469.781        -999.25      -120.5347      -76.50954      0.1967071
      6703.5000         0.7239       6457.867        -999.25      -114.6843      -70.65915      0.2589452
      6704.0000         0.7328       6342.453        -999.25      -108.1563      -64.13115       0.328392
      6704.5000         0.7417       6219.781        -999.25      -101.8344      -57.80924      0.3956464
      6705.0000         0.7505       6059.852        -999.25       -95.5198      -51.49464       0.462823
      6705.5000         0.7594         5250.5        -999.25       -81.1814      -37.15624      0.6153592
      6706.0000         0.7682       3856.688        -999.25       -50.0767       -6.05154      0.9462602
      6706.5000         0.7755       2806.156        -999.25       -48.5736      -4.548443      0.9622506
      6707.0000         0.7818       1754.039        -999.25       -47.4131      -3.387943      0.9745963
      6707.5000          0.788       1676.463        -999.25       -46.6883      -2.663143       0.982307
      6708.0000         0.7943       1606.186        -999.25       -45.9644      -1.939243      0.9900081
      6708.5000         0.8005       1572.811        -999.25       -45.2396      -1.214443      0.9977187
      6709.0000         0.8068       1539.434        -999.25       -43.2244      0.8007584              1
      6709.5000          0.813       1508.543        -999.25        -41.467       2.558159              1
      6710.0000         0.8203       1488.328        -999.25       -40.2808       3.744358              1
      6710.5000         0.8276       1468.139        -999.25       -39.0945       4.930656              1
      6711.0000         0.8349       1447.926        -999.25       -37.9083       6.116859              1
      6711.5000         0.8421       1427.736        -999.25       -38.6441       5.381058              1
      6712.0000         0.8494       1407.521        -999.25       -47.7889      -3.763741      0.9705985
      6712.5000         0.8567       1387.334        -999.25       -68.5966      -24.57145      0.7492399
      6713.0000         0.8633       1853.371        -999.25       -78.8309      -34.80574      0.6403644
      6713.5000         0.8697       2285.262        -999.25       -83.7712      -39.74604       0.587808
      6714.0000         0.8514       2716.758        -999.25       -87.6654      -43.64024      0.5463804
      6714.5000         0.8324       3148.652        -999.25        -91.552      -47.52684      0.5050336
      6715.0000         0.8137       3580.148        -999.25      -112.8645      -68.83934      0.2783049
      6715.5000         0.7961       4012.039        -999.25      -123.5188      -79.49364      0.1649613
      6716.0000         0.7785       4562.336        -999.25      -124.5199      -80.49474      0.1543113
      6716.5000          0.761       5264.805        -999.25      -125.4346      -81.40944      0.1445804
      6717.0000         0.7474       5829.805        -999.25      -126.6466      -82.62144      0.1316868
      6717.5000         0.7445       5955.313        -999.25      -129.1682      -85.14304      0.1048613
      6718.0000         0.7417       5916.914        -999.25      -128.1091      -84.08394      0.1161283
      6718.5000         0.7389       5878.578        -999.25      -127.0509      -83.02574      0.1273857
      6719.0000         0.7364       5838.445        -999.25      -125.9917      -81.96654      0.1386539
      6719.5000         0.7338         5793.5        -999.25      -124.9326      -80.90744      0.1499209
      6720.0000         0.7312         5748.5        -999.25       -122.373      -78.34784      0.1771507
      6720.5000         0.7286       5656.969        -999.25      -118.9615      -74.93634      0.2134432
      6721.0000         0.7261       5482.742        -999.25      -115.5281      -71.50294      0.2499687
      6721.5000         0.7236       5412.016        -999.25      -111.2618      -67.23665      0.2953548
      6722.0000          0.723       5313.578        -999.25      -106.9957      -62.97054       0.340739
      6722.5000         0.7223       5077.266        -999.25      -111.5972      -67.57204      0.2917868
      6723.0000         0.7403       4921.023        -999.25      -118.1327      -74.10754      0.2222602
      6723.5000         0.7652       4772.914        -999.25      -122.0231      -77.99794       0.180873
      6724.0000         0.7901       4561.539        -999.25      -124.5061      -80.48094      0.1544581
      6724.5000         0.8161       4350.164        -999.25       -126.326      -82.30084      0.1350974
      6725.0000         0.8435       4409.766        -999.25      -127.8531      -83.82794      0.1188517
      6725.5000          0.871       4688.289        -999.25      -129.3459      -85.32074      0.1029709
      6726.0000         0.8984       4966.813        -999.25      -129.9604      -85.93524      0.0964336
      6726.5000         0.9179       5244.938        -999.25      -130.5747      -86.54955     0.08989845
      6727.0000         0.9319       5405.563        -999.25       -131.189      -87.16383     0.08336347
      6727.5000         0.9267       5481.648        -999.25      -131.8005      -87.77534     0.07685804
      6728.0000         0.9214        5538.07        -999.25      -132.3982      -88.37303     0.07049967
      6728.5000         0.9161       5582.664        -999.25      -132.9951      -88.96994     0.06414957
      6729.0000           0.91       5622.547        -999.25      -133.5928      -89.56764     0.05779104
      6729.5000         0.9016       5662.133        -999.25       -134.198      -90.17284     0.05135281
      6730.0000         0.8933        5719.25        -999.25      -135.1255      -91.10034     0.04148573
      6730.5000         0.8872       5783.516        -999.25       -136.053      -92.02783     0.03161881
      6731.0000         0.8942        5842.32        -999.25      -136.9812      -92.95604     0.02174426
      6731.5000         0.9011       5894.469        -999.25      -137.9087      -93.88354     0.01187718
      6732.0000          0.908       5928.438        -999.25      -138.3689      -94.34373    0.006981545
      6732.5000         0.9149       5962.414        -999.25      -138.7004      -94.67523     0.00345498
      6733.0000         0.9217       5984.414        -999.25      -139.0315      -95.00633              0
      6733.5000         0.9273       5993.219        -999.25       -139.363      -95.33784              0
      6734.0000         0.9329       5986.188        -999.25      -139.5872      -95.56204              0
      6734.5000         0.9385       5979.156        -999.25      -139.6487      -95.62354              0
      6735.0000         0.9411       5972.117        -999.25      -139.7104      -95.68524              0
      6735.5000         0.9388       5965.086        -999.25       -139.772      -95.74684              0
      6736.0000         0.9364       5958.055        -999.25      -139.4602      -95.43504              0
      6736.5000         0.9341       5949.539        -999.25      -139.0684      -95.04324              0
