#------------------------------------------------------------------------------
# Created by    : vladimir.rabinovich
# Created on    : 09/19/2023 17:20:24
#------------------------------------------------------------------------------
~Version Information Section
VERS.           2.0     :   CWLS log ASCII Standard - VERSION 2.0
WRAP.           NO      :   One line per depth step
~Well Information Section
#MNEM       .UNIT                                         VALUE :DESCRIPTION
#------------------------------------------------------------------------------
STRT        .FT                                            3071 :START DEPTH
STOP        .FT                                           14991 :STOP DEPTH
STEP        .FT                                             0.5 :STEP      
NULL        .                                           -999.25 :NULL      
COMP        .                                        TEXACO USA :COMPANY   
WELL        .                                     ST TR 00012-L :WELL      
FLD         .                                           WILDCAT :FIELD     
LOC         .                                                   :LOCATION  
CNTY        .                           HIGH ISLAND LARGE BLOCK :LOCATION  
STAT        .                                             TEXAS :STATE     
CTRY        .                                     UNITED STATES :COUNTRY   
SRVC        .                                                   :SERVICE COMPANY
DATE        .                             9/13/2023 11:19:15 AM :LOG DATE  
API         .                                    42708000680000 :API NUMBER
UWI         .                                    42708000680000 :UNIQUE WELL ID
XCOORD      .                                  1354682.00685938 :SURFACE X 
YCOORD      .                                  10733491.7088446 :SURFACE Y 
LAT         .                                        29.5724948 :LATITUDE  
LON         .                                       -93.8991324 :LONGITUDE 
ELEV        .FT                                              44 :ELEVATION VALUE
ELEV_TYPE   .                                                KB :ELEVATION REFERENCE TYPE
~Curve Information Section
#MNEM       .UNIT                                      API CODE :CURVE DESCRIPTION
#------------------------------------------------------------------------------
DEPT        .FT                                                 :DEPTH     
ASN         .OHMM                                               :          
CILD        .MMHO                                               :          
ILD         .OHMM                                               :          
SP          .MV                                                 :          
SP_NORM     .MV                                                 :SP Normalized
VSH_SP      .V/V                                                :Volume of Shale from SP
~A        DEPTH            ASN           CILD            ILD             SP        SP_NORM         VSH_SP
# ...
     13369.0000          0.601        2229.43          0.608       -40.9512       2.361572              1
     13369.5000         0.6014        2230.27          0.614       -40.8318       2.482357              1
     13370.0000         0.6038        2226.68         0.6199       -40.7725       2.543041              1
     13370.5000         0.6087        2223.09         0.6259       -40.8086        2.50832              1
     13371.0000         0.6135       2219.492         0.6318       -40.8448       2.473507              1
     13371.5000         0.6184       2215.902         0.6377       -40.8809       2.438789              1
     13372.0000         0.6233       2212.313         0.6437       -40.9171       2.403973              1
     13372.5000         0.6282       2189.188         0.6496       -40.9532       2.369255              1
     13373.0000          0.633       2156.816         0.6555       -40.9894       2.334442              1
     13373.5000         0.6379       1966.377         0.6615       -41.0256       2.299622              1
     13374.0000         0.6428        1931.01         0.6674       -41.0618       2.264809              1
     13374.5000         0.6477       1888.471         0.6734       -41.0978       2.230186              1
     13375.0000         0.6525       1848.596         0.6793        -41.134       2.195374              1
     13375.5000         0.6581       1808.723         0.6852       -41.2457       2.085056              1
     13376.0000         0.6644       1784.344          0.687       -41.6215        1.71064              1
     13376.5000         0.6706       1769.096         0.6874       -41.9979       1.335625              1
     13377.0000         0.6769       1753.822         0.6877       -42.3736      0.9613075              1
     13377.5000         0.6832       1738.549         0.6881       -42.7499      0.5863876              1
     13378.0000         0.6894       1723.299         0.6884       -43.1257      0.2119713              1
     13378.5000         0.6957       1708.025         0.6888       -43.5021      -0.163044              1
     13379.0000          0.702       1692.777         0.6891       -43.8784     -0.5379601              1
     13379.5000         0.7082       1680.045         0.6895       -44.0454     -0.7035751              1
     13380.0000         0.7145       1667.635         0.6899       -44.0806     -0.7373924              1
     13380.5000         0.7208       1655.197         0.6902       -44.1158     -0.7712097              1
     13381.0000         0.7222       1651.398         0.6906        -44.151      -0.805027              1
     13381.5000         0.7235       1665.832         0.6909       -44.1862     -0.8388443              1
     13382.0000         0.7247       1680.268         0.6913       -44.2215     -0.8727608              1
     13382.5000          0.726       1699.414         0.6916       -44.2567     -0.9065742              1
     13383.0000         0.7273       1718.908          0.692       -44.2919     -0.9403954              1
     13383.5000         0.7286       1738.449         0.6923       -44.3271     -0.9742088              1
     13384.0000         0.7299       1757.943         0.6927       -44.3088      -0.954525              1
     13384.5000         0.7312       1774.697         0.6904       -44.2233     -0.8676453              1
     13385.0000         0.7325       1785.529          0.688       -44.1379     -0.7808609              1
     13385.5000         0.7317       1796.361         0.6856       -44.0525     -0.6940765              1
     13386.0000         0.7295       1807.193         0.6833        -43.967      -0.607193              1
     13386.5000         0.7274       1818.025         0.6809       -43.8815     -0.5203094              1
     13387.0000         0.7253       1822.953         0.6785       -43.7961     -0.4335289              1
     13387.5000         0.7231       1822.408         0.6762       -43.7107     -0.3467445              1
     13388.0000          0.721       1821.863         0.6738       -43.6253     -0.2599602              1
     13388.5000         0.7188       1821.316         0.6715       -43.5399     -0.1731796              1
     13389.0000         0.7167       1820.771         0.6691       -43.5424     -0.1742935              1
     13389.5000         0.7146       1820.225         0.6667       -43.7532      -0.383709              1
     13390.0000         0.7124       1816.791         0.6644        -43.964     -0.5931282              1
     13390.5000         0.7103       1807.982          0.662       -44.1748     -0.8025436              1
     13391.0000         0.7082       1799.174         0.6597       -44.3856      -1.011959      0.9998131
     13391.5000          0.706        1790.34         0.6573       -44.5964      -1.221378       0.996541
     13392.0000         0.7042       1781.531         0.6549       -44.8073      -1.430893      0.9932673
     13392.5000         0.7028       1772.723         0.6526       -45.0187      -1.640907      0.9899858
     13393.0000         0.7013       1763.914         0.6502       -45.2295      -1.850327      0.9867136
     13393.5000         0.6999        1755.08         0.6479       -45.4403      -2.059742      0.9834415
     13394.0000         0.6985       1746.271         0.6481        -45.635      -2.253059      0.9804209
     13394.5000          0.697       1737.463         0.6489       -45.6938      -2.310478      0.9795238
     13395.0000         0.6973       1728.629         0.6497       -45.7527      -2.367992      0.9786251
     13395.5000         0.6996        1719.82         0.6505       -45.8114      -2.425312      0.9777295
     13396.0000         0.7019       1711.012         0.6512       -45.8703      -2.482826      0.9768308
     13396.5000         0.7042       1702.449          0.652       -45.9291      -2.540241      0.9759337
     13397.0000         0.7064       1699.582         0.6528       -45.9879       -2.59766      0.9750366
     13397.5000         0.7087       1696.713         0.6536       -46.0468      -2.655174      0.9741379
     13398.0000          0.711        1696.43         0.6543       -46.1055       -2.71249      0.9732423
     13398.5000         0.7133       1703.598         0.6551       -46.1644      -2.770008      0.9723436
     13399.0000         0.7156       1710.777         0.6559       -46.2231      -2.827324      0.9714481
     13399.5000         0.7179       1717.957         0.6567       -46.2819      -2.884739       0.970551
     13400.0000         0.7202       1725.125         0.6574       -46.3408      -2.942261      0.9696522
     13400.5000         0.7215       1732.305         0.6582       -46.3995      -2.999577      0.9687566
     13401.0000         0.7228       1739.486          0.659        -46.446      -3.044693      0.9680517
     13401.5000          0.724       1736.723         0.6598       -46.4815      -3.078808      0.9675186
     13402.0000         0.7253       1729.357         0.6605       -46.5171      -3.113026       0.966984
     13402.5000         0.7266       1721.979         0.6613       -46.5526      -3.147144      0.9664509
     13403.0000         0.7271       1714.318         0.6621       -46.5882      -3.181358      0.9659163
     13403.5000         0.7257       1705.041         0.6629       -46.6237      -3.215473      0.9653832
     13404.0000         0.7243       1695.764         0.6637       -46.6592      -3.249592      0.9648501
     13404.5000          0.723       1699.982         0.6644       -46.6948       -3.28381      0.9643155
     13405.0000         0.7216       1712.492         0.6652       -46.7303      -3.317924      0.9637824
     13405.5000         0.7202       1722.781         0.6659       -46.7658      -3.352043      0.9632493
     13406.0000         0.7188       1733.096         0.6662       -46.8014      -3.386257      0.9627147
     13406.5000         0.7174       1743.385         0.6664       -46.8369      -3.420372      0.9621817
