#------------------------------------------------------------------------------
# Created by    : vladimir.rabinovich
# Created on    : 09/19/2023 17:22:18
#------------------------------------------------------------------------------
~Version Information Section
VERS.           2.0     :   CWLS log ASCII Standard - VERSION 2.0
WRAP.           NO      :   One line per depth step
~Well Information Section
#MNEM       .UNIT                                         VALUE :DESCRIPTION
#------------------------------------------------------------------------------
STRT        .FT                                            4012 :START DEPTH
STOP        .FT                                            9352 :STOP DEPTH
STEP        .FT                                             0.5 :STEP      
NULL        .                                           -999.25 :NULL      
COMP        .                                   KERR-MCGEE CORP :COMPANY   
WELL        .                                ST TR 00007-L SE/4 :WELL      
FLD         .                                           WILDCAT :FIELD     
LOC         .                                                   :LOCATION  
CNTY        .                           HIGH ISLAND LARGE BLOCK :LOCATION  
STAT        .                                             TEXAS :STATE     
CTRY        .                                     UNITED STATES :COUNTRY   
SRVC        .                                                   :SERVICE COMPANY
DATE        .                             9/13/2023 11:19:15 AM :LOG DATE  
API         .                                    42708302700000 :API NUMBER
UWI         .                                    42708302700000 :UNIQUE WELL ID
XCOORD      .                                   1285759.2062487 :SURFACE X 
YCOORD      .                                  10728779.4927599 :SURFACE Y 
LAT         .                                        29.5578886 :LATITUDE  
LON         .                                       -94.1158411 :LONGITUDE 
ELEV        .FT                                             125 :ELEVATION VALUE
ELEV_TYPE   .                                                KB :ELEVATION REFERENCE TYPE
~Curve Information Section
#MNEM       .UNIT                                      API CODE :CURVE DESCRIPTION
#------------------------------------------------------------------------------
DEPT        .FT                                                 :DEPTH     
CALI        .IN                                                 :          
CILD        .MMHO                                               :          
DPHI        .%                                                  :          
ILD         .OHMM                                               :          
ILM         .OHMM                                               :          
SFL         .OHMM                                               :          
SP          .MV                                                 :          
SP_NORM     .MV                                                 :SP Normalized
VSH_SP      .V/V                                                :Volume of Shale from SP
~A        DEPTH           CALI           CILD           DPHI            ILD            ILM            SFL             SP        SP_NORM         VSH_SP
# ...
      4727.5000        16.0547       1304.082        14.2901         0.7016          0.762         0.8158       -85.4041       -18.7374      0.7323229
      4728.0000        16.0009       1461.182        15.7511         0.6119           0.72          0.822       -89.0205       -22.3538        0.68066
      4728.5000        15.9476       1627.412        18.8734         0.5353         0.6799         0.8103       -93.2352       -26.5685        0.62045
      4729.0000        15.9307       1797.963        22.2079         0.4718         0.6437         0.7947       -96.2776       -29.6109      0.5769871
      4729.5000        15.9547       1983.635        33.2009         0.4358         0.6112         0.7728       -99.8674       -33.2007      0.5257043
      4730.0000        16.0334       2178.043        34.5993         0.4157         0.5802         0.7549      -104.0555       -37.3888      0.4658743
      4730.5000        16.1432       2430.973        35.2856         0.3901         0.5498         0.7446       -107.735       -41.0683        0.41331
      4731.0000        16.2423           2722        35.3603         0.3651         0.5194         0.7354      -110.3945       -43.7278      0.3753172
      4731.5000        16.2581       2894.121        35.0231         0.3427         0.4907         0.7271      -112.3553       -45.6886      0.3473057
      4732.0000        16.2589       3009.488        34.5916         0.3244         0.4621         0.7216      -113.3706       -46.7039      0.3328014
      4732.5000        16.2665       3106.008        34.4355         0.3105         0.4348         0.7159       -113.465       -46.7983      0.3314528
      4733.0000        16.2754       3175.918         34.272         0.3055         0.4097         0.7028      -112.8877        -46.221         0.3397
      4733.5000        16.2842       3125.152          33.22         0.3173         0.3866         0.6785      -112.1119       -45.4452      0.3507828
      4734.0000        16.2946       2839.625        30.6411         0.3386         0.3963         0.6506      -111.1091       -44.4424      0.3651085
      4734.5000         16.305       2475.352        28.3848         0.3602         0.4348         0.6438      -109.8326       -43.1659      0.3833443
      4735.0000        16.3101        2270.93        25.7308         0.4034         0.4852         0.6969      -107.9312       -41.2645      0.4105071
      4735.5000        16.3109       2036.852        17.2769         0.4485          0.566          0.894      -105.4047        -38.738         0.4466
      4736.0000        16.3168       1754.859        13.1693         0.5207         0.6358         1.1539       -101.345       -34.6783      0.5045958
      4736.5000        16.3264        1385.48        12.6244         0.6217          0.688         1.1421       -95.8077        -29.141         0.5837
      4737.0000        16.3287       1234.469        13.8379         0.6746         0.7196         1.0098       -90.9099       -24.2432      0.6536686
      4737.5000        16.3294       1137.951        15.5508         0.7017         0.7479         0.8745       -84.1517        -17.485      0.7502143
      4738.0000         16.324       1019.587        17.0302         0.7014         0.7681         0.9084       -80.8138       -14.1471      0.7978986
      4738.5000        16.3169       955.7656         17.971         0.7038         0.7819         0.9443       -78.4885       -11.8218      0.8311172
      4739.0000        16.2708       987.6768        18.3777         0.7684         0.7827         0.9663       -76.6707        -10.004      0.8570857
      4739.5000        16.1595       1058.223         18.647         0.7912         0.7756         0.9435       -75.4174        -8.7507        0.87499
      4740.0000        16.0308       1132.256         18.826          0.782         0.7603         0.9032       -74.8939        -8.2272      0.8824686
      4740.5000        16.0299       1205.012        18.9859         0.7822          0.736         0.8403       -74.3658        -7.6991      0.8900129
      4741.0000        16.0291       1254.658        19.1251          0.784         0.6947         0.7712       -73.8159        -7.1492      0.8978686
      4741.5000        16.0283       1274.014         19.386         0.7835         0.6639         0.7023       -73.4459        -6.7792      0.9031543
      4742.0000        16.0274        1297.75        19.4097         0.7718         0.6501         0.6639       -73.4926        -6.8259      0.9024872
      4742.5000        16.0266       1347.236        19.1857         0.7526         0.6458         0.6323       -73.9734        -7.3067      0.8956186
      4743.0000        16.0257       1403.154        18.8823         0.7245         0.6476         0.6289        -75.067        -8.4003      0.8799957
      4743.5000        16.0248       1464.324        18.2225         0.6926         0.6493         0.6425       -77.6504       -10.9837        0.84309
      4744.0000         16.024       1532.465        17.3579         0.6642         0.6509         0.6855       -83.4348       -16.7681      0.7604557
      4744.5000        16.0232       1624.662        16.3572          0.638         0.6468         0.7648       -92.3099       -25.6432      0.6336686
      4745.0000        16.0223       1683.182        15.5464         0.6103         0.6421         0.8912       -97.9005       -31.2338      0.5538028
      4745.5000        16.0215       1745.826        15.7018         0.5821         0.6373         0.9809       -101.735       -35.0683      0.4990243
      4746.0000        16.0206       1830.561         16.947         0.5468         0.6288         0.9112      -105.3586       -38.6919      0.4472586
      4746.5000        16.0198       1931.006        20.9656         0.5136         0.6123         0.8278       -109.026       -42.3593      0.3948672
      4747.0000        16.0189       2049.223        21.0206         0.4827         0.5839         0.7285      -114.4652       -47.7985      0.3171643
      4747.5000        16.0181        2182.07        20.7203         0.4506         0.5455         0.6876       -114.814       -48.1473      0.3121814
      4748.0000        16.0172       2370.293         20.801         0.4131         0.4942         0.7432       -114.048       -47.3813      0.3231243
      4748.5000        16.0164         2716.5        21.6732         0.3621          0.443         0.8623      -113.2419       -46.5752        0.33464
      4749.0000        16.0155       3031.285        23.1623         0.3095         0.4002         0.9098      -114.5076       -47.8409      0.3165586
      4749.5000        16.0143       3359.426        24.0887         0.2698          0.361          0.887      -116.7095       -50.0428      0.2851028
      4750.0000        16.0063        3682.07        24.4684         0.2475         0.3272         0.8494      -118.9354       -52.2687      0.2533043
      4750.5000         16.094       4041.105        24.7762         0.2351         0.2966         0.7919      -121.1107        -54.444      0.2222286
      4751.0000        16.1747       4116.461        25.0863         0.2248         0.2719         0.7663      -123.0873       -56.4206      0.1939914
      4751.5000        16.2243       4202.227        25.4038         0.2172         0.2572         0.7453       -124.365       -57.6983      0.1757386
      4752.0000        16.2437       4400.469        25.7216         0.2117         0.2468         0.7353      -125.2837        -58.617      0.1626143
      4752.5000        16.2599       4588.297        25.9602         0.2095         0.2385         0.7254      -125.5715       -58.9048      0.1585028
      4753.0000        16.2739       4669.594        26.2444         0.2085         0.2332         0.7147      -125.8595       -59.1928      0.1543886
      4753.5000        16.2858       4728.227        26.6013         0.2071         0.2297         0.6983      -125.9869       -59.3202      0.1525685
