#------------------------------------------------------------------------------
# Created by    : vladimir.rabinovich
# Created on    : 09/19/2023 17:22:30
#------------------------------------------------------------------------------
~Version Information Section
VERS.           2.0     :   CWLS log ASCII Standard - VERSION 2.0
WRAP.           NO      :   One line per depth step
~Well Information Section
#MNEM       .UNIT                                         VALUE :DESCRIPTION
#------------------------------------------------------------------------------
STRT        .FT                                            1687 :START DEPTH
STOP        .FT                                            6155 :STOP DEPTH
STEP        .FT                                             0.5 :STEP      
NULL        .                                           -999.25 :NULL      
COMP        .                       AMERICAN COASTAL ENERGY INC :COMPANY   
WELL        .                                ST TR 00596-L NE/4 :WELL      
FLD         .                        SHERMAN OFFSHORE SOUTHWEST :FIELD     
LOC         .                                                   :LOCATION  
CNTY        .                      MATAGORDA ISLAND LARGE BLOCK :LOCATION  
STAT        .                                             TEXAS :STATE     
CTRY        .                                     UNITED STATES :COUNTRY   
SRVC        .                                                   :SERVICE COMPANY
DATE        .                             9/13/2023 11:12:01 AM :LOG DATE  
API         .                                    42703302820000 :API NUMBER
UWI         .                                    42703302820000 :UNIQUE WELL ID
XCOORD      .                                  484247.709270029 :SURFACE X 
YCOORD      .                                   10242127.767654 :SURFACE Y 
LAT         .                                        28.1765839 :LATITUDE  
LON         .                                       -96.5886238 :LONGITUDE 
ELEV        .FT                                              79 :ELEVATION VALUE
ELEV_TYPE   .                                                KB :ELEVATION REFERENCE TYPE
~Curve Information Section
#MNEM       .UNIT                                      API CODE :CURVE DESCRIPTION
#------------------------------------------------------------------------------
DEPT        .FT                                                 :DEPTH     
CILD        .MMHO                                               :          
DT          .US/F                                               :          
ILD         .OHMM                                               :          
SN          .OHMM                                               :          
SP          .MV                                                 :          
SP_NORM     .MV                                                 :SP Normalized
VSH_SP      .V/V                                                :Volume of Shale from SP
~A        DEPTH           CILD             DT            ILD             SN             SP        SP_NORM         VSH_SP
# ...
      2558.0000        2196.62       135.8244         0.4488         0.7641       -69.4982       -33.9949      0.4039442
      2558.5000       2499.255       135.8233         0.3893         0.7676       -73.4782       -37.9789      0.3273288
      2559.0000        2801.89       135.6229         0.3487         0.7855       -78.8515       -43.3562      0.2239192
      2559.5000       3004.986       135.5227         0.3226         0.7891       -83.0306       -47.5394      0.1434731
      2560.0000       3343.458       135.5215         0.2984         0.7928       -86.2149       -50.7277     0.08215963
      2560.5000       3685.904       136.6154          0.271         0.8038       -88.2038       -52.7206     0.04383461
      2561.0000       3877.028       137.2774         0.2495         0.8038        -89.596       -54.1169     0.01698267
      2561.5000       3972.567       138.0073         0.2428         0.8002       -89.9928       -54.5177    0.009274996
      2562.0000       3972.522       138.6035         0.2428         0.7966       -89.5934       -54.1223     0.01687886
      2562.5000       3860.962       139.0006         0.2484         0.7966       -88.4973       -53.0303     0.03787884
      2563.0000       3693.644       139.1982         0.2625          0.793       -86.5053       -51.0423      0.0761096
      2563.5000       3470.568       139.1971         0.2851         0.7858       -84.2148       -48.7558      0.1200808
      2564.0000       3271.387        139.395         0.3125          0.768       -80.9289        -45.474      0.1831923
      2564.5000       2984.586        139.593         0.3472         0.7404       -74.9555       -39.5046      0.2979884
      2565.0000       2761.508       139.5919         0.3536         0.7105       -67.7877       -32.3408      0.4357538
      2565.5000       2514.533       138.7942          0.398         0.7072       -63.1082       -27.6653      0.5256673
      2566.0000       2271.539          137.2         0.4478         0.7204       -60.8175       -25.3787      0.5696404
      2566.5000       2060.408       135.6057         0.5058         0.7788       -59.4227       -23.9879      0.5963866
      2567.0000        1869.19       134.6089         0.5393         0.8043       -55.1414       -19.7106      0.6786423
      2567.5000       1725.764       133.6121         0.5911         0.8155       -50.0637        -14.637      0.7762116
      2568.0000        1630.13       131.4204         0.6391         0.8538        -47.076       -11.6533      0.8335904
      2568.5000       1534.497       128.0339         0.6753         0.9105       -49.2647        -13.846      0.7914231
      2569.0000       1462.759       125.2448         0.7102         0.9935       -52.6476        -17.233      0.7262884
      2569.5000       1398.987       119.0707         0.7436         1.0259        -57.523       -22.1124      0.6324539
      2570.0000       1367.048       116.3812         0.7539          1.045         -60.11       -24.7034      0.5826269
      2570.5000       1398.891       116.9774         0.7437          1.026       -65.9814       -30.5789      0.4696366
      2571.0000       1446.636       117.7728         0.7109         1.0074       -67.5727       -32.1742      0.4389577
      2571.5000       1558.106        119.464         0.6636         1.0121       -67.5718       -32.1773      0.4388981
      2572.0000       1709.404       121.8525         0.6055         0.9847       -70.3571       -34.9667      0.3852558
      2572.5000       1892.565       124.8384         0.5374         0.9893       -75.2332       -39.8468      0.2914076
      2573.0000       2039.898       127.3269          0.477         1.0076        -79.313       -43.9306      0.2128731
      2573.5000       2203.129       128.5206         0.4474         1.0263       -81.6011       -46.2228      0.1687923
      2574.0000       2306.635       127.1255         0.4254         1.0648       -82.0975       -46.7232      0.1591692
      2574.5000       2378.278       125.5312         0.4138         1.0895       -79.8068       -44.4365      0.2031442
      2575.0000       2390.192       124.4347         0.4215         1.0125       -75.8239       -40.4577      0.2796596
      2575.5000       2274.631       126.8228         0.4474         0.9111       -71.6419       -36.2797      0.3600057
      2576.0000       2131.203       129.8088         0.4882         0.8864       -68.6544       -33.2962      0.4173808
      2576.5000       1900.152       135.5827         0.5376         0.8824       -53.0252       -17.6711      0.7178634
      2577.0000       1716.894        140.461          0.592         0.8545       -46.8524       -11.5023      0.8364942
      2577.5000       1573.464       141.6871         0.6671         0.8468       -43.0688        -7.7227      0.9091789
      2578.0000       1445.965       142.5493         0.7408         0.8625       -40.8772        -5.5351       0.951248
      2578.5000       1334.397       143.3447         0.7931         0.8625       -40.0795        -4.7415      0.9665096
      2579.0000       1254.692       142.3478          0.854         0.8705       -39.9785        -4.6445       0.968375
      2579.5000       1198.884        141.749         0.8708         0.8867       -40.1762        -4.8462      0.9644961
      2580.0000       1166.973       140.7525         0.9024          0.899        -40.573        -5.2471      0.9567865
      2580.5000       1150.993       140.8913         0.9192         0.9032       -40.5716        -5.2497      0.9567366
      2581.0000       1142.979       141.1488         0.9192         0.9033       -40.5702        -5.2523      0.9566866
      2581.5000       1150.896        141.546         0.8992         0.8992       -41.3652        -6.0514      0.9413192
      2582.0000        1166.78        142.441         0.8869          0.891       -42.5583        -7.2485      0.9182981
      2582.5000       1174.697       143.1369         0.8748         0.8789       -42.6565        -7.3507      0.9163327
      2583.0000        1190.58       144.5293         0.8669         0.8669       -43.1528        -7.8511      0.9067096
      2583.5000        1214.43       145.5239          0.859          0.863       -43.6491        -8.3514      0.8970885
      2584.0000       1230.313       146.7181         0.8512          0.863       -43.8468        -8.5531      0.8932096
      2584.5000       1246.197       147.8122         0.8358         0.8591       -44.2436         -8.954         0.8855
      2585.0000        1262.08       148.7072         0.8206         0.8591         -44.74        -9.4544      0.8758769
      2585.5000       1269.998       149.6023         0.8094         0.8631        -45.535       -10.2534      0.8605115
      2586.0000       1269.949       150.8956         0.8163         0.8632       -45.7327       -10.4552      0.8566307
      2586.5000        1253.97       152.2881         0.8235         0.8712       -45.5322       -10.2587      0.8604096
      2587.0000       1230.024       152.2869         0.8392         0.8833       -45.3317       -10.0622      0.8641885
      2587.5000       1206.078       151.7881         0.8712         0.8915        -45.629       -10.3636      0.8583923
      2588.0000       1190.098       150.7289         0.8834          0.908       -46.2248       -10.9634      0.8468577
      2588.5000       1166.152       148.8985         0.8998         0.9122       -46.9202       -11.6628      0.8334077
      2589.0000       1150.172       143.8191         0.9123         0.9165       -47.7152       -12.4618      0.8180423
      2589.5000       1134.204       140.2328          0.925         0.9292       -48.6098       -13.3605      0.8007596
      2590.0000       1127.007       139.3359          0.925         0.9465       -50.1016       -14.8563      0.7719942
      2590.5000        1138.09       140.0318         0.9124         0.9641       -51.5934       -16.3521      0.7432289
      2591.0000       1169.906       140.7273         0.8636          0.982       -54.7776       -19.5404      0.6819154
