#------------------------------------------------------------------------------
# Created by    : vladimir.rabinovich
# Created on    : 09/19/2023 17:20:37
#------------------------------------------------------------------------------
~Version Information Section
VERS.           2.0     :   CWLS log ASCII Standard - VERSION 2.0
WRAP.           NO      :   One line per depth step
~Well Information Section
#MNEM       .UNIT                                         VALUE :DESCRIPTION
#------------------------------------------------------------------------------
STRT        .FT                                             582 :START DEPTH
STOP        .FT                                            8015 :STOP DEPTH
STEP        .FT                                             0.5 :STEP      
NULL        .                                           -999.25 :NULL      
COMP        .                                CONTINENTAL OIL CO :COMPANY   
WELL        .                                OCS 00719 ST00BP00 :WELL      
FLD         .                                           WILDCAT :FIELD     
LOC         .                                                   :LOCATION  
CNTY        .                             GALVESTON LARGE BLOCK :LOCATION  
STAT        .                                             TEXAS :STATE     
CTRY        .                                     UNITED STATES :COUNTRY   
SRVC        .                                                   :SERVICE COMPANY
DATE        .                             9/13/2023 11:19:25 AM :LOG DATE  
API         .                                    42706000350000 :API NUMBER
UWI         .                                    42706000350000 :UNIQUE WELL ID
XCOORD      .                                  1010979.62119212 :SURFACE X 
YCOORD      .                                  10432235.4027546 :SURFACE Y 
LAT         .                                          28.73246 :LATITUDE  
LON         .                                        -94.964458 :LONGITUDE 
ELEV        .FT                                              63 :ELEVATION VALUE
ELEV_TYPE   .                                                KB :ELEVATION REFERENCE TYPE
~Curve Information Section
#MNEM       .UNIT                                      API CODE :CURVE DESCRIPTION
#------------------------------------------------------------------------------
DEPT        .FT                                                 :DEPTH     
ASN         .OHMM                                               :          
DT          .US/F                                               :          
LN          .OHMM                                               :          
SP          .MV                                                 :          
SP_NORM     .MV                                                 :SP Normalized
VSH_SP      .V/V                                                :Volume of Shale from SP
~A        DEPTH            ASN             DT             LN             SP        SP_NORM         VSH_SP
# ...
      3052.0000          0.776        -999.25         1.1402       -49.4752      -2.177005      0.9942902
      3052.5000         0.7829        -999.25         1.1498       -49.6013      -2.368537      0.9881117
      3053.0000         0.7879        -999.25         1.1595       -49.7275      -2.560225      0.9819282
      3053.5000         0.7909        -999.25         1.1692       -49.8535      -2.751609      0.9757546
      3054.0000          0.794        -999.25         1.1789       -49.9797      -2.943291      0.9695712
      3054.5000         0.7967        -999.25         1.1885       -50.0786      -3.093828      0.9647152
      3055.0000          0.794        -999.25         1.1963       -50.1729      -3.237417      0.9600833
      3055.5000         0.7894        -999.25          1.204       -50.1027      -3.132989       0.963452
      3056.0000         0.7838        -999.25         1.2117       -49.8495      -2.752656      0.9757208
      3056.5000         0.7782        -999.25         1.2194       -49.5963      -2.372328      0.9879894
      3057.0000         0.7726        -999.25         1.2166       -49.3431         -1.992              1
      3057.5000          0.767        -999.25         1.2111       -49.1049       -1.63428              1
      3058.0000         0.7609        -999.25         1.2056       -48.9417      -1.389639              1
      3058.5000         0.7545        -999.25         1.2001       -48.7782      -1.144544              1
      3059.0000         0.7481        -999.25         1.1877       -48.6148     -0.8996094              1
      3059.5000         0.7424        -999.25         1.1753       -48.4514     -0.6546692              1
      3060.0000         0.7423        -999.25         1.1628       -48.7059      -1.039788              1
      3060.5000         0.7422        -999.25         1.1503       -49.0074      -1.495775              1
      3061.0000         0.7421        -999.25         1.1382       -49.3092      -1.952217              1
      3061.5000         0.7412        -999.25         1.1276       -49.6109      -2.408504      0.9868225
      3062.0000         0.7387        -999.25         1.1171       -49.6699      -2.498869      0.9839075
      3062.5000         0.7361        -999.25         1.1065       -49.6741      -2.506617      0.9836575
      3063.0000         0.7335        -999.25         1.0959       -49.6466       -2.46657      0.9849494
      3063.5000          0.731        -999.25         1.0854       -49.5746      -2.359439      0.9884052
      3064.0000         0.7309        -999.25         1.0747       -49.5026      -2.252302      0.9918612
      3064.5000         0.7308        -999.25         1.0634       -49.4307      -2.145309      0.9953126
      3065.0000         0.7307        -999.25         1.0521       -49.3967      -2.095467      0.9969204
      3065.5000         0.7306        -999.25         1.0408         -49.53      -2.297858      0.9903917
      3066.0000         0.7311        -999.25         1.0295       -49.6634        -2.5004       0.983858
      3066.5000         0.7339        -999.25         1.0182        -49.696      -2.550966      0.9822269
      3067.0000         0.7368        -999.25         1.0071       -49.5895      -2.391813      0.9873608
      3067.5000         0.7397        -999.25         0.9963       -49.4832      -2.232965       0.992485
      3068.0000         0.7387        -999.25         0.9855       -49.3766      -2.073658      0.9976239
      3068.5000         0.7348        -999.25         0.9746       -49.2703       -1.91481              1
      3069.0000         0.7308        -999.25         0.9638       -49.2302      -1.855766              1
      3069.5000         0.7262        -999.25         0.9547       -49.2402      -1.872256              1
      3070.0000         0.7228        -999.25         0.9496       -49.1876       -1.79437              1
      3070.5000         0.7149        -999.25         0.9445       -49.2775      -1.931328              1
      3071.0000          0.707        -999.25         0.9394       -49.3673      -2.068131      0.9978023
      3071.5000         0.6991        -999.25         0.9343       -49.4424      -2.182779      0.9941039
      3072.0000         0.6936        -999.25         0.9292       -49.4091       -2.13399      0.9956778
      3072.5000         0.6888        -999.25         0.9241       -49.3759      -2.085351      0.9972467
      3073.0000         0.6839        -999.25          0.919       -49.3426      -2.036561      0.9988206
      3073.5000         0.6869        -999.25          0.914       -49.3093      -1.987767              1
      3074.0000         0.6966        -999.25         0.9089       -49.2767       -1.94003              1
      3074.5000         0.7063        -999.25         0.9098       -49.3005      -1.977334              1
      3075.0000          0.716        -999.25         0.9137       -49.3242      -2.014482      0.9995328
      3075.5000          0.723        -999.25         0.9177        -49.348       -2.05178      0.9983297
      3076.0000         0.7279        -999.25         0.9217       -49.0563      -1.613403              1
      3076.5000         0.7328        -999.25         0.9256       -48.6591      -1.015966              1
      3077.0000         0.7376        -999.25           0.93       -48.2614     -0.4177695              1
      3077.5000         0.7425        -999.25         0.9343       -47.7871       0.295909              1
      3078.0000         0.7474        -999.25         0.9386       -47.2108        1.16338              1
      3078.5000         0.7361        -999.25         0.9429       -46.8099       1.766401              1
      3079.0000         0.7175        -999.25         0.9412       -47.3268      0.9856502              1
      3079.5000          0.699        -999.25         0.9385       -48.1763     -0.2965474              1
      3080.0000         0.6894        -999.25         0.9357       -48.9509      -1.465822              1
      3080.5000         0.6866        -999.25         0.9329       -49.5889      -2.429145      0.9861566
      3081.0000         0.6839        -999.25         0.9302       -50.2271      -3.392774      0.9550718
      3081.5000         0.6811        -999.25         0.9266        -50.515      -3.828252      0.9410241
      3082.0000         0.6783        -999.25         0.9228       -50.2109      -3.371177      0.9557685
      3082.5000         0.6776        -999.25          0.919       -49.9069      -2.914252       0.970508
      3083.0000         0.6779        -999.25         0.9152       -49.6028      -2.457178      0.9852523
      3083.5000         0.6803        -999.25         0.9114       -49.4399      -2.212997      0.9931291
      3084.0000         0.6916        -999.25         0.9076       -49.3005      -2.004239      0.9998633
      3084.5000         0.7029        -999.25         0.9034        -49.161      -1.795331              1
      3085.0000         0.7142        -999.25         0.8986       -49.0215      -1.586423              1
      3085.5000         0.7255        -999.25         0.8937       -48.9403       -1.46542              1
      3086.0000         0.7334        -999.25         0.8889        -48.907      -1.416631              1
      3086.5000         0.7386        -999.25         0.8841       -48.8738      -1.367985              1
      3087.0000         0.7439        -999.25         0.8793       -48.8405      -1.319196              1
      3087.5000         0.7492        -999.25         0.8765       -48.7012      -1.110593              1
      3088.0000         0.7544        -999.25          0.875       -48.4374     -0.7142823              1
      3088.5000         0.7597        -999.25         0.8736       -48.1737     -0.3181151              1
      3089.0000          0.765        -999.25         0.8721         -47.91     0.07804636              1
      3089.5000         0.7718        -999.25         0.8706       -48.4013     -0.6640957              1
