#------------------------------------------------------------------------------
# Created by    : vladimir.rabinovich
# Created on    : 09/19/2023 17:22:51
#------------------------------------------------------------------------------
~Version Information Section
VERS.           2.0     :   CWLS log ASCII Standard - VERSION 2.0
WRAP.           NO      :   One line per depth step
~Well Information Section
#MNEM       .UNIT                                         VALUE :DESCRIPTION
#------------------------------------------------------------------------------
STRT        .FT                                            3080 :START DEPTH
STOP        .FT                                           13004 :STOP DEPTH
STEP        .FT                                             0.5 :STEP      
NULL        .                                           -999.25 :NULL      
COMP        .                                     INEXCO OIL CO :COMPANY   
WELL        .                                     ST TR 00006-L :WELL      
FLD         .                                           WILDCAT :FIELD     
LOC         .                                                   :LOCATION  
CNTY        .                           HIGH ISLAND LARGE BLOCK :LOCATION  
STAT        .                                             TEXAS :STATE     
CTRY        .                                     UNITED STATES :COUNTRY   
SRVC        .                                                   :SERVICE COMPANY
DATE        .                             9/13/2023 11:19:15 AM :LOG DATE  
API         .                                    42708302350000 :API NUMBER
UWI         .                                    42708302350000 :UNIQUE WELL ID
XCOORD      .                                  1306008.37969423 :SURFACE X 
YCOORD      .                                  10751503.0860356 :SURFACE Y 
LAT         .                                          29.62091 :LATITUDE  
LON         .                                         -94.05279 :LONGITUDE 
ELEV        .FT                                              84 :ELEVATION VALUE
ELEV_TYPE   .                                                KB :ELEVATION REFERENCE TYPE
~Curve Information Section
#MNEM       .UNIT                                      API CODE :CURVE DESCRIPTION
#------------------------------------------------------------------------------
DEPT        .FT                                                 :DEPTH     
DT          .US/F                                               :          
GR          .GAPI                                               :          
GR_NORM     .GAPI                                               :GammaRay Normalized
ILD         .OHMM                                               :          
SFL         .OHMM                                               :          
SP          .MV                                                 :          
SP_NORM     .MV                                                 :SP Normalized
VSH_GR      .V/V                                                :Volume of Shale from GR
VSH_SP      .V/V                                                :Volume of Shale from SP
~A        DEPTH             DT             GR        GR_NORM            ILD            SFL             SP        SP_NORM         VSH_GR         VSH_SP
# ...
      9016.0000        -999.25        48.0359       83.34165         0.4907         0.5492       -41.2146        -1.2146              1         0.9971
      9016.5000        -999.25        45.8215       78.72118         0.4909         0.5556        -41.978      -1.978001       0.972791      0.9867838
      9017.0000        -999.25          44.22       75.38217         0.4933         0.5802       -42.6207      -2.620701      0.9017484      0.9780986
      9017.5000        -999.25        44.3203        75.6012         0.4958         0.5992       -43.0662        -3.0662      0.9064084      0.9720784
      9018.0000        -999.25        45.0706       77.17918         0.5015         0.5903       -42.4774      -2.477402      0.9399825      0.9800351
      9018.5000        -999.25        45.4897        78.0647         0.5113         0.5994        -41.912      -1.911999      0.9588233      0.9876757
      9019.0000        -999.25        45.1509       77.36569         0.5201         0.6381       -42.3444      -2.344398      0.9439509      0.9818324
      9019.5000        -999.25        45.0482       77.16026         0.5277         0.7252       -42.4114        -2.4114      0.9395801      0.9809271
      9020.0000        -999.25        46.4991       80.20305         0.5272         0.7162       -41.4375        -1.4375              1      0.9940878
      9020.5000        -999.25        48.7507       84.91994         0.5219         0.6816       -40.6019     -0.6018982              1              1
      9021.0000        -999.25          49.96       87.45756         0.5174         0.6267       -40.2382     -0.2382011              1              1
      9021.5000        -999.25        50.0416       87.63748         0.5139         0.5808       -39.3315       0.668499              1              1
      9022.0000        -999.25        49.8621       87.27149         0.5104         0.5595       -39.3521      0.6478996              1              1
      9022.5000        -999.25        49.8712       87.29982         0.5093         0.5563       -39.6747      0.3252983              1              1
      9023.0000        -999.25        49.8025       87.16553         0.5134         0.5626       -40.0837    -0.08369827              1              1
      9023.5000        -999.25        49.3305         86.188         0.5174         0.5789       -40.6205     -0.6204987              1              1
      9024.0000        -999.25        48.7943       85.07624          0.529         0.6435       -41.5209      -1.520901              1      0.9929608
      9024.5000        -999.25        48.3796       84.21852          0.541         0.7183       -42.6456      -2.645599              1      0.9777622
      9025.0000        -999.25        47.9643       83.35955         0.5514         0.7963       -43.3841      -3.384102              1      0.9677824
      9025.5000        -999.25        47.3945       82.17754         0.5611         0.8036        -43.867      -3.867001              1      0.9612567
      9026.0000        -999.25        46.9505       81.25856         0.5559         0.7575       -42.8324      -2.832401              1      0.9752378
      9026.5000        -999.25        46.5439       80.41776         0.5484         0.6751       -41.6667      -1.666698              1      0.9909906
      9027.0000        -999.25        45.8353       78.94556          0.538         0.6507       -40.7214     -0.7214012      0.9775651              1
      9027.5000        -999.25        45.1777       77.58002         0.5233         0.6304       -39.9431     0.05690002       0.948511              1
      9028.0000        -999.25        45.2487       77.73776         0.5088         0.5816       -39.1335      0.8665009      0.9518673              1
      9028.5000        -999.25        46.0109       79.34065         0.4929         0.5372       -38.9029       1.097099      0.9859713              1
      9029.0000        -999.25         46.854       81.11266         0.4884          0.566       -39.4113      0.5886993              1              1
      9029.5000        -999.25         47.788       83.07475          0.489          0.628       -40.1591     -0.1590996              1              1
      9030.0000        -999.25        47.9434       83.40896         0.5032         0.6277       -39.6043      0.3956985              1              1
      9030.5000        -999.25        48.0642       83.67084         0.5189         0.6095       -39.2453      0.7546997              1              1
      9031.0000        -999.25        48.9998       85.63625         0.5297         0.6178       -39.7662       0.233799              1              1
      9031.5000        -999.25        50.0292       87.79778         0.5384         0.7656       -40.3135     -0.3134995              1              1
      9032.0000        -999.25        49.7701       87.26538         0.5367         0.8299       -40.6266     -0.6265984              1              1
      9032.5000        -999.25        48.8392        85.3284         0.5351         0.8072       -40.5527        -0.5527              1              1
      9033.0000        -999.25        47.8242       83.21561         0.5481         0.6208       -40.1984     -0.1983986              1              1
      9033.5000        -999.25        45.8888       79.17848          0.558         0.5408       -39.7388         0.2612      0.9825209              1
      9034.0000        -999.25        43.6646       74.53753         0.5536         0.5456       -39.6977      0.3022995      0.8837772              1
      9034.5000        -999.25        42.4291       71.96373         0.5386         0.6398       -40.3565     -0.3564987      0.8290156              1
      9035.0000        -999.25        42.6259       72.38451         0.5234         0.7069       -40.7317     -0.7317009      0.8379684              1
      9035.5000        -999.25         44.631       76.58599         0.5081         0.7214       -40.6853     -0.6852989      0.9273615              1
      9036.0000        -999.25        46.9872       81.52151         0.4915         0.6854       -39.9891     0.01089859              1              1
      9036.5000        -999.25        49.4133       86.60322          0.488           0.61       -39.2742      0.7257996              1              1
      9037.0000        -999.25        50.7836       89.47747          0.489         0.5703       -38.9006         1.0994              1              1
      9037.5000        -999.25        50.7857       89.49119         0.4884         0.5523       -39.2419      0.7580986              1              1
      9038.0000        -999.25        48.4319       84.57926         0.4875         0.5555       -39.7986      0.2014008              1              1
      9038.5000        -999.25        45.8265       79.14134         0.4795          0.566       -39.9228     0.07720184      0.9817307              1
      9039.0000        -999.25        45.1008       77.63338         0.4699         0.5783       -39.9387     0.06129837      0.9496465              1
      9039.5000        -999.25        45.2786       78.01443         0.4686         0.5948       -39.8829      0.1170998       0.957754              1
      9040.0000        -999.25        45.6248       78.74758         0.4674          0.611       -39.5787       0.421299      0.9733528              1
      9040.5000        -999.25        46.3969       80.37115         0.4645         0.6032       -39.9081     0.09189987              1              1
      9041.0000        -999.25        47.3123       82.29433         0.4614         0.5684       -39.9553     0.04470062              1              1
      9041.5000        -999.25        47.8117       83.34779         0.4587         0.5472       -39.8481      0.1519012              1              1
      9042.0000        -999.25        47.7642       83.25777         0.4566         0.5469       -39.7631      0.2369003              1              1
