#------------------------------------------------------------------------------
# Created by    : vladimir.rabinovich
# Created on    : 09/19/2023 17:22:45
#------------------------------------------------------------------------------
~Version Information Section
VERS.           2.0     :   CWLS log ASCII Standard - VERSION 2.0
WRAP.           NO      :   One line per depth step
~Well Information Section
#MNEM       .UNIT                                         VALUE :DESCRIPTION
#------------------------------------------------------------------------------
STRT        .FT                                            3370 :START DEPTH
STOP        .FT                                           10136 :STOP DEPTH
STEP        .FT                                             0.5 :STEP      
NULL        .                                           -999.25 :NULL      
COMP        .                                  W&T OFFSHORE INC :COMPANY   
WELL        .                               OCS G04565 ST00BP00 :WELL      
FLD         .                              GALVESTON BLOCK 0303 :FIELD     
LOC         .                                                   :LOCATION  
CNTY        .                             GALVESTON LARGE BLOCK :LOCATION  
STAT        .                                             TEXAS :STATE     
CTRY        .                                     UNITED STATES :COUNTRY   
SRVC        .                                                   :SERVICE COMPANY
DATE        .                             9/13/2023 11:19:27 AM :LOG DATE  
API         .                                    42706401000000 :API NUMBER
UWI         .                                    42706401000000 :UNIQUE WELL ID
XCOORD      .                                  988505.563749319 :SURFACE X 
YCOORD      .                                  10486369.8338556 :SURFACE Y 
LAT         .                                        28.8802688 :LATITUDE  
LON         .                                       -95.0374578 :LONGITUDE 
ELEV        .FT                                              93 :ELEVATION VALUE
ELEV_TYPE   .                                                KB :ELEVATION REFERENCE TYPE
~Curve Information Section
#MNEM       .UNIT                                      API CODE :CURVE DESCRIPTION
#------------------------------------------------------------------------------
DEPT        .FT                                                 :DEPTH     
DPHI        .DEC                                                :          
DRHO        .G/C3                                               :          
DT          .US/F                                               :          
GR          .GAPI                                               :          
GR_1        .GAPI                                               :          
GR_NORM     .GAPI                                               :GammaRay Normalized
ILD         .OHMM                                               :          
NPHI        .DEC                                                :          
RHOB        .G/C3                                               :          
SP          .MV                                                 :          
SP_NORM     .MV                                                 :SP Normalized
VSH_GR      .V/V                                                :Volume of Shale from GR
VSH_SP      .V/V                                                :Volume of Shale from SP
~A        DEPTH           DPHI           DRHO             DT             GR           GR_1        GR_NORM            ILD           NPHI           RHOB             SP        SP_NORM         VSH_GR         VSH_SP
# ...
      7455.0000         0.2132        -0.0056       116.0497        78.8347        -999.25       78.65048         0.7141         0.4029         2.2927       -34.2434       -4.05472      0.9712868      0.9420754
      7455.5000         0.2142         -0.007       117.0054        79.8087        -999.25        79.8684         0.7248         0.4029         2.2906        -33.962      -3.773321         0.9972      0.9460954
      7456.0000         0.2119        -0.0092       117.2819        81.4504        -999.25       81.92094         0.7366         0.3927         2.2927       -33.7448       -3.55612              1      0.9491983
      7456.5000         0.2071        -0.0112        116.354        81.3394        -999.25       81.78262         0.7492         0.3948         2.3001       -33.4918      -3.303118              1      0.9528126
      7457.0000         0.2008        -0.0129       115.7435        79.5248        -999.25       79.51479         0.7625         0.3962         2.3076       -33.2456      -3.056921      0.9896763      0.9563297
      7457.5000          0.197        -0.0135       116.0729        78.2335        -999.25       77.90108          0.776         0.3961         2.3105       -33.0565      -2.867819      0.9553421      0.9590312
      7458.0000         0.1974        -0.0133       115.8691        78.2002        -999.25       77.85988         0.7876         0.3915         2.3127       -32.9146       -2.72592      0.9544655      0.9610583
      7458.5000          0.198        -0.0122       115.2704        79.7087        -999.25       79.74591         0.7984         0.3897         2.3121        -32.847      -2.658319      0.9945939       0.962024
      7459.0000         0.1976        -0.0092       114.8251        80.9357        -999.25       81.28008         0.8029         0.3898         2.3137       -32.8719      -2.683218              1      0.9616683
      7459.5000         0.1949        -0.0074        115.323        81.4554        -999.25       81.93012         0.8008         0.3908         2.3159       -32.8768       -2.68812              1      0.9615983
      7460.0000         0.1942        -0.0084       115.7009        80.4086        -999.25       80.62204         0.7947         0.3893         2.3178       -32.8624      -2.673719              1       0.961804
      7460.5000         0.1939         -0.012       113.6201        79.0631        -999.25       78.94059         0.7871         0.3775         2.3203       -32.9468       -2.75812      0.9774594      0.9605983
      7461.0000         0.1899        -0.0131       111.8387        77.6731        -999.25       77.20351         0.7848         0.3624         2.3348       -33.0489       -2.86022      0.9405003      0.9591397
      7461.5000         0.1853         -0.012       109.1537        76.3992        -999.25       75.61156         0.7847         0.3588         2.3355       -33.1828       -2.99412      0.9066288      0.9572269
      7462.0000         0.1862        -0.0076       109.9955         74.918        -999.25       73.76046          0.791         0.3707          2.336       -33.3875       -3.19882      0.8672438      0.9543025
      7462.5000         0.1863        -0.0033       111.9501        76.4585        -999.25       75.68651         0.7966         0.3789         2.3343       -33.6999      -3.511221      0.9082236      0.9498397
      7463.0000         0.1846        -0.0014       114.0846        77.9817        -999.25       77.59093          0.797         0.3837         2.3386       -33.8247      -3.636019      0.9487431      0.9480569
      7463.5000         0.1813         -0.001       114.4645         79.347        -999.25       79.29797         0.7973         0.3857         2.3443        -33.868      -3.679319      0.9850633      0.9474383
      7464.0000         0.1787        -0.0012       113.5781         79.946        -999.25       80.04714         0.7924         0.3793         2.3493       -33.8929      -3.704218              1      0.9470826
      7464.5000         0.1793        -0.0019       112.6565        79.9037        -999.25       79.99469          0.786         0.3741         2.3488       -33.9282      -3.739519       0.999887      0.9465783
      7465.0000         0.1834        -0.0036       111.9136        79.7059        -999.25       79.74786         0.7819         0.3701         2.3456       -34.0477      -3.859018      0.9946352      0.9448712
      7465.5000         0.1849        -0.0049        111.316        79.6013        -999.25       79.61753         0.7854          0.366         2.3403       -34.0789      -3.890219      0.9918624      0.9444255
      7466.0000         0.1866        -0.0066       112.6849        80.0142        -999.25       80.13406         0.7793         0.3856         2.3328       -33.9653      -3.776621              1      0.9460483
      7466.5000         0.1967        -0.0086       116.0992        80.9246        -999.25       81.27248         0.7716         0.4091         2.3238       -33.9476      -3.758921              1      0.9463012
      7467.0000         0.2013        -0.0106       118.3185        82.4281        -999.25       83.15228           0.77         0.4199         2.3159       -33.8859      -3.697218              1      0.9471826
      7467.5000         0.2022        -0.0117       119.0261        83.8353        -999.25       84.91169         0.7693         0.4143         2.3139       -33.7697      -3.581018              1      0.9488426
      7468.0000         0.1981        -0.0117       117.2026        84.3353        -999.25       85.53711         0.7819         0.3914         2.3212       -33.7064      -3.517721              1      0.9497468
      7468.5000         0.1909        -0.0118       114.8225        85.1912        -999.25       86.60741         0.7979         0.3753         2.3311       -33.6523      -3.463621              1      0.9505197
      7469.0000         0.1835        -0.0121       113.4507        85.2386        -999.25       86.66708         0.8282         0.3708          2.341        -33.569       -3.38032              1      0.9517097
      7469.5000         0.1762        -0.0123       112.5624         85.266        -999.25       86.70174           0.86          0.373         2.3501        -33.394       -3.20532              1      0.9542097
      7470.0000         0.1719        -0.0124       112.0107        85.2476        -999.25       86.67915         0.8937         0.3713         2.3582       -33.3009      -3.112219              1      0.9555397
      7470.5000         0.1748        -0.0125       111.7976          86.05        -999.25       87.68258         0.9207         0.3703         2.3545       -33.2156      -3.026918              1      0.9567583
      7471.0000         0.1817        -0.0119       111.8291         86.175        -999.25       87.83925         0.9462         0.3705         2.3408       -33.2327       -3.04402              1       0.956514
      7471.5000         0.1875        -0.0116       112.5513        86.2673        -999.25       87.95505         0.9548         0.3727         2.3277       -33.2577      -3.069021              1      0.9561568
      7472.0000         0.1924        -0.0118       113.6968        86.3452        -999.25       88.05283         0.9625         0.3816         2.3214         -33.26      -3.071318              1       0.956124
      7472.5000         0.1952        -0.0119       114.6976        86.5116        -999.25       88.26125         0.9446         0.3871         2.3201       -32.9354      -2.746717              1      0.9607612
      7473.0000         0.1952         -0.012       115.1456        85.9167        -999.25       87.51805         0.9194         0.3903         2.3208       -32.8661       -2.67742              1      0.9617512
      7473.5000         0.1953        -0.0119       115.1963        83.7598        -999.25       84.82235         0.8954         0.3924         2.3189       -32.9853      -2.796618              1      0.9600483
