#------------------------------------------------------------------------------
# Created by    : vladimir.rabinovich
# Created on    : 09/19/2023 17:21:39
#------------------------------------------------------------------------------
~Version Information Section
VERS.           2.0     :   CWLS log ASCII Standard - VERSION 2.0
WRAP.           NO      :   One line per depth step
~Well Information Section
#MNEM       .UNIT                                         VALUE :DESCRIPTION
#------------------------------------------------------------------------------
STRT        .FT                                             930 :START DEPTH
STOP        .FT                                           10010 :STOP DEPTH
STEP        .FT                                             0.5 :STEP      
NULL        .                                           -999.25 :NULL      
COMP        .                 FAIRWAYS SPEC SALES & SERVICE INC :COMPANY   
WELL        .                               OCS G02357 ST00BP00 :WELL      
FLD         .                            HIGH ISLAND BLOCK 0154 :FIELD     
LOC         .                                                   :LOCATION  
CNTY        .                           HIGH ISLAND LARGE BLOCK :LOCATION  
STAT        .                                             TEXAS :STATE     
CTRY        .                                     UNITED STATES :COUNTRY   
SRVC        .                                                   :SERVICE COMPANY
DATE        .                             9/13/2023 11:20:04 AM :LOG DATE  
API         .                                    42708400540000 :API NUMBER
UWI         .                                    42708400540000 :UNIQUE WELL ID
XCOORD      .                                  1183911.52517142 :SURFACE X 
YCOORD      .                                  10615048.6542629 :SURFACE Y 
LAT         .                                         29.242029 :LATITUDE  
LON         .                                        -94.431816 :LONGITUDE 
ELEV        .FT                                              73 :ELEVATION VALUE
ELEV_TYPE   .                                                KB :ELEVATION REFERENCE TYPE
~Curve Information Section
#MNEM       .UNIT                                      API CODE :CURVE DESCRIPTION
#------------------------------------------------------------------------------
DEPT        .FT                                                 :DEPTH     
CALI        .IN                                                 :          
DRHO        .G/C3                                               :          
DT          .US/F                                               :          
GR          .GAPI                                               :          
GR_1        .GAPI                                               :          
GR_NORM     .GAPI                                               :GammaRay Normalized
ILD         .OHMM                                               :          
NPHI        .%                                                  :          
RHOB        .G/C3                                               :          
SFL         .OHMM                                               :          
SP          .MV                                                 :          
SP_NORM     .MV                                                 :SP Normalized
VSH_GR      .V/V                                                :Volume of Shale from GR
VSH_SP      .V/V                                                :Volume of Shale from SP
~A        DEPTH           CALI           DRHO             DT             GR           GR_1        GR_NORM            ILD           NPHI           RHOB            SFL             SP        SP_NORM         VSH_GR         VSH_SP
# ...
       948.0000        -999.25        -999.25        -999.25        -999.25        51.4961        65.0046         0.9059        -999.25        -999.25          0.891        36.8656      0.6082916       0.680949              1
       948.5000        -999.25        -999.25        -999.25        -999.25        50.5797       63.74753         0.9834        -999.25        -999.25         0.9732        34.8298      -1.427509      0.6542028              1
       949.0000        -999.25        -999.25        -999.25        -999.25        49.6634       62.49062          1.047        -999.25        -999.25         1.0299        34.1686      -2.088711      0.6274599              1
       949.5000        -999.25        -999.25        -999.25        -999.25        49.5466       62.33039         1.0934        -999.25        -999.25         1.0815        34.0335      -2.223808      0.6240509              1
       950.0000        -999.25        -999.25        -999.25        -999.25        49.7769        62.6463         1.1009        -999.25        -999.25         1.1122        33.8245      -2.432808      0.6307723              1
       950.5000        -999.25        -999.25        -999.25        -999.25        50.7817       64.02464           1.08        -999.25        -999.25          1.027        33.5665      -2.690807      0.6600986              1
       951.0000        -999.25        -999.25        -999.25        -999.25        51.8301       65.46278         1.0568        -999.25        -999.25         0.9299        34.6235      -1.633808      0.6906974              1
       951.5000        -999.25        -999.25        -999.25        -999.25        52.9673       67.02271         1.0357        -999.25        -999.25          0.849        35.7496     -0.5077095      0.7238873              1
       952.0000        -999.25        -999.25        -999.25        -999.25        54.6456       69.32489         1.0185        -999.25        -999.25         0.7922        36.9909      0.7335892        0.77287              1
       952.5000        -999.25        -999.25        -999.25        -999.25        57.0706       72.65137         1.0026        -999.25        -999.25         0.7901        39.0437       2.786392      0.8436463              1
       953.0000        -999.25        -999.25        -999.25        -999.25        58.2026       74.20419           0.99        -999.25        -999.25         0.8319        37.8903       1.632992       0.876685              1
       953.5000        -999.25        -999.25        -999.25        -999.25        59.1366        75.4854         0.9775        -999.25        -999.25         0.8826        36.7698      0.5124893      0.9039446              1
       954.0000        -999.25        -999.25        -999.25        -999.25        59.9637       76.61996         0.9583        -999.25        -999.25         0.9143        35.6855     -0.5718079      0.9280842              1
       954.5000        -999.25        -999.25        -999.25        -999.25        60.7093       77.64274         0.9375        -999.25        -999.25          0.934        35.9504     -0.3069077      0.9498455              1
       955.0000        -999.25        -999.25        -999.25        -999.25        62.3712       79.92242         0.9064        -999.25        -999.25         0.9233        36.8732      0.6158905      0.9983494              1
       955.5000        -999.25        -999.25        -999.25        -999.25        63.6635       81.69514         0.8764        -999.25        -999.25         0.9093         38.015        1.75769              1              1
       956.0000        -999.25        -999.25        -999.25        -999.25        64.4849       82.82189         0.8433        -999.25        -999.25         0.8799        36.9278      0.6704903              1              1
       956.5000        -999.25        -999.25        -999.25        -999.25         63.215       81.07991         0.8105        -999.25        -999.25          0.847        34.8566      -1.400707              1              1
       957.0000        -999.25        -999.25        -999.25        -999.25        61.2864       78.43437         0.7822        -999.25        -999.25         0.8145        33.7858      -2.471508      0.9666888              1
       957.5000        -999.25        -999.25        -999.25        -999.25        59.5964       76.11613         0.7615        -999.25        -999.25         0.7817        33.3386      -2.918709      0.9173644              1
       958.0000        -999.25        -999.25        -999.25        -999.25        60.7265       77.66633         0.7503        -999.25        -999.25         0.7635        32.7364      -3.520908      0.9503474      0.9693583
       958.5000        -999.25        -999.25        -999.25        -999.25        62.5618       80.18388           0.75        -999.25        -999.25         0.7533        34.1484       -2.10891              1              1
       959.0000        -999.25        -999.25        -999.25        -999.25        63.4064       81.34246         0.7549        -999.25        -999.25         0.7481        34.2772       -1.98011              1              1
       959.5000        -999.25        -999.25        -999.25        -999.25        65.1393       83.71955          0.778        -999.25        -999.25         0.7444        35.6071     -0.6502075              1              1
       960.0000        -999.25        -999.25        -999.25        -999.25        66.7578       85.93971          0.805        -999.25        -999.25         0.7508        37.9497        1.69239              1              1
       960.5000        -999.25        -999.25        -999.25        -999.25         68.038       87.69583         0.8458        -999.25        -999.25         0.7716        36.8306      0.5732918              1              1
       961.0000        -999.25        -999.25        -999.25        -999.25        68.0231       87.67538         0.9093        -999.25        -999.25         0.7969        35.9445      -0.312809              1              1
       961.5000        -999.25        -999.25        -999.25        -999.25         66.938        86.1869         0.9836        -999.25        -999.25          0.838        35.6793     -0.5780106              1              1
       962.0000        -999.25        -999.25        -999.25        -999.25        64.0107       82.17139           1.06        -999.25        -999.25         0.8998        36.0989     -0.1584091              1              1
       962.5000        -999.25        -999.25        -999.25        -999.25        60.9424       77.96249         1.1358        -999.25        -999.25         1.0068        35.9365     -0.3208084      0.9566488              1
       963.0000        -999.25        -999.25        -999.25        -999.25        59.5973       76.11737         1.2062        -999.25        -999.25         1.0942        33.9824       -2.27491      0.9173909              1
       963.5000        -999.25        -999.25        -999.25        -999.25         58.894       75.15261         1.2741        -999.25        -999.25         1.1352        33.2251      -3.032207      0.8968641      0.9981055
       964.0000        -999.25        -999.25        -999.25        -999.25        58.3856       74.45522          1.322        -999.25        -999.25         1.1296        34.8843      -1.373009      0.8820258              1
       964.5000        -999.25        -999.25        -999.25        -999.25        58.1294       74.10378         1.3602        -999.25        -999.25         1.1348        35.6092     -0.6481094      0.8745484              1
       965.0000        -999.25        -999.25        -999.25        -999.25        58.4166       74.49774         1.3813        -999.25        -999.25          1.141        39.9826       3.725292      0.8829307              1
       965.5000        -999.25        -999.25        -999.25        -999.25        58.9089       75.17305         1.3751        -999.25        -999.25         1.1512        38.2563       1.998993      0.8972989              1
