#------------------------------------------------------------------------------
# Created by    : vladimir.rabinovich
# Created on    : 09/19/2023 17:22:39
#------------------------------------------------------------------------------
~Version Information Section
VERS.           2.0     :   CWLS log ASCII Standard - VERSION 2.0
WRAP.           NO      :   One line per depth step
~Well Information Section
#MNEM       .UNIT                                         VALUE :DESCRIPTION
#------------------------------------------------------------------------------
STRT        .FT                                            2600 :START DEPTH
STOP        .FT                                            8208 :STOP DEPTH
STEP        .FT                                             0.5 :STEP      
NULL        .                                           -999.25 :NULL      
COMP        .                          SEAGULL ENERGY E & P INC :COMPANY   
WELL        .                               OCS G09039 ST00BP00 :WELL      
FLD         .                              GALVESTON BLOCK 0273 :FIELD     
LOC         .                                                   :LOCATION  
CNTY        .                             GALVESTON LARGE BLOCK :LOCATION  
STAT        .                                             TEXAS :STATE     
CTRY        .                                     UNITED STATES :COUNTRY   
SRVC        .                                                   :SERVICE COMPANY
DATE        .                             9/13/2023 11:19:54 AM :LOG DATE  
API         .                                    42706403220000 :API NUMBER
UWI         .                                    42706403220000 :UNIQUE WELL ID
XCOORD      .                                  1018306.80056624 :SURFACE X 
YCOORD      .                                  10490966.5196098 :SURFACE Y 
LAT         .                                         28.894284 :LATITUDE  
LON         .                                        -94.944599 :LONGITUDE 
ELEV        .FT                                             103 :ELEVATION VALUE
ELEV_TYPE   .                                                KB :ELEVATION REFERENCE TYPE
~Curve Information Section
#MNEM       .UNIT                                      API CODE :CURVE DESCRIPTION
#------------------------------------------------------------------------------
DEPT        .FT                                                 :DEPTH     
DCAL        .IN                                                 :          
DPHI        .%                                                  :          
DTL         .US/F                                               :          
GR          .GAPI                                               :          
GR_1        .GAPI                                               :          
GR_NORM     .GAPI                                               :GammaRay Normalized
ILD         .OHMM                                               :          
ILM         .OHMM                                               :          
NPHI        .%                                                  :          
SFL         .OHMM                                               :          
SP          .MV                                                 :          
SP_NORM     .MV                                                 :SP Normalized
VSH_GR      .V/V                                                :Volume of Shale from GR
VSH_SP      .V/V                                                :Volume of Shale from SP
~A        DEPTH           DCAL           DPHI            DTL             GR           GR_1        GR_NORM            ILD            ILM           NPHI            SFL             SP        SP_NORM         VSH_GR         VSH_SP
# ...
      6326.0000        -999.25        -999.25        -999.25        68.2471        -999.25       86.93847         0.6984         0.7126        -999.25         0.7629       -42.3385      -2.734942              1      0.9544176
      6326.5000        -999.25        -999.25        -999.25         67.434        -999.25       85.99916         0.7027         0.7217        -999.25         0.7372        -43.584      -4.075829              1      0.9320695
      6327.0000        -999.25        -999.25        -999.25        66.3781        -999.25       84.77885         0.7044         0.7265        -999.25         0.7437       -44.8835      -5.474871              1      0.9087521
      6327.5000        -999.25        -999.25        -999.25        66.2985        -999.25       84.68851         0.6957         0.7274        -999.25          0.776       -46.2441      -6.939713              1      0.8843381
      6328.0000        -999.25        -999.25        -999.25        67.6725        -999.25       86.28057         0.6778         0.7105        -999.25         0.8025       -47.7833      -8.596894              1      0.8567184
      6328.5000        -999.25        -999.25        -999.25         69.009        -999.25       87.82925         0.6533         0.7042        -999.25         0.7912       -49.4976      -10.44264              1       0.825956
      6329.0000        -999.25        -999.25        -999.25        69.3586        -999.25       88.23564         0.6317         0.6957        -999.25         0.7731       -51.4919      -12.58993              1      0.7901678
      6329.5000        -999.25        -999.25        -999.25        68.6649        -999.25       87.43455         0.5928         0.6448        -999.25         0.7491       -54.0859      -15.38305              1      0.7436159
      6330.0000        -999.25        -999.25        -999.25        62.6976        -999.25       80.52975         0.5163         0.5569        -999.25         0.7056       -58.3048      -19.92606              1       0.667899
      6330.5000        -999.25        -999.25        -999.25        58.4738        -999.25       75.64288         0.4642         0.5012        -999.25         0.6346       -62.3279      -24.25821      0.9072952      0.5956965
      6331.0000        -999.25        -999.25        -999.25        57.0349        -999.25       73.97927         0.4215         0.4626        -999.25         0.5895       -65.9642      -28.17381      0.8718994      0.5304365
      6331.5000        -999.25        -999.25        -999.25         56.127        -999.25       72.93025           0.39         0.4321        -999.25         0.5924        -70.423      -32.97517      0.8495798      0.4504139
      6332.0000        -999.25        -999.25        -999.25         48.514        -999.25        64.1207         0.3633         0.4077        -999.25          0.639       -74.1426      -36.98048      0.6621425      0.3836587
      6332.5000        -999.25        -999.25        -999.25        44.1508        -999.25       59.07248         0.3414         0.3889        -999.25         0.6382       -77.7032      -40.81455      0.5547337      0.3197575
      6333.0000        -999.25        -999.25        -999.25        43.8975        -999.25        58.7811         0.3261         0.3745        -999.25         0.6213       -80.5394       -43.8685      0.5485341      0.2688584
      6333.5000        -999.25        -999.25        -999.25        45.0635        -999.25       60.13242         0.3187         0.3631        -999.25         0.6015       -82.7467      -46.24517      0.5772856      0.2292472
      6334.0000        -999.25        -999.25        -999.25        48.3329        -999.25       63.91825         0.3156         0.3574        -999.25         0.5462       -83.7709      -47.34773      0.6578351      0.2108712
      6334.5000        -999.25        -999.25        -999.25        53.3055        -999.25       69.67536         0.3236          0.357        -999.25         0.5054       -82.4384      -45.91231      0.7803268      0.2347948
      6335.0000        -999.25        -999.25        -999.25        58.3318        -999.25       75.49462         0.3443         0.3668        -999.25         0.5098       -73.5063      -36.29271      0.9041409      0.3951215
      6335.5000        -999.25        -999.25        -999.25        61.9022        -999.25       79.62881         0.4122         0.3993        -999.25         0.5784       -64.5303      -26.62582      0.9921024      0.5562363
      6336.0000        -999.25        -999.25        -999.25        62.6094        -999.25       80.44913         0.4823         0.4706        -999.25         0.6874       -58.6474      -20.28998              1      0.6618337
      6336.5000        -999.25        -999.25        -999.25        60.7692        -999.25       78.32106         0.5159         0.5384        -999.25         0.6978       -55.3242      -16.71073      0.9642779      0.7214879
      6337.0000        -999.25        -999.25        -999.25        53.9368        -999.25       70.41497         0.5151         0.5889        -999.25         0.6757       -55.1798       -16.5548      0.7960632      0.7240867
      6337.5000        -999.25        -999.25        -999.25        49.3509        -999.25       65.10901         0.4769         0.5727        -999.25         0.6611       -59.3766      -21.07401      0.6831704      0.6487665
      6338.0000        -999.25        -999.25        -999.25        42.9003        -999.25       57.64482         0.4051         0.5093        -999.25         0.6766       -66.2433       -28.4685       0.524358       0.525525
      6338.5000        -999.25        -999.25        -999.25        40.1142        -999.25       54.42196           0.35         0.4358        -999.25         0.6861       -72.2975      -34.98799      0.4557864      0.4168669
      6339.0000        -999.25        -999.25        -999.25        39.6398        -999.25       53.87468         0.3175         0.3664        -999.25         0.6526       -76.7806      -39.81553       0.444142      0.3364079
      6339.5000        -999.25        -999.25        -999.25        41.6448        -999.25       56.19707         0.3007         0.3355        -999.25         0.5623        -78.353      -41.50845      0.4935546      0.3081925
      6340.0000        -999.25        -999.25        -999.25        48.6412        -999.25       64.29655         0.3132         0.3428        -999.25         0.4996       -76.7023      -39.73036       0.665884      0.3378274
      6340.5000        -999.25        -999.25        -999.25         53.653        -999.25       70.09902         0.3393         0.3706        -999.25         0.5813       -70.5601      -33.11526      0.7893409       0.448079
      6341.0000        -999.25        -999.25        -999.25        57.6859        -999.25       74.76852         0.4053         0.4327        -999.25          0.719       -63.1746      -25.16122       0.888692      0.5806463
      6341.5000        -999.25        -999.25        -999.25        64.7629        -999.25       82.96129         0.5183           0.51        -999.25         0.7576       -55.6374      -17.04383              1      0.7159362
      6342.0000        -999.25        -999.25        -999.25        64.9098        -999.25       83.13308         0.6092         0.6072        -999.25         0.7426       -52.1515      -13.28935              1      0.7785107
      6342.5000        -999.25        -999.25        -999.25        62.8664        -999.25       80.76984         0.6462          0.668        -999.25         0.7365       -52.1129      -13.24736              1      0.7792106
      6343.0000        -999.25        -999.25        -999.25        60.2847        -999.25       77.78355         0.6263         0.6598        -999.25         0.7689       -53.5745      -14.82098      0.9528414      0.7529837
      6343.5000        -999.25        -999.25        -999.25        58.2462        -999.25       75.42596         0.5861         0.6175        -999.25         0.7844       -56.1146      -17.55605      0.9026801      0.7073991
