#------------------------------------------------------------------------------
# Created by    : vladimir.rabinovich
# Created on    : 09/19/2023 17:20:39
#------------------------------------------------------------------------------
~Version Information Section
VERS.           2.0     :   CWLS log ASCII Standard - VERSION 2.0
WRAP.           NO      :   One line per depth step
~Well Information Section
#MNEM       .UNIT                                         VALUE :DESCRIPTION
#------------------------------------------------------------------------------
STRT        .FT                                             502 :START DEPTH
STOP        .FT                                           11475 :STOP DEPTH
STEP        .FT                                             0.5 :STEP      
NULL        .                                           -999.25 :NULL      
COMP        .                                      SHELL OIL CO :COMPANY   
WELL        .                                OCS 00730 ST00BP00 :WELL      
FLD         .                                           WILDCAT :FIELD     
LOC         .                                                   :LOCATION  
CNTY        .                             GALVESTON LARGE BLOCK :LOCATION  
STAT        .                                             TEXAS :STATE     
CTRY        .                                     UNITED STATES :COUNTRY   
SRVC        .                                                   :SERVICE COMPANY
DATE        .                             9/13/2023 11:19:42 AM :LOG DATE  
API         .                                    42706000250000 :API NUMBER
UWI         .                                    42706000250000 :UNIQUE WELL ID
XCOORD      .                                  958538.282477158 :SURFACE X 
YCOORD      .                                   10357465.718335 :SURFACE Y 
LAT         .                                         28.524406 :LATITUDE  
LON         .                                        -95.123893 :LONGITUDE 
ELEV        .FT                                              80 :ELEVATION VALUE
ELEV_TYPE   .                                                KB :ELEVATION REFERENCE TYPE
~Curve Information Section
#MNEM       .UNIT                                      API CODE :CURVE DESCRIPTION
#------------------------------------------------------------------------------
DEPT        .FT                                                 :DEPTH     
ASN         .OHMM                                               :          
CILD        .MMHO                                               :          
ILD         .OHMM                                               :          
LAT         .OHMM                                               :          
LN          .OHMM                                               :          
SP          .MV                                                 :          
SP_NORM     .MV                                                 :SP Normalized
VSH_SP      .V/V                                                :Volume of Shale from SP
~A        DEPTH            ASN           CILD            ILD            LAT             LN             SP        SP_NORM         VSH_SP
# ...
      1947.5000         1.1428        -999.25        -999.25         1.0967         1.0653       -52.3881      -1.513294      0.9786127
      1948.0000         1.1399        -999.25        -999.25         1.0994         1.0618       -52.6256      -1.754215      0.9685743
      1948.5000         1.1381        -999.25        -999.25         1.1022         1.0584       -52.7938      -1.925838      0.9614234
      1949.0000         1.1375        -999.25        -999.25         1.1049          1.055        -52.962      -2.097462      0.9542724
      1949.5000         1.1369        -999.25        -999.25         1.1032         1.0495       -53.1302      -2.269085      0.9471214
      1950.0000         1.1336        -999.25        -999.25          1.101         1.0439       -52.8636      -2.005909      0.9580871
      1950.5000         1.1297        -999.25        -999.25         1.0987         1.0384       -52.1824      -1.328129      0.9863279
      1951.0000         1.1239        -999.25        -999.25         1.0965         1.0328       -51.5013     -0.6504517              1
      1951.5000         1.1169        -999.25        -999.25         1.0942         1.0273       -50.8203      0.0271225              1
      1952.0000         1.1066        -999.25        -999.25          1.092         1.0217       -50.1723      0.6717033              1
      1952.5000         1.0925        -999.25        -999.25         1.0897         1.0162       -49.5756        1.26498              1
      1953.0000         1.0791        -999.25        -999.25         1.0874         1.0106       -48.9788       1.858356              1
      1953.5000         1.0921        -999.25        -999.25         1.0852         1.0051       -48.3821       2.451633              1
      1954.0000         1.1035        -999.25        -999.25         1.0829         0.9996       -48.2718        2.55851              1
      1954.5000         1.1066        -999.25        -999.25         1.0807          0.994       -48.8971        1.92979              1
      1955.0000         1.0975        -999.25        -999.25         1.0784         0.9885       -49.9691      0.8543663              1
      1955.5000         1.0841        -999.25        -999.25         1.0762         0.9829       -51.0408     -0.2207565              1
      1956.0000         1.0663        -999.25        -999.25         1.0739         0.9771       -52.1125      -1.295879      0.9876717
      1956.5000         1.0601        -999.25        -999.25          1.064         0.9661       -53.0692      -2.256001      0.9476666
      1957.0000         1.0421        -999.25        -999.25         1.0537          0.955       -53.6067      -2.796925      0.9251282
      1957.5000          1.011        -999.25        -999.25         1.0434          0.944       -54.1443      -3.337948      0.9025855
      1958.0000         0.9935        -999.25        -999.25         1.0331          0.933        -54.682       -3.87907      0.8800387
      1958.5000         0.9768        -999.25        -999.25         1.0228         0.9219       -55.2195      -4.419994      0.8575003
      1959.0000         0.9611        -999.25        -999.25              1         0.9109       -55.7572      -4.961113      0.8349536
      1959.5000         1.0048        -999.25        -999.25         0.9738         0.8998       -56.3398      -5.547142      0.8105357
      1960.0000         1.0364        -999.25        -999.25         0.9476         0.8888       -56.9507      -6.161461      0.7849391
      1960.5000         0.9919        -999.25        -999.25         0.9214         0.8779       -58.7473      -7.961483      0.7099382
      1961.0000         1.0083        -999.25        -999.25         0.8951         0.8696       -62.2918      -11.50941       0.562108
      1961.5000         1.0361        -999.25        -999.25         0.8752         0.8612       -64.2305      -13.45153      0.4811862
      1962.0000         1.0464        -999.25        -999.25         0.8788         0.8529       -62.8744      -12.09885      0.5375478
      1962.5000         0.9631        -999.25        -999.25         0.8825         0.8445       -61.9092      -11.13707      0.5776219
      1963.0000         0.9786        -999.25        -999.25         0.8934         0.8361       -60.9438       -10.1751      0.6177042
      1963.5000          0.994        -999.25        -999.25         0.9294         0.8278       -59.9786      -9.213322      0.6577783
      1964.0000         1.0094        -999.25        -999.25         0.9654         0.8194       -59.0134      -8.251545      0.6978523
      1964.5000         1.0066        -999.25        -999.25         1.0014         0.8228       -58.0479      -7.289467      0.7379389
      1965.0000         0.9845        -999.25        -999.25         1.0375         0.8279       -57.0015      -6.246487      0.7813964
      1965.5000         0.9622        -999.25        -999.25         1.0735         0.8329       -55.9414      -5.189812      0.8254245
      1966.0000         0.9399        -999.25        -999.25         1.0361          0.838       -54.8813      -4.133137      0.8694527
      1966.5000         0.9537        -999.25        -999.25         0.9872          0.843       -58.1503      -7.405556      0.7331018
      1967.0000         0.9751        -999.25        -999.25         0.9382          0.848       -65.2925      -14.55118      0.4353674
      1967.5000         0.9936        -999.25        -999.25         0.8898         0.8531       -67.6173      -16.87941      0.3383581
      1968.0000         1.0122        -999.25        -999.25         0.8483         0.8581        -68.577      -17.84253      0.2982279
      1968.5000         1.0235        -999.25        -999.25         0.8068         0.8632       -68.1823      -17.45124      0.3145315
      1969.0000           1.01        -999.25        -999.25         0.7652         0.8682       -66.4438      -15.71617      0.3868262
      1969.5000         0.9963        -999.25        -999.25         0.7237          0.872        -64.297      -13.57279      0.4761338
      1970.0000         0.9679        -999.25        -999.25         0.7432         0.8662       -62.1503      -11.42952      0.5654368
      1970.5000         0.9394        -999.25        -999.25         0.7898         0.8604       -60.5845      -9.867138      0.6305359
      1971.0000         0.8919        -999.25        -999.25         0.8382         0.8546       -59.6149      -8.900959      0.6707934
      1971.5000         0.8599        -999.25        -999.25          0.891         0.8489       -58.8986      -8.188084      0.7004965
      1972.0000         0.8686        -999.25        -999.25         0.9437         0.8431       -59.6456      -8.938507      0.6692289
      1972.5000         0.8847        -999.25        -999.25         0.9453         0.8373       -60.3928      -9.689129       0.637953
      1973.0000         0.9011        -999.25        -999.25         0.9023         0.8316       -61.3277      -10.62745      0.5988562
      1973.5000         0.9175        -999.25        -999.25         0.8624         0.8258       -62.4255      -11.72867       0.552972
      1974.0000         0.9339        -999.25        -999.25         0.8224           0.82       -63.6318       -12.9384      0.5025666
      1974.5000         0.9503        -999.25        -999.25         0.7869         0.8143       -65.2354      -14.54542      0.4356076
      1975.0000         0.9668        -999.25        -999.25          0.755         0.8101       -66.5343      -15.84774       0.381344
      1975.5000         0.9833        -999.25        -999.25         0.7231         0.8064       -68.0179      -17.33476      0.3193849
      1976.0000          1.002        -999.25        -999.25         0.6912         0.8027       -69.3125      -18.63279      0.2653004
      1976.5000         0.9712        -999.25        -999.25         0.6593         0.7991       -67.2084      -16.53211      0.3528288
