#------------------------------------------------------------------------------
# Created by    : vladimir.rabinovich
# Created on    : 09/19/2023 17:22:53
#------------------------------------------------------------------------------
~Version Information Section
VERS.           2.0     :   CWLS log ASCII Standard - VERSION 2.0
WRAP.           NO      :   One line per depth step
~Well Information Section
#MNEM       .UNIT                                         VALUE :DESCRIPTION
#------------------------------------------------------------------------------
STRT        .FT                                             252 :START DEPTH
STOP        .FT                                           11321 :STOP DEPTH
STEP        .FT                                             0.5 :STEP      
NULL        .                                           -999.25 :NULL      
COMP        .                          HUMBLE OIL & REFINING CO :COMPANY   
WELL        .                                OCS 00615 ST00BP00 :WELL      
FLD         .                                           WILDCAT :FIELD     
LOC         .                                                   :LOCATION  
CNTY        .                             GALVESTON LARGE BLOCK :LOCATION  
STAT        .                                             TEXAS :STATE     
CTRY        .                                     UNITED STATES :COUNTRY   
SRVC        .                                                   :SERVICE COMPANY
DATE        .                             9/13/2023 11:19:42 AM :LOG DATE  
API         .                                    42706000270000 :API NUMBER
UWI         .                                    42706000270000 :UNIQUE WELL ID
XCOORD      .                                  1043929.24471964 :SURFACE X 
YCOORD      .                                  10527500.2798036 :SURFACE Y 
LAT         .                                         28.995876 :LATITUDE  
LON         .                                        -94.866344 :LONGITUDE 
ELEV        .FT                                              67 :ELEVATION VALUE
ELEV_TYPE   .                                                KB :ELEVATION REFERENCE TYPE
~Curve Information Section
#MNEM       .UNIT                                      API CODE :CURVE DESCRIPTION
#------------------------------------------------------------------------------
DEPT        .FT                                                 :DEPTH     
LAT         .OHMM                                               :          
LN          .OHMM                                               :          
SN          .OHMM                                               :          
SP          .MV                                                 :          
SP_NORM     .MV                                                 :SP Normalized
VSH_SP      .V/V                                                :Volume of Shale from SP
~A        DEPTH            LAT             LN             SN             SP        SP_NORM         VSH_SP
# ...
      6864.0000         0.9996         0.7305           0.81       -69.3965      -1.103813      0.9986518
      6864.5000         0.9615         0.7404         0.8048       -68.6016     -0.3089142              1
      6865.0000         0.9211         0.7289         0.7995       -67.8779      0.4147873              1
      6865.5000         0.8806         0.7171         0.7943       -67.1543        1.13839              1
      6866.0000         0.8401         0.7052          0.789       -66.4307       1.861984              1
      6866.5000         0.7997         0.6934         0.7927       -65.7061       2.586586              1
      6867.0000         0.7593         0.6815         0.7984       -64.9824       3.310287              1
      6867.5000         0.7344         0.6697         0.8213       -64.7419       3.550789              1
      6868.0000         0.7108         0.6578         0.8477       -64.6274       3.665283              1
      6868.5000         0.6873          0.646         0.8709       -64.6025       3.690186              1
      6869.0000         0.7029         0.6341         0.8576       -64.9229       3.369789              1
      6869.5000         0.7238         0.6223          0.841       -65.2432       3.049484              1
      6870.0000         0.7448         0.6104         0.8205       -65.5635       2.729187              1
      6870.5000         0.7657         0.5986            0.8       -65.8838        2.40889              1
      6871.0000         0.7867         0.6026         0.7796       -66.2046       2.088089              1
      6871.5000         0.8076         0.6127         0.7559       -66.5249       1.767784              1
      6872.0000          0.828         0.6228         0.7302       -67.2236       1.069084              1
      6872.5000         0.8483          0.633         0.7191       -73.5547      -5.262016      0.9446492
      6873.0000         0.8524         0.6431         0.7292        -77.332      -9.039314      0.8955933
      6873.5000         0.8466         0.6532          0.751       -86.5938      -18.30112      0.7753102
      6874.0000         0.8311         0.6621         0.8132       -94.7109      -26.41821      0.6698933
      6874.5000         0.8134         0.6652         0.8755      -102.8359      -34.54321      0.5643739
      6875.0000         0.7958         0.6683         0.9229      -110.9609      -42.66821      0.4588544
      6875.5000         0.7781         0.6714         0.9647      -119.0859      -50.79321      0.3533349
      6876.0000         0.7523         0.6745         1.0063      -127.2109      -58.91821      0.2478154
      6876.5000         0.7205         0.6757         1.0481      -135.3359      -67.04322      0.1422958
      6877.0000         0.6887          0.669         1.0898        -142.54      -74.24731     0.04873627
      6877.5000         0.6569         0.6624         1.0756      -143.6592      -75.36651     0.03420119
      6878.0000         0.6252         0.6557         1.0526      -144.1909      -75.89822     0.02729589
      6878.5000         0.5934         0.6491         1.0366      -144.7227      -76.43002     0.02038941
      6879.0000         0.5543         0.6424         1.0219      -145.2549      -76.96221     0.01347777
      6879.5000         0.4947         0.6358         1.0518      -145.5684      -77.27572    0.009406251
      6880.0000         0.4706         0.6291         1.1378      -145.8521      -77.55941    0.005721947
      6880.5000         0.5016         0.6225         1.1877      -146.1357      -77.84301    0.002038832
      6881.0000         0.5327         0.6237         1.2837      -146.4194      -78.12672              0
      6881.5000         0.5637         0.6271         1.4614      -146.7031      -78.41041              0
      6882.0000         0.5948         0.6305         1.6394      -146.9866      -78.69392              0
      6882.5000         0.6258         0.6339         1.7313      -147.2703      -78.97761              0
      6883.0000         0.6568         0.6373         1.6821       -147.554      -79.26131              0
      6883.5000          0.687         0.6407         1.5654      -147.9482      -79.65551              0
      6884.0000         0.7156         0.6443         1.4293      -148.1528      -79.86012              0
      6884.5000         0.7443         0.6551         1.3344      -148.0977      -79.80502              0
      6885.0000         0.7575         0.6659         1.2443      -144.7617      -76.46902      0.0198829
      6885.5000         0.7673         0.6768         1.1611      -141.4297      -73.13702     0.06315564
      6886.0000         0.7771         0.6876         1.0577      -137.5859      -69.29322      0.1130751
      6886.5000         0.7874         0.6984          1.021      -132.2344      -63.94172      0.1825751
      6887.0000         0.8051         0.7092         0.9944      -122.8125      -54.51981      0.3049375
      6887.5000         0.8227           0.72         0.9827      -108.9531      -40.66042      0.4849297
      6888.0000         0.8404         0.7317         0.9709      -103.6094      -35.31671      0.5543284
      6888.5000         0.8581         0.7434         0.9592       -98.2578      -29.96511      0.6238297
      6889.0000         0.8488         0.7552         0.9474       -92.8535      -24.56081      0.6940154
      6889.5000          0.837         0.7669         0.9363        -90.875      -22.58231      0.7197102
      6890.0000         0.8253         0.7787         0.9275       -87.2695      -18.97681      0.7665349
      6890.5000         0.8154         0.7904         0.9188        -83.668      -15.37531      0.8133076
      6891.0000         0.8056         0.8022         0.9101       -80.0625      -11.76981      0.8601323
      6891.5000         0.7959         0.8139         0.9071       -76.4609      -8.168213      0.9069063
      6892.0000         0.7862          0.808         0.9041       -72.8555      -4.562813      0.9537297
      6892.5000         0.7765         0.7967         0.9012       -69.2539     -0.9612122              1
      6893.0000         0.7668         0.7854         0.9002       -65.6484       2.644287              1
      6893.5000         0.7571         0.7703         0.9004       -64.1045       4.188187              1
      6894.0000         0.7557         0.7551         0.9006       -65.2207       3.071983              1
      6894.5000         0.7766         0.7398         0.9043       -66.3379       1.954788              1
      6895.0000         0.7975         0.7245         0.9197        -68.625     -0.3323135              1
      6895.5000         0.8184         0.7115         0.9351       -71.0508       -2.75811      0.9771674
      6896.0000         0.8393         0.7005         0.9585       -73.4766      -5.183914      0.9456635
      6896.5000         0.8602         0.6895         0.9832       -75.8418       -7.54911      0.9149466
      6897.0000          0.881         0.6785         1.0078       -77.6445      -9.351814      0.8915349
      6897.5000         0.9019         0.6675         1.0325       -79.4473      -11.15462      0.8681219
      6898.0000         0.9228         0.6475         1.0572       -80.9335      -12.64082      0.8488206
      6898.5000         0.9437         0.6236         1.0818       -81.0844      -12.79171      0.8468609
      6899.0000         0.9646         0.5997         1.1065       -80.0586      -11.76591      0.8601829
      6899.5000         0.9768         0.5767         1.1151       -78.7227      -10.43002      0.8775322
      6900.0000         0.9651         0.5562         1.1194       -77.3867      -9.094017      0.8948829
      6900.5000         0.9533         0.5358          1.104       -76.0488      -7.756111      0.9122583
      6901.0000         0.9369         0.5153         1.0886       -74.7129      -6.420212      0.9296076
      6901.5000         0.9196         0.4949         1.0731        -73.377      -5.084312       0.946957
