#------------------------------------------------------------------------------
# Created by    : vladimir.rabinovich
# Created on    : 09/19/2023 17:21:35
#------------------------------------------------------------------------------
~Version Information Section
VERS.           2.0     :   CWLS log ASCII Standard - VERSION 2.0
WRAP.           NO      :   One line per depth step
~Well Information Section
#MNEM       .UNIT                                         VALUE :DESCRIPTION
#------------------------------------------------------------------------------
STRT        .FT                                            4200 :START DEPTH
STOP        .FT                                            8641 :STOP DEPTH
STEP        .FT                                             0.5 :STEP      
NULL        .                                           -999.25 :NULL      
COMP        .                                       HUNT OIL CO :COMPANY   
WELL        .                               OCS G25526 ST00BP00 :WELL      
FLD         .                                           WILDCAT :FIELD     
LOC         .                                                   :LOCATION  
CNTY        .                             GALVESTON LARGE BLOCK :LOCATION  
STAT        .                                             TEXAS :STATE     
CTRY        .                                     UNITED STATES :COUNTRY   
SRVC        .                                                   :SERVICE COMPANY
DATE        .                             9/13/2023 11:19:33 AM :LOG DATE  
API         .                                    42706404520000 :API NUMBER
UWI         .                                    42706404520000 :UNIQUE WELL ID
XCOORD      .                                  1090250.84236946 :SURFACE X 
YCOORD      .                                  10532258.5226608 :SURFACE Y 
LAT         .                                         29.010895 :LATITUDE  
LON         .                                        -94.721682 :LONGITUDE 
ELEV        .FT                                             108 :ELEVATION VALUE
ELEV_TYPE   .                                                KB :ELEVATION REFERENCE TYPE
~Curve Information Section
#MNEM       .UNIT                                      API CODE :CURVE DESCRIPTION
#------------------------------------------------------------------------------
DEPT        .FT                                                 :DEPTH     
CALI        .IN                                                 :          
DCAL        .IN                                                 :          
DFL         .OHMM                                               :          
DLOD        .LB                                                 :          
DPHI        .DEC                                                :          
DRHO        .G/C3                                               :          
GR          .GAPI                                               :          
GR_NORM     .GAPI                                               :GammaRay Normalized
HDCN        .MMHO                                               :          
HO24        .OHMM                                               :          
HO30        .OHMM                                               :          
HO40        .OHMM                                               :          
HO60        .OHMM                                               :          
HO90        .OHMM                                               :          
HT24        .OHMM                                               :          
HT30        .OHMM                                               :          
HT40        .OHMM                                               :          
HT60        .OHMM                                               :          
HT90        .OHMM                                               :          
NPHI        .DEC                                                :          
RHOB        .G/C3                                               :          
RWA         .OHMM                                               :          
SP_NORM     .MV                                                 :SP Normalized
SPA         .MV                                                 :          
TENS        .LBS                                                :          
VSH_GR      .V/V                                                :Volume of Shale from GR
VSH_SP      .V/V                                                :Volume of Shale from SP
~A        DEPTH           CALI           DCAL            DFL           DLOD           DPHI           DRHO             GR        GR_NORM           HDCN           HO24           HO30           HO40           HO60           HO90           HT24           HT30           HT40           HT60           HT90           NPHI           RHOB            RWA        SP_NORM            SPA           TENS         VSH_GR         VSH_SP
# ...
      5970.0000        13.1641         0.9141         1.0557       1432.714          0.245         -0.042        42.5134       42.94829       1775.269         0.8959         0.8224         0.7731         0.7177           0.66         0.7419         0.6874         0.6503          0.608         0.5633         0.2454         2.2458         0.0466      -42.78358       131.2679       3262.267      0.2116657      0.3020425
      5970.5000        13.2812         1.0312         0.8617       1440.867         0.2798        -0.0115        52.2343       52.69943       1994.472         0.7306         0.6665          0.624         0.5767         0.5277         0.6816         0.6254         0.5877         0.5454         0.5014         0.2546         2.1883         0.0425      -43.94786       130.4929        3277.28      0.4191368      0.2816164
      5971.0000        13.5679         1.3179         0.5798       1473.479         0.2879        -0.0056        61.0843       61.57694       2300.186         0.5519         0.5064         0.4758         0.4416         0.4059         0.5927         0.5434         0.5103         0.4733         0.4347         0.2929          2.175         0.0467       -44.4076       130.1852       3281.546      0.6080199      0.2735508
      5971.5000        13.9442         1.6942         0.4982       1506.092         0.2815        -0.0261        64.4324       64.93527       2412.262         0.4991         0.4594         0.4326         0.4024         0.3708         0.5603          0.515         0.4846         0.4503         0.4145         0.3369         2.1856         0.0509      -44.61753       130.0432       3273.697      0.6794739      0.2698679
      5972.0000        14.1385         1.8885         0.5721       1446.982         0.2814          -0.05        63.3998       63.89914       2255.292          0.594         0.5463         0.5142         0.4781         0.4403         0.5839         0.5411         0.5118         0.4786         0.4434         0.3625         2.1857         0.0581      -44.94339       129.8243       3257.831      0.6574286      0.2641511
      5972.5000        14.2881         2.0381         0.8016       1420.484         0.2946        -0.0612        61.3711       61.86378       2053.055         0.6903         0.6501         0.6219         0.5891         0.5534         0.6148          0.577         0.5506         0.5201         0.4871         0.3729         2.1639         0.0737      -45.26036       129.6113       3259.708       0.614123      0.2585902
      5973.0000        14.3348         2.0848         0.8699       1414.369         0.3011        -0.0733         57.611       58.09159       2060.196         0.6106         0.5851         0.5667         0.5447           0.52         0.5966         0.5643         0.5414         0.5147         0.4854          0.396         2.1532         0.0731      -45.84493       129.2208        3285.47      0.5338635      0.2483346
      5973.5000        14.4618         2.2118         0.8367       1430.675         0.2698        -0.0746        53.1365       53.60275       2244.163         0.5196         0.5015         0.4883         0.4722          0.454         0.5466         0.5173         0.4966         0.4723         0.4456         0.4407         2.2049         0.0638      -46.08154       129.0611       3314.133      0.4383563      0.2441835
      5974.0000        14.7887         2.5387         0.7512       1477.557         0.2387        -0.0601        51.5824       52.04348       2498.019          0.494         0.4709         0.4544         0.4348          0.413         0.5038         0.4732         0.4519         0.4271         0.4003         0.4655         2.2561         0.0627      -46.55907       128.7416       3325.734      0.4051803      0.2358058
      5974.5000        14.6429         2.3929         0.6189       1524.437         0.2496        -0.0339        51.8901       52.35185       2779.436         0.4754         0.4424         0.4197         0.3937         0.3661         0.4686         0.4357         0.4131         0.3873         0.3598         0.4428         2.2382         0.0598      -46.84028       128.5523       3307.137      0.4117415      0.2308722
      5975.0000        14.5392         2.2892         0.5071       1469.403         0.2894        -0.0231        51.6815       52.14231       3051.798         0.4264         0.3953         0.3741         0.3499         0.3243         0.4352         0.4022         0.3798         0.3544         0.3277         0.4186         2.1724         0.0571      -47.36244       128.2032       3278.475      0.4072832      0.2217116
      5975.5000        14.3345         2.0845         0.4459       1432.714         0.3272        -0.0329        49.4912       49.94485       3251.009         0.4029          0.372          0.351         0.3273         0.3023         0.4093          0.378         0.3569         0.3329         0.3076         0.4199         2.1101         0.0607      -48.09871       127.7121       3271.479      0.3605286      0.2087945
      5976.0000         13.561          1.311           0.42       1438.829         0.3441         -0.043        47.9423        48.3908       3354.994         0.3965         0.3648         0.3435         0.3194         0.2943         0.3932         0.3642         0.3444         0.3219         0.2981         0.4197         2.0823         0.0631      -49.37003       126.8661       3279.157      0.3274637      0.1864906
      5976.5000        13.3907         1.1407         0.3892        1436.79         0.3262        -0.0428         44.928       45.36674       3349.439         0.3838         0.3563         0.3376         0.3161         0.2934          0.388          0.361         0.3424         0.3212         0.2986         0.3994         2.1118         0.0582      -51.19455       125.6532       3278.986      0.2631221      0.1544816
      5977.0000        13.2329         0.9829         0.3768        1449.02         0.2581         -0.026        42.0127         42.442       3169.042         0.3734         0.3501         0.3339         0.3151         0.2948         0.4069         0.3794         0.3605         0.3388         0.3156         0.3561         2.2241         0.0392      -52.21619       124.9728       3269.432      0.2008936      0.1365581
      5977.5000        13.3237         1.0737         0.5087       1408.254         0.1735        -0.0029         40.855       41.28037       2745.976         0.4463         0.4183         0.3989         0.3764         0.3522         0.4691         0.4376         0.4158         0.3909         0.3642          0.302         2.3638         0.0201      -51.73032       125.2923       3254.248      0.1761781       0.145082
      5978.0000        13.4276         1.1776         1.0994       1387.871          0.148         0.0075        39.6503       40.07161       2287.211          0.639         0.6074         0.5849         0.5583         0.5289         0.5671         0.5279          0.501         0.4701         0.4372         0.2625         2.4058         0.0203      -50.42379       126.1561       3254.418      0.1504597      0.1680037
      5978.5000        13.4259         1.1759         1.3029        1389.91         0.2013         0.0099        39.4469       39.86727       2224.991         0.7673         0.6978         0.6518         0.6009         0.5486         0.6113         0.5608          0.527          0.489         0.4494         0.2653         2.3179         0.0329      -49.99144       126.4401       3265.338      0.1461122      0.1755888
      5979.0000        13.3942         1.1442         0.7586        1402.14         0.2645         0.0232        39.0506       39.46944       2569.777         0.5808         0.5204         0.4815         0.4393         0.3968         0.5393         0.4919         0.4604         0.4253         0.3891         0.3194         2.2135         0.0452      -50.16561       126.3218       3274.721      0.1376477      0.1725331
      5979.5000        14.0194         1.7694         0.4096       1442.905         0.2942         0.0352        39.1653       39.58421        3020.09         0.4076         0.3785         0.3586         0.3359         0.3117         0.4436         0.4089         0.3854         0.3589         0.3311         0.3879         2.1646           0.05      -50.37553       126.1798       3280.863      0.1400896      0.1688503
