#------------------------------------------------------------------------------
# Created by    : vladimir.rabinovich
# Created on    : 09/19/2023 17:20:10
#------------------------------------------------------------------------------
~Version Information Section
VERS.           2.0     :   CWLS log ASCII Standard - VERSION 2.0
WRAP.           NO      :   One line per depth step
~Well Information Section
#MNEM       .UNIT                                         VALUE :DESCRIPTION
#------------------------------------------------------------------------------
STRT        .FT                                             409 :START DEPTH
STOP        .FT                                           13135 :STOP DEPTH
STEP        .FT                                             0.5 :STEP      
NULL        .                                           -999.25 :NULL      
COMP        .                         ATLANTIC RICHFIELD CO THE :COMPANY   
WELL        .                               OCS G04547 ST00BP00 :WELL      
FLD         .                                           WILDCAT :FIELD     
LOC         .                                                   :LOCATION  
CNTY        .                      MATAGORDA ISLAND LARGE BLOCK :LOCATION  
STAT        .                                             TEXAS :STATE     
CTRY        .                                     UNITED STATES :COUNTRY   
SRVC        .                                                   :SERVICE COMPANY
DATE        .                             9/13/2023 11:12:03 AM :LOG DATE  
API         .                                    42703401300000 :API NUMBER
UWI         .                                    42703401300000 :UNIQUE WELL ID
XCOORD      .                                  517134.995430583 :SURFACE X 
YCOORD      .                                  10172294.5320476 :SURFACE Y 
LAT         .                                         27.987424 :LATITUDE  
LON         .                                        -96.480505 :LONGITUDE 
ELEV        .FT                                              99 :ELEVATION VALUE
ELEV_TYPE   .                                                KB :ELEVATION REFERENCE TYPE
~Curve Information Section
#MNEM       .UNIT                                      API CODE :CURVE DESCRIPTION
#------------------------------------------------------------------------------
DEPT        .FT                                                 :DEPTH     
ASFL        .OHMM                                               :          
CILD        .MMHO                                               :          
GR          .GAPI                                               :          
GR_NORM     .GAPI                                               :GammaRay Normalized
ILD         .OHMM                                               :          
SP          .MV                                                 :          
SP_NORM     .MV                                                 :SP Normalized
VSH_GR      .V/V                                                :Volume of Shale from GR
VSH_SP      .V/V                                                :Volume of Shale from SP
~A        DEPTH           ASFL           CILD             GR        GR_NORM            ILD             SP        SP_NORM         VSH_GR         VSH_SP
# ...
     13102.5000         1.9455       713.2705         28.217       43.94825         1.3811       -46.1274      -6.606441      0.2329414      0.8632575
     13103.0000         1.7996        675.373        28.0166       43.40893         1.3985       -45.7695      -6.248543      0.2214666      0.8719867
     13103.5000          1.669       630.7256        27.6902       42.53052         1.3867       -45.2073       -5.68634       0.202777       0.885699
     13104.0000         1.5287       679.2305         26.885       40.36349         1.3243       -44.1758      -4.654842      0.1566701      0.9108575
     13104.5000         1.3884       727.6387        25.8774       37.65179          1.262       -43.0562       -3.53524     0.09897419      0.9381649
     13105.0000         1.2118        888.002        24.9221       35.08084         1.2048       -41.7746      -2.253643     0.04427321      0.9694234
     13105.5000         1.1067       953.4785        25.6868       37.13884         1.1517       -40.9956      -1.474644      0.0880605      0.9884233
     13106.0000         1.1599       983.1787        27.7474       42.68444         1.0984       -40.5478       -1.02684       0.206052      0.9993454
     13106.5000         1.3216       1003.959        29.9676       48.65955         1.0491       -40.2131     -0.6921425      0.3331818              1
     13107.0000         1.4611       1022.667        29.4387       47.23617         1.0357       -40.1588     -0.6378403      0.3028973              1
     13107.5000         1.4918       1028.451        28.0666        43.5435         1.0224       -40.1046     -0.5836411      0.2243298              1
     13108.0000         1.4855       1014.302        27.3704       41.66982         1.0167       -40.0484     -0.5274429      0.1844642              1
     13108.5000         1.4485       1000.175        27.3008       41.48253         1.0125       -39.9901     -0.4691429      0.1804793              1
     13109.0000         1.4115       986.0234        27.7355       42.65242         1.0084       -39.9317     -0.4107437      0.2053707              1
     13109.5000         1.3693       955.2139        28.1714       43.82551         1.0042       -39.6985     -0.1775436        0.23033              1
     13110.0000         1.3203       923.1025        28.6074       44.99891         1.0001       -39.4418     0.07915878      0.2552958              1
     13110.5000         1.2672       887.1338        29.0099       46.08215         0.9959       -39.1846      0.3363571      0.2783435              1
     13111.0000         1.2077       956.6602        29.3304       46.94469         0.9808        -38.952      0.5689583      0.2966956              1
     13111.5000         1.1554       1125.701        29.0159        46.0983         0.9612        -38.832      0.6889572      0.2786873              1
     13112.0000         1.1094        1133.32        28.3096       44.19746         0.9415       -38.7117      0.8092575      0.2382439              1
     13112.5000         1.1121       1138.238        27.5806       42.23555         0.9219       -38.7418      0.7791595      0.1965012              1
     13113.0000         1.1226       1152.559        26.6992       39.86349         0.9023       -38.7766      0.7443581      0.1460317              1
     13113.5000         1.1009       1167.648         26.118       38.29931         0.8827       -38.8114      0.7095566      0.1127513              1
     13114.0000         1.0358       1185.104        26.5432       39.44363           0.86       -38.8464      0.6745567      0.1370984              1
     13114.5000         1.0126       1202.605        26.9672       40.58472         0.8344       -38.8812      0.6397591      0.1613771              1
     13115.0000         0.9887       1229.076        27.3478       41.60901         0.8087       -38.9161      0.6048584      0.1831705              1
     13115.5000         0.9623       1259.934        27.6092        42.3125          0.783       -38.9406      0.5803566      0.1981383              1
     13116.0000         0.9397       1314.803        27.8713       43.01786         0.7573       -38.9411      0.5798569       0.213146              1
     13116.5000         0.9227       1399.275        27.7912       42.80233         0.7316       -38.9416      0.5793571      0.2085603              1
     13117.0000         0.9056       1478.443        27.6274        42.3615         0.7043       -38.9559      0.5650597      0.1991808              1
     13117.5000         0.8882       1509.688        27.4636       41.92066         0.6764       -39.0503      0.4706573      0.1898012              1
     13118.0000         0.8708       1535.869        26.8303       40.21627         0.6485       -39.1445      0.3764572      0.1535378              1
     13118.5000         0.8534       1559.734        27.2781       41.42142         0.6206       -39.2389      0.2820587      0.1791792              1
     13119.0000          0.836       1452.119        27.7271       42.62981         0.5971       -39.3333      0.1876564      0.2048896              1
     13119.5000         0.8253       1363.018        27.7152       42.59777          0.654       -39.5884    -0.06744385       0.204208              1
     13120.0000         0.8996       1290.115        27.2198       41.26453         0.7953       -40.0332     -0.5122414      0.1758412              1
     13120.5000         1.4533        1210.85        26.7242       39.93076         0.9443       -40.9861      -1.465141       0.147463      0.9886551
     13121.0000          1.555        1106.32         26.612        39.6288          1.111       -41.8675      -2.346542      0.1410382      0.9671575
     13121.5000         1.6094       1021.847        26.8529        40.2771         1.2253       -42.7465       -3.22554       0.154832      0.9457185
     13122.0000         1.6443       813.9434         27.427       41.82215         1.2788       -43.1574       -3.63644      0.1877053      0.9356966
     13122.5000          1.606       757.2422        27.9999       43.36398         1.3323       -43.4391       -3.91814      0.2205101      0.9288259
     13123.0000         1.5476       723.0098         28.574       44.90904         1.3857        -43.602      -4.081043      0.2533838      0.9248526
     13123.5000         1.5516       690.2236        29.0719       46.24899         1.4389       -43.6483      -4.127342      0.2818935      0.9237233
     13124.0000          1.616       672.3359        29.5578       47.55667         1.4921       -43.6947       -4.17374      0.3097165      0.9225917
     13124.5000         1.8832        669.958        30.1069       49.03444           1.54        -43.741      -4.220043      0.3411583      0.9214624
     13125.0000         1.9064       669.4619        30.7108       50.65971         1.5327       -43.7945       -4.27354      0.3757384      0.9201576
     13125.5000         1.9296       670.9258        -999.25        -999.25         1.5082       -43.8508      -4.329842        -999.25      0.9187844
     13126.0000         1.9712       676.2412        -999.25        -999.25         1.4837        -43.907      -4.386044        -999.25      0.9174136
     13126.5000         1.9907       681.5684        -999.25        -999.25         1.4593       -43.5981      -4.077141        -999.25      0.9249478
     13127.0000         2.1562       686.8848        -999.25        -999.25         1.4431       -43.2878      -3.766842        -999.25       0.932516
     13127.5000          2.327       691.2725        -999.25        -999.25         1.4268       -42.9781      -3.457142        -999.25      0.9400697
     13128.0000         2.0384       694.6592        -999.25        -999.25         1.4106       -42.8063      -3.285343        -999.25      0.9442599
     13128.5000         1.9845       698.0527        -999.25        -999.25         1.3944        -42.698      -3.177044        -999.25      0.9469014
