#------------------------------------------------------------------------------
# Created by    : vladimir.rabinovich
# Created on    : 09/19/2023 17:21:34
#------------------------------------------------------------------------------
~Version Information Section
VERS.           2.0     :   CWLS log ASCII Standard - VERSION 2.0
WRAP.           NO      :   One line per depth step
~Well Information Section
#MNEM       .UNIT                                         VALUE :DESCRIPTION
#------------------------------------------------------------------------------
STRT        .FT                                            4495 :START DEPTH
STOP        .FT                                            9058 :STOP DEPTH
STEP        .FT                                             0.5 :STEP      
NULL        .                                           -999.25 :NULL      
COMP        .                          SEAGULL ENERGY E & P INC :COMPANY   
WELL        .                               OCS G11322 ST00BP00 :WELL      
FLD         .                                           WILDCAT :FIELD     
LOC         .                                                   :LOCATION  
CNTY        .                             GALVESTON LARGE BLOCK :LOCATION  
STAT        .                                             TEXAS :STATE     
CTRY        .                                     UNITED STATES :COUNTRY   
SRVC        .                                                   :SERVICE COMPANY
DATE        .                             9/13/2023 11:19:34 AM :LOG DATE  
API         .                                    42706402570000 :API NUMBER
UWI         .                                    42706402570000 :UNIQUE WELL ID
XCOORD      .                                  1032943.49501878 :SURFACE X 
YCOORD      .                                  10418025.6284813 :SURFACE Y 
LAT         .                                         28.694364 :LATITUDE  
LON         .                                        -94.895236 :LONGITUDE 
ELEV        .FT                                              97 :ELEVATION VALUE
ELEV_TYPE   .                                                KB :ELEVATION REFERENCE TYPE
~Curve Information Section
#MNEM       .UNIT                                      API CODE :CURVE DESCRIPTION
#------------------------------------------------------------------------------
DEPT        .FT                                                 :DEPTH     
CALI        .IN                                                 :          
DCAL        .IN                                                 :          
DPHI        .%                                                  :          
DRHO        .G/C3                                               :          
GR          .GAPI                                               :          
GR_1        .GAPI                                               :          
GR_NORM     .GAPI                                               :GammaRay Normalized
ILD         .OHMM                                               :          
ILM         .OHMM                                               :          
NPHI        .%                                                  :          
SGRD        .OHMM                                               :          
SP          .MV                                                 :          
SP_NORM     .MV                                                 :SP Normalized
VSH_GR      .V/V                                                :Volume of Shale from GR
VSH_SP      .V/V                                                :Volume of Shale from SP
~A        DEPTH           CALI           DCAL           DPHI           DRHO             GR           GR_1        GR_NORM            ILD            ILM           NPHI           SGRD             SP        SP_NORM         VSH_GR         VSH_SP
# ...
      5396.0000        -999.25         2.8504        22.9001        -0.0051        -999.25        69.4457       69.35651         0.8148         0.8165         41.043         0.9869       -43.0234     -0.8011742      0.7735428      0.9866471
      5396.5000        -999.25         2.8384        22.7007        -0.0061        -999.25        72.1487       72.77168         0.8088           0.81        41.2031         0.9731       -42.9031     -0.6808739       0.846206      0.9886521
      5397.0000        -999.25          2.824        22.5363        -0.0055        -999.25        73.9288       75.02632          0.792         0.8036         41.673          0.961       -42.8254     -0.6031761      0.8941771      0.9899471
      5397.5000        -999.25         2.8182        22.4729        -0.0046        -999.25        75.2025       76.64417         0.7859         0.7965        42.5021         0.9443       -42.7792     -0.5569763      0.9285992      0.9907171
      5398.0000        -999.25         2.8191        22.4545         -0.005        -999.25        74.6461       75.96071         0.7825         0.7949         43.454         0.9223       -42.7763     -0.5540733      0.9140576      0.9907655
      5398.5000        -999.25           2.82         22.502         -0.005        -999.25        72.4916       73.26764          0.783         0.7981        43.9851         0.9221       -42.8224      -0.600174      0.8567583      0.9899971
      5399.0000        -999.25         2.8153        22.5485        -0.0042        -999.25        71.8649       72.49577         0.7844         0.8021         44.321         0.9369       -42.8787     -0.6564751      0.8403354      0.9890587
      5399.5000        -999.25         2.7997        22.6098        -0.0035        -999.25        71.4677       72.01249         0.7858         0.8048        44.5205         0.9541       -42.9351     -0.7128754       0.830053      0.9881188
      5400.0000        -999.25         2.7974        22.7054        -0.0034        -999.25        71.0807       71.54204         0.7889          0.807        44.4506          0.974       -42.9336     -0.7113762      0.8200434      0.9881437
      5400.5000        -999.25         2.7978        22.8152        -0.0033        -999.25        70.6479       71.01398         0.7913          0.809        44.1841         0.9807       -42.9368     -0.7145729      0.8088082      0.9880905
      5401.0000        -999.25          2.798        22.9216        -0.0033        -999.25        72.3571       73.17946         0.7923         0.8082        44.0531         0.9704        -42.954     -0.7317734      0.8548821      0.9878038
      5401.5000        -999.25         2.7949         23.016        -0.0032        -999.25          74.17       75.47535          0.794         0.8071        43.9833         0.9563       -42.9811      -0.758873      0.9037308      0.9873521
      5402.0000        -999.25         2.7929        23.0256        -0.0042        -999.25        75.2058       76.79403         0.7965         0.8057        44.2176         0.9436       -43.0623     -0.8400764      0.9317878      0.9859987
      5402.5000        -999.25         2.8073        22.9331        -0.0051        -999.25        75.9316       77.72291         0.7968         0.8015        44.7758         0.9357       -43.1821     -0.9598732      0.9515513      0.9840021
      5403.0000        -999.25         2.8267        22.7266        -0.0056        -999.25        76.3523       78.26812         0.7873         0.7951         44.688         0.9355       -43.3233      -1.101074      0.9631515      0.9816487
      5403.5000        -999.25         2.8321        22.4442        -0.0047        -999.25        74.4114       75.84365         0.7731          0.779        44.6665         0.9399       -43.4644      -1.242176       0.911567       0.979297
      5404.0000        -999.25         2.8379        22.2799        -0.0037        -999.25        72.4468        73.3894         0.7491         0.7615        44.8896         0.9336        -43.619      -1.396774      0.8593489      0.9767205
      5404.5000        -999.25         2.8502        22.8137        -0.0025        -999.25        71.1321       71.75238         0.7279         0.7418        45.4478         0.9113       -43.7437      -1.521473      0.8245187      0.9746421
      5405.0000        -999.25         2.8632        23.4422        -0.0024        -999.25        69.4761       69.68617         0.7107         0.7208        46.7032         0.8957       -43.7672      -1.544975      0.7805569      0.9742504
      5405.5000        -999.25         2.8661        24.3786         -0.003        -999.25        68.3124       68.23904         0.6966         0.7017        48.0014         0.8869       -43.7131      -1.490875      0.7497669      0.9751521
      5406.0000        -999.25          2.834        25.4422        -0.0049        -999.25        67.4811       67.20988         0.6834         0.6867        48.7732         0.8818       -43.6473      -1.425076      0.7278699      0.9762487
      5406.5000        -999.25         2.6641         25.859        -0.0087        -999.25        66.3596        65.8158         0.6708         0.6693        48.7099         0.8774       -43.5737      -1.351475      0.6982086      0.9774754
      5407.0000        -999.25         2.3891        25.6387        -0.0144        -999.25        65.4855       64.73283         0.6571         0.6514         48.272         0.8702       -43.4957      -1.273476      0.6751665      0.9787754
      5407.5000        -999.25         2.1621        24.7753        -0.0203        -999.25        64.7108       63.77485         0.6419          0.634        47.7925          0.858       -43.3788      -1.156574       0.654784      0.9807237
      5408.0000        -999.25         2.0288         23.259        -0.0247        -999.25        64.4167       63.42123         0.6287         0.6211        46.9976         0.8591        -43.264      -1.041775      0.6472601      0.9826371
      5408.5000        -999.25         1.9825        21.6208        -0.0279        -999.25        66.9457       66.61758         0.6131         0.6109        46.4073         0.8745       -43.1556     -0.9333763      0.7152676      0.9844437
      5409.0000        -999.25         1.9521        21.0932         -0.027        -999.25        71.5027       72.36412         0.6048            0.6        46.4784           0.88       -42.9792     -0.7569733      0.8375345      0.9873838
      5409.5000        -999.25         1.9183         21.589        -0.0223        -999.25        76.6766       78.88639         0.6027         0.5981        46.6163         0.8723       -42.8467     -0.6244736      0.9763062      0.9895921
      5410.0000        -999.25         1.8798        22.3312        -0.0154        -999.25        81.5712       85.05745         0.6064         0.6032        46.7721         0.8568       -42.7291     -0.5068741              1      0.9915521
      5410.5000        -999.25         1.8381        23.3242        -0.0071        -999.25        85.3633       89.84214         0.6136         0.6103        46.9188         0.8512       -43.0555     -0.8332748              1      0.9861121
      5411.0000        -999.25         1.7975        24.5564        -0.0002        -999.25        85.5176       90.05237         0.6219           0.62        47.0276         0.8558         -43.46      -1.237774              1      0.9793704
      5411.5000        -999.25         1.7644        25.4947         0.0033        -999.25        83.8983       88.03232         0.6354         0.6308        47.1427         0.8653       -43.9834      -1.761173              1      0.9706471
      5412.0000        -999.25         1.7331        25.8229         0.0046        -999.25         81.434       84.94858         0.6496         0.6433        47.6936         0.8775        -44.702      -2.479774              1      0.9586704
      5412.5000        -999.25         1.7043        26.0183         0.0062        -999.25        79.7173       82.79958         0.6633         0.6578        48.0016         0.8937       -45.0556      -2.833374              1      0.9527771
