#------------------------------------------------------------------------------
# Created by    : vladimir.rabinovich
# Created on    : 09/19/2023 17:21:44
#------------------------------------------------------------------------------
~Version Information Section
VERS.           2.0     :   CWLS log ASCII Standard - VERSION 2.0
WRAP.           NO      :   One line per depth step
~Well Information Section
#MNEM       .UNIT                                         VALUE :DESCRIPTION
#------------------------------------------------------------------------------
STRT        .FT                                            3434 :START DEPTH
STOP        .FT                                            9802 :STOP DEPTH
STEP        .FT                                             0.5 :STEP      
NULL        .                                           -999.25 :NULL      
COMP        .                                  UMC PETROLEUM CO :COMPANY   
WELL        .                               OCS G11352 ST00BP00 :WELL      
FLD         .                            HIGH ISLAND BLOCK 0093 :FIELD     
LOC         .                                                   :LOCATION  
CNTY        .                           HIGH ISLAND LARGE BLOCK :LOCATION  
STAT        .                                             TEXAS :STATE     
CTRY        .                                     UNITED STATES :COUNTRY   
SRVC        .                                                   :SERVICE COMPANY
DATE        .                             9/13/2023 11:19:57 AM :LOG DATE  
API         .                                    42708403880000 :API NUMBER
UWI         .                                    42708403880000 :UNIQUE WELL ID
XCOORD      .                                  1243413.75648782 :SURFACE X 
YCOORD      .                                  10663707.7269925 :SURFACE Y 
LAT         .                                         29.377731 :LATITUDE  
LON         .                                        -94.246854 :LONGITUDE 
ELEV        .FT                                              85 :ELEVATION VALUE
ELEV_TYPE   .                                                KB :ELEVATION REFERENCE TYPE
~Curve Information Section
#MNEM       .UNIT                                      API CODE :CURVE DESCRIPTION
#------------------------------------------------------------------------------
DEPT        .FT                                                 :DEPTH     
CALI        .IN                                                 :          
CALI_1      .IN                                                 :          
DPHI        .%                                                  :          
DRHO        .G/C3                                               :          
DT          .US/F                                               :          
GR          .GAPI                                               :          
GR_1        .GAPI                                               :          
GR_NORM     .GAPI                                               :GammaRay Normalized
ILD         .OHMM                                               :          
ILM         .OHMM                                               :          
NPHI        .%                                                  :          
RFOC        .OHMM                                               :          
SP          .MV                                                 :          
SP_NORM     .MV                                                 :SP Normalized
VSH_GR      .V/V                                                :Volume of Shale from GR
VSH_SP      .V/V                                                :Volume of Shale from SP
~A        DEPTH           CALI         CALI_1           DPHI           DRHO             DT             GR           GR_1        GR_NORM            ILD            ILM           NPHI           RFOC             SP        SP_NORM         VSH_GR         VSH_SP
# ...
      4330.0000        -999.25        15.7005        -999.25        -999.25       129.2834        26.9892        -999.25       47.36919         0.3721         0.4074        -999.25         0.6638       -88.7317      -48.24642      0.3057274      0.1227924
      4330.5000        -999.25        15.7001        -999.25        -999.25       126.9122        27.4274        -999.25        48.1642         0.3836         0.4221        -999.25         0.6795       -88.4447        -47.962      0.3226425      0.1279637
      4331.0000        -999.25        15.6997        -999.25        -999.25       125.0364        27.1561        -999.25       47.64882          0.388         0.4264        -999.25         0.6833       -88.7397      -48.25957      0.3116771      0.1225533
      4331.5000        -999.25        15.6993        -999.25        -999.25       123.7654        26.5144        -999.25       46.44936         0.3828         0.4233        -999.25         0.6844       -89.3247      -48.84714      0.2861565      0.1118702
      4332.0000        -999.25        15.6989        -999.25        -999.25       123.0863        25.9183        -999.25        45.3341         0.3707         0.4153        -999.25         0.6774        -89.983      -49.50802      0.2624275     0.09985421
      4332.5000        -999.25        15.6985        -999.25        -999.25       123.7711        25.5478        -999.25       44.63551         0.3548         0.4041        -999.25          0.665       -90.5687      -50.09629       0.247564     0.08915828
      4333.0000        -999.25        15.6981        -999.25        -999.25       124.8733        25.1776        -999.25       43.93747         0.3335          0.391        -999.25         0.6551       -91.0503      -50.58047      0.2327121     0.08035515
      4333.5000        -999.25        15.6977        -999.25        -999.25       125.6075         24.717        -999.25       43.07247         0.3142         0.3737        -999.25         0.6441       -91.5187      -51.05144      0.2143078     0.07179205
      4334.0000        -999.25        15.6973        -999.25        -999.25       125.9276        23.9107        -999.25         41.569         0.2956         0.3528        -999.25         0.6332       -91.9755      -51.51081      0.1823191     0.06343973
      4334.5000        -999.25        15.6969        -999.25        -999.25       126.1628        22.8899        -999.25       39.66935         0.2777         0.3359        -999.25          0.625       -92.3896      -51.92749      0.1419011     0.05586381
      4335.0000        -999.25        15.6965        -999.25        -999.25       126.4034        21.5961        -999.25       37.26549         0.2663          0.324        -999.25         0.6169       -92.7391      -52.27956     0.09075513     0.04946255
      4335.5000        -999.25        15.6961        -999.25        -999.25       126.7179        20.2973        -999.25        34.8524          0.258         0.3138        -999.25         0.6104       -93.0573      -52.60033      0.0394128     0.04363036
      4336.0000        -999.25        15.6957        -999.25        -999.25       127.1393        19.9228        -999.25       34.14643         0.2521         0.3087        -999.25         0.6051       -93.3739      -52.91951     0.02439215     0.03782709
      4336.5000        -999.25        15.6962        -999.25        -999.25       128.0408        21.2283        -999.25       36.54329         0.2473          0.305        -999.25         0.6001       -93.7039      -53.25209     0.07538905     0.03178024
      4337.0000        -999.25         15.697        -999.25        -999.25       129.3149        22.5742        -999.25       39.01477         0.2436         0.3014        -999.25         0.5952       -94.0083      -53.55906      0.1279738     0.02619893
      4337.5000        -999.25        15.6977        -999.25        -999.25       130.6577        23.1347        -999.25       40.03566         0.2409         0.2981        -999.25         0.5908       -94.2457      -53.79903      0.1496949     0.02183588
      4338.0000        -999.25        15.6984        -999.25        -999.25       131.6812        23.4721        -999.25       40.64451         0.2393          0.296        -999.25         0.5875       -94.3312       -53.8871      0.1626491     0.02023447
      4338.5000        -999.25        15.6991        -999.25        -999.25       132.3733        24.0493        -999.25       41.69625         0.2381         0.2942        -999.25         0.5866       -94.2006      -53.75908      0.1850266      0.0225622
      4339.0000        -999.25        15.6998        -999.25        -999.25       132.2417        24.8751        -999.25       43.20713         0.2367         0.2923        -999.25         0.5864        -93.871      -53.43206      0.2171731     0.02850807
      4339.5000        -999.25        15.7006        -999.25        -999.25       131.7844        24.9407        -999.25         43.314         0.2351         0.2904        -999.25         0.5857       -93.0074      -52.57103      0.2194468     0.04416317
      4340.0000        -999.25        15.7013        -999.25        -999.25       130.9656        25.2175        -999.25       43.81092          0.234         0.2885        -999.25         0.5831       -91.8071       -51.3733      0.2300197     0.06594002
      4340.5000        -999.25         15.702        -999.25        -999.25       130.0735        26.5187        -999.25       46.19984         0.2327         0.2884        -999.25         0.5804       -90.6941      -50.26287      0.2808477     0.08612955
      4341.0000        -999.25        15.7027        -999.25        -999.25        129.333        27.7228        -999.25       48.40943         0.2313         0.2875        -999.25         0.5766       -89.6299      -49.20125      0.3278602      0.1054319
      4341.5000        -999.25        15.7034        -999.25        -999.25       128.8608        28.1487        -999.25       49.18172         0.2301         0.2863        -999.25         0.5726         -87.22      -46.79392       0.344292      0.1492014
      4342.0000        -999.25        15.7041        -999.25        -999.25       129.3594        28.0075        -999.25       48.90664         0.2285         0.2847        -999.25         0.5678        -85.494       -45.0705      0.3384391      0.1805364
      4342.5000        -999.25        15.7049        -999.25        -999.25       130.3062        28.0532        -999.25       48.97673         0.2263         0.2826        -999.25         0.5639       -84.2076      -43.78667      0.3399305      0.2038786
      4343.0000        -999.25        15.7056        -999.25        -999.25        131.177        28.7164        -999.25       50.18732         0.2235         0.2803        -999.25         0.5603       -83.1069      -42.68855      0.3656877      0.2238446
      4343.5000        -999.25        15.7063        -999.25        -999.25       131.8948        29.8264        -999.25       52.22311         0.2206         0.2782        -999.25         0.5565        -82.049      -41.63322      0.4090023      0.2430324
      4344.0000        -999.25         15.707        -999.25        -999.25       132.2546        30.3206        -999.25       53.12156         0.2181         0.2764        -999.25         0.5534       -81.2876      -40.87439      0.4281183      0.2568293
      4344.5000        -999.25        15.7077        -999.25        -999.25       131.5896        30.7261        -999.25       53.85619         0.2165         0.2748        -999.25         0.5508       -81.4269      -41.01627      0.4437487      0.2542496
      4345.0000        -999.25        15.7085        -999.25        -999.25       130.2717        31.3028        -999.25       54.90699         0.2158         0.2732        -999.25         0.5489       -81.6685      -41.26044      0.4661063      0.2498101
      4345.5000        -999.25        15.7092        -999.25        -999.25       129.5994        32.7216        -999.25       57.51312         0.2189         0.2743        -999.25         0.5428       -81.7562      -41.35072      0.5215557      0.2481688
