#------------------------------------------------------------------------------
# Created by    : vladimir.rabinovich
# Created on    : 09/19/2023 17:22:10
#------------------------------------------------------------------------------
~Version Information Section
VERS.           2.0     :   CWLS log ASCII Standard - VERSION 2.0
WRAP.           NO      :   One line per depth step
~Well Information Section
#MNEM       .UNIT                                         VALUE :DESCRIPTION
#------------------------------------------------------------------------------
STRT        .FT                                            1000 :START DEPTH
STOP        .FT                                            7796 :STOP DEPTH
STEP        .FT                                             0.5 :STEP      
NULL        .                                           -999.25 :NULL      
COMP        .                                SHELL OFFSHORE INC :COMPANY   
WELL        .                               OCS G06060 ST00BP00 :WELL      
FLD         .                                           WILDCAT :FIELD     
LOC         .                                                   :LOCATION  
CNTY        .                                BRAZOS LARGE BLOCK :LOCATION  
STAT        .                                             TEXAS :STATE     
CTRY        .                                     UNITED STATES :COUNTRY   
SRVC        .                                                   :SERVICE COMPANY
DATE        .                             9/13/2023 11:19:08 AM :LOG DATE  
API         .                                    42704401260000 :API NUMBER
UWI         .                                    42704401260000 :UNIQUE WELL ID
XCOORD      .                                   881020.58603234 :SURFACE X 
YCOORD      .                                   10392321.681828 :SURFACE Y 
LAT         .                                         28.616238 :LATITUDE  
LON         .                                        -95.367327 :LONGITUDE 
ELEV        .FT                                              90 :ELEVATION VALUE
ELEV_TYPE   .                                                KB :ELEVATION REFERENCE TYPE
~Curve Information Section
#MNEM       .UNIT                                      API CODE :CURVE DESCRIPTION
#------------------------------------------------------------------------------
DEPT        .FT                                                 :DEPTH     
CALI        .IN                                                 :          
CILD        .MMHO                                               :          
DPHI        .%                                                  :          
DT          .US/F                                               :          
GR          .GAPI                                               :          
GR_NORM     .GAPI                                               :GammaRay Normalized
ILD         .OHMM                                               :          
ILM         .OHMM                                               :          
SFL         .OHMM                                               :          
SP          .MV                                                 :          
SP_NORM     .MV                                                 :SP Normalized
VSH_GR      .V/V                                                :Volume of Shale from GR
VSH_SP      .V/V                                                :Volume of Shale from SP
~A        DEPTH           CALI           CILD           DPHI             DT             GR        GR_NORM            ILD            ILM            SFL             SP        SP_NORM         VSH_GR         VSH_SP
# ...
      1456.0000        -999.25       429.5962        -999.25       166.1411        40.8391       52.32848         2.2247         2.1368         2.6703      -118.7979      -1.990097      0.4112442      0.9381189
      1456.5000        -999.25       454.4531        -999.25       168.2043        45.9561       59.30223         2.0455         1.9818         2.3212      -118.1665      -1.364182       0.559622      0.9772387
      1457.0000        -999.25       489.1807        -999.25       169.8782        51.4623        66.8063         1.8905         1.8415         1.9045      -117.8556      -1.058769      0.7192831      0.9963269
      1457.5000        -999.25       526.3828        -999.25       171.0469        55.8675       72.81019         1.7832         1.7338         1.6447      -117.4994     -0.7080536      0.8470253              1
      1458.0000        -999.25       568.1104        -999.25       171.8293        58.1202       75.88112         1.6733         1.6382         1.4987      -117.1396     -0.3537445      0.9123642              1
      1458.5000        -999.25       604.1963        -999.25       172.0449        57.8971       75.57857         1.5679         1.5522          1.463      -116.8643    -0.08393097      0.9059269              1
      1459.0000        -999.25       625.4687        -999.25       171.9609        57.7425       75.36938         1.4984         1.4865         1.4599       -116.672        0.10289      0.9014761              1
      1459.5000        -999.25       653.6807        -999.25       171.7666         57.972       75.68355         1.4561         1.4333         1.4636      -116.7179     0.05149841      0.9081606              1
      1460.0000        -999.25       676.2432        -999.25        171.616        58.0505       75.79196         1.4193         1.3958         1.4769      -117.2736     -0.5096817      0.9104673              1
      1460.5000        -999.25       688.7676        -999.25       171.3416        60.5703       79.22684          1.394         1.3812         1.4944      -117.5388     -0.7803726      0.9835497              1
      1461.0000        -999.25       691.4326        -999.25       170.9211        61.8352       80.95181         1.3779          1.374         1.5133      -117.1483     -0.3953552              1              1
      1461.5000        -999.25       691.4531        -999.25       170.3479        62.7017       82.13395         1.3647         1.3676         1.5225      -116.6022       0.145256              1              1
      1462.0000        -999.25       692.3008        -999.25       169.9893         63.139       82.73125         1.3529         1.3608         1.5233       -115.892      0.8499756              1              1
      1462.5000        -999.25       699.0996        -999.25       169.7444        62.8153       82.29164           1.35          1.358         1.5006      -115.0465       1.689987              1              1
      1463.0000        -999.25       703.3477        -999.25        169.748        61.8776       81.01542         1.3478         1.3562         1.4839      -114.4745         2.2565              1              1
      1463.5000        -999.25       705.8447        -999.25       169.9739        60.9438        79.7445         1.3464         1.3567         1.4885      -115.3259        1.39962      0.9945638              1
      1464.0000        -999.25       707.9619        -999.25       170.3428        60.2249        78.7664         1.3461          1.358         1.4861      -116.4862      0.2338333      0.9737533              1
      1464.5000        -999.25       705.1953        -999.25       170.6658        60.3618       78.95438         1.3467         1.3606         1.4586      -117.7133     -0.9987564      0.9777529              1
      1465.0000        -999.25       691.1855        -999.25       170.6465        60.7064       79.42539         1.3544         1.3635         1.4177      -118.1565      -1.447441      0.9877743      0.9720349
      1465.5000        -999.25       668.9268        -999.25       169.7759        60.2948         78.866         1.3801         1.3857         1.4044      -117.3607     -0.6571274      0.9758725              1
      1466.0000        -999.25       646.6309        -999.25       168.0588        57.9019       75.60696         1.4383         1.4624         1.4426      -115.8531       0.844986       0.906531              1
      1466.5000        -999.25       624.3779        -999.25        165.824        54.9727       71.61715         1.5329          1.524         1.5313      -115.7095      0.9831009      0.8216415              1
      1467.0000        -999.25       604.2148        -999.25       163.8596         52.413       68.13081         1.5987         1.5846         1.7078      -117.6948      -1.007683      0.7474639      0.9995198
      1467.5000        -999.25       583.3936        -999.25       162.2007        50.1385        65.0331         1.6501         1.6461          1.837      -119.2601      -2.578468      0.6815554      0.9013457
      1468.0000        -999.25       562.2793        -999.25       160.9709        48.3686       62.62292         1.7046         1.7059         1.9062         -119.5      -2.823853      0.6302749      0.8860092
      1468.5000        -999.25        545.293        -999.25       160.6328        48.0887         62.243         1.7535         1.7618         1.8497      -119.4496      -2.778938      0.6221915      0.8888164
      1469.0000        -999.25         528.54        -999.25       160.4824        49.0652       63.57501         1.7979         1.8043         1.7417      -119.5253       -2.86013      0.6505321      0.8837419
      1469.5000        -999.25       514.0312        -999.25       159.6797        50.2888       65.24372         1.8385         1.8501          1.702      -119.3844      -2.724716      0.6860366      0.8922052
      1470.0000        -999.25       499.9385        -999.25       159.1458        50.1064       64.99663           1.88         1.8973         1.7499      -119.0402      -2.386002      0.6807793      0.9133749
      1470.5000        -999.25       487.9067        -999.25       158.5793        49.1505       63.69559         1.9224         1.9412         1.8483      -120.5682      -3.919487      0.6530977      0.8175321
      1471.0000        -999.25       480.5889        -999.25       159.4265        46.8411       60.55032         1.9628         1.9854         1.9805      -123.5515      -6.908272       0.586177       0.630733
      1471.5000        -999.25       476.6724        -999.25        160.989        44.3856       57.20598         1.9953         2.0182         2.0818      -124.1798      -7.542061      0.5150208      0.5911212
      1472.0000        -999.25       473.9287        -999.25       163.1243        43.0497       55.38717          2.013         2.0385         2.0877      -123.8881      -7.255844      0.4763227      0.6090097
      1472.5000        -999.25       471.1836        -999.25       165.5706        43.7063       56.28328         2.0127         2.0346         2.0589      -123.0477      -6.420929       0.495389      0.6611919
      1473.0000        -999.25       473.6089        -999.25       166.9116        45.9629       59.35953         2.0035          2.005         2.0026      -123.3755      -6.754219       0.560841      0.6403613
      1473.5000        -999.25       479.6572        -999.25       167.6287        47.9746       62.10209         1.9715         1.9705         1.9093      -124.1763      -7.560501      0.6191933      0.5899687
      1474.0000        -999.25       489.3853        -999.25       166.8625        49.7773       64.55985         1.9348         1.9431         1.8503      -123.4938      -6.883484      0.6714862      0.6322823
      1474.5000        -999.25       501.3149        -999.25        164.408        50.4075       65.42001         1.9052         1.9173         1.8169      -121.5759      -4.971069      0.6897873      0.7518082
