#------------------------------------------------------------------------------
# Created by    : vladimir.rabinovich
# Created on    : 09/19/2023 17:21:03
#------------------------------------------------------------------------------
~Version Information Section
VERS.           2.0     :   CWLS log ASCII Standard - VERSION 2.0
WRAP.           NO      :   One line per depth step
~Well Information Section
#MNEM       .UNIT                                         VALUE :DESCRIPTION
#------------------------------------------------------------------------------
STRT        .FT                                          2542.5 :START DEPTH
STOP        .FT                                            8214 :STOP DEPTH
STEP        .FT                                             0.5 :STEP      
NULL        .                                           -999.25 :NULL      
COMP        .                          SEAGULL ENERGY E & P INC :COMPANY   
WELL        .                               OCS G12505 ST00BP00 :WELL      
FLD         .                              GALVESTON BLOCK 0357 :FIELD     
LOC         .                                                   :LOCATION  
CNTY        .                             GALVESTON LARGE BLOCK :LOCATION  
STAT        .                                             TEXAS :STATE     
CTRY        .                                     UNITED STATES :COUNTRY   
SRVC        .                                                   :SERVICE COMPANY
DATE        .                             9/13/2023 11:19:54 AM :LOG DATE  
API         .                                    42706403610000 :API NUMBER
UWI         .                                    42706403610000 :UNIQUE WELL ID
XCOORD      .                                  1003713.76055251 :SURFACE X 
YCOORD      .                                  10412171.7759297 :SURFACE Y 
LAT         .                                          28.67696 :LATITUDE  
LON         .                                        -94.986081 :LONGITUDE 
ELEV        .FT                                              96 :ELEVATION VALUE
ELEV_TYPE   .                                                KB :ELEVATION REFERENCE TYPE
~Curve Information Section
#MNEM       .UNIT                                      API CODE :CURVE DESCRIPTION
#------------------------------------------------------------------------------
DEPT        .FT                                                 :DEPTH     
AT10        .OHMM                                               :          
AT20        .OHMM                                               :          
AT30        .OHMM                                               :          
AT60        .OHMM                                               :          
AT90        .OHMM                                               :          
DCAL        .IN                                                 :          
DPSS        .V/V                                                :          
DTLF        .US/FT                                              :          
DTLN        .US/FT                                              :          
GR          .GAPI                                               :          
GR_NORM     .GAPI                                               :GammaRay Normalized
NPSS        .V/V                                                :Neutron Porosity Sandstone
SP          .MV                                                 :          
SP_NORM     .MV                                                 :SP Normalized
TENS        .LB                                                 :          
VSH_GR      .V/V                                                :Volume of Shale from GR
VSH_SP      .V/V                                                :Volume of Shale from SP
~A        DEPTH           AT10           AT20           AT30           AT60           AT90           DCAL           DPSS           DTLF           DTLN             GR        GR_NORM           NPSS             SP        SP_NORM           TENS         VSH_GR         VSH_SP
# ...
      7447.5000            0.9            0.9         0.8825         0.8739         0.8569         1.9307         0.2097          105.2          105.6           77.6       66.83428         0.3815         -4.902      -4.552953       3522.471      0.7198783      0.9349578
      7448.0000         0.9147         0.9222         0.9073         0.8912         0.8739         1.7287         0.2133          105.6            106           76.6       65.63428         0.3624        -5.6863      -5.335913       3523.985      0.6943465      0.9237727
      7448.5000         0.9919         0.9603         0.9448         0.9147            0.9         1.5267         0.2194          105.2          105.6           73.2       61.55428         0.3329         -7.451      -7.099273       3525.497      0.6075379      0.8985818
      7449.0000         1.0867         1.0093         0.9919         0.9297         0.9147         1.3248         0.2243          104.6            105           73.8       62.27429         0.3093        -9.0196      -8.666533       3527.005      0.6228573      0.8761924
      7449.5000          1.057         0.9603         0.9448         0.9073         0.8912         1.2828         0.2183          104.6            105           76.6       65.63428         0.3152        -8.4314      -8.076994        3528.51      0.6943465      0.8846143
      7450.0000         0.9222         0.8569         0.8402         0.8485          0.832         1.4008         0.2052          105.2          105.6             80       69.71429         0.3294        -6.4706      -6.114854       3530.012      0.7811552      0.9126449
      7450.5000          0.832          0.832         0.8158         0.7789         0.7651           1.56         0.1848       106.2022        106.602        81.3991       71.39321         0.3672        -4.7086      -4.351514       3533.037      0.8168768      0.9378355
      7451.0000         0.8078         0.8078         0.7929         0.7719         0.7582           1.72         0.1716       107.0047       107.4041        81.5974       71.63116         0.3828        -3.7313      -3.372874       3537.078      0.8219396      0.9518161
      7451.5000         0.8157         0.8078         0.7928         0.7718          0.758            1.8         0.1668       107.4066       107.8056        81.7953       71.86865         0.3948        -2.9487      -2.588934       3541.119      0.8269926      0.9630152
      7452.0000         0.8156         0.8156            0.8         0.7787         0.7648           1.84          0.168       107.8078       108.2063         82.192       72.34469         0.4008        -2.3613      -2.000195       3545.161       0.837121      0.9714258
      7452.5000            0.8         0.8156            0.8         0.7786         0.7647           1.84         0.1716        108.009       108.4072        82.3889       72.58097         0.3924        -1.9696      -1.607155       3549.202      0.8421483      0.9770406
      7453.0000         0.7928            0.8         0.7856         0.7645         0.7508           1.84         0.1705        107.812       108.0113        82.1877       72.33952         0.3912        -2.1687      -1.804915       3553.243      0.8370112      0.9742155
      7453.5000         0.7927            0.8         0.7856         0.7784         0.7644           1.88         0.1693       107.0199       107.4173        81.7882       71.86013         0.3948        -2.3682      -2.003075       3557.284      0.8268113      0.9713846
      7454.0000         0.8076         0.8076         0.7927         0.7855         0.7713           1.88         0.1717       106.2289       106.6259        81.1909       71.14337         0.3924        -2.7656      -2.399135       3561.325      0.8115611      0.9657266
      7454.5000         0.8388         0.8388         0.8231         0.8153            0.8           1.92         0.1776       105.4395       105.8361        80.7932       70.66612         0.3828        -3.3616      -2.993796       3565.367      0.8014069      0.9572315
      7455.0000         0.8466         0.8709         0.8308          0.823         0.8076           1.92         0.1836        105.444       105.8401        80.9905       70.90289          0.366        -3.9587      -3.589556       3569.408      0.8064443      0.9487206
      7455.5000         0.8464         0.8706         0.8307         0.8229         0.8076           1.92         0.1908         106.24       106.6357        81.3853       71.37665         0.3588        -4.5569      -4.186416       3574.257      0.8165244      0.9401941
      7456.0000         0.8228         0.8462         0.8151         0.8075         0.7926           1.92         0.1956       107.6275       108.0229        81.5816       71.61221         0.3624        -4.5614      -4.189576       3578.299      0.8215363      0.9401489
      7456.5000          0.778            0.8         0.7853          0.778         0.7637           1.92         0.2004       109.0124       109.4074        81.9751       72.08441         0.3744        -4.3674      -3.994237        3582.34      0.8315832      0.9429395
      7457.0000         0.7288         0.7636         0.7495         0.7288         0.7153           1.92          0.204       110.2041       110.6122         83.157       73.50269           0.39        -3.9744      -3.599897       3586.381      0.8617592      0.9485729
      7457.5000         0.7286         0.7423         0.7286         0.7151         0.7018           1.96         0.2052       111.0204       111.6327        85.5193       76.33745         0.4092        -3.5805      -3.204657       3590.422      0.9220734      0.9542192
      7458.0000         0.7351         0.7491         0.7351         0.7147         0.7014           1.96         0.2028       110.2041       111.2245        87.0892       78.22133         0.4128        -2.9867      -2.609517       3594.463      0.9621559      0.9627212
      7458.5000         0.7489         0.7632         0.7489         0.7144         0.7011           1.96         0.1956       109.2131       109.6066        86.2954       77.26877         0.3972        -2.1925      -1.813977       3598.505      0.9418887       0.974086
      7459.0000         0.7559         0.7776          0.763         0.7278         0.7142           1.96         0.1872       107.4452       107.8382        85.3065       76.08209          0.378        -1.5961      -1.216238       3602.546      0.9166403      0.9826252
      7459.5000         0.7629         0.7924         0.7775         0.7415         0.7276           1.96           0.18       106.2697       106.6624        86.8721       77.96081          0.372         -1.398      -1.016798       3606.587      0.9566129      0.9854743
      7460.0000         0.7628         0.8073         0.7924         0.7775         0.7628           1.96         0.1718       105.4888       105.8811        89.2193       80.77745         0.3732        -1.5993      -1.216758       3610.628              1      0.9826177
      7460.5000         0.7627         0.8146            0.8            0.8         0.7849           1.96         0.1682       105.2941       105.6863           90.6       82.43429         0.3744           -2.4      -2.016118       3612.245              1      0.9711983
      7461.0000         0.7627         0.8146            0.8            0.8         0.7849              2         0.1682       105.6863       106.0784           90.2       81.95428         0.3756             -3      -2.614779       3612.245              1       0.962646
      7461.5000         0.7627          0.822         0.8073            0.8         0.7849              2         0.1706       106.2745       106.6667             91       82.91429         0.3768           -3.4      -3.013439       3612.245              1      0.9569509
      7462.0000         0.7701          0.822         0.8073            0.8         0.7849              2         0.1717       105.6863       106.0784           91.8       83.87429         0.3769           -4.4      -4.012099       3612.245              1      0.9426843
