#------------------------------------------------------------------------------
# Created by    : vladimir.rabinovich
# Created on    : 09/19/2023 17:21:24
#------------------------------------------------------------------------------
~Version Information Section
VERS.           2.0     :   CWLS log ASCII Standard - VERSION 2.0
WRAP.           NO      :   One line per depth step
~Well Information Section
#MNEM       .UNIT                                         VALUE :DESCRIPTION
#------------------------------------------------------------------------------
STRT        .FT                                            4234 :START DEPTH
STOP        .FT                                            7516 :STOP DEPTH
STEP        .FT                                             0.5 :STEP      
NULL        .                                           -999.25 :NULL      
COMP        .                          SEAGULL ENERGY E & P INC :COMPANY   
WELL        .                               OCS G11311 ST00BP00 :WELL      
FLD         .                                           WILDCAT :FIELD     
LOC         .                                                   :LOCATION  
CNTY        .                             GALVESTON LARGE BLOCK :LOCATION  
STAT        .                                             TEXAS :STATE     
CTRY        .                                     UNITED STATES :COUNTRY   
SRVC        .                                                   :SERVICE COMPANY
DATE        .                             9/13/2023 11:19:54 AM :LOG DATE  
API         .                                    42706403550000 :API NUMBER
UWI         .                                    42706403550000 :UNIQUE WELL ID
XCOORD      .                                  972569.007613557 :SURFACE X 
YCOORD      .                                  10477919.1442114 :SURFACE Y 
LAT         .                                         28.856272 :LATITUDE  
LON         .                                        -95.086774 :LONGITUDE 
ELEV        .FT                                              94 :ELEVATION VALUE
ELEV_TYPE   .                                                KB :ELEVATION REFERENCE TYPE
~Curve Information Section
#MNEM       .UNIT                                      API CODE :CURVE DESCRIPTION
#------------------------------------------------------------------------------
DEPT        .FT                                                 :DEPTH     
CALI        .IN                                                 :          
DPHI        .%                                                  :          
DRHO        .G/C3                                               :          
DTLN        .US/F                                               :          
GR          .GAPI                                               :          
GR_NORM     .GAPI                                               :GammaRay Normalized
IDPH        .OHMM                                               :          
IMPH        .OHMM                                               :          
NPHI        .%                                                  :          
SFLU        .OHMM                                               :          
SP          .MV                                                 :          
SP_NORM     .MV                                                 :SP Normalized
VSH_GR      .V/V                                                :Volume of Shale from GR
VSH_SP      .V/V                                                :Volume of Shale from SP
~A        DEPTH           CALI           DPHI           DRHO           DTLN             GR        GR_NORM           IDPH           IMPH           NPHI           SFLU             SP        SP_NORM         VSH_GR         VSH_SP
# ...
      6466.0000        10.4153        19.3228        -0.0094       102.8979        70.0979       71.10242         1.0799         1.1222        35.7791          1.492       -51.9046      -4.820949      0.8106899      0.9311293
      6466.5000        10.4223        19.4238        -0.0085       105.9268        73.7034       74.45401         1.0845         1.1176        38.0232         1.3592       -51.8505      -4.777359      0.8820002       0.931752
      6467.0000        10.4454        18.9979        -0.0089       108.9808        76.9401       77.46268         1.0892         1.1127         42.709         1.0457       -51.1353      -4.116744      0.9460144      0.9411893
      6467.5000        10.4494        18.3534        -0.0105       110.8124        78.5961       79.00156         1.0805         1.1061        43.4305         0.9629        -50.092        -3.1499      0.9787565      0.9550014
      6468.0000        10.4371        17.7093        -0.0139       110.4225        79.0822       79.45264         1.0724         1.0908        41.3137          0.978       -49.1108       -2.24102      0.9883541      0.9679855
      6468.5000        10.4115        17.3938        -0.0158       108.2211        78.3389        78.7606         1.0606         1.0812         39.119         1.0742       -48.7756      -1.935069      0.9736297      0.9723561
      6469.0000        10.3894        17.0904        -0.0156       106.3844        77.7003       78.16591         1.0567         1.0861        38.2809         1.1634       -48.8279      -1.990785      0.9609768      0.9715602
      6469.5000        10.4075        17.1184         -0.016       105.8009        77.3763       77.86373         1.0758         1.1074        39.7299         1.1749       -48.9802      -2.139837      0.9545475      0.9694309
      6470.0000        10.4297        17.1264        -0.0159       105.6891        77.7599       78.21953         1.1198         1.1187         41.682         1.1304       -48.6518      -1.840231      0.9621176       0.973711
      6470.5000        10.3912         16.503        -0.0146       105.2649        78.0385       78.47766         1.1222         1.1293        40.8616         1.0949       -48.0515      -1.286851      0.9676098      0.9816164
      6471.0000        10.3644         15.658        -0.0127       103.7729        76.7708         77.298         1.1198         1.1475        38.9694         1.1633       -47.2052     -0.5038763      0.9425107      0.9928018
      6471.5000        10.3981        14.7567        -0.0132         101.91        74.3959       75.08885         1.1166         1.1742        35.2117         1.2694       -47.6287     -0.9060466      0.8955075      0.9870565
      6472.0000         10.401        14.4641        -0.0153       101.0795        72.5349       73.35754         1.1135         1.1903        32.9946         1.3046       -48.4395      -1.669695      0.8586711      0.9761472
      6472.5000        10.3623        15.5045        -0.0179       101.7007        73.4775        74.2331         1.1182         1.1914        34.7836         1.2624       -49.3067      -2.485988         0.8773      0.9644859
      6473.0000        10.3226        17.3384          -0.02       103.8479        74.2228       74.92519         1.1274         1.1851        37.9828         1.1904       -49.9366      -3.080797      0.8920254      0.9559886
      6473.5000        10.3103        18.1393        -0.0204       105.1339        74.9805       75.62882         1.1385         1.1819         38.558         1.1526       -50.6447      -3.748593      0.9069962      0.9464487
      6474.0000        10.3195        18.5869        -0.0204        105.639        75.9867       76.56351         1.1469         1.1815        39.0577         1.1521       -51.0117      -4.098031      0.9268831      0.9414567
      6474.5000        10.3166        18.8448        -0.0196       104.4224        76.2843       76.83932         1.1488         1.1568        39.9843         1.1317       -51.0148      -4.107829      0.9327514      0.9413167
      6475.0000        10.3123         19.075        -0.0191       100.7416        75.3907       76.00751         1.1477         1.1451        40.1071         1.1142       -51.4653        -4.5352      0.9150535      0.9352114
      6475.5000        10.3127        18.7045        -0.0183        97.0306        73.2367       74.00376          1.147         1.1792        38.2687         1.1798       -52.1212      -5.154275      0.8724204      0.9263675
      6476.0000        10.3039        18.0207        -0.0172        95.3593        70.4429       71.40511          1.145         1.2079        33.3853         1.3568       -52.9941      -5.975884      0.8171301      0.9146302
      6476.5000        10.2461        17.9402        -0.0168        97.7628        71.0664       71.98395         1.1395         1.2084        34.8015         1.4988       -54.0261      -6.945989      0.8294457      0.9007716
      6477.0000        10.1805        18.2823        -0.0169       102.7124          74.17       74.86885         1.1374         1.1962        37.2687         1.3951       -54.4103       -7.31148      0.8908266      0.8955503
      6477.5000        10.1501        18.8804        -0.0152       108.3389        78.5459       78.93677         1.1332         1.1727        40.5922          1.151       -52.4517      -5.490355       0.977378      0.9215664
      6478.0000        10.1734        19.3751        -0.0109       111.4154        81.4902       81.67355         1.1263         1.1565        41.6476         1.0062       -50.4988      -3.674551              1      0.9475064
      6478.5000        10.2223        19.6899        -0.0113       111.7727        80.6622       80.90276          1.119         1.1545        42.9216         1.0676       -48.9329      -2.219949              1      0.9682865
      6479.0000        10.2646        20.0103        -0.0144       110.7773        79.3851       79.71437         1.1182          1.152        44.4935         1.0753       -48.1287      -1.476267      0.9939228      0.9789104
      6479.5000        10.2479         20.176        -0.0151       110.0238        78.8068       79.17574           1.12         1.1445        45.3693         1.0438       -47.3674     -0.7726247      0.9824625      0.9889625
      6480.0000        10.2161        20.2938        -0.0147       110.4564        79.4441       79.76742         1.1262         1.1796        44.3722         1.0633        -47.366     -0.7782217      0.9950514      0.9888825
      6480.5000        10.2951         20.421        -0.0156       110.2745        79.9023       80.19256         1.1309         1.1884        41.6371         1.1045       -48.1014      -1.471496              1      0.9789786
      6481.0000        10.3516        20.6424        -0.0193       108.2737          80.39       80.64513         1.1401         1.1994        41.4204          1.142       -48.8378      -2.165703              1      0.9690614
      6481.5000        10.3948        21.0005        -0.0228       106.0948        81.1917       81.38966         1.1458         1.2063        43.1252         1.1799       -48.8763      -2.208542              1      0.9684494
      6482.0000        10.4416        21.3254        -0.0238       104.7678        81.3691       81.55373         1.1515         1.2141        45.6484          1.199       -48.7031       -2.05379              1      0.9706602
      6482.5000        10.4427        21.5348         -0.023       104.8198        80.6208       80.85701         1.1488         1.2114        44.6611         1.2058       -49.1325      -2.461468              1      0.9648362
      6483.0000        10.3481        21.3606        -0.0217       105.3539        79.6855       79.98646          1.143         1.1996        43.7779         1.1846       -48.4159      -1.799546      0.9997119      0.9742922
      6483.5000        10.3216        21.0855        -0.0187       106.5825        80.6836        80.9136         1.1418         1.1872         43.989         1.1469       -47.6089      -1.053247              1      0.9849536
