#------------------------------------------------------------------------------
# Created by    : vladimir.rabinovich
# Created on    : 09/19/2023 17:20:12
#------------------------------------------------------------------------------
~Version Information Section
VERS.           2.0     :   CWLS log ASCII Standard - VERSION 2.0
WRAP.           NO      :   One line per depth step
~Well Information Section
#MNEM       .UNIT                                         VALUE :DESCRIPTION
#------------------------------------------------------------------------------
STRT        .FT                                             309 :START DEPTH
STOP        .FT                                            9124 :STOP DEPTH
STEP        .FT                                             0.5 :STEP      
NULL        .                                           -999.25 :NULL      
COMP        .                         SONAT EXPLORATION GOM INC :COMPANY   
WELL        .                               OCS G03084 ST00BP00 :WELL      
FLD         .                                           WILDCAT :FIELD     
LOC         .                                                   :LOCATION  
CNTY        .                      MATAGORDA ISLAND LARGE BLOCK :LOCATION  
STAT        .                                             TEXAS :STATE     
CTRY        .                                     UNITED STATES :COUNTRY   
SRVC        .                                                   :SERVICE COMPANY
DATE        .                             9/13/2023 11:12:09 AM :LOG DATE  
API         .                                    42703400260000 :API NUMBER
UWI         .                                    42703400260000 :UNIQUE WELL ID
XCOORD      .                                  563826.313549269 :SURFACE X 
YCOORD      .                                  10238444.2560225 :SURFACE Y 
LAT         .                                         28.172716 :LATITUDE  
LON         .                                        -96.341662 :LONGITUDE 
ELEV        .FT                                              97 :ELEVATION VALUE
ELEV_TYPE   .                                                KB :ELEVATION REFERENCE TYPE
~Curve Information Section
#MNEM       .UNIT                                      API CODE :CURVE DESCRIPTION
#------------------------------------------------------------------------------
DEPT        .FT                                                 :DEPTH     
ASFL        .OHMM                                               :          
CILD        .MMHO                                               :          
DT          .US/F                                               :          
GR          .GAPI                                               :          
GR_NORM     .GAPI                                               :GammaRay Normalized
ILD         .OHMM                                               :          
SP          .MV                                                 :          
SP_NORM     .MV                                                 :SP Normalized
VSH_GR      .V/V                                                :Volume of Shale from GR
VSH_SP      .V/V                                                :Volume of Shale from SP
~A        DEPTH           ASFL           CILD             DT             GR        GR_NORM            ILD             SP        SP_NORM         VSH_GR         VSH_SP
# ...
      7928.5000         0.9447       1087.314        109.048        -999.25        -999.25          0.837       -49.8835      0.7189102        -999.25              1
      7929.0000         0.9119       1067.227       111.6045        -999.25        -999.25         0.8372       -50.0121      0.5903091        -999.25              1
      7929.5000         0.9248       1047.137       108.6874        -999.25        -999.25         0.8374       -50.0859        0.51651        -999.25              1
      7930.0000         0.9648       1027.049       104.1903        -999.25        -999.25         0.8577       -50.1187      0.4837112        -999.25              1
      7930.5000         1.0049       1006.985       101.5612        -999.25        -999.25         0.8838       -50.1516      0.4508095        -999.25              1
      7931.0000          1.045       986.8965        99.2902        -999.25        -999.25           0.91       -50.1845      0.4179077        -999.25              1
      7931.5000          1.077       969.1475        98.4012        -999.25        -999.25         0.9275       -50.2174      0.3850098        -999.25              1
      7932.0000           1.09       954.0625       101.6138        -999.25        -999.25         0.9197       -50.2502       0.352211        -999.25              1
      7932.5000          1.103       951.9209       102.9497        -999.25        -999.25         0.9119       -50.2831      0.3193092        -999.25              1
      7933.0000         1.0891       974.4746       102.3932        -999.25        -999.25         0.8978       -50.1853      0.4171104        -999.25              1
      7933.5000         1.0364       997.0283       101.9412        -999.25        -999.25         0.8671       -50.0668      0.5356102        -999.25              1
      7934.0000         0.9848       1019.557       102.2523        -999.25        -999.25         0.8363       -49.9481      0.6543083        -999.25              1
      7934.5000         0.9347       1042.109       107.4154        -999.25        -999.25         0.8065       -49.8297      0.7727089        -999.25              1
      7935.0000         0.8846       1064.637       110.2957        -999.25        -999.25         0.7921        -49.711      0.8914108        -999.25              1
      7935.5000         0.9153       1087.191       109.8993        -999.25        -999.25         0.7776       -49.5925       1.009911        -999.25              1
      7936.0000         0.9749       1105.984       108.3394        -999.25        -999.25         0.7648       -49.5117        1.09071        -999.25              1
      7936.5000         0.9954       1120.074       106.1584        -999.25        -999.25          0.774       -49.6156      0.9868088        -999.25              1
      7937.0000          1.016       1134.164       104.7675        -999.25        -999.25         0.7858       -49.7194      0.8830109        -999.25              1
      7937.5000         1.0366       1125.701        103.632        -999.25        -999.25         0.8042       -49.8234      0.7790108        -999.25              1
      7938.0000         1.0513       1104.367       102.8707        -999.25        -999.25          0.829       -50.0345      0.5679092        -999.25              1
      7938.5000         1.0656       1083.033       103.1112        -999.25        -999.25         0.8669       -50.2708      0.3316078        -999.25              1
      7939.0000         1.0799       1061.725       104.7212        -999.25        -999.25         0.9049       -50.5071     0.09531021        -999.25              1
      7939.5000         1.1023       1040.391       105.8993        -999.25        -999.25         0.9429       -50.7434     -0.1409912        -999.25              1
      7940.0000         1.1334       1017.988          106.7        -999.25        -999.25         0.9818       -50.9797     -0.3772888        -999.25              1
      7940.5000         1.1644       984.3818       105.2371        -999.25        -999.25         1.0219        -51.201     -0.5985909        -999.25              1
      7941.0000          1.191       950.8262       101.8016        -999.25        -999.25          1.062       -51.2185     -0.6160889        -999.25              1
      7941.5000          1.217       917.2197        99.1575        -999.25        -999.25         1.1021        -51.236     -0.6335907        -999.25              1
      7942.0000          1.243       883.6143        97.5674        -999.25        -999.25         1.1273       -51.2534     -0.6509895        -999.25              1
      7942.5000         1.2659       850.0088         97.302        -999.25        -999.25         1.1252       -51.2709     -0.6684914        -999.25              1
      7943.0000         1.2829       838.0469        98.3162        -999.25        -999.25         1.1084       -51.2884     -0.6859894        -999.25              1
      7943.5000            1.3       833.6289        97.4122        -999.25        -999.25         1.0805       -51.2844     -0.6819916        -999.25              1
      7944.0000          1.255        851.626       100.2191        -999.25        -999.25         1.0525       -51.1588     -0.5563889        -999.25              1
      7944.5000         1.2015        869.624        98.7618        -999.25        -999.25         1.0245       -51.0333     -0.4308891        -999.25              1
      7945.0000         1.1635       887.6221        97.2744        -999.25        -999.25         0.9965       -50.9077     -0.3052902        -999.25              1
      7945.5000         1.1256       905.5947       100.9954        -999.25        -999.25         0.9685       -50.7821     -0.1796913        -999.25              1
      7946.0000         1.0877       923.5928       103.7822        -999.25        -999.25         0.9406       -50.6565    -0.05409241        -999.25              1
      7946.5000         1.0814       941.5908       102.6129        -999.25        -999.25         0.9126       -50.5311     0.07130814        -999.25              1
      7947.0000         1.1283       959.5889       104.0626        -999.25        -999.25         0.9415       -50.4055      0.1969109        -999.25              1
      7947.5000         1.1752       977.5859       105.5149        -999.25        -999.25         0.9737       -50.4592      0.1432076        -999.25              1
      7948.0000         1.2248       990.3193       106.6555        -999.25        -999.25         1.0059       -50.5405     0.06190872        -999.25              1
      7948.5000         1.2743       978.4951       104.8239        -999.25        -999.25         1.0381       -50.6216    -0.01919174        -999.25              1
      7949.0000         1.3165       946.9424       103.2175        -999.25        -999.25         1.1058       -50.7639     -0.1614914        -999.25              1
      7949.5000          1.353       910.9971       102.1334        -999.25        -999.25           1.18       -51.0408     -0.4383888        -999.25              1
      7950.0000         1.3878       875.1006        101.004        -999.25        -999.25          1.254       -51.3181     -0.7156906        -999.25              1
      7950.5000         1.4147       839.1553       100.4989        -999.25        -999.25         1.2964        -51.595     -0.9925919        -999.25              1
      7951.0000         1.4242        803.209        99.5637        -999.25        -999.25         1.3299       -51.8719      -1.269489        -999.25      0.9957892
      7951.5000         1.3958       767.3125         98.676        -999.25        -999.25          1.317       -52.1487      -1.546291        -999.25      0.9914642
      7952.0000         1.3555       746.0791        96.3862        -999.25        -999.25         1.2778       -52.0667      -1.464291        -999.25      0.9927455
      7952.5000         1.1738       724.9199        94.3462        -999.25        -999.25         1.2385       -51.8745      -1.272091        -999.25      0.9957486
