#------------------------------------------------------------------------------
# Created by    : vladimir.rabinovich
# Created on    : 09/19/2023 17:21:24
#------------------------------------------------------------------------------
~Version Information Section
VERS.           2.0     :   CWLS log ASCII Standard - VERSION 2.0
WRAP.           NO      :   One line per depth step
~Well Information Section
#MNEM       .UNIT                                         VALUE :DESCRIPTION
#------------------------------------------------------------------------------
STRT        .FT                                            4234 :START DEPTH
STOP        .FT                                            7516 :STOP DEPTH
STEP        .FT                                             0.5 :STEP      
NULL        .                                           -999.25 :NULL      
COMP        .                          SEAGULL ENERGY E & P INC :COMPANY   
WELL        .                               OCS G11311 ST00BP00 :WELL      
FLD         .                                           WILDCAT :FIELD     
LOC         .                                                   :LOCATION  
CNTY        .                             GALVESTON LARGE BLOCK :LOCATION  
STAT        .                                             TEXAS :STATE     
CTRY        .                                     UNITED STATES :COUNTRY   
SRVC        .                                                   :SERVICE COMPANY
DATE        .                             9/13/2023 11:19:54 AM :LOG DATE  
API         .                                    42706403550000 :API NUMBER
UWI         .                                    42706403550000 :UNIQUE WELL ID
XCOORD      .                                  972569.007613557 :SURFACE X 
YCOORD      .                                  10477919.1442114 :SURFACE Y 
LAT         .                                         28.856272 :LATITUDE  
LON         .                                        -95.086774 :LONGITUDE 
ELEV        .FT                                              94 :ELEVATION VALUE
ELEV_TYPE   .                                                KB :ELEVATION REFERENCE TYPE
~Curve Information Section
#MNEM       .UNIT                                      API CODE :CURVE DESCRIPTION
#------------------------------------------------------------------------------
DEPT        .FT                                                 :DEPTH     
CALI        .IN                                                 :          
DPHI        .%                                                  :          
DRHO        .G/C3                                               :          
DTLN        .US/F                                               :          
GR          .GAPI                                               :          
GR_NORM     .GAPI                                               :GammaRay Normalized
IDPH        .OHMM                                               :          
IMPH        .OHMM                                               :          
NPHI        .%                                                  :          
SFLU        .OHMM                                               :          
SP          .MV                                                 :          
SP_NORM     .MV                                                 :SP Normalized
VSH_GR      .V/V                                                :Volume of Shale from GR
VSH_SP      .V/V                                                :Volume of Shale from SP
~A        DEPTH           CALI           DPHI           DRHO           DTLN             GR        GR_NORM           IDPH           IMPH           NPHI           SFLU             SP        SP_NORM         VSH_GR         VSH_SP
# ...
      4702.0000        10.7021        23.1289        -0.0213       111.7966         59.677       66.09209         0.4094         0.4967        39.4536         0.6828       -89.9894      -25.32344       0.704087      0.6382366
      4702.5000        10.6258        24.0997        -0.0225       111.6235         57.715       64.42544         0.4151         0.5353        39.4828          0.708       -92.0764       -27.2713      0.6686264        0.61041
      4703.0000        10.5384        25.9897        -0.0262       111.9539        54.8613       62.00173         0.4159         0.5292        37.7693         0.7744       -97.9038      -32.71021      0.6170581      0.5327113
      4703.5000         10.437        28.9885        -0.0298       111.5773        51.4825       59.13219         0.4146         0.5014        35.5906         0.7449         -105.3      -39.61333       0.556004      0.4340953
      4704.0000         10.388        29.2294        -0.0313       109.7363        47.6135       55.84648         0.4118         0.4684        34.0358         0.6898      -112.6963      -46.51654      0.4860953       0.335478
      4704.5000        10.3589        24.7567        -0.0275        97.6969        43.9645       52.74755         0.4065         0.4314        28.2882          1.009      -119.0052      -52.40485      0.4201606      0.2513592
      4705.0000        10.3452        16.3648        -0.0227        84.6211        40.3181       49.65082         0.3953         0.4151        18.8069         2.9271      -123.0319       -56.1631      0.3542727        0.19767
      4705.5000        10.3387         9.4993        -0.0179        74.3488         37.093       46.91179         0.3839         0.4208         10.026         4.9987       -123.056       -56.1856      0.2959954      0.1973486
      4706.0000        10.3689         7.6423        -0.0136        69.8358        36.0109       45.99218         0.3759         0.4267         8.4848         5.0137      -121.9076      -55.11376      0.2764294      0.2126606
      4706.5000        10.4121        10.8251        -0.0152        74.3237        38.8975       48.44205         0.3902          0.432        12.9889         3.9445      -119.4529       -52.8227      0.3285543      0.2453899
      4707.0000        10.4791        15.6944        -0.0165        83.0292        44.5598       53.24852         0.4147         0.4349        23.4279         1.3716       -115.183      -48.83746      0.4308196       0.302322
      4707.5000        10.5636        20.5637        -0.0141        94.4028        51.7176        59.3247         0.4323         0.4351         29.611         0.6655      -109.7844      -43.79877      0.5600999      0.3743033
      4708.0000        10.6507        22.7589        -0.0117       105.7866        56.8546       63.68518         0.4418          0.448        33.1844         0.5376      -103.7124      -38.13157      0.6528762      0.4552633
      4708.5000        10.7309        23.4264        -0.0093       113.5571        59.6882       66.09005         0.4467         0.4856        36.0724         0.5913       -94.0665      -29.12873      0.7040436      0.5838754
      4709.0000        10.7984        22.8495        -0.0068       114.7167        61.8704       67.94188         0.4514         0.5307        40.1097          0.586       -85.9518      -21.55501      0.7434443      0.6920713
      4709.5000        10.8044        21.8521        -0.0051       114.7733        63.7686       69.55257         0.4583         0.5762         40.002         0.5915       -80.5457      -16.50932      0.7777144      0.7641526
      4710.0000        10.7973        20.6962        -0.0055       114.2511        65.5417       71.05708         0.4667         0.5802        38.1046         0.6422       -76.6332      -12.85765       0.809725      0.8163193
      4710.5000        10.7499        20.4597        -0.0095       113.8813        67.0411       72.32919         0.4723         0.6004        37.1155         0.6545       -74.8008      -11.14741      0.8367913      0.8407513
      4711.0000        10.6781        21.5139        -0.0149       113.6135         65.423       70.95452         0.4697          0.603        38.8198         0.6262       -76.9717      -13.17358       0.807543      0.8118059
      4711.5000        10.5907        23.7002        -0.0202       112.3219         62.757       68.69017         0.4544         0.5974        39.6106         0.6312       -84.1648      -19.88714      0.7593653      0.7158979
      4712.0000        10.5117          26.17         -0.025       111.4478        60.1534        66.4788         0.4246         0.5731        38.7346         0.7125       -87.0427      -22.57318      0.7123148      0.6775259
      4712.5000        10.4553        26.3355        -0.0293       111.9177        58.7053       65.24845         0.3829         0.5404        38.4398          0.758       -89.2417      -24.62558      0.6861373       0.648206
      4713.0000        10.4478        26.0032        -0.0331       114.5959         57.366       64.11048          0.373         0.5078        40.1726         0.7393       -93.0206      -28.15256      0.6619251      0.5978206
      4713.5000        10.4501         26.149        -0.0355       114.7587        55.4803       62.50862         0.3621         0.4771        41.4292          0.809       -98.6976      -33.45109      0.6278429      0.5221273
      4714.0000        10.4766        27.8871        -0.0371       115.6184         52.823       60.25165         0.3478          0.445        39.5262         0.9522      -104.6981      -39.05155      0.5798224      0.4421207
      4714.5000        10.5183        30.1467        -0.0382       114.4382        49.5817       57.49886         0.3304         0.4086        36.5453         0.9154      -110.7024      -44.65557      0.5212523      0.3620633
      4715.0000        10.5702        31.9446        -0.0369       113.7159        46.2979       54.70999         0.3228         0.3697        36.0672         0.6427      -116.7029      -50.25604      0.4619146      0.2820566
      4715.5000        10.6236        32.0643        -0.0308       114.1025        45.3944       53.94201         0.3394         0.3484        37.3908          0.316      -122.7034       -55.8565      0.4455747        0.20205
      4716.0000        10.6606        30.8695        -0.0237       114.0127        49.0065       57.00784         0.3562         0.3539        39.1431         0.2815      -126.1362      -59.06045       0.510805      0.1562793
      4716.5000        10.6421        29.3925        -0.0166       111.7988        54.2286       61.44057         0.3685         0.4113        41.1183         0.3124      -119.8441      -53.18782      0.6051185      0.2401739
      4717.0000        10.5749        28.6084          -0.01       108.7227        57.4648       64.18726         0.3886         0.4812        43.5979         0.4521      -112.1244      -45.98277      0.6635588      0.3431033
      4717.5000        10.5287        28.3682        -0.0041        106.142         58.921       65.42271         0.4217          0.563         42.938         0.7361      -100.2137      -34.86612      0.6898448      0.5019127
      4718.0000        10.4915        27.8669        -0.0023       104.8116        60.2709        66.5679         0.4604          0.617        42.1815         0.9709       -88.9388      -24.34287      0.7142107      0.6522447
      4718.5000        10.5634        26.5763        -0.0055        106.978        62.5106       68.46854         0.4827         0.6302        45.7168         0.9499       -84.7837      -20.46478      0.7546499       0.707646
      4719.0000        10.7001        25.5254        -0.0108       110.5724        61.8266       67.88692         0.4837          0.624        46.2302         0.8059       -81.6855      -17.57313       0.742275      0.7489553
      4719.5000        10.7509        26.0368        -0.0192       114.0189        55.7792       62.75174         0.4643         0.5935        43.3989         0.8043       -82.4154      -18.25437      0.6330156      0.7392233
