#------------------------------------------------------------------------------
# Created by    : vladimir.rabinovich
# Created on    : 09/19/2023 17:22:17
#------------------------------------------------------------------------------
~Version Information Section
VERS.           2.0     :   CWLS log ASCII Standard - VERSION 2.0
WRAP.           NO      :   One line per depth step
~Well Information Section
#MNEM       .UNIT                                         VALUE :DESCRIPTION
#------------------------------------------------------------------------------
STRT        .FT                                             996 :START DEPTH
STOP        .FT                                            8436 :STOP DEPTH
STEP        .FT                                             0.5 :STEP      
NULL        .                                           -999.25 :NULL      
COMP        .                                    TDC ENERGY LLC :COMPANY   
WELL        .                               OCS G03738 ST00BP00 :WELL      
FLD         .                              GALVESTON BLOCK 0255 :FIELD     
LOC         .                                                   :LOCATION  
CNTY        .                             GALVESTON LARGE BLOCK :LOCATION  
STAT        .                                             TEXAS :STATE     
CTRY        .                                     UNITED STATES :COUNTRY   
SRVC        .                                                   :SERVICE COMPANY
DATE        .                             9/13/2023 11:18:53 AM :LOG DATE  
API         .                                    42706400460000 :API NUMBER
UWI         .                                    42706400460000 :UNIQUE WELL ID
XCOORD      .                                   1080542.6436948 :SURFACE X 
YCOORD      .                                  10548065.2081286 :SURFACE Y 
LAT         .                                        29.0539695 :LATITUDE  
LON         .                                       -94.7527854 :LONGITUDE 
ELEV        .FT                                              94 :ELEVATION VALUE
ELEV_TYPE   .                                                KB :ELEVATION REFERENCE TYPE
~Curve Information Section
#MNEM       .UNIT                                      API CODE :CURVE DESCRIPTION
#------------------------------------------------------------------------------
DEPT        .FT                                                 :DEPTH     
CALI        .IN                                                 :          
CILD        .MMHO                                               :          
DT          .US/F                                               :          
GR          .GAPI                                               :          
GR_NORM     .GAPI                                               :GammaRay Normalized
ILD         .OHMM                                               :          
ILM         .OHMM                                               :          
RHOB        .G/C3                                               :          
SFL         .OHMM                                               :          
SP          .MV                                                 :          
SP_NORM     .MV                                                 :SP Normalized
VSH_GR      .V/V                                                :Volume of Shale from GR
VSH_SP      .V/V                                                :Volume of Shale from SP
~A        DEPTH           CALI           CILD             DT             GR        GR_NORM            ILD            ILM           RHOB            SFL             SP        SP_NORM         VSH_GR         VSH_SP
# ...
      7931.0000        14.8643       994.4531       108.1387        67.2334       64.57255         1.0009         0.9951         2.0635         1.0298       -46.7249      -2.657101      0.6717563       0.946858
      7931.5000         15.179       1005.859       108.8027        67.8154       65.37872         0.9884         0.9841         2.0605         1.0236       -46.8243        -2.7565       0.688909        0.94487
      7932.0000        15.3857        1017.25       108.4736        68.4092       66.20126         0.9754         0.9731         2.0618          1.019       -46.9053      -2.837502      0.7064099      0.9432499
      7932.5000        15.5068       1028.656       107.8145        68.3057       66.05789         0.9623         0.9621          2.063         1.0156       -46.9862        -2.9184      0.7033594       0.941632
      7933.0000        15.1846       1034.266       106.7637        67.4756       64.90804         0.9509          0.951          2.054         1.0123       -46.9633        -2.8955      0.6788943        0.94209
      7933.5000        14.9788       1035.664       105.7393        66.7134       63.85225         0.9398         0.9421         2.0432         1.0123        -46.938      -2.870201      0.6564309       0.942596
      7934.0000        15.1284       1035.412       104.8408        66.3916       63.40649         0.9386         0.9334         2.0341         1.0158       -46.9982      -2.930401      0.6469465       0.941392
      7934.5000        15.3359        1032.16       104.3418        67.0457       64.31255         0.9388         0.9304         2.0477         1.0194       -47.0606      -2.992802      0.6662245      0.9401439
      7935.0000        15.9951       1027.188       104.3657        66.9833        64.2261         0.9486         0.9306         2.0571         1.0229       -47.1245      -3.056702      0.6643852       0.938866
      7935.5000        16.2397       1014.344       104.3353        66.4893       63.54183         0.9618         0.9503          2.064         1.0264       -47.1893      -3.121502      0.6498262        0.93757
      7936.0000        15.5352       1002.445       104.0039        66.0815       62.97693         0.9838          0.978         2.0616           1.03       -47.2239      -3.156101       0.637807       0.936878
      7936.5000        13.9102       998.1094       105.6152        66.3113       63.29526         0.9944         1.0077         2.0596         1.0387       -47.2181      -3.150303        0.64458       0.936994
      7937.0000        13.6642       995.4453       107.3398        67.8555       65.43427         0.9928         1.0149         2.0604         1.0488        -47.199      -3.131203      0.6900909       0.937376
      7937.5000        13.6863       1000.297       109.1211        69.5273       67.75004         0.9819         0.9964         2.0633         1.0579       -47.1586      -3.090801      0.7393625       0.938184
      7938.0000           14.5       1005.148       110.9492        70.9844       69.76841         0.9655         0.9651         2.0649         1.0561       -47.1145        -3.0467      0.7823066       0.939066
      7938.5000        15.2607       1013.391        111.834        71.3618       70.29119         0.9346         0.9345         2.0448         1.0543       -47.0428      -2.975002      0.7934296         0.9405
      7939.0000        15.9258       1023.031       111.9348          71.41       70.35796         0.9054         0.9046         2.0375         1.0455       -46.9712        -2.9034      0.7948501       0.941932
      7939.5000        14.2744       1033.125       111.8154        71.8184       70.92366         0.8787         0.8814         2.0395         1.0237       -46.9352      -2.867401      0.8068864       0.942652
      7940.0000        13.6309       1045.531       111.3174        72.6133       72.02475         0.8781         0.8683          2.046         1.0027       -46.9125        -2.8447      0.8303138       0.943106
      7940.5000        13.5044       1057.938       110.7881        73.5449       73.31519         0.8914          0.872          2.054         0.9916       -46.8391      -2.771301      0.8577701       0.944574
      7941.0000        13.5043       1070.031       110.1865        74.5547       74.71397         0.9028          0.888         2.0459         1.0043       -46.6958      -2.628002      0.8875313        0.94744
      7941.5000        13.5356       1082.078       110.1243        74.6648       74.86649         0.9101          0.902         2.0413         1.0427       -46.5853      -2.517502      0.8907763        0.94965
      7942.0000        13.5807       1092.422       110.4136        74.5404       74.69416         0.9067         0.9095         2.0444         1.0839       -46.5206      -2.452801      0.8871098       0.950944
      7942.5000        13.6137       1102.531       110.5527        74.4119       74.51617         0.8966         0.9076         2.0523         1.1018       -46.5488      -2.481003      0.8833227        0.95038
      7943.0000        13.6354        1111.68       109.7578        74.2813       74.33527         0.8819         0.9035         2.0606         1.0381       -46.7087        -2.6409      0.8794737       0.947182
      7943.5000        13.6482       1119.586       109.1094        74.2954        74.3548          0.868         0.8869         2.0556         0.9608       -47.5527      -3.484901      0.8798893       0.930302
      7944.0000        13.8582       1127.492       108.4443        74.5635       74.72617         0.8556         0.8692         2.0438         0.9273       -48.1562      -4.088402      0.8877907       0.918232
      7944.5000        14.1042       1135.906       107.7959         74.604       74.78226         0.8452         0.8513         2.0435         0.9157        -47.792      -3.724201      0.8889842      0.9255159
      7945.0000        14.0685       1144.469       107.3114        74.0908       74.07137         0.8365         0.8364         2.0475         0.9126       -47.1602        -3.0924       0.873859       0.938152
      7945.5000        13.9517       1153.031       107.4067        73.1025        72.7024         0.8326         0.8276         2.0475          0.912       -46.4717        -2.4039      0.8447319       0.951922
      7946.0000        13.8835        1156.41       107.7407        72.1523       71.38618         0.8341         0.8265         2.0502         0.9145       -45.8589        -1.7911      0.8167272       0.964178
      7946.5000        13.8264       1159.074       107.9734        71.2314       70.11055         0.8356         0.8292         2.0406         0.9169       -45.4004        -1.3326      0.7895862       0.973348
      7947.0000        13.7772       1152.969       108.2039        70.7809       69.48652         0.8427         0.8338         2.0275         0.9219        -45.069      -1.001202      0.7763089      0.9799759
      7947.5000        13.7308       1143.219       107.7324         70.884       69.62934         0.8499         0.8422         2.0294         0.9302       -44.9979     -0.9300995      0.7793477       0.981398
      7948.0000        13.7138       1126.031       107.0986        71.2144       70.08701         0.8587         0.8506         2.0341         0.9384       -45.0327      -0.964901      0.7890852       0.980702
      7948.5000        13.7058       1108.813       106.3555        71.5869         70.603         0.8708         0.8591         2.0359         0.9467       -45.1655      -1.097702      0.8000638      0.9780459
      7949.0000        13.7143       1091.281       105.6426        72.0269       71.21248         0.8831         0.8676         2.0461          0.955       -45.2866        -1.2188      0.8130314       0.975624
      7949.5000        13.7299       1073.688       105.3726        72.4834       71.84481         0.8997         0.8803         2.0596         0.9632       -45.3724        -1.3046      0.8264853       0.973908
