#------------------------------------------------------------------------------
# Created by    : vladimir.rabinovich
# Created on    : 09/19/2023 17:22:29
#------------------------------------------------------------------------------
~Version Information Section
VERS.           2.0     :   CWLS log ASCII Standard - VERSION 2.0
WRAP.           NO      :   One line per depth step
~Well Information Section
#MNEM       .UNIT                                         VALUE :DESCRIPTION
#------------------------------------------------------------------------------
STRT        .FT                                             272 :START DEPTH
STOP        .FT                                            9222 :STOP DEPTH
STEP        .FT                                             0.5 :STEP      
NULL        .                                           -999.25 :NULL      
COMP        .                   MCMORAN OFFSHORE EXPLORATION CO :COMPANY   
WELL        .                               OCS G03108 ST00BP00 :WELL      
FLD         .                       MATAGORDA ISLAND BLOCK 0700 :FIELD     
LOC         .                                                   :LOCATION  
CNTY        .                      MATAGORDA ISLAND LARGE BLOCK :LOCATION  
STAT        .                                             TEXAS :STATE     
CTRY        .                                     UNITED STATES :COUNTRY   
SRVC        .                                                   :SERVICE COMPANY
DATE        .                             9/13/2023 11:12:09 AM :LOG DATE  
API         .                                    42703400850000 :API NUMBER
UWI         .                                    42703400850000 :UNIQUE WELL ID
XCOORD      .                                  483045.974763742 :SURFACE X 
YCOORD      .                                  10146137.6323278 :SURFACE Y 
LAT         .                                         27.912878 :LATITUDE  
LON         .                                       -96.5835889 :LONGITUDE 
ELEV        .FT                                              85 :ELEVATION VALUE
ELEV_TYPE   .                                                KB :ELEVATION REFERENCE TYPE
~Curve Information Section
#MNEM       .UNIT                                      API CODE :CURVE DESCRIPTION
#------------------------------------------------------------------------------
DEPT        .FT                                                 :DEPTH     
CILD        .MMHO                                               :          
DT          .US/F                                               :          
GR          .GAPI                                               :          
GR_NORM     .GAPI                                               :GammaRay Normalized
ILD         .OHMM                                               :          
ILM         .OHMM                                               :          
SFL         .OHMM                                               :          
SP          .MV                                                 :          
SP_NORM     .MV                                                 :SP Normalized
VSH_GR      .V/V                                                :Volume of Shale from GR
VSH_SP      .V/V                                                :Volume of Shale from SP
~A        DEPTH           CILD             DT             GR        GR_NORM            ILD            ILM            SFL             SP        SP_NORM         VSH_GR         VSH_SP
# ...
      8619.5000       648.4951        85.9772        -999.25        -999.25         1.6713         1.6395         1.6579       -49.8417        -25.153        -999.25      0.6324921
      8620.0000       626.8623        84.4812        -999.25        -999.25         1.7272         1.6768         1.6606       -48.6923       -23.9968        -999.25      0.6508445
      8620.5000       599.3994        83.2532        -999.25        -999.25         1.7597         1.7742         1.6439       -47.6709       -22.9685        -999.25      0.6671667
      8621.0000       577.0967        82.2621        -999.25        -999.25         1.7882         1.8246         1.6297       -47.0704       -22.3612        -999.25      0.6768063
      8621.5000       565.1699        80.7357        -999.25        -999.25         1.8079         1.8334         1.6307       -46.6932       -21.9772        -999.25      0.6829016
      8622.0000       560.9775        80.3475        -999.25        -999.25          1.827          1.838         1.6472       -46.4459       -21.7231        -999.25      0.6869349
      8622.5000       561.2939        81.8192        -999.25        -999.25         1.8642         1.8438         1.7732       -46.0164       -21.2868        -999.25      0.6938603
      8623.0000       574.9629        83.5087        -999.25        -999.25         1.8374         1.8181         2.1105       -44.0357       -19.2993        -999.25       0.725408
      8623.5000       624.9766        86.6693        -999.25        -999.25         1.7126         1.7202           2.25       -40.4128       -15.6696        -999.25      0.7830222
      8624.0000       690.5703        91.8293        -999.25        -999.25         1.5816         1.5507         2.1342       -37.8827       -13.1326        -999.25      0.8232921
      8624.5000       748.4229        95.1686        -999.25        -999.25         1.4492         1.4146         1.7833       -36.4995       -11.7426        -999.25      0.8453556
      8625.0000       793.5742        98.3987        -999.25        -999.25         1.3055         1.3146         1.4153       -35.8152       -11.0515        -999.25      0.8563254
      8625.5000       821.1113        99.2037        -999.25        -999.25         1.2063         1.2259         1.1491       -34.1417        -9.3712        -999.25      0.8829969
      8626.0000       832.6416        97.0392        -999.25        -999.25         1.2079         1.2198         0.8732       -31.8011        -7.0238        -999.25      0.9202572
      8626.5000       821.0615        94.3796        -999.25        -999.25         1.2658         1.2756         0.8452       -31.6228        -6.8387        -999.25      0.9231952
      8627.0000       792.3838        91.7897        -999.25        -999.25         1.3248         1.3463          0.919       -31.7184        -6.9275        -999.25      0.9217857
      8627.5000       758.1475        87.6417        -999.25        -999.25         1.3788         1.4118          1.127       -31.6223        -6.8245        -999.25      0.9234206
      8628.0000       716.2217        84.0098        -999.25        -999.25         1.4305         1.5182         1.4315       -30.6837        -5.8791        -999.25       0.938427
      8628.5000        689.627        80.7327        -999.25        -999.25         1.4693         1.5468         1.6593       -29.5281        -4.7167        -999.25      0.9568778
      8629.0000       683.5498        81.3107        -999.25        -999.25         1.4915         1.5807         2.0307       -31.0024        -6.1842        -999.25      0.9335842
      8629.5000       689.9131        87.6219        -999.25        -999.25          1.484         1.5587         2.3255       -31.7949        -6.9699        -999.25      0.9211127
      8630.0000       709.0771        97.1185        -999.25        -999.25         1.4691          1.472         2.0728       -32.2244        -7.3926        -999.25      0.9144032
      8630.5000       743.3623        99.3737        -999.25        -999.25         1.4103         1.3733         1.4423       -31.5758        -6.7371        -999.25      0.9248079
      8631.0000        787.124       100.9072        -999.25        -999.25         1.2413         1.2632          1.113       -31.2479        -6.4024        -999.25      0.9301206
      8631.5000       844.3818       100.2072        -999.25        -999.25         1.1723         1.2021         0.8761       -30.9642        -6.1119        -999.25      0.9347317
      8632.0000       894.7422        98.0587        -999.25        -999.25         1.1578         1.2013         0.8816       -30.6479        -5.7888        -999.25      0.9398603
      8632.5000       888.9873        95.8434        -999.25        -999.25         1.1532         1.2036          0.916        -29.997        -5.1311        -999.25         0.9503
      8633.0000       878.4805        93.4519        -999.25        -999.25          1.163         1.2718         0.9762       -31.0307         -6.158        -999.25          0.934
      8633.5000       866.1133        90.0879        -999.25        -999.25         1.2393          1.318         1.0886       -31.8663        -6.9868        -999.25      0.9208444
      8634.0000       807.2686        87.6793        -999.25        -999.25         1.3232         1.3567         1.2771       -32.0685        -7.1821        -999.25      0.9177445
      8634.5000       758.1475        87.7462        -999.25        -999.25         1.3722         1.4036         1.3919       -31.4737        -6.5805        -999.25      0.9272937
      8635.0000       718.6533        87.6216        -999.25        -999.25         1.4189         1.4374         1.4514       -31.1577        -6.2577        -999.25      0.9324175
      8635.5000       686.2041        87.4197        -999.25        -999.25         1.4545         1.4855         1.3559       -31.1718         -6.265        -999.25      0.9323016
      8636.0000       659.3555         86.802        -999.25        -999.25         1.5267          1.525          1.327        -30.472        -5.5584        -999.25      0.9435174
      8636.5000       654.1885        85.6794        -999.25        -999.25         1.5636         1.5675         1.3639       -30.9864         -6.066        -999.25      0.9354603
      8637.0000       651.8447        84.5072        -999.25        -999.25         1.5864         1.6148         1.4465        -32.185        -7.2578        -999.25      0.9165428
      8637.5000       661.7061        84.2706        -999.25        -999.25         1.5914         1.5885            1.5       -32.3708        -7.4367        -999.25      0.9137032
      8638.0000       671.3379        84.6561        -999.25        -999.25          1.565          1.555         1.5673       -31.9377        -6.9968        -999.25      0.9206857
      8638.5000       668.5996        85.5913        -999.25        -999.25         1.5446         1.5205         1.5963       -31.4417         -6.494        -999.25      0.9286667
      8639.0000       665.8613        87.5425        -999.25        -999.25         1.5297         1.5071         1.5101       -31.0202        -6.0657        -999.25      0.9354651
      8639.5000       666.0918        88.4285        -999.25        -999.25         1.5331         1.5217         1.4227       -30.9834        -6.0221        -999.25      0.9361572
      8640.0000       670.9219        87.8328        -999.25        -999.25         1.5561         1.5436         1.3622        -31.243        -6.2749        -999.25      0.9321445
      8640.5000       690.5703         87.127        -999.25        -999.25         1.5693         1.5822           1.32       -31.8983        -6.9234        -999.25      0.9218508
      8641.0000       699.6807        86.5341        -999.25        -999.25         1.5656         1.5721         1.3804       -33.0883        -8.1065        -999.25      0.9030715
      8641.5000        689.627        87.4681        -999.25        -999.25         1.5101         1.5452         1.4592        -34.368        -9.3794        -999.25      0.8828667
