#------------------------------------------------------------------------------
# Created by    : vladimir.rabinovich
# Created on    : 09/19/2023 17:20:24
#------------------------------------------------------------------------------
~Version Information Section
VERS.           2.0     :   CWLS log ASCII Standard - VERSION 2.0
WRAP.           NO      :   One line per depth step
~Well Information Section
#MNEM       .UNIT                                         VALUE :DESCRIPTION
#------------------------------------------------------------------------------
STRT        .FT                                            1590 :START DEPTH
STOP        .FT                                            8991 :STOP DEPTH
STEP        .FT                                             0.5 :STEP      
NULL        .                                           -999.25 :NULL      
COMP        .                                 C & K OFFSHORE CO :COMPANY   
WELL        .                                OCS 00507 ST00BP00 :WELL      
FLD         .                                           WILDCAT :FIELD     
LOC         .                                                   :LOCATION  
CNTY        .                           HIGH ISLAND LARGE BLOCK :LOCATION  
STAT        .                                             TEXAS :STATE     
CTRY        .                                     UNITED STATES :COUNTRY   
SRVC        .                                                   :SERVICE COMPANY
DATE        .                             9/13/2023 11:19:15 AM :LOG DATE  
API         .                                    42708300260000 :API NUMBER
UWI         .                                    42708300260000 :UNIQUE WELL ID
XCOORD      .                                  1287575.74118613 :SURFACE X 
YCOORD      .                                  10681645.7296129 :SURFACE Y 
LAT         .                                         29.428295 :LATITUDE  
LON         .                                        -94.108714 :LONGITUDE 
ELEV        .FT                                              73 :ELEVATION VALUE
ELEV_TYPE   .                                                KB :ELEVATION REFERENCE TYPE
~Curve Information Section
#MNEM       .UNIT                                      API CODE :CURVE DESCRIPTION
#------------------------------------------------------------------------------
DEPT        .FT                                                 :DEPTH     
ASN         .OHMM                                               :          
CALI        .IN                                                 :          
CILD        .MMHO                                               :          
DT          .US/F                                               :          
GR          .GAPI                                               :          
GR_NORM     .GAPI                                               :GammaRay Normalized
ILD         .OHMM                                               :          
SP          .MV                                                 :          
SP_NORM     .MV                                                 :SP Normalized
VSH_GR      .V/V                                                :Volume of Shale from GR
VSH_SP      .V/V                                                :Volume of Shale from SP
~A        DEPTH            ASN           CALI           CILD             DT             GR        GR_NORM            ILD             SP        SP_NORM         VSH_GR         VSH_SP
# ...
      2580.0000         0.6518        13.2288       1927.965       175.3193        73.7076         83.969         0.4619       -49.3647      -10.90316              1      0.8442405
      2580.5000         0.6469        13.1755       1939.252       175.3694        73.0844         83.186         0.4601       -49.5957      -11.13416              1      0.8409406
      2581.0000         0.6424        12.8523        1951.34       175.4236        71.5179       81.22387         0.4599       -49.7338      -11.27226              1      0.8389677
      2581.5000         0.6377        12.2972       1965.992       175.5637        72.8507       82.88586         0.4597       -49.8344      -11.37286              1      0.8375306
      2582.0000         0.6326        12.0916       1978.973       176.0881        72.6458       82.62573         0.4576       -49.8944      -11.43286              1      0.8366734
      2582.5000         0.6275        12.0917       1990.191        177.627        68.9833        78.0436         0.4536       -49.8727      -11.41116      0.9583745      0.8369834
      2583.0000         0.6226        12.2236        2001.41       179.6729        66.9446       75.49123         0.4496       -49.8511      -11.38956      0.9040686       0.837292
      2583.5000         0.6204        12.3905       2012.629       180.9233        67.4241       76.08659         0.4455       -49.8294      -11.36786       0.916736       0.837602
      2584.0000         0.6183        12.4113       2015.389       181.8591        71.3822       81.03021         0.4415       -49.6973      -11.23576              1      0.8394892
      2584.5000         0.6165        12.2186       2047.135        182.647        75.2576       85.87045         0.4379        -49.524      -11.06246              1      0.8419649
      2585.0000         0.6146        12.4997       2062.063       183.3611        78.5415       89.97132          0.435       -49.3509      -10.88936              1      0.8444377
      2585.5000         0.6128        13.0138       2076.984       183.6436        82.0704       94.37845         0.4322        -49.194      -10.73246              1      0.8466792
      2586.0000         0.6129        13.3486       2091.816        183.874        79.2748       90.87996         0.4293       -49.0759      -10.61436              1      0.8483663
      2586.5000         0.6137        13.6097       2106.152       183.6467        76.9576       87.97945         0.4265       -49.0193      -10.55776              1      0.8491749
      2587.0000         0.6125        13.1421       2130.262       182.4111        73.4775       83.62532         0.4237       -49.1198      -10.65826              1      0.8477392
      2587.5000         0.6107        12.9034        2157.57       180.8958        72.1726       81.99019         0.4218       -49.2203      -10.75876              1      0.8463035
      2588.0000         0.6089        12.6853       2165.863       179.8384        69.8165       79.04105         0.4216       -49.3198      -10.85826      0.9795969       0.844882
      2588.5000         0.6048        12.6308         2158.5         180.77        69.0742       78.10918         0.4215       -49.4102      -10.94866      0.9597697      0.8435906
      2589.0000         0.5993         12.689       2140.156       180.8711        69.5935       78.75429         0.4213       -49.5006      -11.03906      0.9734955      0.8422992
      2589.5000         0.5937        12.8888       2128.664       180.0156        69.5256       78.66541         0.4211        -49.591      -11.12946      0.9716043      0.8410077
      2590.0000         0.5798         13.171        2135.32       176.4907        68.8251       77.78579         0.4209       -49.6652      -11.20366      0.9528891      0.8399477
      2590.5000         0.5807        13.0609       2141.973       174.4429        68.2157       77.02003         0.4198       -49.6326      -11.17106      0.9365965      0.8404135
      2591.0000         0.5829        12.8943       2148.629       173.7957        67.6556       76.31591         0.4174       -49.5999      -11.13836      0.9216151      0.8408806
      2591.5000         0.5851        12.8302       2157.305       172.8889        66.9064        75.3754          0.415       -49.5672      -11.10566      0.9016044      0.8413477
      2592.0000         0.5873        13.2055       2166.449       172.6763         66.839       75.28714         0.4126       -49.4868      -11.02526      0.8997264      0.8424963
      2592.5000         0.5899        13.3279        2175.59       173.1382         66.231       74.52315         0.4102       -49.3639      -10.90236      0.8834713       0.844252
      2593.0000         0.5934         13.181       2166.547       173.0007        64.6403       72.53075         0.4079        -49.241      -10.77946      0.8410799      0.8460077
      2593.5000         0.5954        12.8034       2155.797       172.3086        64.7017        72.6035         0.4077        -49.118      -10.65646      0.8426276      0.8477648
      2594.0000          0.596         12.746       2144.422       171.2371        65.1932       73.21387         0.4076        -48.995      -10.53346      0.8556144       0.849522
      2594.5000         0.5966        12.7459       2109.598       170.6865        63.9534       71.66012         0.4074       -48.8729      -10.41136      0.8225557      0.8512663
      2595.0000         0.5972        12.7053       2112.543       171.6428        62.7785       70.18749         0.4072        -48.751      -10.28946      0.7912232      0.8530077
      2595.5000          0.597        12.6704       2119.535       172.6382        65.2301       73.24799          0.407       -48.6293      -10.16776      0.8563403      0.8547463
      2596.0000         0.5966        12.6703       2134.309       172.6372        69.1843       78.18674         0.4069       -48.5075      -10.04596      0.9614199      0.8564863
      2596.5000         0.5962        12.6061       2162.102        171.292         71.873       81.54361         0.4081         -48.38      -9.918461              1      0.8583077
      2597.0000         0.5957        12.6516       2201.883       169.5068        73.8885       84.05898           0.41       -48.2459      -9.784359              1      0.8602235
      2597.5000         0.5968        12.6717       2221.207       167.9934        74.3593       84.64347         0.4119       -48.1118      -9.650261              1      0.8621391
      2598.0000         0.5984        12.6254        2236.59       166.6477        73.8757       84.03497         0.4139       -47.9778      -9.516258              1      0.8640534
      2598.5000         0.6006        12.4416       2249.059       167.3147        75.3492       85.87283          0.415       -47.8428       -9.38126              1       0.865982
      2599.0000         0.6041        12.3282       2260.871       168.5488        74.8821       85.28496          0.416       -47.6791       -9.21756              1      0.8683206
      2599.5000         0.6021        12.1516       2274.703       170.1545         71.944       81.60832         0.4169       -47.5154       -9.05386              1      0.8706592
      2600.0000          0.598        11.9823       2248.855       169.7949        69.0956       78.04382         0.4173       -47.3518      -8.890259       0.958379      0.8729963
      2600.5000         0.5916        11.8585       2268.203       170.3347        68.9719        77.8852          0.417       -47.1813      -8.719761      0.9550043       0.875432
      2601.0000         0.5836         11.891       2279.453       168.6726        70.7021       80.04395         0.4166       -47.0012      -8.539661              1      0.8780048
      2601.5000         0.5756        11.9813       2261.121       168.1794         70.572       79.87731         0.4163        -46.821      -8.359459      0.9973896      0.8805792
      2602.0000         0.5697        12.0854       2196.453       167.2129        69.9698       79.12056         0.4197       -46.6355      -8.173962      0.9812885      0.8832291
