#------------------------------------------------------------------------------
# Created by    : vladimir.rabinovich
# Created on    : 09/19/2023 17:19:38
#------------------------------------------------------------------------------
~Version Information Section
VERS.           2.0     :   CWLS log ASCII Standard - VERSION 2.0
WRAP.           NO      :   One line per depth step
~Well Information Section
#MNEM       .UNIT                                         VALUE :DESCRIPTION
#------------------------------------------------------------------------------
STRT        .FT                                            9400 :START DEPTH
STOP        .FT                                           17100 :STOP DEPTH
STEP        .FT                                             0.5 :STEP      
NULL        .                                           -999.25 :NULL      
COMP        .                                   FOREST OIL CORP :COMPANY   
WELL        .                               OCS G18937 ST00BP00 :WELL      
FLD         .                            HIGH ISLAND BLOCK 0116 :FIELD     
LOC         .                                                   :LOCATION  
CNTY        .                           HIGH ISLAND LARGE BLOCK :LOCATION  
STAT        .                                             TEXAS :STATE     
CTRY        .                                     UNITED STATES :COUNTRY   
SRVC        .                                                   :SERVICE COMPANY
DATE        .                             9/13/2023 11:19:48 AM :LOG DATE  
API         .                                    42708405250000 :API NUMBER
UWI         .                                    42708405250000 :UNIQUE WELL ID
XCOORD      .                                  1337259.97993026 :SURFACE X 
YCOORD      .                                  10628189.4209318 :SURFACE Y 
LAT         .                                         29.282461 :LATITUDE  
LON         .                                        -93.951246 :LONGITUDE 
ELEV        .FT                                              93 :ELEVATION VALUE
ELEV_TYPE   .                                                KB :ELEVATION REFERENCE TYPE
~Curve Information Section
#MNEM       .UNIT                                      API CODE :CURVE DESCRIPTION
#------------------------------------------------------------------------------
DEPT        .FT                                                 :DEPTH     
AHT10       .OHMM                                               :          
AHT20       .OHMM                                               :          
AHT30       .OHMM                                               :          
AHT60       .OHMM                                               :          
AHT90       .OHMM                                               :          
CALI        .IN                                                 :          
COND        .MMHO                                               :          
DTCO        .US/F                                               :          
GR          .GAPI                                               :          
GR_NORM     .GAPI                                               :GammaRay Normalized
HDRA        .G/CC                                               :          
NPOR        .FRAC                                               :          
RHOZ        .G/CC                                               :          
VSH_GR      .V/V                                                :Volume of Shale from GR
~A        DEPTH          AHT10          AHT20          AHT30          AHT60          AHT90           CALI           COND           DTCO             GR        GR_NORM           HDRA           NPOR           RHOZ         VSH_GR
# ...
     14530.0000        -999.25              1              1          1.025          1.025          6.503       975.6098           99.8         97.097       88.34335         -0.032          0.288           2.59              1
     14530.5000        -999.25          0.982          0.982          1.019          1.019          6.476       981.3542           98.5         93.411       84.47305         -0.036          0.287          2.576              1
     14531.0000        -999.25          0.968          0.968          1.015          1.015          6.471       985.2217           99.9         91.594       82.56522         -0.035          0.267          2.582              1
     14531.5000        -999.25          0.961          0.961          1.015          1.015          6.473       985.2217           96.6           90.7       81.62651         -0.036          0.296          2.585              1
     14532.0000        -999.25           0.96           0.96           1.02           1.02          6.485       980.3922           95.7         90.098       80.99441         -0.033          0.313          2.591              1
     14532.5000        -999.25          0.966          0.966          1.027          1.027          6.454       973.7099           96.8         88.787       79.61786         -0.037          0.278          2.588      0.9918693
     14533.0000        -999.25          0.978          0.978          1.033          1.033          6.501       968.0542             95         86.748       77.47691         -0.037           0.23          2.585      0.9463173
     14533.5000        -999.25          0.993          0.993           1.04           1.04          6.501       961.5385           92.5         85.458        76.1224         -0.037          0.242          2.595      0.9174978
     14534.0000        -999.25          1.009          1.009          1.044          1.044          6.501       957.8544           93.2         85.843       76.52666         -0.038          0.252          2.597      0.9260991
     14534.5000        -999.25          1.019          1.019          1.043          1.043          6.512       958.7728           94.3         84.187       74.78786         -0.039          0.251          2.603      0.8891034
     14535.0000        -999.25          1.017          1.017          1.037          1.037           6.49       964.3202           95.4         87.747       78.52586         -0.039           0.26          2.591      0.9686353
     14535.5000        -999.25          1.001          1.001          1.026          1.026          6.468       974.6589             97         89.394        80.2552          -0.04          0.273          2.582              1
     14536.0000        -999.25          0.975          0.975          1.012          1.012          6.554       988.1423           99.5         95.714        86.8912         -0.043          0.296          2.566              1
     14536.5000        -999.25          0.946          0.946          0.997          0.997          6.569       1003.009          100.3         98.861       90.19556         -0.042          0.291          2.559              1
     14537.0000        -999.25          0.922          0.922          0.981          0.981          6.578       1019.368           99.8         97.515       88.78226         -0.044          0.281          2.556              1
     14537.5000        -999.25          0.909          0.909          0.967          0.967          6.513       1034.126           99.5         97.837       89.12035         -0.041           0.28          2.556              1
     14538.0000        -999.25          0.906          0.906          0.961          0.961          6.525       1040.583           98.9         98.138       89.43641         -0.039          0.286          2.568              1
     14538.5000        -999.25          0.912          0.912          0.964          0.964          6.542       1037.344           97.4        100.688       92.11391         -0.036          0.296          2.588              1
     14539.0000        -999.25          0.927          0.927          0.977          0.977          6.608       1023.541           98.3          99.38       90.74051         -0.028          0.229          2.627              1
     14539.5000        -999.25           0.95           0.95          1.003          1.003            6.7        997.009           95.7         95.844       87.02771         -0.025          0.142          2.643              1
     14540.0000        -999.25          0.982          0.982          1.032          1.032          6.712       968.9923           86.9         96.229       87.43195         -0.024          0.121          2.653              1
     14540.5000        -999.25          1.018          1.018          1.053          1.053          6.682       949.6677             89         85.703       76.37966         -0.026          0.155          2.639      0.9229715
     14541.0000        -999.25           1.05           1.05          1.068          1.068           6.55       936.3297             87         80.888        71.3239         -0.034           0.16          2.613      0.8154021
     14541.5000        -999.25           1.07           1.07          1.088          1.088           6.42       919.1176           89.5          79.16       69.50951         -0.044          0.169          2.577      0.7767982
     14542.0000        -999.25          1.074          1.074          1.105          1.105          6.647       904.9774           96.6         90.897       81.83335         -0.048          0.215          2.556              1
     14542.5000        -999.25          1.063          1.063          1.097          1.097          6.682        911.577             94         93.984        85.0747         -0.047          0.248          2.559              1
     14543.0000        -999.25          1.042          1.042          1.061          1.061          6.897       942.5071           93.6         91.039       81.98246         -0.046          0.234          2.564              1
     14543.5000        -999.25          1.013          1.013          1.023          1.023          6.656       977.5171           95.3         89.317       80.17436         -0.042          0.281          2.567              1
     14544.0000        -999.25          0.979          0.979          0.993          0.993          6.681       1007.049           95.5         92.868        83.9029          -0.04          0.311          2.567              1
     14544.5000        -999.25          0.942          0.942          0.966          0.966          6.746       1035.197           93.5         99.702       91.07861         -0.041          0.293          2.566              1
     14545.0000        -999.25          0.907          0.907          0.938          0.938           6.78       1066.098           93.9        104.426       96.03881         -0.043          0.299           2.57              1
     14545.5000        -999.25          0.877          0.877          0.914          0.914           6.78       1094.092           99.8        105.236       96.88931         -0.042          0.285          2.571              1
     14546.0000        -999.25          0.853          0.853          0.899          0.899          6.782       1112.347          100.1        103.018        94.5604         -0.043           0.29          2.567              1
     14546.5000        -999.25          0.837          0.837          0.894          0.894          6.635       1118.568           99.9         99.113       90.46016         -0.043          0.287          2.571              1
     14547.0000        -999.25          0.833          0.833          0.896          0.896          6.617       1116.071           98.8         99.765       91.14475         -0.039          0.288          2.575              1
     14547.5000        -999.25          0.841          0.841          0.902          0.902          6.642       1108.647           97.3        100.951       92.39005         -0.032          0.293          2.583              1
