#------------------------------------------------------------------------------
# Created by    : vladimir.rabinovich
# Created on    : 09/19/2023 17:19:50
#------------------------------------------------------------------------------
~Version Information Section
VERS.           2.0     :   CWLS log ASCII Standard - VERSION 2.0
WRAP.           NO      :   One line per depth step
~Well Information Section
#MNEM       .UNIT                                         VALUE :DESCRIPTION
#------------------------------------------------------------------------------
STRT        .FT                                             880 :START DEPTH
STOP        .FT                                            8374 :STOP DEPTH
STEP        .FT                                             0.5 :STEP      
NULL        .                                           -999.25 :NULL      
COMP        .                                        EXXON CORP :COMPANY   
WELL        .                               OCS G04552 ST00BP00 :WELL      
FLD         .                                 BRAZOS BLOCK 0451 :FIELD     
LOC         .                                                   :LOCATION  
CNTY        .                                BRAZOS LARGE BLOCK :LOCATION  
STAT        .                                             TEXAS :STATE     
CTRY        .                                     UNITED STATES :COUNTRY   
SRVC        .                                                   :SERVICE COMPANY
DATE        .                             9/13/2023 11:19:08 AM :LOG DATE  
API         .                                    42704401130000 :API NUMBER
UWI         .                                    42704401130000 :UNIQUE WELL ID
XCOORD      .                                  760277.642000753 :SURFACE X 
YCOORD      .                                  10343629.6463693 :SURFACE Y 
LAT         .                                         28.475327 :LATITUDE  
LON         .                                        -95.739931 :LONGITUDE 
ELEV        .FT                                              95 :ELEVATION VALUE
ELEV_TYPE   .                                                KB :ELEVATION REFERENCE TYPE
~Curve Information Section
#MNEM       .UNIT                                      API CODE :CURVE DESCRIPTION
#------------------------------------------------------------------------------
DEPT        .FT                                                 :DEPTH     
ASFL        .OHMM                                               :          
CALI        .IN                                                 :          
CILD        .MMHO                                               :          
DT          .US/F                                               :          
GR          .GAPI                                               :          
GR_NORM     .GAPI                                               :GammaRay Normalized
ILD         .OHMM                                               :          
ILM         .OHMM                                               :          
RHOB        .G/C3                                               :          
SP          .MV                                                 :          
SP_NORM     .MV                                                 :SP Normalized
VSH_GR      .V/V                                                :Volume of Shale from GR
VSH_SP      .V/V                                                :Volume of Shale from SP
~A        DEPTH           ASFL           CALI           CILD             DT             GR        GR_NORM            ILD            ILM           RHOB             SP        SP_NORM         VSH_GR         VSH_SP
# ...
      2495.0000          0.949        -999.25       1676.525        137.043        53.0735       76.00659         0.5873         0.6043        -999.25       -61.2135       -19.1843      0.9150339      0.5203925
      2495.5000         0.9477        -999.25       1645.994       133.6812        54.4585       77.93906         0.5903         0.6161        -999.25       -59.9492       -17.9416      0.9561503        0.55146
      2496.0000         0.9464        -999.25       1609.242       132.8574        55.7439        79.7327         0.5933         0.6295        -999.25       -58.8824       -16.8965      0.9943129      0.5775875
      2496.5000         0.9451        -999.25       1572.453       133.4216        56.8066       81.21597         0.5964         0.6431        -999.25       -57.9808       -16.0164              1        0.59959
      2497.0000         0.9438        -999.25       1540.613       134.5264        57.3222       81.93684         0.5995         0.6561        -999.25       -57.4049       -15.4621              1      0.6134475
      2497.5000         0.9423        -999.25       1518.113       134.7903         57.595       82.31917         0.6028         0.6692        -999.25       -57.0217       -15.1005              1      0.6224875
      2498.0000         0.9466        -999.25        1499.82       134.0637        57.4415        82.1073         0.6057          0.679        -999.25       -56.7224       -14.8228              1        0.62943
      2498.5000         0.9539        -999.25       1505.234       132.9612        56.6263       80.97317         0.6056         0.6842        -999.25       -56.5547       -14.6767              1      0.6330825
      2499.0000         0.9616        -999.25       1523.604       132.6077        55.5332       79.45173         0.6055         0.6825        -999.25       -56.5128       -14.6564      0.9883347        0.63359
      2499.5000         0.9707        -999.25       1541.979       133.1641        54.3119       77.75162         0.6034         0.6705        -999.25       -56.4734       -14.6386      0.9521621       0.634035
      2500.0000         0.9791        -999.25        1561.84       135.5974        53.4213        76.5124         0.6011         0.6561        -999.25       -56.5408       -14.7276      0.9257957        0.63181
      2500.5000         0.9649        -999.25       1594.273        138.031         53.166        76.1588         0.5992         0.6365        -999.25       -56.6576        -14.866      0.9182723        0.62835
      2501.0000         0.9507        -999.25       1626.693       139.6235        52.9107       75.80505         0.5973         0.6192        -999.25       -56.9752       -15.2052      0.9107457        0.61987
      2501.5000         0.9358        -999.25       1659.391       140.8447        52.6554       75.45131         0.5983         0.6056        -999.25       -57.2061       -15.4577      0.9032193      0.6135575
      2502.0000         0.9265        -999.25       1689.986       141.5808        52.4001       75.09757         0.5995         0.5964        -999.25       -57.3088        -15.582       0.895693        0.61045
      2502.5000         0.9295        -999.25       1682.268       142.2463        52.1448       74.74381         0.6007         0.5902        -999.25       -57.4705       -15.7653      0.8881662      0.6058675
      2503.0000         0.9325        -999.25       1660.297       142.8528        51.9289         74.445         0.6053         0.5905        -999.25       -57.5128       -15.8292      0.8818085        0.60427
      2503.5000         0.9355        -999.25        1638.34       143.3582        52.5437       75.30413          0.611         0.5994        -999.25       -57.3692       -15.7072      0.9000879        0.60732
      2504.0000         0.9385        -999.25       1609.672       143.1965         53.384       76.47742         0.6167         0.6142        -999.25       -57.2256       -15.5852      0.9250515        0.61037
      2504.5000         0.9415        -999.25       1579.529        141.082        54.2244       77.65083         0.6239         0.6334        -999.25       -56.9199       -15.3011      0.9500178      0.6174725
      2505.0000         0.9445        -999.25       1549.375       138.7219        55.2495       79.08167         0.6312         0.6508        -999.25       -56.5167       -14.9195      0.9804611      0.6270125
      2505.5000         0.9438        -999.25       1520.809       137.1829        56.5865       80.94726         0.6416         0.6684        -999.25       -56.1134       -14.5378              1       0.636555
      2506.0000         0.9427        -999.25       1492.342       136.1812        57.9797       82.89117         0.6525         0.6735        -999.25       -55.7176       -14.1636              1        0.64591
      2506.5000         0.9416        -999.25       1471.668       135.8342        59.9194       85.59676         0.6625         0.6787        -999.25        -55.609       -14.0766              1       0.648085
      2507.0000         0.9408        -999.25       1454.758       135.5999        60.3015       86.13155         0.6699         0.6793        -999.25       -55.5004       -13.9896              1        0.65026
      2507.5000         0.9414        -999.25        1437.85       135.2163        60.0291         85.754         0.6766         0.6792        -999.25       -55.3918       -13.9026              1       0.652435
      2508.0000         0.9421        -999.25       1424.771       134.5669        59.7623       85.38421         0.6834         0.6789        -999.25       -55.2833       -13.8157              1      0.6546075
      2508.5000         0.9427        -999.25       1413.957       135.4436        59.5266       85.05779         0.6905         0.6783        -999.25       -55.1707       -13.7247              1      0.6568825
      2509.0000         0.9417        -999.25       1403.141       137.0425        59.2908       84.73122         0.6976         0.6777        -999.25       -55.0452       -13.6208              1        0.65948
      2509.5000         0.9393        -999.25       1394.072       138.7861        59.3143       84.76608         0.7035         0.6794        -999.25       -54.9197       -13.5169              1      0.6620775
      2510.0000         0.9368        -999.25        1385.42       140.4355         59.535        85.0759         0.7085         0.6814        -999.25       -54.7979       -13.4167              1      0.6645825
      2510.5000         0.9483        -999.25       1377.602       138.7925        59.7556       85.38547         0.7135         0.6838        -999.25       -54.7523       -13.3927              1      0.6651825
      2511.0000         0.9689        -999.25       1371.064       135.9863        59.9761       85.69488         0.7165         0.6863        -999.25       -54.7067       -13.3687              1      0.6657825
      2511.5000         0.9659        -999.25       1365.896       133.1777        60.1304       85.91203         0.7164         0.6903        -999.25       -54.6573       -13.3409              1      0.6664775
      2512.0000         0.9539        -999.25       1366.738        130.301        60.1742       85.97517         0.7163         0.6943        -999.25       -54.6031       -13.3083              1      0.6672925
      2512.5000         0.9324        -999.25       1368.754        132.186        60.2928       86.14256         0.7163         0.6954        -999.25       -54.5476       -13.2744              1        0.66814
      2513.0000         0.9135        -999.25       1375.703       135.3835        60.5035       86.43832         0.7162         0.6959        -999.25        -54.488       -13.2364              1        0.66909
      2513.5000         0.9044        -999.25       1397.031       138.1948        60.8843       86.97131         0.7115         0.6924        -999.25       -54.5203       -13.2903              1      0.6677425
