#------------------------------------------------------------------------------
# Created by    : vladimir.rabinovich
# Created on    : 09/19/2023 17:20:35
#------------------------------------------------------------------------------
~Version Information Section
VERS.           2.0     :   CWLS log ASCII Standard - VERSION 2.0
WRAP.           NO      :   One line per depth step
~Well Information Section
#MNEM       .UNIT                                         VALUE :DESCRIPTION
#------------------------------------------------------------------------------
STRT        .FT                                             504 :START DEPTH
STOP        .FT                                            9361 :STOP DEPTH
STEP        .FT                                             0.5 :STEP      
NULL        .                                           -999.25 :NULL      
COMP        .                                      SHELL OIL CO :COMPANY   
WELL        .                                OCS 00704 ST00BP00 :WELL      
FLD         .                                           WILDCAT :FIELD     
LOC         .                                                   :LOCATION  
CNTY        .                             GALVESTON LARGE BLOCK :LOCATION  
STAT        .                                             TEXAS :STATE     
CTRY        .                                     UNITED STATES :COUNTRY   
SRVC        .                                                   :SERVICE COMPANY
DATE        .                             9/13/2023 11:19:25 AM :LOG DATE  
API         .                                    42706000430000 :API NUMBER
UWI         .                                    42706000430000 :UNIQUE WELL ID
XCOORD      .                                  1136254.96267488 :SURFACE X 
YCOORD      .                                  10526383.5552877 :SURFACE Y 
LAT         .                                         28.996505 :LATITUDE  
LON         .                                        -94.577519 :LONGITUDE 
ELEV        .FT                                              42 :ELEVATION VALUE
ELEV_TYPE   .                                                KB :ELEVATION REFERENCE TYPE
~Curve Information Section
#MNEM       .UNIT                                      API CODE :CURVE DESCRIPTION
#------------------------------------------------------------------------------
DEPT        .FT                                                 :DEPTH     
ASN         .OHMM                                               :          
DT          .US/F                                               :          
LN          .OHMM                                               :          
SP          .MV                                                 :          
SP_NORM     .MV                                                 :SP Normalized
VSH_SP      .V/V                                                :Volume of Shale from SP
~A        DEPTH            ASN             DT             LN             SP        SP_NORM         VSH_SP
# ...
      9320.0000         1.4109        91.7818        -999.25         -49.65      -3.308537       0.935874
      9320.5000         1.3897        91.7392        -999.25       -48.8947      -2.553234      0.9568546
      9321.0000         1.3676        94.8786        -999.25       -48.3817      -2.040234      0.9711046
      9321.5000         1.3473        98.1411        -999.25       -47.8688      -1.527336      0.9853518
      9322.0000          1.327            100        -999.25       -47.6577      -1.316235      0.9912157
      9322.5000         1.3109           96.8        -999.25       -47.7228      -1.381336      0.9894073
      9323.0000         1.2973        96.9444        -999.25       -48.1218      -1.780334      0.9783241
      9323.5000         1.2928        99.1416        -999.25       -48.5214      -2.179935       0.967224
      9324.0000         1.2938        97.8653        -999.25        -48.921      -2.579536       0.956124
      9324.5000          1.297        95.8545        -999.25       -49.2612      -2.919735       0.946674
      9325.0000         1.3002        94.9818        -999.25       -49.2722      -2.930737      0.9463685
      9325.5000         1.3034        94.5724        -999.25       -49.2831      -2.941635      0.9460657
      9326.0000         1.3066        95.7091        -999.25       -49.0327      -2.691235      0.9530213
      9326.5000         1.3154        95.9273        -999.25       -48.6797      -2.338234      0.9628268
      9327.0000           1.33        93.0705        -999.25       -48.3267      -1.985233      0.9726324
      9327.5000         1.3446        93.1713        -999.25       -47.9737      -1.632236      0.9824378
      9328.0000         1.3626        97.3174        -999.25       -47.8286      -1.487137      0.9864684
      9328.5000         1.3957        92.0727        -999.25       -47.9998      -1.658337      0.9817129
      9329.0000          1.424        90.8066        -999.25       -48.2128      -1.871334      0.9757963
      9329.5000         1.4458           90.4        -999.25       -48.6915      -2.350037       0.962499
      9330.0000         1.4497        92.4268        -999.25       -49.1702      -2.828735      0.9492018
      9330.5000         1.4382       101.7947        -999.25       -49.2825      -2.941036      0.9460824
      9331.0000         1.3812        99.9273        -999.25        -49.156      -2.814533      0.9495963
      9331.5000         1.2859        99.8545        -999.25       -49.0295      -2.688034      0.9531102
      9332.0000         1.1812       102.3691        -999.25       -48.9029      -2.561436      0.9566268
      9332.5000         1.1684       104.7532        -999.25       -48.8345      -2.493034      0.9585268
      9333.0000           1.16       105.6105        -999.25       -48.7808      -2.439335      0.9600185
      9333.5000         1.1516       105.6727        -999.25        -48.727      -2.385536      0.9615129
      9334.0000         1.1454       107.7818        -999.25       -48.6732      -2.331734      0.9630074
      9334.5000         1.1405       106.0701        -999.25       -48.6194      -2.277935      0.9645018
      9335.0000         1.1378       103.7818        -999.25       -48.5987      -2.257236      0.9650767
      9335.5000          1.147       103.6364        -999.25       -48.5881      -2.246635      0.9653713
      9336.0000         1.1561       103.5416        -999.25       -48.5774      -2.235935      0.9656684
      9336.5000         1.1856       101.2364        -999.25       -48.5667      -2.225235      0.9659657
      9337.0000         1.2205       101.5273        -999.25       -48.5561      -2.214634      0.9662602
      9337.5000          1.258       103.6058        -999.25       -48.4633      -2.121834       0.968838
      9338.0000          1.292       104.2182        -999.25       -48.2905      -1.949036      0.9736379
      9338.5000         1.3179       101.4477        -999.25       -48.1177      -1.776234       0.978438
      9339.0000         1.3449         95.104        -999.25       -48.0511      -1.709637      0.9802878
      9339.5000         1.3854        88.7604        -999.25       -48.2122      -1.870735      0.9758129
      9340.0000          1.389        82.6556        -999.25        -48.373      -2.031536      0.9713462
      9340.5000         1.3628        81.8182        -999.25       -48.5341      -2.192635      0.9668713
      9341.0000         1.3344        88.3643        -999.25         -48.59      -2.248535      0.9653184
      9341.5000         1.2983       100.2525        -999.25       -48.6246      -2.283134      0.9643574
      9342.0000         1.2912       104.3636        -999.25       -48.6593      -2.317837      0.9633934
      9342.5000         1.2841       103.4905        -999.25       -48.6939      -2.352436      0.9624323
      9343.0000         1.2769       100.7636        -999.25       -48.7283      -2.386833      0.9614769
      9343.5000         1.2725        99.4182        -999.25       -48.7618      -2.420334      0.9605463
      9344.0000         1.2691       101.7455        -999.25       -48.7952      -2.453735      0.9596184
      9344.5000         1.2656       102.1924        -999.25       -48.8286      -2.487137      0.9586906
      9345.0000         1.2623       102.1818        -999.25       -48.9005      -2.559036      0.9566934
      9345.5000         1.2612       101.8909        -999.25       -49.0593      -2.717834      0.9522824
      9346.0000         1.2602        97.9636        -999.25       -49.2179      -2.876434      0.9478768
      9346.5000         1.2591        96.5809        -999.25       -49.2543      -2.912834      0.9468657
      9347.0000         1.2581        97.3818        -999.25       -49.1309      -2.789436      0.9502934
      9347.5000          1.257        97.3818        -999.25       -49.0076      -2.666134      0.9537185
      9348.0000         1.2549        98.0207        -999.25       -48.8222      -2.480736      0.9588684
      9348.5000         1.2523       100.3781        -999.25        -48.554      -2.212536      0.9663184
      9349.0000         1.2498        98.9576        -999.25       -48.2863      -1.944836      0.9737546
      9349.5000         1.2463        98.5455        -999.25       -48.0186      -1.677135      0.9811907
      9350.0000         1.2329       103.7818        -999.25       -47.8003      -1.458836      0.9872546
      9350.5000         1.2195       102.6163        -999.25       -48.1802      -1.838734      0.9767019
      9351.0000         1.2062        99.7091        -999.25       -48.5607      -2.219234      0.9661324
      9351.5000         1.2022          101.6        -999.25       -48.9407      -2.599236      0.9555768
      9352.0000         1.1989           96.8        -999.25       -49.2355      -2.894035      0.9473879
      9352.5000         1.1956       102.1179        -999.25       -49.4525      -3.111034      0.9413602
      9353.0000         1.1923          103.2        -999.25       -49.6691      -3.327637      0.9353434
      9353.5000         1.1885        98.6956        -999.25       -49.7142      -3.372734      0.9340907
      9354.0000         1.1845        94.3273        -999.25       -49.5302      -3.188736      0.9392018
      9354.5000         1.1805         97.277        -999.25       -49.3461      -3.004635      0.9443157
      9355.0000         1.1765        -999.25        -999.25       -48.7824      -2.440933      0.9599741
      9355.5000         1.1725        -999.25        -999.25       -48.1448      -1.803333      0.9776852
      9356.0000         1.1666        -999.25        -999.25       -47.9395      -1.598034      0.9833879
      9356.5000         1.1563        -999.25        -999.25       -48.5624      -2.220936      0.9660851
      9357.0000          1.146        -999.25        -999.25       -49.1865      -2.845036       0.948749
      9357.5000          1.133        -999.25        -999.25       -49.8509      -3.509434      0.9302935
