#------------------------------------------------------------------------------
# Created by    : vladimir.rabinovich
# Created on    : 09/19/2023 17:22:25
#------------------------------------------------------------------------------
~Version Information Section
VERS.           2.0     :   CWLS log ASCII Standard - VERSION 2.0
WRAP.           NO      :   One line per depth step
~Well Information Section
#MNEM       .UNIT                                         VALUE :DESCRIPTION
#------------------------------------------------------------------------------
STRT        .FT                                            3984 :START DEPTH
STOP        .FT                                           14348 :STOP DEPTH
STEP        .FT                                             0.5 :STEP      
NULL        .                                           -999.25 :NULL      
COMP        .                                  CNG PRODUCING CO :COMPANY   
WELL        .                               OCS G07292 ST00BP00 :WELL      
FLD         .                                           WILDCAT :FIELD     
LOC         .                                                   :LOCATION  
CNTY        .                           HIGH ISLAND LARGE BLOCK :LOCATION  
STAT        .                                             TEXAS :STATE     
CTRY        .                                     UNITED STATES :COUNTRY   
SRVC        .                                                   :SERVICE COMPANY
DATE        .                             9/13/2023 11:19:59 AM :LOG DATE  
API         .                                    42708402890000 :API NUMBER
UWI         .                                    42708402890000 :UNIQUE WELL ID
XCOORD      .                                  1158246.84135722 :SURFACE X 
YCOORD      .                                  10525039.0147689 :SURFACE Y 
LAT         .                                         28.993597 :LATITUDE  
LON         .                                        -94.508673 :LONGITUDE 
ELEV        .FT                                             101 :ELEVATION VALUE
ELEV_TYPE   .                                                KB :ELEVATION REFERENCE TYPE
~Curve Information Section
#MNEM       .UNIT                                      API CODE :CURVE DESCRIPTION
#------------------------------------------------------------------------------
DEPT        .FT                                                 :DEPTH     
CALX        .IN                                                 :          
DTL         .US/F                                               :          
GR          .GAPI                                               :          
GR_NORM     .GAPI                                               :GammaRay Normalized
ILD         .OHMM                                               :          
ILM         .OHMM                                               :          
LL3         .OHMM                                               :          
SP          .MV                                                 :          
SP_NORM     .MV                                                 :SP Normalized
VSH_GR      .V/V                                                :Volume of Shale from GR
VSH_SP      .V/V                                                :Volume of Shale from SP
~A        DEPTH           CALX            DTL             GR        GR_NORM            ILD            ILM            LL3             SP        SP_NORM         VSH_GR         VSH_SP
# ...
     14334.0000        -999.25       148.2927        -999.25       77.35364          0.355         0.3782         0.5395       -42.4487     -0.6904602      0.9436944      0.9901363
     14334.5000        -999.25       149.4412        -999.25       78.14972         0.3497         0.3734         0.5288       -41.4813      0.2769394      0.9606323              1
     14335.0000        -999.25       155.2942        -999.25       77.79525         0.3465         0.3692         0.5197       -41.8826     -0.1243591      0.9530904      0.9982234
     14335.5000        -999.25       163.8462        -999.25       80.04019         0.3435         0.3673         0.5182       -42.3862     -0.6279602              1      0.9910291
     14336.0000        -999.25        -999.25        -999.25       82.32226         0.3423         0.3664         0.5121       -42.1939     -0.4356613              1      0.9937763
     14336.5000        -999.25        -999.25        -999.25       79.49943         0.3429         0.3674         0.5139       -41.9241     -0.1658592      0.9893495      0.9976306
     14337.0000        -999.25        -999.25        -999.25       79.07285         0.3451         0.3669         0.5263        -41.731     0.02724075      0.9802733              1
     14337.5000        -999.25        -999.25        -999.25       81.32204         0.3505         0.3705         0.5184       -42.2977     -0.5394592              1      0.9922934
     14338.0000        -999.25        -999.25        -999.25       82.91183         0.3572         0.3785         0.5637       -42.4713     -0.7130585              1      0.9898134
     14338.5000        -999.25        -999.25        -999.25       78.30917          0.364         0.3869         0.5289       -41.6794     0.07883835      0.9640248              1
     14339.0000        -999.25        -999.25        -999.25       79.01667         0.3696         0.3952         0.5075       -41.8687     -0.1104584      0.9790781       0.998422
     14339.5000        -999.25        -999.25        -999.25       79.85849         0.3751         0.4051         0.5178       -41.5706      0.1876411      0.9969891              1
     14340.0000        -999.25        -999.25        -999.25       83.01266         0.3798         0.4138         0.5636       -41.5768      0.1814384              1              1
     14340.5000        -999.25        -999.25        -999.25        -999.25         0.3828         0.4209         0.5851       -41.8159    -0.05765915        -999.25      0.9991763
     14341.0000        -999.25        -999.25        -999.25        -999.25         0.3852         0.4255         0.5658       -42.1222     -0.3639603        -999.25      0.9948006
     14341.5000        -999.25        -999.25        -999.25        -999.25         0.3873         0.4269         0.5462       -42.3971     -0.6388588        -999.25      0.9908735
     14342.0000        -999.25        -999.25        -999.25        -999.25         0.3891          0.427         0.5941       -42.4309     -0.6726608        -999.25      0.9903905
     14342.5000        -999.25        -999.25        -999.25        -999.25         0.3902         0.4244         0.5371       -42.4971     -0.7388611        -999.25      0.9894449
     14343.0000        -999.25        -999.25        -999.25        -999.25         0.3911         0.4211          0.574       -42.7619      -1.003662        -999.25       0.985662
     14343.5000        -999.25        -999.25        -999.25        -999.25         0.3919         0.4196         0.5878       -42.6927     -0.9344597        -999.25      0.9866506
     14344.0000        -999.25        -999.25        -999.25        -999.25         0.3929         0.4172         0.5584       -42.6669     -0.9086609        -999.25      0.9870191
     14344.5000        -999.25        -999.25        -999.25        -999.25         0.3933         0.4156         0.5261       -42.6836     -0.9253616        -999.25      0.9867805
     14345.0000        -999.25        -999.25        -999.25        -999.25         0.3939         0.4163         0.5545       -42.6492     -0.8909607        -999.25       0.987272
     14345.5000        -999.25        -999.25        -999.25        -999.25         0.3954         0.4168         0.5926       -42.6487      -0.890461        -999.25      0.9872791
     14346.0000        -999.25        -999.25        -999.25        -999.25         0.3961          0.416          0.557       -42.5197     -0.7614594        -999.25       0.989122
     14346.5000        -999.25        -999.25        -999.25        -999.25         0.3961         0.4146         0.4985       -42.3927     -0.6344604        -999.25      0.9909363
     14347.0000        -999.25        -999.25        -999.25        -999.25         0.3961         0.4131         0.5044       -42.7619      -1.003662        -999.25       0.985662
     14347.5000        -999.25        -999.25        -999.25        -999.25         0.3961         0.4122         0.5433       -42.8047      -1.046459        -999.25      0.9850506
     14348.0000        -999.25        -999.25        -999.25        -999.25          0.396         0.4117         0.5556       -42.8242       -1.06596        -999.25       0.984772
