#------------------------------------------------------------------------------
# Created by    : vladimir.rabinovich
# Created on    : 09/19/2023 17:22:42
#------------------------------------------------------------------------------
~Version Information Section
VERS.           2.0     :   CWLS log ASCII Standard - VERSION 2.0
WRAP.           NO      :   One line per depth step
~Well Information Section
#MNEM       .UNIT                                         VALUE :DESCRIPTION
#------------------------------------------------------------------------------
STRT        .FT                                              96 :START DEPTH
STOP        .FT                                            7107 :STOP DEPTH
STEP        .FT                                             0.5 :STEP      
NULL        .                                           -999.25 :NULL      
COMP        .                                  XTO OFFSHORE INC :COMPANY   
WELL        .                               OCS G23162 ST00BP00 :WELL      
FLD         .                                 BRAZOS BLOCK 0398 :FIELD     
LOC         .                                                   :LOCATION  
CNTY        .                                BRAZOS LARGE BLOCK :LOCATION  
STAT        .                                             TEXAS :STATE     
CTRY        .                                     UNITED STATES :COUNTRY   
SRVC        .                                                   :SERVICE COMPANY
DATE        .                             9/13/2023 11:18:28 AM :LOG DATE  
API         .                                    42704403370000 :API NUMBER
UWI         .                                    42704403370000 :UNIQUE WELL ID
XCOORD      .                                  864551.184430364 :SURFACE X 
YCOORD      .                                  10381025.1526549 :SURFACE Y 
LAT         .                                        28.5842785 :LATITUDE  
LON         .                                       -95.4179199 :LONGITUDE 
ELEV        .FT                                             100 :ELEVATION VALUE
ELEV_TYPE   .                                                KB :ELEVATION REFERENCE TYPE
~Curve Information Section
#MNEM       .UNIT                                      API CODE :CURVE DESCRIPTION
#------------------------------------------------------------------------------
DEPT        .FT                                                 :DEPTH     
DCAL        .IN                                                 :          
DPHI        .FRAC                                               :          
DT          .US/F                                               :          
GR          .GAPI                                               :          
GR_NORM     .GAPI                                               :GammaRay Normalized
HT01        .OHMM                                               :          
HT02        .OHMM                                               :          
HT03        .OHMM                                               :          
HT06        .OHMM                                               :          
HT09        .OHMM                                               :          
HT12        .OHMM                                               :          
NPHI        .FRAC                                               :          
RWA         .OHMM                                               :          
SP          .MV                                                 :          
TENS        .LB                                                 :          
VSH_GR      .V/V                                                :Volume of Shale from GR
~A        DEPTH           DCAL           DPHI             DT             GR        GR_NORM           HT01           HT02           HT03           HT06           HT09           HT12           NPHI            RWA             SP           TENS         VSH_GR
        96.0000        -999.25        -999.25        -999.25        20.4755       78.28396       1480.593       176.3519           2000       1340.069       237.4263       237.4265        -999.25        -999.25        -999.25       576.7281      0.9634885
        96.5000        -999.25        -999.25        -999.25        17.2384       74.68719       1480.593       176.3519           2000       1340.069       237.4263       237.4265        -999.25        -999.25        -999.25       575.1694      0.8869614
        97.0000        -999.25        -999.25        -999.25        15.2494       72.47719       1480.593       176.3519           2000       1340.069       237.4263       237.4265        -999.25        -999.25        -999.25       571.4285      0.8399402
        97.5000        -999.25        -999.25        -999.25        17.9404       75.46719       1480.593       176.3519           2000       1340.069       237.4263       237.4265        -999.25        -999.25        -999.25       567.9993      0.9035571
        98.0000        -999.25        -999.25        -999.25        20.1635        77.9373       1480.593       176.3519           2000       1340.069       237.4263       237.4265        -999.25        -999.25        -999.25       567.6876      0.9561128
        98.5000        -999.25        -999.25        -999.25        20.0595       77.82174       1480.593       176.3519           2000       1340.069       237.4263       237.4265        -999.25        -999.25        -999.25       567.6876      0.9536541
        99.0000        -999.25        -999.25        -999.25        21.6195       79.55507       1480.593       176.3519           2000       1340.069       237.4263       237.4265        -999.25        -999.25        -999.25        565.817      0.9905334
        99.5000        -999.25        -999.25        -999.25        23.4006       81.53408       1480.593       176.3519           2000       1340.069       237.4263       237.4265        -999.25        -999.25        -999.25       563.9465              1
       100.0000        -999.25        -999.25        -999.25        21.6585        79.5984       1480.593       176.3519           2000       1340.069       237.4263       237.4265        -999.25        -999.25        -999.25       563.0114      0.9914554
       100.5000        -999.25        -999.25        -999.25        18.4475       76.03062       1480.593       176.3519           2000       1340.069       237.4263       237.4265        -999.25        -999.25        -999.25       563.0114      0.9155452
       101.0000        -999.25        -999.25        -999.25        17.1994       74.64385       1480.593       176.3519           2000       1340.069       237.4263       237.4265        -999.25        -999.25        -999.25       563.0114      0.8860394
       101.5000        -999.25        -999.25        -999.25        16.8874       74.29719       1480.593       176.3519           2000       1340.069       237.4263       237.4265        -999.25        -999.25        -999.25       563.0114      0.8786636
       102.0000        -999.25        -999.25        -999.25        16.8094       74.21052       1480.593       176.3519           2000       1340.069       237.4263       237.4265        -999.25        -999.25        -999.25       563.9465      0.8768196
       102.5000        -999.25        -999.25        -999.25        17.4984       74.97608       1480.593       176.3519           2000       1340.069       237.4263       237.4265        -999.25        -999.25        -999.25        565.817      0.8931081
       103.0000        -999.25        -999.25        -999.25        18.9285       76.56508       1480.593       176.3519           2000       1340.069       237.4263       237.4265        -999.25        -999.25        -999.25       567.6876      0.9269165
       103.5000        -999.25        -999.25        -999.25        19.4615        77.1573       1480.593       176.3519           2000       1340.069       237.4263       237.4265        -999.25        -999.25        -999.25        569.558      0.9395169
       104.0000        -999.25        -999.25        -999.25        18.8505       76.47841       1480.593       176.3519           2000       1340.069       237.4263       237.4265        -999.25        -999.25        -999.25       571.4285      0.9250726
       104.5000        -999.25        -999.25        -999.25        19.2795       76.95507       1480.593       176.3519           2000       1340.069       237.4263       237.4265        -999.25        -999.25        -999.25        572.052      0.9352143
       105.0000        -999.25        -999.25        -999.25        20.9175       78.77507       1480.593       176.3519           2000       1340.069       237.4263       237.4265        -999.25        -999.25        -999.25       571.1167      0.9739377
       105.5000        -999.25        -999.25        -999.25        22.5296       80.56629       1480.593       176.3519           2000       1340.069       237.4263       237.4265        -999.25        -999.25        -999.25       568.3109              1
       106.0000        -999.25        -999.25        -999.25        22.7376       80.79741       1480.593       176.3519           2000       1340.069       237.4263       237.4265        -999.25        -999.25        -999.25       564.8817              1
       106.5000        -999.25        -999.25        -999.25        20.9565       78.81841       1480.593       176.3519           2000       1340.069       237.4263       237.4265        -999.25        -999.25        -999.25       563.0114      0.9748597
       107.0000        -999.25        -999.25        -999.25        18.4475       76.03062       1480.593       176.3519           2000       1340.069       237.4263       237.4265        -999.25        -999.25        -999.25       563.0114      0.9155452
       107.5000        -999.25        -999.25        -999.25        17.2254       74.67274       1480.593       176.3519           2000       1340.069       237.4263       237.4265        -999.25        -999.25        -999.25       563.0114       0.886654
       108.0000        -999.25        -999.25        -999.25        17.8104       75.32274       1480.593       176.3519           2000       1340.069       237.4263       237.4265        -999.25        -999.25        -999.25       563.0114      0.9004838
       108.5000        -999.25        -999.25        -999.25        19.7865       77.51842       1480.593       176.3519           2000       1340.069       237.4263       237.4265        -999.25        -999.25        -999.25       563.0114      0.9472004
       109.0000        -999.25        -999.25        -999.25        20.6315        78.4573       1480.593       176.3519           2000       1340.069       237.4263       237.4265        -999.25        -999.25        -999.25        563.323      0.9671766
       109.5000        -999.25        -999.25        -999.25        21.8535       79.81508       1480.593       176.3519           2000       1340.069       237.4263       237.4265        -999.25        -999.25        -999.25       563.9465      0.9960655
       110.0000        -999.25        -999.25        -999.25        23.9206       82.11185       1480.593       176.3519           2000       1340.069       237.4263       237.4265        -999.25        -999.25        -999.25       563.9465              1
       110.5000        -999.25        -999.25        -999.25        23.2576       81.37519       1480.593       176.3519           2000       1340.069       237.4263       237.4265        -999.25        -999.25        -999.25       564.5701              1
       111.0000        -999.25        -999.25        -999.25        20.3585       78.15396       1480.593       176.3519           2000       1340.069       237.4263       237.4265        -999.25        -999.25        -999.25       565.5052      0.9607226
       111.5000        -999.25        -999.25        -999.25        17.3684       74.83163       1480.593       176.3519           2000       1340.069       237.4263       237.4265        -999.25        -999.25        -999.25       567.3757      0.8900346
