#------------------------------------------------------------------------------
# Created by    : vladimir.rabinovich
# Created on    : 09/19/2023 17:22:26
#------------------------------------------------------------------------------
~Version Information Section
VERS.           2.0     :   CWLS log ASCII Standard - VERSION 2.0
WRAP.           NO      :   One line per depth step
~Well Information Section
#MNEM       .UNIT                                         VALUE :DESCRIPTION
#------------------------------------------------------------------------------
STRT        .FT                                            3450 :START DEPTH
STOP        .FT                                            9344 :STOP DEPTH
STEP        .FT                                             0.5 :STEP      
NULL        .                                           -999.25 :NULL      
COMP        .                                  W&T OFFSHORE INC :COMPANY   
WELL        .                               OCS G04565 ST00BP00 :WELL      
FLD         .                              GALVESTON BLOCK 0303 :FIELD     
LOC         .                                                   :LOCATION  
CNTY        .                             GALVESTON LARGE BLOCK :LOCATION  
STAT        .                                             TEXAS :STATE     
CTRY        .                                     UNITED STATES :COUNTRY   
SRVC        .                                                   :SERVICE COMPANY
DATE        .                             9/13/2023 11:19:39 AM :LOG DATE  
API         .                                    42706403900000 :API NUMBER
UWI         .                                    42706403900000 :UNIQUE WELL ID
XCOORD      .                                  983096.827540607 :SURFACE X 
YCOORD      .                                  10485968.3003259 :SURFACE Y 
LAT         .                                        28.8789082 :LATITUDE  
LON         .                                       -95.0543314 :LONGITUDE 
ELEV        .FT                                              90 :ELEVATION VALUE
ELEV_TYPE   .                                                KB :ELEVATION REFERENCE TYPE
~Curve Information Section
#MNEM       .UNIT                                      API CODE :CURVE DESCRIPTION
#------------------------------------------------------------------------------
DEPT        .FT                                                 :DEPTH     
CDER        .MMHO                                               :          
DCAL        .IN                                                 :          
DPHI        .DEC                                                :          
DRHO        .G/CC                                               :          
DTLN        .US/F                                               :          
GR          .GAPI                                               :          
GR_NORM     .GAPI                                               :GammaRay Normalized
IDER        .OHMM                                               :          
IMER        .OHMM                                               :          
NPOR        .DEC                                                :          
RWA         .OHMM                                               :          
SFLA        .OHMM                                               :          
SP          .MV                                                 :          
SP_NORM     .MV                                                 :SP Normalized
TENS        .LB                                                 :          
VSH_GR      .V/V                                                :Volume of Shale from GR
VSH_SP      .V/V                                                :Volume of Shale from SP
~A        DEPTH           CDER           DCAL           DPHI           DRHO           DTLN             GR        GR_NORM           IDER           IMER           NPOR            RWA           SFLA             SP        SP_NORM           TENS         VSH_GR         VSH_SP
# ...
      7770.0000       1166.589          0.856          0.159              0        108.487         74.872       73.17364          0.857          0.846          0.368           0.08          0.953            -13      -6.141014        -999.25      0.8547583      0.9122712
      7770.5000       1184.413          0.854          0.162          0.003        106.833         76.775        75.4168          0.844          0.838          0.375          0.082          0.949          -13.2      -6.351835        -999.25      0.9024851      0.9092595
      7771.0000       1172.883          0.865           0.16          0.006        105.334           79.1       78.15739          0.853          0.839          0.377          0.083          0.945          -12.9      -6.062656        -999.25      0.9607956      0.9133906
      7771.5000       1147.842          0.901          0.154          0.009        104.133         82.002       81.57812          0.871          0.867          0.368          0.085          0.951          -12.8      -5.973478        -999.25              1      0.9146646
      7772.0000       1112.842          0.941          0.148          0.012        103.279         82.798        82.5164          0.899          0.897          0.364          0.087          0.964          -12.9      -6.084299        -999.25              1      0.9130815
      7772.5000       1074.691          0.963          0.143          0.014        102.754         81.825       81.36948           0.93           0.93           0.37          0.086           0.98        -12.925      -6.120121        -999.25              1      0.9125697
      7773.0000       1033.805          0.964           0.14          0.015        102.494         80.725       80.07285          0.967          0.957          0.374           0.08          0.999         -12.65      -5.855941        -999.25              1      0.9163437
      7773.5000       1021.033          0.927          0.138          0.014        102.704         80.575       79.89604          0.979           0.97          0.364          0.076          1.019        -12.575      -5.791763        -999.25      0.9977881      0.9172605
      7774.0000       1043.406          0.863          0.136          0.012        103.538         79.602       78.74913          0.958          0.947          0.355          0.076          1.037          -12.4      -5.627584        -999.25      0.9733858       0.919606
      7774.5000       1088.021          0.799          0.137          0.009        104.321         78.374       77.30161          0.919           0.92          0.351          0.078          1.036          -12.3      -5.538406        -999.25      0.9425875      0.9208799
      7775.0000       1116.944          0.766          0.142          0.007        104.891         77.625       76.41874          0.895          0.903          0.358           0.08          1.022          -12.3      -5.549227        -999.25       0.923803      0.9207253
      7775.5000       1115.449          0.759          0.149          0.005        104.518         77.975       76.83129          0.896          0.902          0.371          0.081          1.003          -12.4      -5.660048        -999.25      0.9325806      0.9191422
      7776.0000       1101.079          0.789           0.15          0.003        104.019          77.55       76.33034          0.908           0.91          0.369          0.077          0.984          -12.5      -5.770869        -999.25      0.9219221       0.917559
      7776.5000       1094.092          0.829          0.149              0        103.663         75.524       73.94218          0.914          0.923          0.358          0.071           0.98          -12.7       -5.98169        -999.25      0.8711101      0.9145473
      7777.0000       1099.868          0.828           0.15         -0.002        103.783          74.15       72.32259          0.909          0.914          0.339          0.068           0.98          -12.7      -5.992512        -999.25      0.8366508      0.9143927
      7777.5000       1114.082          0.802          0.153         -0.004        104.089          73.65       71.73321          0.898            0.9          0.326          0.064          0.994          -12.6      -5.903334        -999.25      0.8241108      0.9156666
      7778.0000       1109.385          0.763          0.156         -0.005        103.667         76.124       74.64943          0.901          0.884          0.324          0.069          1.015          -12.7      -6.014154        -999.25       0.886158      0.9140835
      7778.5000       1088.969          0.717          0.158         -0.004        102.898         78.175       77.06705          0.918          0.881          0.343          0.076          1.047          -13.1      -6.424976        -999.25      0.9375969      0.9082146
      7779.0000        1034.34          0.655          0.161         -0.002        103.709         78.125       77.00811          0.967          0.894           0.35           0.08          1.094          -13.6      -6.935798        -999.25      0.9363428      0.9009172
      7779.5000        959.969          0.569          0.168              0        105.321         73.423       71.46562          1.042          0.972          0.316          0.083          1.146          -14.4      -7.746618        -999.25      0.8184175       0.889334
      7780.0000          899.2          0.478          0.181          0.001        106.867         67.154       64.07604          1.112          1.129          0.287          0.084          1.209          -15.7       -9.05744        -999.25      0.6611924       0.870608
      7780.5000        900.901          0.429          0.194          0.003         107.84         66.154       62.89729           1.11          1.156          0.291          0.083           1.25          -16.8      -10.16826        -999.25      0.6361126      0.8547391
      7781.0000        961.908          0.449          0.197          0.005         106.93         71.174       68.81462           1.04          1.082          0.325          0.082          1.245            -17      -10.37908        -999.25      0.7620132      0.8517274
      7781.5000       1025.746          0.503          0.187          0.007        104.981         75.701       74.15081          0.975          0.989          0.341          0.073          1.199            -16      -9.389904        -999.25      0.8755491      0.8658585
      7782.0000       1044.714          0.566          0.175          0.009        103.493         76.675       75.29893          0.957          0.936          0.337           0.07          1.153          -15.2      -8.600725        -999.25      0.8999771      0.8771325
      7782.5000       1039.285          0.611          0.168          0.008        103.963           76.9       75.56413          0.962          0.933           0.33          0.071          1.106          -14.9      -8.311546        -999.25      0.9056199      0.8812636
      7783.0000       1049.869          0.652          0.164          0.006        104.961         77.725       76.53661          0.952          0.936           0.33          0.072          1.061            -15      -8.422367        -999.25      0.9263108      0.8796805
      7783.5000       1067.236           0.69          0.158          0.003        106.673           78.5       77.45014          0.937          0.939          0.337           0.08          1.014          -14.3      -7.733189        -999.25      0.9457477      0.8895259
      7784.0000       1110.864           0.72          0.155          0.001        107.931         78.625       77.59748            0.9          0.901          0.358          0.086          0.966          -13.4       -6.84401        -999.25      0.9488826      0.9022284
      7784.5000       1155.669          0.743          0.156         -0.001        108.437         78.375        77.3028          0.865           0.86           0.39          0.091          0.919          -12.3      -5.754832        -999.25      0.9426128      0.9177881
