#------------------------------------------------------------------------------
# Created by    : vladimir.rabinovich
# Created on    : 09/19/2023 17:22:50
#------------------------------------------------------------------------------
~Version Information Section
VERS.           2.0     :   CWLS log ASCII Standard - VERSION 2.0
WRAP.           NO      :   One line per depth step
~Well Information Section
#MNEM       .UNIT                                         VALUE :DESCRIPTION
#------------------------------------------------------------------------------
STRT        .FT                                            1142 :START DEPTH
STOP        .FT                                           15630 :STOP DEPTH
STEP        .FT                                             0.5 :STEP      
NULL        .                                           -999.25 :NULL      
COMP        .                                     PRIMARY FUELS :COMPANY   
WELL        .                                ST TR 00520-L SE/4 :WELL      
FLD         .                                          EL GORDO :FIELD     
LOC         .                                                   :LOCATION  
CNTY        .                      MATAGORDA ISLAND LARGE BLOCK :LOCATION  
STAT        .                                             TEXAS :STATE     
CTRY        .                                     UNITED STATES :COUNTRY   
SRVC        .                                                   :SERVICE COMPANY
DATE        .                             9/13/2023 11:19:05 AM :LOG DATE  
API         .                                    42703303520000 :API NUMBER
UWI         .                                    42703303520000 :UNIQUE WELL ID
XCOORD      .                                  629148.716839967 :SURFACE X 
YCOORD      .                                   10306131.761235 :SURFACE Y 
LAT         .                                        28.3634759 :LATITUDE  
LON         .                                       -96.1446235 :LONGITUDE 
ELEV        .FT                                             101 :ELEVATION VALUE
ELEV_TYPE   .                                                KB :ELEVATION REFERENCE TYPE
~Curve Information Section
#MNEM       .UNIT                                      API CODE :CURVE DESCRIPTION
#------------------------------------------------------------------------------
DEPT        .FT                                                 :DEPTH     
DT          .US/F                                               :          
ILD         .OHMM                                               :          
SP          .MV                                                 :          
SP_NORM     .MV                                                 :SP Normalized
VSH_SP      .V/V                                                :Volume of Shale from SP
~A        DEPTH             DT            ILD             SP        SP_NORM         VSH_SP
# ...
     14606.0000       126.9387          0.399       104.4296       1.098427              1
     14606.5000       127.1641         0.4019       104.4783       1.139809              1
     14607.0000       126.7378         0.4077       104.4994       1.153595              1
     14607.5000       124.9244         0.4221       104.5204       1.167282              1
     14608.0000       123.1111         0.4369       104.5415       1.181068              1
     14608.5000       120.1676         0.4523       104.4259       1.058167              1
     14609.0000       116.8624         0.4653        104.271      0.8959503              1
     14609.5000        113.929         0.4751       104.1003      0.7179413              1
     14610.0000       111.9398         0.4851       103.5823      0.1926193              1
     14610.5000       110.3198          0.486       103.1344     -0.2625885              1
     14611.0000       111.7689         0.4759        103.709      0.3046951              1
     14611.5000       114.7427          0.466       103.9709       0.559288              1
     14612.0000       117.9624         0.4519       104.0386      0.6196671              1
     14612.5000       120.4087         0.4363       104.1597      0.7334595              1
     14613.0000       122.8499         0.4213       104.2806      0.8470535              1
     14613.5000       125.2308         0.4118       104.4023      0.9614334              1
     14614.0000       127.1948         0.4081        104.525       1.076828              1
     14614.5000       124.2965         0.4349       104.6567        1.20121              1
     14615.0000       120.3484         0.4665       104.9296       1.466805              1
     14615.5000       115.7272         0.5041       105.2018       1.731682              1
     14616.0000        111.126         0.5468       105.2931       1.815674              1
     14616.5000        105.902          0.591       105.2997       1.814964              1
     14617.0000       102.3557         0.6208       104.0452      0.5531464              1
     14617.5000        99.9196         0.6483       102.9889     -0.5104599              1
     14618.0000       100.8086         0.6531       102.1019      -1.404778      0.9931394
     14618.5000        106.776         0.6271       102.0393      -1.474686      0.9919545
     14619.0000       118.0077         0.5946       102.6357     -0.8856049              1
     14619.5000       123.0256         0.5627       102.7841     -0.7445068              1
     14620.0000       125.0209         0.5305       102.9525     -0.5834274              1
     14620.5000        124.201         0.5074       103.1426     -0.4006348              1
     14621.0000       121.7599         0.5098       103.4656    -0.08494568              1
     14621.5000       118.5502         0.5195       103.8483      0.2904358              1
     14622.0000       114.9536           0.53       103.9518      0.3866272              1
     14622.5000       111.0255         0.5408        103.962      0.3895111              1
     14623.0000       106.6154         0.5389       103.8752      0.2954025              1
     14623.5000       103.1193         0.5306        103.788      0.2008896              1
     14624.0000       104.6764         0.5096        104.291       0.696579              1
     14624.5000       110.7343         0.4893       104.6661       1.064369              1
     14625.0000       116.0889         0.4655       104.9653       1.356255              1
     14625.5000        120.489          0.439       104.8674       1.251045              1
     14626.0000        124.623         0.4142       104.7537       1.130028              1
     14626.5000       126.9537         0.3938       104.6523       1.021317              1
     14627.0000       128.4104         0.3754       104.5564      0.9180984              1
     14627.5000       128.5723         0.3635       104.4601      0.8144913              1
     14628.0000        127.976         0.3555       104.3851      0.7321777              1
     14628.5000       125.8939         0.3647       104.3201      0.6598663              1
     14629.0000       122.7695         0.3842       104.2552      0.5876617              1
     14629.5000       118.0377         0.4149       104.2312      0.5563431              1
     14630.0000       113.4366         0.4465       104.2073      0.5251312              1
     14630.5000       110.2922         0.4773       104.0514      0.3619156              1
     14631.0000       111.2114         0.5027       103.8287      0.1319046              1
     14631.5000         112.53         0.5248       103.6293    -0.07480621              1
     14632.0000       114.0896          0.534       103.4462     -0.2652206              1
     14632.5000       115.9281         0.5138       103.5817     -0.1370239              1
     14633.0000       117.8469         0.4944       103.8363        0.11026              1
     14633.5000       120.0973         0.4755        104.033      0.2996445              1
     14634.0000       122.2522         0.4573       104.1521      0.4114304              1
     14634.5000       123.7842         0.4382       104.2712      0.5232239              1
     14635.0000       125.2836         0.4209       104.2589      0.5036087              1
     14635.5000       126.7151         0.4173       104.2228      0.4601974              1
     14636.0000       126.1902          0.417       104.1865      0.4165802              1
     14636.5000       124.0001         0.4271       104.1412      0.3639679              1
     14637.0000       121.1973         0.4374       104.0819      0.2973633              1
     14637.5000       118.8013          0.448       104.0225      0.2306442              1
     14638.0000       117.3245          0.456        103.963      0.1638336              1
     14638.5000        117.101          0.464       103.9452      0.1387177              1
     14639.0000       117.8369         0.4723       103.9305      0.1167068              1
     14639.5000       118.5752         0.4806       103.9159     0.09479523              1
     14640.0000       119.1642         0.4891       103.8739     0.04548645              1
     14640.5000       119.6765         0.4946        103.821    -0.01472473              1
     14641.0000        120.074         0.4963       103.7681    -0.07494354              1
     14641.5000       119.0675         0.4979       103.7412     -0.1091461              1
     14642.0000       116.5107          0.501       103.7369     -0.1207657              1
     14642.5000       114.0444         0.5042       103.7328     -0.1321716              1
     14643.0000       113.1051         0.5075         103.73     -0.1422882              1
     14643.5000       114.0544         0.5087       103.7278     -0.1518021              1
     14644.0000       115.1495         0.5092       103.7256     -0.1613159              1
     14644.5000       116.2471         0.5098       103.7368     -0.1574249              1
     14645.0000       117.3446         0.5098         103.76     -0.1415329              1
     14645.5000       118.4471         0.5089       103.7832     -0.1256485              1
     14646.0000       116.9277         0.5081       103.8539    -0.06226349              1
     14646.5000       115.2047         0.5051       103.9862     0.06272125              1
     14647.0000        113.311         0.5017         104.11      0.1792145              1
     14647.5000        111.548         0.4976       104.1785      0.2403946              1
     14648.0000       112.5726         0.4851       104.2467      0.3012848              1
     14648.5000       115.7773         0.4728       104.3094      0.3566818              1
     14649.0000        119.163         0.4567       104.3721      0.4120636              1
     14649.5000       122.0411           0.44       104.4346      0.4672546              1
