#------------------------------------------------------------------------------
# Created by    : vladimir.rabinovich
# Created on    : 09/19/2023 17:22:42
#------------------------------------------------------------------------------
~Version Information Section
VERS.           2.0     :   CWLS log ASCII Standard - VERSION 2.0
WRAP.           NO      :   One line per depth step
~Well Information Section
#MNEM       .UNIT                                         VALUE :DESCRIPTION
#------------------------------------------------------------------------------
STRT        .FT                                              96 :START DEPTH
STOP        .FT                                            7107 :STOP DEPTH
STEP        .FT                                             0.5 :STEP      
NULL        .                                           -999.25 :NULL      
COMP        .                                  XTO OFFSHORE INC :COMPANY   
WELL        .                               OCS G23162 ST00BP00 :WELL      
FLD         .                                 BRAZOS BLOCK 0398 :FIELD     
LOC         .                                                   :LOCATION  
CNTY        .                                BRAZOS LARGE BLOCK :LOCATION  
STAT        .                                             TEXAS :STATE     
CTRY        .                                     UNITED STATES :COUNTRY   
SRVC        .                                                   :SERVICE COMPANY
DATE        .                             9/13/2023 11:18:28 AM :LOG DATE  
API         .                                    42704403370000 :API NUMBER
UWI         .                                    42704403370000 :UNIQUE WELL ID
XCOORD      .                                  864551.184430364 :SURFACE X 
YCOORD      .                                  10381025.1526549 :SURFACE Y 
LAT         .                                        28.5842785 :LATITUDE  
LON         .                                       -95.4179199 :LONGITUDE 
ELEV        .FT                                             100 :ELEVATION VALUE
ELEV_TYPE   .                                                KB :ELEVATION REFERENCE TYPE
~Curve Information Section
#MNEM       .UNIT                                      API CODE :CURVE DESCRIPTION
#------------------------------------------------------------------------------
DEPT        .FT                                                 :DEPTH     
DCAL        .IN                                                 :          
DPHI        .FRAC                                               :          
DT          .US/F                                               :          
GR          .GAPI                                               :          
GR_NORM     .GAPI                                               :GammaRay Normalized
HT01        .OHMM                                               :          
HT02        .OHMM                                               :          
HT03        .OHMM                                               :          
HT06        .OHMM                                               :          
HT09        .OHMM                                               :          
HT12        .OHMM                                               :          
NPHI        .FRAC                                               :          
RWA         .OHMM                                               :          
SP          .MV                                                 :          
TENS        .LB                                                 :          
VSH_GR      .V/V                                                :Volume of Shale from GR
~A        DEPTH           DCAL           DPHI             DT             GR        GR_NORM           HT01           HT02           HT03           HT06           HT09           HT12           NPHI            RWA             SP           TENS         VSH_GR
# ...
      2896.0000          1.705        -999.25       145.6203        82.4494       73.65587          0.582         0.6209          0.632         0.6737         0.6859         0.6896        -999.25        -999.25        -999.25       2023.096      0.8650185
      2896.5000         2.1549        -999.25       145.3906        93.1765       85.57173         0.5876         0.6267          0.638         0.6804         0.6923         0.6958        -999.25        -999.25        -999.25        2024.05              1
      2897.0000         2.5189        -999.25       144.1219       104.4327       98.07548         0.5858         0.6242         0.6354         0.6778         0.6895         0.6928        -999.25        -999.25        -999.25       2025.959              1
      2897.5000         2.2615        -999.25       144.5531       104.7453       98.41966         0.5862         0.6243         0.6355          0.678         0.6894         0.6926        -999.25        -999.25        -999.25       2023.096              1
      2898.0000         1.6748        -999.25       143.9703        96.3753       89.11652         0.5911         0.6294         0.6407         0.6835          0.695         0.6981        -999.25        -999.25        -999.25       2020.551              1
      2898.5000         1.5412        -999.25        143.975         85.504       77.03416         0.5955         0.6342         0.6454         0.6885            0.7         0.7032        -999.25        -999.25        -999.25       2024.368       0.936897
      2899.0000         1.7266        -999.25       146.9219        83.0988       74.35857         0.5924         0.6305         0.6415         0.6841         0.6956         0.6989        -999.25        -999.25        -999.25       2027.232      0.8799695
      2899.5000         2.2013        -999.25       152.0781        90.0016       82.02522         0.5803         0.6167         0.6274         0.6688         0.6801         0.6835        -999.25        -999.25        -999.25       2021.823              1
      2900.0000         1.9453        -999.25       155.5406        93.7777       86.21774         0.5642         0.5985         0.6087         0.6486         0.6596         0.6631        -999.25        -999.25        -999.25       2020.232              1
      2900.5000         1.5904        -999.25       152.9812        90.4827       82.55347         0.5518         0.5847         0.5944          0.633         0.6439         0.6476        -999.25        -999.25        -999.25       2038.049              1
      2901.0000         1.4082        -999.25          146.8        83.5317         74.827         0.5469         0.5792         0.5887         0.6266         0.6376         0.6415        -999.25        -999.25        -999.25        2065.41      0.8899363
      2901.5000         1.3727        -999.25       143.3031        83.0266       74.26265         0.5483          0.581         0.5904          0.628         0.6392         0.6435        -999.25        -999.25        -999.25       2076.227      0.8779287
      2902.0000         1.4269        -999.25       143.2062        88.1496       79.95171         0.5515         0.5847         0.5942         0.6317          0.643         0.6477        -999.25        -999.25        -999.25       2057.774      0.9989727
      2902.5000         1.6076        -999.25       143.5266        93.5853       85.98824         0.5507          0.584         0.5937         0.6307         0.6422         0.6472        -999.25        -999.25        -999.25       2028.504              1
      2903.0000         1.7635        -999.25       141.2906         94.836       87.37476         0.5426         0.5751         0.5849         0.6209         0.6323         0.6376        -999.25        -999.25        -999.25       2012.279              1
      2903.5000         1.7432        -999.25       141.5187        97.7463       90.60529          0.527         0.5578         0.5673         0.6019         0.6131         0.6184        -999.25        -999.25        -999.25       2011.006              1
      2904.0000         1.7317        -999.25       145.2812        98.7083       91.67104         0.5072          0.536         0.5451         0.5781         0.5889         0.5941        -999.25        -999.25        -999.25       2012.915              1
      2904.5000         1.6436        -999.25       146.7109         92.022       84.23868         0.4896         0.5166         0.5253         0.5568         0.5673         0.5725        -999.25        -999.25        -999.25       2014.824              1
      2905.0000         1.4949        -999.25       145.0812        92.4789       84.74319         0.4787         0.5047         0.5131         0.5437          0.554         0.5592        -999.25        -999.25        -999.25       2015.142              1
      2905.5000         1.2894        -999.25       142.8297        96.3272       89.01595         0.4789         0.5053         0.5135         0.5441         0.5546         0.5599        -999.25        -999.25        -999.25        2011.96              1
      2906.0000         1.0503        -999.25       142.2719        91.7333       83.90847         0.4935         0.5219         0.5303         0.5621         0.5731         0.5788        -999.25        -999.25        -999.25       2008.143              1
      2906.5000         0.8996        -999.25       142.6687        85.3115       76.76999         0.5227         0.5553         0.5645         0.5987         0.6108         0.6171        -999.25        -999.25        -999.25       2007.506      0.9312764
      2907.0000         0.8716        -999.25       144.0375        80.1885       71.07464         0.5651          0.604         0.6151         0.6529         0.6664         0.6738        -999.25        -999.25        -999.25       2009.734      0.8100987
      2907.5000         0.9345        -999.25       148.2188        74.7047       64.97838          0.615         0.6622         0.6762         0.7183         0.7336         0.7422        -999.25        -999.25        -999.25       2013.233       0.680391
      2908.0000         1.2838        -999.25       152.0531        75.3301       65.67014         0.6574         0.7126         0.7299         0.7759         0.7929         0.8026        -999.25        -999.25        -999.25       2014.505      0.6951092
      2908.5000         1.2408        -999.25       151.3297        81.4151       72.42809         0.6694         0.7279         0.7474         0.7948         0.8126         0.8229        -999.25        -999.25        -999.25       2015.142      0.8388956
      2909.0000          1.172        -999.25       150.8469         85.528       76.99484          0.642         0.6965         0.7163         0.7618         0.7792         0.7892        -999.25        -999.25        -999.25       2017.687      0.9360605
      2909.5000         1.2613        -999.25       153.2531        85.7685       77.25893         0.5926         0.6396          0.658         0.6999         0.7162         0.7253        -999.25        -999.25        -999.25       2022.777      0.9416793
      2910.0000         1.3266        -999.25        153.725        90.2902       82.27989         0.5449         0.5851         0.6016         0.6401         0.6551         0.6633        -999.25        -999.25        -999.25       2026.595              1
      2910.5000         1.1129        -999.25         153.85        95.5576       88.12942         0.5117         0.5474         0.5622         0.5982         0.6124           0.62        -999.25        -999.25        -999.25       2026.278              1
      2911.0000         0.8115        -999.25        152.675        96.7842       89.48917         0.4941         0.5277         0.5412         0.5758         0.5896          0.597        -999.25        -999.25        -999.25       2023.096              1
      2911.5000         0.8267        -999.25       149.2203        96.2551       88.89812         0.4885         0.5214         0.5341         0.5682         0.5819         0.5893        -999.25        -999.25        -999.25       2022.459              1
