#------------------------------------------------------------------------------
# Created by    : vladimir.rabinovich
# Created on    : 09/19/2023 17:21:51
#------------------------------------------------------------------------------
~Version Information Section
VERS.           2.0     :   CWLS log ASCII Standard - VERSION 2.0
WRAP.           NO      :   One line per depth step
~Well Information Section
#MNEM       .UNIT                                         VALUE :DESCRIPTION
#------------------------------------------------------------------------------
STRT        .FT                                             692 :START DEPTH
STOP        .FT                                            6716 :STOP DEPTH
STEP        .FT                                             0.5 :STEP      
NULL        .                                           -999.25 :NULL      
COMP        .                                  FMP OPERATING CO :COMPANY   
WELL        .                                          SL 89457 :WELL      
FLD         .                                           WILDCAT :FIELD     
LOC         .                                                   :LOCATION  
CNTY        .                      MATAGORDA ISLAND LARGE BLOCK :LOCATION  
STAT        .                                             TEXAS :STATE     
CTRY        .                                     UNITED STATES :COUNTRY   
SRVC        .                                                   :SERVICE COMPANY
DATE        .                             9/13/2023 11:12:01 AM :LOG DATE  
API         .                                    42703303600000 :API NUMBER
UWI         .                                    42703303600000 :UNIQUE WELL ID
XCOORD      .                                  499223.886875127 :SURFACE X 
YCOORD      .                                  10221285.9321665 :SURFACE Y 
LAT         .                                        28.1205561 :LATITUDE  
LON         .                                       -96.5403272 :LONGITUDE 
ELEV        .FT                                              81 :ELEVATION VALUE
ELEV_TYPE   .                                                KB :ELEVATION REFERENCE TYPE
~Curve Information Section
#MNEM       .UNIT                                      API CODE :CURVE DESCRIPTION
#------------------------------------------------------------------------------
DEPT        .FT                                                 :DEPTH     
CALI        .IN                                                 :          
CILD        .MMHO                                               :          
DT          .US/F                                               :          
DTL         .US/F                                               :          
GR          .GAPI                                               :          
GR_NORM     .GAPI                                               :GammaRay Normalized
ILD         .OHMM                                               :          
ILM         .OHMM                                               :          
SFLU        .OHMM                                               :          
SP          .MV                                                 :          
SP_NORM     .MV                                                 :SP Normalized
TENS        .LBS                                                :          
VSH_GR      .V/V                                                :Volume of Shale from GR
VSH_SP      .V/V                                                :Volume of Shale from SP
~A        DEPTH           CALI           CILD             DT            DTL             GR        GR_NORM            ILD            ILM           SFLU             SP        SP_NORM           TENS         VSH_GR         VSH_SP
# ...
      5534.0000        -999.25        1258.83       104.9538       103.9588        65.8897       72.58496         0.8191         0.8006         0.8007        -7.5437        -9.3449        2773.96      0.8422332      0.7630677
      5534.5000        -999.25        1226.83       105.1488       104.1538        69.8424        78.7795         0.8577         0.8251         0.8045        -7.0457        -8.8545       2773.563       0.974032      0.7788871
      5535.0000        -999.25       1186.794       104.9458       104.1498        72.4414       82.85146         0.8697         0.8503         0.8374        -6.8453        -8.6616       2773.165              1      0.7851097
      5535.5000        -999.25       1162.834       104.7428       104.0459        72.1739       82.42938         0.8922         0.8821          0.862        -6.9426        -8.7665       2772.767              1      0.7817258
      5536.0000        -999.25       1126.855       104.3408       103.5444        71.2537       80.98399         0.9153         0.8822         0.8581         -7.139        -8.9705       2772.368              1      0.7751452
      5536.5000        -999.25       1086.911       103.3418       102.8439        68.7766       77.09752         0.9111         0.8798         0.7905        -7.4346        -9.2736        2771.97      0.9382451      0.7653677
      5537.0000        -999.25       1078.791       102.3428       102.3424        66.6952       73.83156         0.9113         0.8807         0.8257        -7.8295        -9.6761       2771.493      0.8687565      0.7523839
      5537.5000        -999.25       1078.631       102.7368       102.2389        66.3996       73.36545         0.9114         0.8817         0.8747        -8.1251        -9.9792       2771.453      0.8588393      0.7426065
      5538.0000        -999.25       1086.432       103.5288       103.1304        66.8972       74.14278         0.9116         0.8829         0.8748        -8.4207       -10.2824       2800.756      0.8753784      0.7328258
      5538.5000        -999.25       1094.232       105.9128       105.2163        70.3718       79.58768         0.9118         0.8749         0.8473        -8.6171       -10.4863       2800.286      0.9912273      0.7262484
      5539.0000        -999.25       1102.032       108.0978       107.0033        71.0682       80.67687         0.9119         0.8436          0.784        -8.6152        -10.492       2799.816              1      0.7260645
      5539.5000        -999.25       1117.792       108.6908       108.0938        69.8799       78.81099         0.9094         0.8399         0.7699        -8.6132       -10.4976       2799.717      0.9747019      0.7258839
      5540.0000        -999.25       1149.473       108.4879       108.0898        70.3541       79.55181         0.8798         0.8282           0.77        -8.6112       -10.5031       2799.259      0.9904641      0.7257065
      5540.5000        -999.25       1157.337       108.2849       107.6879        71.0732       80.67657         0.8441         0.8168           0.81        -8.6092       -10.5087       2798.801              1      0.7255258
      5541.0000        -999.25       1196.913       108.8779       108.0819         72.464       82.85428         0.8065         0.8028         0.7918        -8.9048       -10.8118       2798.343              1      0.7157484
      5541.5000        -999.25       1232.558       110.2669       109.6699        74.0533       85.34338         0.7883          0.779         0.7846        -8.9029       -10.8175       2797.885              1      0.7155645
      5542.0000        -999.25       1248.334       112.2529       111.0589        75.0474       86.89928         0.7885         0.7566         0.7527        -8.8017       -10.7239        2797.32              1      0.7185839
      5542.5000        -999.25       1264.074       113.2439       112.2489        74.6519       86.27656         0.7885         0.7457         0.7221        -8.6013        -10.531       2796.964              1      0.7248064
      5543.0000        -999.25       1255.955       111.8469       111.6387        73.9359       85.15115         0.7953         0.7677         0.6969        -8.4009       -10.3382       2796.607              1      0.7310258
      5543.5000        -999.25       1247.867       109.8529       109.6546        73.2198       84.02576         0.8021         0.7754          0.697        -7.8037        -9.7485       2776.348              1      0.7500484
      5544.0000        -999.25       1229.497       108.2569       108.0666        72.3781       82.70346          0.809         0.7832         0.7221        -6.9088        -8.8612        2775.95              1       0.778671
      5544.5000        -999.25       1223.635       107.6559       107.1584        71.8843       81.92642         0.8159          0.791         0.7482        -5.8156        -7.7755       2783.651              1      0.8136936
      5545.0000        -999.25       1207.556       108.8459       108.2489        71.3896       81.14815         0.8229          0.799         0.7785        -4.5239        -6.4914       2785.104              1      0.8551161
      5545.5000        -999.25       1199.436       110.6329       110.4308        70.1019        79.1266           0.83          0.807         0.7822        -3.7283        -5.7034       2804.606      0.9814171      0.8805355
      5546.0000        -999.25        1191.38        111.823       111.6149        69.6079       78.34927         0.8371         0.8151         0.7883        -3.4287        -5.4113       2804.208       0.964878      0.8899581
      5546.5000        -999.25       1179.144        113.212        112.997        69.8083        78.6608          0.846         0.8268         0.7971        -3.5259        -5.5161        2803.81      0.9715063      0.8865774
      5547.0000        -999.25       1190.996       114.6018       114.3799        71.2984       80.99438         0.8461         0.8269         0.7937        -3.5239        -5.5216       2813.362              1         0.8864
      5547.5000        -999.25       1198.797       115.9908        115.762        71.6956       81.61427          0.834          0.827         0.7935        -3.2243        -5.2296       2803.014              1      0.8958194
      5548.0000        -999.25       1214.557       116.7828       116.5501        73.7825       84.88352         0.8221         0.8066         0.7511        -2.3287        -4.3415       2792.667              1      0.9244677
      5548.5000        -999.25       1222.453       116.7788       116.2809        74.1813        85.5061         0.8087         0.7867         0.7244        -2.9227        -4.9431       2802.219              1      0.9050613
      5549.0000        -999.25       1229.136       115.7798       115.7794        74.0841       85.35088         0.7978         0.7586         0.7146        -3.0199        -5.0479        2821.72              1      0.9016806
      5549.5000        -999.25        1225.99       113.3878       114.3824        74.3837       85.81795         0.8133         0.7622         0.7116        -3.3156        -5.3511       2811.293              1         0.8919
      5550.0000        -999.25       1217.934        110.596       113.2839        76.1388       88.56697         0.8291         0.7826         0.7181        -3.4128        -5.4559       2830.969              1      0.8885193
      5550.5000        -999.25       1198.859       110.5944       112.3974         77.894       91.31602         0.8452         0.8035         0.7551        -3.3159        -5.3665       2811.534              1      0.8914033
      5551.0000        -999.25       1169.961       111.5868       112.3831         76.969        89.8631         0.8585         0.8272         0.7888        -3.1112        -5.1694       2795.109              1      0.8977613
      5551.5000        -999.25       1157.905       113.9727       113.7539        74.4908       85.97506         0.8721         0.8515         0.8239        -2.9108        -4.9766       2790.396              1      0.9039806
