#------------------------------------------------------------------------------
# Created by    : vladimir.rabinovich
# Created on    : 09/19/2023 17:22:54
#------------------------------------------------------------------------------
~Version Information Section
VERS.           2.0     :   CWLS log ASCII Standard - VERSION 2.0
WRAP.           NO      :   One line per depth step
~Well Information Section
#MNEM       .UNIT                                         VALUE :DESCRIPTION
#------------------------------------------------------------------------------
STRT        .FT                                            1705 :START DEPTH
STOP        .FT                                           10298 :STOP DEPTH
STEP        .FT                                             0.5 :STEP      
NULL        .                                           -999.25 :NULL      
COMP        .                            STANOLIND OIL & GAS CO :COMPANY   
WELL        .                                       ST TR 00219 :WELL      
FLD         .                                           WILDCAT :FIELD     
LOC         .                                                   :LOCATION  
CNTY        .                             GALVESTON LARGE BLOCK :LOCATION  
STAT        .                                             TEXAS :STATE     
CTRY        .                                     UNITED STATES :COUNTRY   
SRVC        .                                                   :SERVICE COMPANY
DATE        .                             9/13/2023 11:19:42 AM :LOG DATE  
API         .                                    42706000170000 :API NUMBER
UWI         .                                    42706000170000 :UNIQUE WELL ID
XCOORD      .                                  1024804.26554262 :SURFACE X 
YCOORD      .                                  10549089.4715911 :SURFACE Y 
LAT         .                                        29.0543948 :LATITUDE  
LON         .                                       -94.9272588 :LONGITUDE 
ELEV        .FT                                              60 :ELEVATION VALUE
ELEV_TYPE   .                                                GL :ELEVATION REFERENCE TYPE
~Curve Information Section
#MNEM       .UNIT                                      API CODE :CURVE DESCRIPTION
#------------------------------------------------------------------------------
DEPT        .FT                                                 :DEPTH     
LAT         .OHMM                                               :          
LN          .OHMM                                               :          
SN          .OHMM                                               :          
SP          .MV                                                 :          
SP_NORM     .MV                                                 :SP Normalized
VSH_SP      .V/V                                                :Volume of Shale from SP
~A        DEPTH            LAT             LN             SN             SP        SP_NORM         VSH_SP
# ...
      8545.0000         1.2433         1.1071         0.9532      -146.8779         -96.09     0.08485718
      8545.5000         1.2102         1.0752         0.9946       -144.095      -93.29967      0.1114317
      8546.0000         1.1834         1.0432         1.0256      -133.1611      -82.35834      0.2156349
      8546.5000         1.2556         1.0113         1.0242      -125.2036       -74.3934      0.2914914
      8547.0000         1.3523         0.9866         0.9891      -119.6018      -68.78416      0.3449127
      8547.5000         1.4469         0.9615         0.9964      -110.2324      -59.40733      0.4342159
      8548.0000         1.5311         0.9273         1.0463       -78.1682      -27.33569      0.7396601
      8548.5000         1.6153         0.8968         1.1008       -59.8253      -8.985359      0.9144251
      8549.0000         1.6994         0.9026         1.1552       -53.1085      -2.261131      0.9784654
      8549.5000         1.7753         0.9083         1.2097        -49.395       1.459805              1
      8550.0000         1.8181         0.9155         1.2431       -47.4258        3.43644              1
      8550.5000         1.8609         0.9356         1.2632       -46.5474       4.322273              1
      8551.0000         1.8728         0.9557         1.2833       -46.1242       4.752911              1
      8551.5000         1.8635         0.9775         1.3034       -46.2529       4.631645              1
      8552.0000         1.8541         1.0159         1.3031       -47.3943       3.497677              1
      8552.5000         1.8176         1.0544         1.2896       -49.6647       1.234711              1
      8553.0000         1.7784         1.0928         1.2548       -52.6679      -1.761055       0.983228
      8553.5000         1.7544         1.1312         1.2153       -58.2607       -7.34642      0.9300341
      8554.0000         1.7737         1.1672         1.2106       -64.5009      -13.57919      0.8706744
      8554.5000          1.793         1.2025         1.2342       -84.4894      -33.56026      0.6803785
      8555.0000         1.8123         1.2378         1.2925       -88.6885      -37.75192      0.6404579
      8555.5000         1.8001         1.2744         1.3799       -91.1881      -40.24409       0.616723
      8556.0000          1.778         1.3407         1.4673       -93.1663      -42.21485      0.5979539
      8556.5000         1.7406          1.407         1.5453       -89.5156      -38.55672      0.6327932
      8557.0000         1.6961         1.4473         1.6209       -76.9813      -26.01498      0.7522383
      8557.5000         1.7272         1.4816         1.6964       -67.2614      -16.28765      0.8448796
      8558.0000         1.8271         1.4866         1.7644       -61.0751      -10.09391      0.9038675
      8558.5000         1.9271          1.472         1.8169        -57.384      -6.395378      0.9390916
      8559.0000          2.027         1.4427         1.8695       -55.6666      -4.670544      0.9555186
      8559.5000         2.1014         1.3925         1.9017       -54.8169      -3.813408      0.9636818
      8560.0000         2.1673         1.3424          1.904        -54.324       -3.31308      0.9684469
      8560.5000         2.2334          1.262         1.9234       -53.9189      -2.900543      0.9723758
      8561.0000         2.3082          1.172          1.959       -53.5131      -2.487309      0.9763113
      8561.5000         2.4468         1.1023         1.9945       -52.9219      -1.888676      0.9820126
      8562.0000         2.5926         1.0374          2.035       -52.3049       -1.26424      0.9879596
      8562.5000         2.7732         0.9724         2.0644       -51.6754     -0.6273041      0.9940256
      8563.0000         2.9783         0.9121         2.0664       -50.9808      0.0747261              1
      8563.5000         3.2024         0.8724         1.9033       -50.2851      0.7778625              1
      8564.0000         3.3323         0.8582         1.7444       -49.8434       1.226997              1
      8564.5000         3.4664         0.9019         1.6576       -49.5157        1.56213              1
      8565.0000         3.4278         0.9456         1.5571       -49.0937       1.991566              1
      8565.5000         3.2905         0.9874         1.6456       -48.6025       2.490196              1
      8566.0000         3.0263         1.0241         1.6901       -48.1119       2.988232              1
      8566.5000         2.7181         1.0608         1.6306       -47.6208       3.486767              1
      8567.0000         2.4364         1.0975         1.5603       -47.3058         3.8092              1
      8567.5000         2.1826         1.1342         1.4898       -47.2278       3.894638              1
      8568.0000         1.9683         1.1395         1.3994       -47.1594        3.97047              1
      8568.5000         1.8501         1.1346         1.3045       -47.5348       3.602501              1
      8569.0000         1.7962         1.1298         1.2296       -46.9458       4.198936              1
      8569.5000         1.7653         1.1249         1.1547       -46.7132       4.438972              1
      8570.0000         1.7344         1.1003         1.1563       -48.6127       2.546906              1
      8570.5000         1.7003         1.0612         1.1606       -50.4312      0.7358437              1
      8571.0000         1.6637         1.0221         1.2097       -53.0815      -1.907028      0.9818378
      8571.5000         1.6272          0.988         1.3094       -55.5632      -4.381294      0.9582734
      8572.0000         1.6474         0.9561          1.409       -57.9999      -6.810558      0.9351375
      8572.5000         1.7196         0.9242         1.5091       -55.9903      -4.793522      0.9543474
      8573.0000         1.7917         0.9094         1.6108       -54.2077      -3.003487      0.9713954
      8573.5000         1.8765         0.9039         1.6132       -54.6618      -3.450153      0.9671414
      8574.0000         1.9811         0.8985         1.5251       -56.0892      -4.870121      0.9536179
      8574.5000         1.9751         0.8942         1.4074       -58.0944      -6.843349      0.9348252
      8575.0000         1.9071         0.9065         1.3066        -60.032      -8.747467      0.9166908
      8575.5000         1.8261         0.9188         1.2372       -60.8683      -9.550278       0.909045
      8576.0000         1.7689         0.9312          1.168       -58.9531      -7.601589      0.9276039
      8576.5000         1.7869         0.9435         1.1345       -58.6878      -7.302803      0.9304495
      8577.0000         1.8049         0.9425         1.1094       -61.0661      -9.647617      0.9081179
      8577.5000         1.8282         0.9184         1.0844       -63.4309      -11.97893      0.8859149
      8578.0000         1.8679         0.8943         1.0593       -65.7238      -14.23834      0.8643968
      8578.5000         1.9076         0.8654         1.0534       -60.8188      -9.299858      0.9114299
      8579.0000         1.9473         0.8173         1.0632       -57.2087      -5.656265      0.9461308
      8579.5000         1.9869         0.7691          1.073       -54.5606      -2.974682      0.9716697
      8580.0000         2.0192         0.7319         1.0857       -52.2565     -0.6370926      0.9939324
      8580.5000         2.0364         0.6986         1.1039       -52.9376      -1.284706      0.9877647
      8581.0000         2.0535         0.6654          1.122        -57.366      -5.679619      0.9459084
      8581.5000         2.0707         0.6557         1.1399       -62.0552      -10.33533      0.9015683
      8582.0000         2.0869          0.664         1.1519       -68.7045      -16.95114      0.8385606
      8582.5000          2.078         0.6723         1.1362       -72.1528      -20.36596      0.8060385
