#------------------------------------------------------------------------------
# Created by    : vladimir.rabinovich
# Created on    : 09/19/2023 17:21:52
#------------------------------------------------------------------------------
~Version Information Section
VERS.           2.0     :   CWLS log ASCII Standard - VERSION 2.0
WRAP.           NO      :   One line per depth step
~Well Information Section
#MNEM       .UNIT                                         VALUE :DESCRIPTION
#------------------------------------------------------------------------------
STRT        .FT                                            2690 :START DEPTH
STOP        .FT                                            8272 :STOP DEPTH
STEP        .FT                                             0.5 :STEP      
NULL        .                                           -999.25 :NULL      
COMP        .                        PG&E RESOURCES OFFSHORE CO :COMPANY   
WELL        .                               OCS G09053 ST00BP00 :WELL      
FLD         .                              GALVESTON BLOCK 0427 :FIELD     
LOC         .                                                   :LOCATION  
CNTY        .                             GALVESTON LARGE BLOCK :LOCATION  
STAT        .                                             TEXAS :STATE     
CTRY        .                                     UNITED STATES :COUNTRY   
SRVC        .                                                   :SERVICE COMPANY
DATE        .                             9/13/2023 11:11:09 AM :LOG DATE  
API         .                                    42706402380000 :API NUMBER
UWI         .                                    42706402380000 :UNIQUE WELL ID
XCOORD      .                                  948581.259723803 :SURFACE X 
YCOORD      .                                  10360666.4777899 :SURFACE Y 
LAT         .                                         28.532718 :LATITUDE  
LON         .                                        -95.155068 :LONGITUDE 
ELEV        .FT                                             119 :ELEVATION VALUE
ELEV_TYPE   .                                                KB :ELEVATION REFERENCE TYPE
~Curve Information Section
#MNEM       .UNIT                                      API CODE :CURVE DESCRIPTION
#------------------------------------------------------------------------------
DEPT        .FT                                                 :DEPTH     
CALI        .IN                                                 :          
DRHO        .G/C3                                               :          
DT          .US/F                                               :          
GR          .GAPI                                               :          
GR_1        .GAPI                                               :          
GR_NORM     .GAPI                                               :GammaRay Normalized
ILD         .OHMM                                               :          
ILM         .OHMM                                               :          
NPHI        .%                                                  :          
RFOC        .OHMM                                               :          
RHOB        .G/C3                                               :          
SP          .MV                                                 :          
SP_NORM     .MV                                                 :SP Normalized
VSH_GR      .V/V                                                :Volume of Shale from GR
VSH_SP      .V/V                                                :Volume of Shale from SP
~A        DEPTH           CALI           DRHO             DT             GR           GR_1        GR_NORM            ILD            ILM           NPHI           RFOC           RHOB             SP        SP_NORM         VSH_GR         VSH_SP
# ...
      5682.0000        13.6727         0.0612       121.1124       101.5199        96.6919       82.28366         0.8967         0.8889        39.1298         1.1527         2.3079       -46.0531     -0.3082237              1              1
      5682.5000        13.6793         0.0624       121.4619       102.2733        97.2676       82.93717         0.8844           0.88        40.8618         1.1417         2.2971       -46.4747       -0.72649              1              1
      5683.0000        13.6782          0.071       121.8757       101.5552        97.2102       82.87417         0.8684         0.8712        41.6485         1.1029         2.2902       -46.8968       -1.14526              1      0.9962754
      5683.5000        13.6789         0.0758       123.0884       100.6151        98.9752       84.87365         0.8484         0.8537        42.1176         1.0663         2.2838       -47.3205      -1.565624              1      0.9854968
      5684.0000        13.6772         0.0732       124.4449       102.4532       101.2489       87.44884         0.8281         0.8339        42.6077         1.0391         2.2782        -47.301      -1.542789              1      0.9860823
      5684.5000        13.6819         0.0758       125.7327       102.6876       103.8378       90.38075         0.8197         0.8196        42.8859         1.0137         2.2719       -46.8468      -1.085258              1      0.9978139
      5685.0000        13.6909         0.0782       126.6475       102.6501       104.5612       91.20142          0.813         0.8157        42.5292         1.0071         2.2698       -46.3881     -0.6232262              1              1
      5685.5000        13.7005         0.0761       126.8517       103.8499       104.5549       91.19626         0.8105         0.8118        41.7699         1.0138         2.2728       -46.0726     -0.3043938              1              1
      5686.0000         13.708         0.0655       126.5767       106.3153       103.4821        89.9841         0.8149         0.8242        40.9888         1.0323         2.2787       -45.9183      -0.146759              1              1
      5686.5000        13.7141         0.0562       126.0328       107.6296       101.7831       88.06325         0.8195          0.837        40.2867          1.056         2.2863       -46.2384     -0.4635277              1              1
      5687.0000        13.7271         0.0552       124.6787       106.5616       100.7611       86.90858         0.8209         0.8465        39.7447         1.0724         2.2924        -46.859      -1.080795              1      0.9979283
      5687.5000        13.7472         0.0602       123.5961       104.8972       100.5118       86.62842         0.8213         0.8504        39.2635         1.0911         2.2981       -47.5601      -1.778561              1      0.9800369
      5688.0000        13.7458         0.0751       122.8199       104.3971       100.6177       86.75024         0.8217         0.8543        39.2026         1.0974          2.303       -48.2563      -2.471428              1      0.9622711
      5688.5000        13.7206         0.0832       122.4974       104.3635       100.7527       86.90498         0.8202         0.8583        40.1514         1.0924         2.3051       -48.5098      -2.721596              1      0.9558565
      5689.0000        13.7059         0.0833       122.6968       103.8036       100.5524       86.68027         0.8157          0.851         40.593         1.1004         2.3052        -48.537      -2.745461              1      0.9552446
      5689.5000        13.7224         0.0782       123.0581       100.7236        99.5498       85.54755         0.8148         0.8419        40.8359         1.1106         2.3032       -48.4535      -2.658627              1      0.9574711
      5690.0000        13.7339         0.0695       123.4319         98.962        96.8353       82.47742         0.8117         0.8328        41.1851         1.1158         2.2999       -48.3698      -2.571594              1      0.9597027
      5690.5000        13.7384         0.0621       123.8204        99.4142       100.7013       86.85468         0.8063         0.8239        41.5571         1.0952         2.2948       -47.3918      -1.590263              1      0.9848651
      5691.0000        13.7328          0.059       124.6581       101.6429       104.9037       91.61266         0.8003         0.8146        41.7535          1.075         2.2888       -46.9684      -1.163528              1       0.995807
      5691.5000        13.7202         0.0585       125.4889       104.7205        106.752       93.70641         0.7925         0.8052        41.7091         1.0581         2.2838       -47.0187      -1.210495              1      0.9946027
      5692.0000        13.7129         0.0594        126.084       105.4392       105.4734       92.26132         0.7847         0.7959        41.5947         1.0416         2.2803       -47.8942      -2.082664              1      0.9722394
      5692.5000        13.7175         0.0626       126.8348        104.618       102.5299       88.93204         0.7758         0.7868        41.5662          1.027         2.2776       -48.4051      -2.590233              1      0.9592248
      5693.0000        13.7315         0.0696       127.5887        103.467       102.1399       88.49263         0.7635         0.7767        41.6136         1.0126         2.2741        -48.171      -2.352798              1      0.9653128
      5693.5000        13.7349          0.076       128.2825       103.1165       103.3318       89.84352         0.7515         0.7667        41.7504         1.0149         2.2704       -47.5583      -1.736763              1      0.9811087
      5694.0000        13.7318         0.0788       128.8198        102.826       102.9919       89.46081         0.7427         0.7571        41.9578         1.0202         2.2673       -46.8035     -0.9786339              1              1
      5694.5000        13.7336         0.0722       128.9902       102.5264        101.618       87.90788         0.7339         0.7511        42.2251         1.0152         2.2646       -46.1689     -0.3406982              1              1
      5695.0000        13.7465         0.0631       128.7136       102.6232          101.4       87.66313         0.7262         0.7452        42.4403          1.007          2.263       -45.8944    -0.06286621              1              1
      5695.5000        13.7641         0.0597       128.3416       103.3616       102.3929        88.7888         0.7214         0.7393        42.6779         1.0074         2.2626       -45.8862    -0.05133057              1              1
      5696.0000        13.7896         0.0586       128.0945       104.0645       103.2152       89.72139         0.7165         0.7366        42.8043         1.0109         2.2613       -46.0964     -0.2582016              1              1
      5696.5000        13.8176         0.0602       128.2312       104.2206       103.4204       89.95559         0.7144         0.7361        42.8062         1.0104         2.2587       -46.4432     -0.6016655              1              1
      5697.0000        13.8376         0.0636       128.8921       103.5061       103.7761       90.36012         0.7148         0.7357        42.7725         1.0086         2.2559       -46.8642      -1.019333              1      0.9995043
      5697.5000        13.8493         0.0664       129.3997       101.5211       103.5952       90.15736         0.7151          0.737        42.7105         1.0085         2.2558       -47.2144      -1.366203              1      0.9906102
      5698.0000        13.8869         0.0697       129.7229       100.9785       102.9553       89.43513         0.7172         0.7434        42.4698         1.0094         2.2591       -47.1902      -1.338669              1      0.9913162
      5698.5000        13.9622         0.0748       129.7261       102.6453       103.2462       89.76631         0.7218          0.751        41.9443         1.0157         2.2628       -47.1312      -1.276333              1      0.9929146
