#------------------------------------------------------------------------------
# Created by    : vladimir.rabinovich
# Created on    : 09/19/2023 17:21:25
#------------------------------------------------------------------------------
~Version Information Section
VERS.           2.0     :   CWLS log ASCII Standard - VERSION 2.0
WRAP.           NO      :   One line per depth step
~Well Information Section
#MNEM       .UNIT                                         VALUE :DESCRIPTION
#------------------------------------------------------------------------------
STRT        .FT                                            2957 :START DEPTH
STOP        .FT                                            7390 :STOP DEPTH
STEP        .FT                                             0.5 :STEP      
NULL        .                                           -999.25 :NULL      
COMP        .                              DEVON LOUISIANA CORP :COMPANY   
WELL        .                               OCS G09039 ST00BP00 :WELL      
FLD         .                              GALVESTON BLOCK 0273 :FIELD     
LOC         .                                                   :LOCATION  
CNTY        .                             GALVESTON LARGE BLOCK :LOCATION  
STAT        .                                             TEXAS :STATE     
CTRY        .                                     UNITED STATES :COUNTRY   
SRVC        .                                                   :SERVICE COMPANY
DATE        .                             9/13/2023 11:19:54 AM :LOG DATE  
API         .                                    42706403330000 :API NUMBER
UWI         .                                    42706403330000 :UNIQUE WELL ID
XCOORD      .                                  1020560.14583294 :SURFACE X 
YCOORD      .                                  10500181.0477632 :SURFACE Y 
LAT         .                                        28.9197225 :LATITUDE  
LON         .                                       -94.9380297 :LONGITUDE 
ELEV        .FT                                              98 :ELEVATION VALUE
ELEV_TYPE   .                                                KB :ELEVATION REFERENCE TYPE
~Curve Information Section
#MNEM       .UNIT                                      API CODE :CURVE DESCRIPTION
#------------------------------------------------------------------------------
DEPT        .FT                                                 :DEPTH     
CALI        .IN                                                 :          
DCAL        .IN                                                 :          
DPHI        .%                                                  :          
DRHO        .G/C3                                               :          
GR          .GAPI                                               :          
GR_NORM     .GAPI                                               :GammaRay Normalized
ILD         .OHMM                                               :          
ILM         .OHMM                                               :          
LL3         .OHMM                                               :          
NPHI        .%                                                  :          
SP          .MV                                                 :          
SP_NORM     .MV                                                 :SP Normalized
VSH_GR      .V/V                                                :Volume of Shale from GR
VSH_SP      .V/V                                                :Volume of Shale from SP
~A        DEPTH           CALI           DCAL           DPHI           DRHO             GR        GR_NORM            ILD            ILM            LL3           NPHI             SP        SP_NORM         VSH_GR         VSH_SP
# ...
      3263.0000        11.6194          1.791        26.6085         0.0523        81.0385        76.8065         0.6425         0.7016         0.9382        34.4706       -34.9553       -12.7237      0.9320531      0.8182328
      3263.5000        11.6481         1.8206        26.2621          0.056        80.2113       75.85798         0.6488         0.7064         1.0934         33.812       -33.7255      -11.51604      0.9118719      0.8354852
      3264.0000        11.6907         1.8406         26.043         0.0623        78.9692        74.4337         0.6572         0.7107         1.0281        33.9707       -32.7639      -10.57658      0.8815681       0.848906
      3264.5000        11.7191          1.864        25.8685         0.0715        78.7885       74.22649         0.6664         0.7148         0.8227        34.8873       -31.3881       -9.22291      0.8771594      0.8682442
      3265.0000        11.7302         1.8718        25.7806          0.072        80.2192       75.86703         0.6743         0.7189         0.7164        36.3113       -29.3715      -7.228445      0.9120646      0.8967365
      3265.5000        11.7188         1.8492        25.8087         0.0609        81.6511       77.50894         0.6792         0.7218         0.7307          37.85       -27.2349      -5.113979      0.9469988      0.9269431
      3266.0000        11.6988         1.8197        26.1874          0.049        82.9612       79.01118         0.6804         0.7217         0.6885        39.2702       -25.7448      -3.646015      0.9789613      0.9479141
      3266.5000        11.6756         1.7996        27.0869         0.0387        84.0219       80.22746         0.6784         0.7173         0.6773        40.4033       -25.0576      -2.980949              1       0.957415
      3267.0000        11.6577          1.783        27.8927         0.0326        84.9409       81.28126         0.6747         0.7094         0.6732        41.2871       -24.5278      -2.473284              1      0.9646674
      3267.5000        11.6651         1.8183        28.4406         0.0335        86.7542        83.3605         0.6716         0.7003         0.6782        41.8668       -23.9077       -1.87532              1      0.9732097
      3268.0000        11.7169         1.8965        28.7969         0.0362        90.0996       87.19656         0.6709         0.6932         0.6433        42.2866       -23.3322      -1.321955              1      0.9811149
      3268.5000        11.7789         1.9841         28.975         0.0391        92.4929       89.94087         0.6729          0.691         0.6241        42.7355       -22.8015     -0.8133907              1      0.9883801
      3269.0000        11.8305         2.0453        29.0197         0.0434        93.8287       91.47259         0.6762         0.6943         0.6189        43.4412       -22.4747     -0.5087261              1      0.9927325
      3269.5000         11.853         1.9911        29.0077          0.046        94.1896       91.88641         0.6796         0.7009         0.6349        44.4464       -22.4112     -0.4673595              1      0.9933234
      3270.0000        11.8279          1.884        28.9959         0.0475        91.6633        88.9896          0.682         0.7075         0.7137        45.6009       -22.4422     -0.5204945              1      0.9925644
      3270.5000        11.7278         1.7552        28.9946         0.0492        87.6437       84.38046         0.6837         0.7116         0.6692        46.8073       -22.5263     -0.6267319              1      0.9910467
      3271.0000        11.6054         1.6159        28.9928         0.0485        84.6389       80.93495         0.6859         0.7125         0.6871        47.9901       -22.9324      -1.054966              1      0.9849291
      3271.5000        11.4899         1.4935        28.9656          0.048        83.4076       79.52306         0.6881         0.7103         0.7109        48.6806       -23.6714      -1.816101      0.9898524      0.9740557
      3272.0000         11.384         1.4555        28.8952         0.0473        86.3228       82.86583           0.69         0.7057         0.7112         48.459       -24.4883      -2.655136              1      0.9620695
      3272.5000        11.3191         1.4185        28.7719         0.0504        91.5187       88.82378         0.6911         0.7011         0.6688        47.4611       -25.0343       -3.22327              1      0.9539533
      3273.0000        11.2875         1.3869        28.5876         0.0539        94.4281        92.1599         0.6899         0.6986         0.6253        46.2367       -25.0992      -3.310305              1      0.9527099
      3273.5000        11.2613         1.3563        28.3631         0.0564        94.8646       92.66042         0.6858         0.6986         0.6114        45.5525        -24.882       -3.11524              1      0.9554965
      3274.0000        11.2454         1.3361        28.1423          0.058        93.8716       91.52179         0.6792         0.6987         0.6697        45.6783       -24.7884      -3.043777              1      0.9565175
      3274.5000        11.2374         1.3425        28.0299         0.0584        92.1449       89.54184         0.6713         0.6956         0.6918        46.3463       -24.9537      -3.231211              1      0.9538398
      3275.0000        11.2351         1.3523        28.2922         0.0553        90.8933       88.10667         0.6645         0.6881         0.6741        47.2104       -25.0199      -3.319546              1      0.9525779
      3275.5000         11.233         1.3545        28.8174         0.0532        90.0366       87.12431         0.6604         0.6783         0.6384         47.954       -24.7492      -3.070982              1      0.9561288
      3276.0000         11.234         1.3671        29.5151         0.0512        89.2706       86.24598         0.6586         0.6696         0.6257        48.2608       -24.1493      -2.493216              1      0.9643826
      3276.5000        11.2375         1.3804        29.9982         0.0494        88.8046       85.71163         0.6584         0.6653         0.6199        47.9413       -23.4076      -1.773651              1      0.9746621
      3277.0000        11.2491         1.3961        30.2845         0.0473        90.0284       87.11491         0.6591         0.6667         0.5803        47.0511       -22.8023      -1.190487              1      0.9829931
      3277.5000        11.2701         1.4119        30.3944         0.0426        92.2944       89.71327         0.6603         0.6732         0.5975        45.8055       -22.6319      -1.042223              1      0.9851111
      3278.0000        11.3008         1.4425        30.1391         0.0413        92.9972       90.51914         0.6623         0.6832         0.6371        44.4496       -22.7994      -1.231857              1       0.982402
      3278.5000        11.3294          1.467        29.3597         0.0448        90.7786       87.97515         0.6655          0.694          0.659        43.1592       -23.0705      -1.525091              1       0.978213
      3279.0000        11.3533          1.482        28.7235         0.0477        87.3177       84.00665         0.6697         0.7025         0.6895         42.095       -23.3757      -1.852427              1      0.9735368
      3279.5000        11.3579         1.4724        28.3689         0.0461        84.6696       80.97016         0.6747         0.7064         0.7094        41.5062       -23.4171      -1.915962              1      0.9726291
      3280.0000        11.3423         1.4586        28.1891         0.0433        83.8528       80.03356         0.6795         0.7053          0.753        41.8026       -23.2197      -1.740696              1      0.9751329
      3280.5000        11.3253         1.4393        28.3003         0.0411        85.0138       81.36484          0.683         0.7007         0.7271        43.0853       -22.9664      -1.509533              1      0.9784352
