#------------------------------------------------------------------------------
# Created by    : vladimir.rabinovich
# Created on    : 09/19/2023 17:20:24
#------------------------------------------------------------------------------
~Version Information Section
VERS.           2.0     :   CWLS log ASCII Standard - VERSION 2.0
WRAP.           NO      :   One line per depth step
~Well Information Section
#MNEM       .UNIT                                         VALUE :DESCRIPTION
#------------------------------------------------------------------------------
STRT        .FT                                            2979 :START DEPTH
STOP        .FT                                           11003 :STOP DEPTH
STEP        .FT                                             0.5 :STEP      
NULL        .                                           -999.25 :NULL      
COMP        .                                        TEXACO USA :COMPANY   
WELL        .                               OCS G01821 ST00BP00 :WELL      
FLD         .                                           WILDCAT :FIELD     
LOC         .                                                   :LOCATION  
CNTY        .                           HIGH ISLAND LARGE BLOCK :LOCATION  
STAT        .                                             TEXAS :STATE     
CTRY        .                                     UNITED STATES :COUNTRY   
SRVC        .                                                   :SERVICE COMPANY
DATE        .                             9/13/2023 11:19:15 AM :LOG DATE  
API         .                                    42708300170000 :API NUMBER
UWI         .                                    42708300170000 :UNIQUE WELL ID
XCOORD      .                                  1345073.13508324 :SURFACE X 
YCOORD      .                                  10640242.4404634 :SURFACE Y 
LAT         .                                         29.315788 :LATITUDE  
LON         .                                        -93.927032 :LONGITUDE 
ELEV        .FT                                              74 :ELEVATION VALUE
ELEV_TYPE   .                                                KB :ELEVATION REFERENCE TYPE
~Curve Information Section
#MNEM       .UNIT                                      API CODE :CURVE DESCRIPTION
#------------------------------------------------------------------------------
DEPT        .FT                                                 :DEPTH     
ASN         .OHMM                                               :          
CILD        .MMHO                                               :          
ILD         .OHMM                                               :          
SP          .MV                                                 :          
SP_NORM     .MV                                                 :SP Normalized
VSH_SP      .V/V                                                :Volume of Shale from SP
~A        DEPTH            ASN           CILD            ILD             SP        SP_NORM         VSH_SP
# ...
      3511.0000         1.0016       953.3008         0.9351       -39.9586       2.465645              1
      3511.5000         0.9967       957.1982         0.9357       -40.2377       2.186543              1
      3512.0000         0.9991       961.0947         0.9362       -40.2465       2.177746              1
      3512.5000         1.0051       964.9912         0.9367       -40.2021       2.222145              1
      3513.0000         1.0111       966.5742          0.936        -40.114       2.310246              1
      3513.5000         1.0093       967.6543         0.9348       -39.8961       2.528145              1
      3514.0000         1.0027       968.7334         0.9337       -39.6783       2.745945              1
      3514.5000         0.9961       969.8135         0.9326       -39.4604       2.963844              1
      3515.0000         0.9895       970.8936         0.9315       -39.2427       3.181545              1
      3515.5000         0.9829       971.9736         0.9303       -39.0248       3.399445              1
      3516.0000         0.9777       970.1709         0.9292       -38.8978       3.526443              1
      3516.5000         0.9747       967.0742         0.9281       -38.8773       3.546944              1
      3517.0000         0.9737       963.9785         0.9261       -38.9196       3.504642              1
      3517.5000           0.98       960.8818         0.9237       -38.9926       3.431644              1
      3518.0000         0.9862       957.8115         0.9213       -39.0656       3.358643              1
      3518.5000         0.9924       954.9883         0.9187       -39.1385       3.285744              1
      3519.0000         0.9987        958.207         0.9131       -39.2115       3.212746              1
      3519.5000         1.0049       964.0947         0.9074       -39.2845       3.139744              1
      3520.0000         1.0111       969.9785         0.9018       -39.3575       3.066746              1
      3520.5000         1.0174       978.6406         0.8961       -39.4305       2.993744              1
      3521.0000         1.0146       987.4219         0.8905       -39.5035       2.920742              1
      3521.5000         1.0079       996.2031         0.8848       -39.5767       2.847546              1
      3522.0000         1.0016        1004.99         0.8804         -39.65       2.774242              1
      3522.5000         0.9952       1014.102         0.8771       -39.7233       2.700943              1
      3523.0000         0.9888       1025.971         0.8739       -39.7966       2.627644              1
      3523.5000         0.9825       1037.838         0.8706       -39.8699       2.554344              1
      3524.0000         0.9761       1049.707         0.8673       -39.9432       2.481045              1
      3524.5000         0.9697       1061.574          0.864       -40.0165       2.407745              1
      3525.0000         0.9632       1072.893         0.8607       -40.0898       2.334442              1
      3525.5000         0.9563       1079.596         0.8574       -40.1631       2.261143              1
      3526.0000         0.9494       1086.303         0.8542       -40.2365       2.187744              1
      3526.5000         0.9425       1093.006         0.8528       -40.3098       2.114445              1
      3527.0000         0.9356       1099.709         0.8527       -40.4385       1.985744              1
      3527.5000         0.9287       1106.414         0.8525       -40.5956       1.828644              1
      3528.0000         0.9282       1113.117         0.8524       -40.7526       1.671642              1
      3528.5000         0.9335       1096.805         0.8522       -40.9095       1.514744              1
      3529.0000         0.9389        1076.98         0.8521       -41.0666       1.357643              1
      3529.5000         0.9442       1057.145         0.8528       -41.2236       1.200645              1
      3530.0000         0.9496       1046.549          0.854       -41.3806       1.043644              1
      3530.5000         0.9549       1044.313         0.8552       -41.5376      0.8866425              1
      3531.0000         0.9603       1042.076         0.8564       -41.6946      0.7296448              1
      3531.5000         0.9656       1039.838         0.8576       -41.8654      0.5588455              1
      3532.0000          0.971       1037.604         0.8587       -42.0367      0.3875427              1
      3532.5000         0.9746       1035.365         0.8599        -42.208      0.2162437              1
      3533.0000         0.9771       1034.314         0.8611       -42.3794     0.04484558              1
      3533.5000         0.9796       1034.271         0.8623       -42.5507     -0.1264572              1
      3534.0000         0.9822       1034.229         0.8636        -42.722     -0.2977562              1
      3534.5000         0.9847       1034.186         0.8649       -42.6957     -0.2714577              1
      3535.0000         0.9833       1034.143         0.8663       -42.5594     -0.1351547              1
      3535.5000         0.9794         1034.1         0.8676       -42.4231    0.001144409              1
      3536.0000         0.9754       1034.055         0.8689       -42.2867      0.1375427              1
      3536.5000         0.9714       1034.012         0.8702       -42.1505      0.2737427              1
      3537.0000         0.9675       1033.969         0.8716        -41.887      0.5372429              1
      3537.5000         0.9635       1033.926         0.8729       -41.4751      0.9491425              1
      3538.0000         0.9611       1033.594         0.8742       -41.2849       1.139343              1
      3538.5000         0.9589       1032.867         0.8755       -41.7529      0.6713448              1
      3539.0000         0.9567       1032.143         0.8769       -42.1454      0.2788429              1
      3539.5000         0.9544       1031.416         0.8782       -42.3546     0.06964493              1
      3540.0000         0.9535       1030.689         0.8795       -42.5639     -0.1396561              1
      3540.5000         0.9581       1029.965         0.8808       -42.7731     -0.3488579              1
      3541.0000         0.9627       1029.238         0.8818       -42.9825     -0.5582542              1
      3541.5000         0.9673       1028.104         0.8828       -43.1917     -0.7674561              1
      3542.0000         0.9719       1021.731         0.8838        -43.401      -0.976757              1
      3542.5000         0.9765       1015.358         0.8848       -43.3245     -0.9002571              1
      3543.0000         0.9811       1008.983         0.8858       -43.2413     -0.8170547              1
      3543.5000         0.9858       1002.612         0.8868       -43.1581     -0.7338562              1
      3544.0000         0.9904       996.2373         0.8878        -43.075     -0.6507568              1
      3544.5000          0.995        985.666         0.8888       -42.9918     -0.5675545              1
      3545.0000         0.9996       974.2471         0.8898       -42.9086     -0.4843559              1
      3545.5000         1.0042       962.8291         0.8908       -42.8254     -0.4011574              1
      3546.0000         1.0088       951.4111         0.8918       -42.7407     -0.3164558              1
      3546.5000         1.0134       939.9922         0.8928       -42.5659      -0.141655              1
      3547.0000          1.018        929.793         0.8938       -42.3911     0.03314209              1
      3547.5000         1.0226       922.2432         0.8945       -42.2162      0.2080421              1
      3548.0000         1.0273       914.6992         0.8943       -42.0413      0.3829422              1
      3548.5000         1.0319       907.1494         0.8942       -41.8665      0.5577431              1
