#------------------------------------------------------------------------------
# Created by    : vladimir.rabinovich
# Created on    : 09/19/2023 17:20:34
#------------------------------------------------------------------------------
~Version Information Section
VERS.           2.0     :   CWLS log ASCII Standard - VERSION 2.0
WRAP.           NO      :   One line per depth step
~Well Information Section
#MNEM       .UNIT                                         VALUE :DESCRIPTION
#------------------------------------------------------------------------------
STRT        .FT                                             500 :START DEPTH
STOP        .FT                                            9234 :STOP DEPTH
STEP        .FT                                             0.5 :STEP      
NULL        .                                           -999.25 :NULL      
COMP        .                                      SHELL OIL CO :COMPANY   
WELL        .                                OCS 00713 ST00BP00 :WELL      
FLD         .                                           WILDCAT :FIELD     
LOC         .                                                   :LOCATION  
CNTY        .                             GALVESTON LARGE BLOCK :LOCATION  
STAT        .                                             TEXAS :STATE     
CTRY        .                                     UNITED STATES :COUNTRY   
SRVC        .                                                   :SERVICE COMPANY
DATE        .                             9/13/2023 11:19:25 AM :LOG DATE  
API         .                                    42706000510000 :API NUMBER
UWI         .                                    42706000510000 :UNIQUE WELL ID
XCOORD      .                                  1104646.85179908 :SURFACE X 
YCOORD      .                                   10481381.387581 :SURFACE Y 
LAT         .                                         28.871549 :LATITUDE  
LON         .                                        -94.674396 :LONGITUDE 
ELEV        .FT                                              82 :ELEVATION VALUE
ELEV_TYPE   .                                                KB :ELEVATION REFERENCE TYPE
~Curve Information Section
#MNEM       .UNIT                                      API CODE :CURVE DESCRIPTION
#------------------------------------------------------------------------------
DEPT        .FT                                                 :DEPTH     
ASN         .OHMM                                               :          
ASN_1       .OHMM                                               :          
GR_NORM     .                                                   :GammaRay Normalized
ILD         .OHMM                                               :          
LAT         .OHMM                                               :          
LN          .OHMM                                               :          
SP          .MV                                                 :          
SP_1        .MV                                                 :          
SP_NORM     .MV                                                 :SP Normalized
VSH_SP      .V/V                                                :Volume of Shale from SP
~A        DEPTH            ASN          ASN_1        GR_NORM            ILD            LAT             LN             SP           SP_1        SP_NORM         VSH_SP
# ...
      6306.5000         0.8317        -999.25        -999.25         0.7258        -999.25        -999.25       -61.9232        -999.25   -0.002376556              1
      6307.0000         0.7995        -999.25        -999.25         0.6659        -999.25        -999.25       -63.2961        -999.25      -1.377224              1
      6307.5000          0.763        -999.25        -999.25         0.6134        -999.25        -999.25       -66.4705        -999.25      -4.553566      0.9328009
      6308.0000         0.7331        -999.25        -999.25         0.5679        -999.25        -999.25       -70.3785        -999.25      -8.463516      0.8299075
      6308.5000         0.7126        -999.25        -999.25         0.5252        -999.25        -999.25        -80.494        -999.25      -18.58096      0.5636589
      6309.0000         0.6896        -999.25        -999.25         0.4796        -999.25        -999.25       -88.4268        -999.25      -26.51571      0.3548498
      6309.5000         0.6627        -999.25        -999.25         0.4506        -999.25        -999.25        -92.355        -999.25      -30.44585      0.2514249
      6310.0000         0.6274        -999.25        -999.25         0.4383        -999.25        -999.25       -94.2102        -999.25      -32.30299      0.2025528
      6310.5000          0.613        -999.25        -999.25         0.4243        -999.25        -999.25       -89.5372        -999.25      -27.63194      0.3254752
      6311.0000         0.6046        -999.25        -999.25         0.4096        -999.25        -999.25       -88.5277        -999.25      -26.62439      0.3519897
      6311.5000          0.604        -999.25        -999.25         0.4121        -999.25        -999.25       -94.8092        -999.25      -32.90783      0.1866361
      6312.0000         0.6174        -999.25        -999.25         0.4299        -999.25        -999.25       -96.5344        -999.25      -34.63498      0.1411848
      6312.5000         0.6363        -999.25        -999.25         0.4477        -999.25        -999.25       -94.7015        -999.25      -32.80402      0.1893678
      6313.0000         0.6516        -999.25        -999.25         0.4655        -999.25        -999.25        -93.047        -999.25      -31.15147      0.2328562
      6313.5000         0.6648        -999.25        -999.25         0.4831        -999.25        -999.25       -91.5933        -999.25      -29.69971      0.2710601
      6314.0000         0.6735        -999.25        -999.25         0.4994        -999.25        -999.25       -90.8232        -999.25      -28.93156      0.2912748
      6314.5000         0.6843        -999.25        -999.25         0.5148        -999.25        -999.25       -90.9999        -999.25      -29.11021      0.2865735
      6315.0000         0.7004        -999.25        -999.25         0.5262        -999.25        -999.25        -92.272        -999.25      -30.38425      0.2530459
      6315.5000         0.7174        -999.25        -999.25         0.5382        -999.25        -999.25       -92.3572        -999.25       -30.4714      0.2507527
      6316.0000          0.735        -999.25        -999.25         0.5629        -999.25        -999.25       -91.7491        -999.25      -29.86524      0.2667042
      6316.5000         0.7472        -999.25        -999.25         0.5904        -999.25        -999.25       -92.4424        -999.25      -30.56049      0.2484083
      6317.0000         0.7554        -999.25        -999.25         0.6304        -999.25        -999.25       -94.2954        -999.25      -32.41544      0.1995938
      6317.5000         0.7723        -999.25        -999.25         0.6739        -999.25        -999.25       -89.1962        -999.25      -27.31818      0.3337322
      6318.0000         0.7989        -999.25        -999.25         0.7252        -999.25        -999.25       -82.9596        -999.25      -21.08353      0.4978019
      6318.5000         0.8391        -999.25        -999.25         0.7693        -999.25        -999.25       -75.4397        -999.25      -13.56557      0.6956429
      6319.0000         0.8825        -999.25        -999.25         0.8092        -999.25        -999.25       -72.9091        -999.25      -11.03692      0.7621863
      6319.5000         0.9053        -999.25        -999.25         0.8326        -999.25        -999.25       -71.5322        -999.25      -9.661964      0.7983693
      6320.0000         0.9183        -999.25        -999.25         0.8529        -999.25        -999.25       -70.2439        -999.25      -8.375603       0.832221
      6320.5000         0.9188        -999.25        -999.25         0.8642        -999.25        -999.25       -66.1654        -999.25      -4.299049      0.9394987
      6321.0000         0.9103        -999.25        -999.25         0.8686        -999.25        -999.25       -65.4506        -999.25      -3.586197       0.958258
      6321.5000         0.8948        -999.25        -999.25         0.8671        -999.25        -999.25       -65.4829        -999.25      -3.620445      0.9573567
      6322.0000          0.868        -999.25        -999.25         0.8523        -999.25        -999.25       -65.7004        -999.25      -3.839886       0.951582
      6322.5000         0.8478        -999.25        -999.25         0.8279        -999.25        -999.25       -64.1553        -999.25      -2.296726      0.9921914
      6323.0000         0.8542        -999.25        -999.25         0.7917        -999.25        -999.25       -62.2529        -999.25     -0.3962746              1
      6323.5000           0.88        -999.25        -999.25         0.7587        -999.25        -999.25       -61.5485        -999.25       0.306179              1
      6324.0000         0.9165        -999.25        -999.25         0.7584        -999.25        -999.25       -61.2408        -999.25      0.6119347              1
      6324.5000         0.9463        -999.25        -999.25         0.7791        -999.25        -999.25       -61.7112        -999.25      0.1395874              1
      6325.0000         0.9723        -999.25        -999.25          0.802        -999.25        -999.25       -62.7162        -999.25     -0.8673592              1
      6325.5000         0.9905        -999.25        -999.25         0.8239        -999.25        -999.25       -64.0308        -999.25      -2.183903      0.9951605
      6326.0000         0.9837        -999.25        -999.25         0.8403        -999.25        -999.25       -65.8289        -999.25      -3.983952      0.9477907
      6326.5000         0.9716        -999.25        -999.25         0.8415        -999.25        -999.25       -67.9478        -999.25      -6.104794      0.8919791
      6327.0000         0.9655        -999.25        -999.25         0.8428        -999.25        -999.25       -67.9935        -999.25      -6.152439      0.8907253
      6327.5000         0.9648        -999.25        -999.25         0.8291        -999.25        -999.25       -67.6202        -999.25      -5.781086      0.9004977
      6328.0000         0.9627        -999.25        -999.25         0.8149        -999.25        -999.25       -66.7644        -999.25      -4.927227      0.9229677
      6328.5000         0.9596        -999.25        -999.25         0.8094        -999.25        -999.25       -65.9449        -999.25      -4.109676      0.9444822
      6329.0000         0.9544        -999.25        -999.25         0.8091        -999.25        -999.25       -66.8788        -999.25      -5.045521      0.9198547
      6329.5000         0.9461        -999.25        -999.25         0.8074        -999.25        -999.25       -68.5457        -999.25      -6.714367      0.8759377
      6330.0000         0.9341        -999.25        -999.25         0.8053        -999.25        -999.25       -69.3392        -999.25      -7.509815      0.8550048
      6330.5000         0.9169        -999.25        -999.25         0.7951        -999.25        -999.25       -68.6624        -999.25      -6.834957      0.8727643
