#------------------------------------------------------------------------------
# Created by    : vladimir.rabinovich
# Created on    : 09/19/2023 17:19:50
#------------------------------------------------------------------------------
~Version Information Section
VERS.           2.0     :   CWLS log ASCII Standard - VERSION 2.0
WRAP.           NO      :   One line per depth step
~Well Information Section
#MNEM       .UNIT                                         VALUE :DESCRIPTION
#------------------------------------------------------------------------------
STRT        .FT                                             880 :START DEPTH
STOP        .FT                                            8374 :STOP DEPTH
STEP        .FT                                             0.5 :STEP      
NULL        .                                           -999.25 :NULL      
COMP        .                                        EXXON CORP :COMPANY   
WELL        .                               OCS G04552 ST00BP00 :WELL      
FLD         .                                 BRAZOS BLOCK 0451 :FIELD     
LOC         .                                                   :LOCATION  
CNTY        .                                BRAZOS LARGE BLOCK :LOCATION  
STAT        .                                             TEXAS :STATE     
CTRY        .                                     UNITED STATES :COUNTRY   
SRVC        .                                                   :SERVICE COMPANY
DATE        .                             9/13/2023 11:19:08 AM :LOG DATE  
API         .                                    42704401130000 :API NUMBER
UWI         .                                    42704401130000 :UNIQUE WELL ID
XCOORD      .                                  760277.642000753 :SURFACE X 
YCOORD      .                                  10343629.6463693 :SURFACE Y 
LAT         .                                         28.475327 :LATITUDE  
LON         .                                        -95.739931 :LONGITUDE 
ELEV        .FT                                              95 :ELEVATION VALUE
ELEV_TYPE   .                                                KB :ELEVATION REFERENCE TYPE
~Curve Information Section
#MNEM       .UNIT                                      API CODE :CURVE DESCRIPTION
#------------------------------------------------------------------------------
DEPT        .FT                                                 :DEPTH     
ASFL        .OHMM                                               :          
CALI        .IN                                                 :          
CILD        .MMHO                                               :          
DT          .US/F                                               :          
GR          .GAPI                                               :          
GR_NORM     .GAPI                                               :GammaRay Normalized
ILD         .OHMM                                               :          
ILM         .OHMM                                               :          
RHOB        .G/C3                                               :          
SP          .MV                                                 :          
SP_NORM     .MV                                                 :SP Normalized
VSH_GR      .V/V                                                :Volume of Shale from GR
VSH_SP      .V/V                                                :Volume of Shale from SP
~A        DEPTH           ASFL           CALI           CILD             DT             GR        GR_NORM            ILD            ILM           RHOB             SP        SP_NORM         VSH_GR         VSH_SP
# ...
      1526.0000         1.3159        -999.25       939.0625       157.8633        51.3906       66.22313         1.0199         1.0764        -999.25       -44.8282        -5.4198      0.7068751      0.8451486
      1526.5000         1.3147        -999.25       933.3096       157.4414         52.235       67.22621         1.0216          1.081        -999.25       -44.6478        -5.2374      0.7282172        0.85036
      1527.0000         1.3137        -999.25       929.8125       159.1675        53.1658       68.33161         1.0232         1.0854        -999.25       -44.5048        -5.0924      0.7517364      0.8545029
      1527.5000          1.313        -999.25       926.6436       161.9878        54.1166       69.46074         1.0249         1.0899        -999.25       -44.3925        -4.9781      0.7757604      0.8577686
      1528.0000         1.3124        -999.25       923.4736       163.8994        54.5092       69.92802         1.0266         1.0954        -999.25       -44.2492        -4.8329      0.7857025      0.8619171
      1528.5000         1.3118        -999.25       921.3154       165.0684        54.8758       70.36446         1.0282         1.1009        -999.25       -44.0588        -4.6405      0.7949885      0.8674143
      1529.0000         1.3113        -999.25       921.3193       165.9626        55.0131       70.52904         1.0299         1.1004        -999.25       -43.8685        -4.4482      0.7984902      0.8729086
      1529.5000         1.3108        -999.25       921.3232        165.884        55.1505       70.69373         1.0316         1.0992        -999.25       -43.3925        -3.9702      0.8019943      0.8865657
      1530.0000         1.3103        -999.25       921.7939       164.2842        55.3338       70.91296         1.0333         1.0971        -999.25       -42.8677        -3.4435      0.8066588      0.9016143
      1530.5000         1.3098        -999.25       924.6611       162.0471        55.5483       71.16905         1.0334         1.0946        -999.25        -42.269        -2.8428      0.8121075      0.9187772
      1531.0000         1.3087        -999.25       927.5273       159.9282        55.4446       71.04789         1.0324         1.0875        -999.25         -41.51        -2.0818      0.8095295        0.94052
      1531.5000         1.3076        -999.25       930.3936       158.7107        55.0883        70.6272         1.0315         1.0804        -999.25       -40.9867        -1.5565      0.8005788      0.9555286
      1532.0000         1.3049        -999.25       934.2158       158.3303        54.6754        70.1394         1.0305         1.0719        -999.25       -40.6511         -1.219      0.7902001      0.9651715
      1532.5000         1.2859        -999.25       941.3877       158.6953        55.1125       70.65945         1.0279          1.063        -999.25       -40.5743        -1.1402       0.801265      0.9674228
      1533.0000          1.273        -999.25       948.5586       159.4854        55.8531       71.53947         1.0207          1.055        -999.25       -40.4996        -1.0635      0.8199887      0.9696143
      1533.5000         1.2568        -999.25       955.6943       160.1753        56.6158       72.44556         1.0134         1.0475        -999.25       -40.5153        -1.0772      0.8392673      0.9692228
      1534.0000         1.2466        -999.25       962.3984       160.6553        57.3786       73.35178         1.0062         1.0379        -999.25       -40.5483        -1.1082      0.8585484      0.9683371
      1534.5000         1.2406        -999.25       969.1025       161.2922        58.1389       74.25504         0.9962         1.0261        -999.25       -40.5813        -1.1393      0.8777667      0.9674486
      1535.0000          1.236        -999.25       975.8086       162.0747        58.8873       75.14417         0.9859         1.0173        -999.25       -40.6119        -1.1679      0.8966845      0.9666314
      1535.5000         1.2347        -999.25       982.5127       163.0493        59.6357        76.0333         0.9756          1.013        -999.25       -40.6245        -1.1785      0.9156021      0.9663286
      1536.0000         1.2344        -999.25       990.9121       163.7981        60.3033       76.82664         0.9654          1.009        -999.25        -40.637         -1.189      0.9324818      0.9660286
      1536.5000         1.2341        -999.25       999.8926        164.124        60.5743       77.14987         0.9551          1.006        -999.25       -40.6495        -1.1996      0.9393589      0.9657257
      1537.0000         1.2366        -999.25       1008.873         164.23        60.4363       76.98801         0.9449         1.0031        -999.25       -40.6688        -1.2169      0.9359151      0.9652314
      1537.5000         1.2391        -999.25       1017.852       164.4509        60.2983       76.82616         0.9346         0.9978        -999.25       -40.6899         -1.236      0.9324716      0.9646857
      1538.0000           1.24        -999.25       1031.426       164.5984        60.4845       77.04871         0.9243         0.9912        -999.25       -40.7109         -1.255      0.9372067      0.9641429
      1538.5000          1.239        -999.25       1047.861       164.6228        61.3068       78.02548         0.9138         0.9841        -999.25        -40.732        -1.2742       0.957989      0.9635943
      1539.0000         1.2313        -999.25       1064.301       164.4426         62.085       78.94995          0.903         0.9714        -999.25       -40.7432        -1.2834      0.9776585      0.9633314
      1539.5000         1.2053        -999.25       1080.387       164.2646        62.8251       79.82938         0.8923         0.9589        -999.25        -40.753        -1.2912      0.9963697      0.9631086
      1540.0000         1.1921        -999.25       1095.582       164.1538        63.5497       80.69029         0.8815         0.9406        -999.25       -40.7628         -1.299              1      0.9628857
      1540.5000          1.185        -999.25       1110.781       164.9258         64.088       81.33034         0.8737         0.9247        -999.25       -40.7726        -1.3069              1        0.96266
      1541.0000         1.1781        -999.25       1125.982       165.9614        64.2998       81.58324         0.8686         0.9138        -999.25       -40.8321        -1.3644              1      0.9610171
      1541.5000         1.1714        -999.25       1143.102       167.2412        64.1833       81.44689         0.8643         0.8981        -999.25       -40.9296        -1.4599              1      0.9582886
      1542.0000         1.1624        -999.25       1163.939       168.4238        64.0668       81.31053         0.8643         0.8765        -999.25       -41.0272        -1.5555              1      0.9555572
      1542.5000         1.1578        -999.25       1182.912       169.4973        63.9451       81.16801         0.8643         0.8581        -999.25       -41.1349        -1.6612              1      0.9525371
      1543.0000         1.1588        -999.25       1169.154       170.1433        63.8134       81.01376         0.8691         0.8415        -999.25       -41.2754        -1.7998              1      0.9485772
      1543.5000         1.1631        -999.25       1155.396       170.6458        63.6432       80.81373         0.8739         0.8289        -999.25       -41.4159        -1.9383              1        0.94462
      1544.0000         1.1692        -999.25       1141.639       170.8862        63.2991       80.40752         0.8787         0.8272        -999.25       -41.5563        -2.0767              1      0.9406657
      1544.5000         1.1807        -999.25       1127.877       170.9216         62.955        80.0013         0.8848         0.8307        -999.25       -41.6968        -2.2152              1      0.9367086
