#------------------------------------------------------------------------------
# Created by    : vladimir.rabinovich
# Created on    : 09/19/2023 17:21:23
#------------------------------------------------------------------------------
~Version Information Section
VERS.           2.0     :   CWLS log ASCII Standard - VERSION 2.0
WRAP.           NO      :   One line per depth step
~Well Information Section
#MNEM       .UNIT                                         VALUE :DESCRIPTION
#------------------------------------------------------------------------------
STRT        .FT                                            1005 :START DEPTH
STOP        .FT                                            8973 :STOP DEPTH
STEP        .FT                                             0.5 :STEP      
NULL        .                                           -999.25 :NULL      
COMP        .                            MARITECH RESOURCES INC :COMPANY   
WELL        .                               OCS G06113 ST00BP00 :WELL      
FLD         .                              GALVESTON BLOCK 0343 :FIELD     
LOC         .                                                   :LOCATION  
CNTY        .                             GALVESTON LARGE BLOCK :LOCATION  
STAT        .                                             TEXAS :STATE     
CTRY        .                                     UNITED STATES :COUNTRY   
SRVC        .                                                   :SERVICE COMPANY
DATE        .                             9/13/2023 11:19:36 AM :LOG DATE  
API         .                                    42706402140000 :API NUMBER
UWI         .                                    42706402140000 :UNIQUE WELL ID
XCOORD      .                                  914498.553138379 :SURFACE X 
YCOORD      .                                  10427492.1426863 :SURFACE Y 
LAT         .                                         28.714711 :LATITUDE  
LON         .                                        -95.265111 :LONGITUDE 
ELEV        .FT                                              84 :ELEVATION VALUE
ELEV_TYPE   .                                                KB :ELEVATION REFERENCE TYPE
~Curve Information Section
#MNEM       .UNIT                                      API CODE :CURVE DESCRIPTION
#------------------------------------------------------------------------------
DEPT        .FT                                                 :DEPTH     
CALI        .IN                                                 :          
DPHI        .%                                                  :          
DRHO        .G/C3                                               :          
DT          .US/F                                               :          
GR          .GAPI                                               :          
ILD         .OHMM                                               :          
ILM         .OHMM                                               :          
NPHI        .%                                                  :          
SGRD        .OHMM                                               :          
SP          .MV                                                 :          
SP_NORM     .MV                                                 :SP Normalized
VSH_SP      .V/V                                                :Volume of Shale from SP
~A        DEPTH           CALI           DPHI           DRHO             DT             GR            ILD            ILM           NPHI           SGRD             SP        SP_NORM         VSH_SP
# ...
      1538.0000        -999.25        -999.25        -999.25        -999.25        -999.25         1.4756         0.9814        -999.25         0.8213       -89.3916       3.058151              1
      1538.5000        -999.25        -999.25        -999.25        -999.25        -999.25         1.4189         0.9372        -999.25         0.7964       -89.8221       2.898605              1
      1539.0000        -999.25        -999.25        -999.25        -999.25        -999.25         1.3706         0.8998        -999.25         0.7812       -91.0596       1.932053              1
      1539.5000        -999.25        -999.25        -999.25        -999.25        -999.25          1.334         0.8821        -999.25         0.7689       -92.6274      0.6352005              1
      1540.0000        -999.25        -999.25        -999.25        -999.25        -999.25         1.3129         0.8735        -999.25         0.7595       -94.1895     -0.6559448              1
      1540.5000        -999.25        -999.25        -999.25        -999.25        -999.25         1.3246         0.8726        -999.25         0.7583       -95.8394      -2.034904      0.9980609
      1541.0000        -999.25        -999.25        -999.25        -999.25        -999.25          1.381         0.8858        -999.25         0.7655       -97.2655      -3.190056      0.9338858
      1541.5000        -999.25        -999.25        -999.25        -999.25        -999.25          1.456         0.9387        -999.25         0.7966       -98.3641        -4.0177      0.8879055
      1542.0000        -999.25        -999.25        -999.25        -999.25        -999.25         1.5439         0.9994        -999.25         0.8422       -99.1353      -4.517952      0.8601138
      1542.5000        -999.25        -999.25        -999.25        -999.25        -999.25         1.6959         1.0846        -999.25         0.8948       -99.4292      -4.540901      0.8588388
      1543.0000        -999.25        -999.25        -999.25        -999.25        -999.25         1.8462         1.1626        -999.25         0.9622       -99.4058      -4.246552      0.8751916
      1543.5000        -999.25        -999.25        -999.25        -999.25        -999.25         1.9861          1.225        -999.25          1.021       -99.2841      -3.853905      0.8970053
      1544.0000        -999.25        -999.25        -999.25        -999.25        -999.25         2.1044          1.296        -999.25         1.0719       -98.9072      -3.206055       0.932997
      1544.5000        -999.25        -999.25        -999.25        -999.25        -999.25         2.1782          1.372        -999.25         1.1167       -98.4388      -2.676918      0.9623935
      1545.0000        -999.25        -999.25        -999.25        -999.25        -999.25         2.2008         1.4075        -999.25         1.1599       -97.9807      -2.213394      0.9881448
      1545.5000        -999.25        -999.25        -999.25        -999.25        -999.25         2.1781         1.3938        -999.25         1.1898       -97.5454      -1.772667              1
      1546.0000        -999.25        -999.25        -999.25        -999.25        -999.25         2.1415         1.3631        -999.25         1.1995       -97.1102      -1.332031              1
      1546.5000        -999.25        -999.25        -999.25        -999.25        -999.25         2.0834         1.3291        -999.25         1.1872        -96.845      -1.061401              1
      1547.0000        -999.25        -999.25        -999.25        -999.25        -999.25         2.0359         1.3058        -999.25         1.1586       -96.6003     -0.8112717              1
      1547.5000        -999.25        -999.25        -999.25        -999.25        -999.25         1.9907         1.2863        -999.25         1.1254       -96.6522     -0.8577423              1
      1548.0000        -999.25        -999.25        -999.25        -999.25        -999.25         1.9343         1.2741        -999.25         1.0999       -96.6533     -0.8534088              1
      1548.5000        -999.25        -999.25        -999.25        -999.25        -999.25         1.9023         1.2697        -999.25           1.08       -96.5963     -0.7909775              1
      1549.0000        -999.25        -999.25        -999.25        -999.25        -999.25         1.8841         1.2673        -999.25         1.0672       -96.6191     -0.8083496              1
      1549.5000        -999.25        -999.25        -999.25        -999.25        -999.25         1.8876         1.2675        -999.25         1.0619       -96.8441      -1.027916              1
      1550.0000        -999.25        -999.25        -999.25        -999.25        -999.25         1.9189         1.2796        -999.25         1.0518       -97.2158      -1.394188              1
      1550.5000        -999.25        -999.25        -999.25        -999.25        -999.25          1.924         1.2947        -999.25         1.0368       -97.8325      -2.005455       0.999697
      1551.0000        -999.25        -999.25        -999.25        -999.25        -999.25         1.9091         1.3021        -999.25          1.006       -98.6332      -2.800728      0.9555151
      1551.5000        -999.25        -999.25        -999.25        -999.25        -999.25         1.8464          1.295        -999.25         1.0032       -99.5496      -3.711693       0.904906
      1552.0000        -999.25        -999.25        -999.25        -999.25        -999.25         1.7611         1.2496        -999.25         1.0187       -100.318      -4.474663      0.8625187
      1552.5000        -999.25        -999.25        -999.25        -999.25        -999.25         1.6801          1.179        -999.25         1.0184      -100.9722      -5.123428      0.8264762
      1553.0000        -999.25        -999.25        -999.25        -999.25        -999.25         1.6012         1.1097        -999.25         0.9812      -101.5297      -5.675507      0.7958052
      1553.5000        -999.25        -999.25        -999.25        -999.25        -999.25         1.5215         1.0603        -999.25         0.9397      -101.7545      -5.894875      0.7836181
      1554.0000        -999.25        -999.25        -999.25        -999.25        -999.25         1.4376         1.0189        -999.25         0.8947      -101.7158      -5.850739      0.7860701
      1554.5000        -999.25        -999.25        -999.25        -999.25        -999.25         1.3531         0.9802        -999.25         0.8479       -101.322      -5.451508      0.8082496
      1555.0000        -999.25        -999.25        -999.25        -999.25        -999.25         1.2833         0.9358        -999.25         0.8187      -100.8201      -4.944176      0.8364347
      1555.5000        -999.25        -999.25        -999.25        -999.25        -999.25         1.2291         0.9209        -999.25         0.8072       -99.9648       -4.08345      0.8842528
      1556.0000        -999.25        -999.25        -999.25        -999.25        -999.25         1.1897         0.9044        -999.25         0.8095        -99.108      -3.221222      0.9321544
      1556.5000        -999.25        -999.25        -999.25        -999.25        -999.25         1.1686         0.8873        -999.25         0.8202       -98.2101      -2.317886      0.9823396
      1557.0000        -999.25        -999.25        -999.25        -999.25        -999.25         1.1754         0.8734        -999.25          0.831        -97.312      -1.414352              1
      1557.5000        -999.25        -999.25        -999.25        -999.25        -999.25         1.1932         0.8609        -999.25         0.8418       -96.6229     -0.7198257              1
      1558.0000        -999.25        -999.25        -999.25        -999.25        -999.25         1.2253          0.857        -999.25         0.8461       -96.1448     -0.2362976              1
