#------------------------------------------------------------------------------
# Created by    : vladimir.rabinovich
# Created on    : 09/19/2023 17:20:38
#------------------------------------------------------------------------------
~Version Information Section
VERS.           2.0     :   CWLS log ASCII Standard - VERSION 2.0
WRAP.           NO      :   One line per depth step
~Well Information Section
#MNEM       .UNIT                                         VALUE :DESCRIPTION
#------------------------------------------------------------------------------
STRT        .FT                                             540 :START DEPTH
STOP        .FT                                            8409 :STOP DEPTH
STEP        .FT                                             0.5 :STEP      
NULL        .                                           -999.25 :NULL      
COMP        .                                      SHELL OIL CO :COMPANY   
WELL        .                                OCS 00706 ST00BP00 :WELL      
FLD         .                                           WILDCAT :FIELD     
LOC         .                                                   :LOCATION  
CNTY        .                             GALVESTON LARGE BLOCK :LOCATION  
STAT        .                                             TEXAS :STATE     
CTRY        .                                     UNITED STATES :COUNTRY   
SRVC        .                                                   :SERVICE COMPANY
DATE        .                             9/13/2023 11:19:25 AM :LOG DATE  
API         .                                    42706000280000 :API NUMBER
UWI         .                                    42706000280000 :UNIQUE WELL ID
XCOORD      .                                  1100625.96198943 :SURFACE X 
YCOORD      .                                  10499283.7203345 :SURFACE Y 
LAT         .                                         28.920625 :LATITUDE  
LON         .                                        -94.687754 :LONGITUDE 
ELEV        .FT                                              78 :ELEVATION VALUE
ELEV_TYPE   .                                                KB :ELEVATION REFERENCE TYPE
~Curve Information Section
#MNEM       .UNIT                                      API CODE :CURVE DESCRIPTION
#------------------------------------------------------------------------------
DEPT        .FT                                                 :DEPTH     
ASN         .OHMM                                               :          
DT          .US/F                                               :          
ILD         .OHMM                                               :          
LAT         .OHMM                                               :          
LN          .OHMM                                               :          
SP          .MV                                                 :          
SP_NORM     .MV                                                 :SP Normalized
VSH_SP      .V/V                                                :Volume of Shale from SP
~A        DEPTH            ASN             DT            ILD            LAT             LN             SP        SP_NORM         VSH_SP
# ...
      1071.0000         1.1211        -999.25        -999.25         1.6002         1.1572       -58.1466      -5.245003       0.943409
      1071.5000         1.1103        -999.25        -999.25         1.6105         1.1557        -58.129      -5.228718      0.9441492
      1072.0000         1.1229        -999.25        -999.25         1.6208         1.1542       -58.3052      -5.406231      0.9360804
      1072.5000         1.1355        -999.25        -999.25         1.6311         1.1555       -58.5103      -5.612644       0.926698
      1073.0000          1.148        -999.25        -999.25         1.6414         1.1586       -58.7155      -5.819157      0.9173111
      1073.5000         1.1595        -999.25        -999.25         1.6517         1.1617       -58.9205      -6.025471      0.9079332
      1074.0000         1.1706        -999.25        -999.25          1.662         1.1648       -59.1257      -6.231987       0.898546
      1074.5000         1.1428        -999.25        -999.25         1.6723         1.1678       -59.3308      -6.438396      0.8891638
      1075.0000         1.1054        -999.25        -999.25         1.6617         1.1874       -59.1271      -6.236012      0.8983631
      1075.5000         1.0682        -999.25        -999.25         1.6358         1.2112       -58.8961      -6.006321      0.9088036
      1076.0000         1.0406        -999.25        -999.25         1.6099          1.235        -58.665      -5.776539      0.9192482
      1076.5000         1.0303        -999.25        -999.25          1.584         1.2588       -58.3461       -5.45895      0.9336841
      1077.0000         1.0564        -999.25        -999.25         1.5581         1.2826       -58.0055      -5.119663      0.9491062
      1077.5000         1.1494        -999.25        -999.25         1.5322         1.3089       -57.6649      -4.780376      0.9645283
      1078.0000         1.2302        -999.25        -999.25         1.4986         1.3775       -57.3243      -4.441086      0.9799507
      1078.5000         1.2962        -999.25        -999.25         1.4544         1.4461       -57.1987      -4.316803      0.9855999
      1079.0000         1.3551        -999.25        -999.25         1.4102         1.5147       -57.4813      -4.600716      0.9726948
      1079.5000          1.453        -999.25        -999.25          1.366         1.5622       -58.0522      -5.172928      0.9466851
      1080.0000          1.497        -999.25        -999.25         1.3577         1.5777       -58.7493      -5.871338      0.9149392
      1080.5000         1.5432        -999.25        -999.25         1.3544         1.5932       -59.4463      -6.569656      0.8831974
      1081.0000         1.6099        -999.25        -999.25         1.3511         1.6087        -60.119      -7.243668      0.8525606
      1081.5000         1.7021        -999.25        -999.25         1.3478         1.6184       -60.0966       -7.22258      0.8535191
      1082.0000         1.7356        -999.25        -999.25         1.3445         1.6069       -60.0741      -7.201393      0.8544821
      1082.5000         1.7481        -999.25        -999.25         1.3412         1.5954       -60.0516       -7.18021       0.855445
      1083.0000         1.7374        -999.25        -999.25         1.3379         1.5839       -60.0292      -7.159122      0.8564035
      1083.5000           1.71        -999.25        -999.25         1.3346         1.5723       -60.0068      -7.138035       0.857362
      1084.0000         1.6826        -999.25        -999.25         1.3461         1.5608       -59.9843      -7.116844      0.8583252
      1084.5000         1.6552        -999.25        -999.25         1.3609         1.5493       -59.9164      -7.050259      0.8613519
      1085.0000         1.6278        -999.25        -999.25         1.3758         1.5334        -59.701      -6.836174       0.871083
      1085.5000         1.6004        -999.25        -999.25         1.3907         1.4876       -59.4856      -6.622086      0.8808143
      1086.0000         1.5729        -999.25        -999.25         1.4056         1.4419       -58.7949      -5.932697      0.9121501
      1086.5000         1.5447        -999.25        -999.25         1.4205         1.3962       -58.0399      -5.179012      0.9464085
      1087.0000         1.5166        -999.25        -999.25         1.4354         1.3504       -57.2849      -4.425327      0.9806669
      1087.5000         1.4872        -999.25        -999.25         1.4503         1.3125       -56.5341      -3.675838              1
      1088.0000          1.455        -999.25        -999.25         1.4652         1.2879       -55.8045      -2.947552              1
      1088.5000         1.4225        -999.25        -999.25         1.4819         1.2634        -55.075      -2.219364              1
      1089.0000         1.3858        -999.25        -999.25         1.5033         1.2388       -54.3455       -1.49118              1
      1089.5000         1.3492        -999.25        -999.25         1.5246         1.2143       -53.9796      -1.126591              1
      1090.0000         1.3116        -999.25        -999.25          1.546         1.1897       -53.7099     -0.8582039              1
      1090.5000         1.2741        -999.25        -999.25         1.5674         1.1822       -53.4402      -0.589817              1
      1091.0000         1.2001        -999.25        -999.25         1.5888         1.1777       -53.1705      -0.321434              1
      1091.5000         1.1735        -999.25        -999.25         1.6101         1.1731       -53.0481     -0.2003441              1
      1092.0000         1.1702        -999.25        -999.25         1.6315         1.1686       -53.0744     -0.2279587              1
      1092.5000          1.167        -999.25        -999.25         1.6529         1.1641       -53.1007     -0.2555695              1
      1093.0000          1.164        -999.25        -999.25         1.6593         1.1595       -53.5944     -0.7505798              1
      1093.5000         1.1622        -999.25        -999.25         1.6654          1.155       -54.1489      -1.306396              1
      1094.0000         1.1604        -999.25        -999.25         1.6715         1.1504       -54.7032      -1.862011              1
      1094.5000         1.1586        -999.25        -999.25         1.6776         1.1471       -55.2576      -2.417721              1
      1095.0000         1.1567        -999.25        -999.25         1.6837         1.1456       -55.8141      -2.975533              1
      1095.5000         1.1549        -999.25        -999.25         1.6898          1.144       -56.3782      -3.540951              1
      1096.0000         1.1502        -999.25        -999.25         1.6959         1.1425       -56.9423      -4.106361      0.9951654
      1096.5000         1.1394        -999.25        -999.25          1.702          1.141       -57.5063      -4.671677      0.9694692
      1097.0000         1.1285        -999.25        -999.25         1.7081         1.1395       -58.0704      -5.237087      0.9437687
      1097.5000         1.1176        -999.25        -999.25         1.7113          1.138       -58.3656      -5.533604      0.9302908
      1098.0000         1.1028        -999.25        -999.25         1.7012         1.1365       -58.5616      -5.730915       0.921322
      1098.5000          1.085        -999.25        -999.25         1.6912          1.135       -58.7526      -5.923229      0.9125805
      1099.0000         1.0672        -999.25        -999.25         1.6811         1.1412       -58.7926      -5.964539      0.9107028
      1099.5000         1.0499        -999.25        -999.25          1.671         1.1541       -58.6741      -5.847351      0.9160295
      1100.0000         1.0359        -999.25        -999.25          1.661          1.167       -58.5556      -5.730167       0.921356
