#------------------------------------------------------------------------------
# Created by    : vladimir.rabinovich
# Created on    : 09/19/2023 17:20:35
#------------------------------------------------------------------------------
~Version Information Section
VERS.           2.0     :   CWLS log ASCII Standard - VERSION 2.0
WRAP.           NO      :   One line per depth step
~Well Information Section
#MNEM       .UNIT                                         VALUE :DESCRIPTION
#------------------------------------------------------------------------------
STRT        .FT                                             504 :START DEPTH
STOP        .FT                                            9361 :STOP DEPTH
STEP        .FT                                             0.5 :STEP      
NULL        .                                           -999.25 :NULL      
COMP        .                                      SHELL OIL CO :COMPANY   
WELL        .                                OCS 00704 ST00BP00 :WELL      
FLD         .                                           WILDCAT :FIELD     
LOC         .                                                   :LOCATION  
CNTY        .                             GALVESTON LARGE BLOCK :LOCATION  
STAT        .                                             TEXAS :STATE     
CTRY        .                                     UNITED STATES :COUNTRY   
SRVC        .                                                   :SERVICE COMPANY
DATE        .                             9/13/2023 11:19:25 AM :LOG DATE  
API         .                                    42706000430000 :API NUMBER
UWI         .                                    42706000430000 :UNIQUE WELL ID
XCOORD      .                                  1136254.96267488 :SURFACE X 
YCOORD      .                                  10526383.5552877 :SURFACE Y 
LAT         .                                         28.996505 :LATITUDE  
LON         .                                        -94.577519 :LONGITUDE 
ELEV        .FT                                              42 :ELEVATION VALUE
ELEV_TYPE   .                                                KB :ELEVATION REFERENCE TYPE
~Curve Information Section
#MNEM       .UNIT                                      API CODE :CURVE DESCRIPTION
#------------------------------------------------------------------------------
DEPT        .FT                                                 :DEPTH     
ASN         .OHMM                                               :          
DT          .US/F                                               :          
LN          .OHMM                                               :          
SP          .MV                                                 :          
SP_NORM     .MV                                                 :SP Normalized
VSH_SP      .V/V                                                :Volume of Shale from SP
~A        DEPTH            ASN             DT             LN             SP        SP_NORM         VSH_SP
# ...
      2252.0000         0.7246        -999.25         1.4589       -70.3462      -5.569809      0.6985326
      2252.5000         0.7138        -999.25         1.4591       -70.4004      -5.628258      0.6942031
      2253.0000          0.703        -999.25         1.4594       -70.3386      -5.570709       0.698466
      2253.5000         0.6928        -999.25         1.4596       -70.2698      -5.506165      0.7032471
      2254.0000         0.6841        -999.25         1.4599       -70.2009      -5.441513      0.7080361
      2254.5000         0.6792        -999.25         1.4601       -70.1163      -5.361168      0.7139876
      2255.0000         0.6769        -999.25         1.4604       -70.0227       -5.27182      0.7206059
      2255.5000         0.6745        -999.25         1.4605       -70.2388      -5.492172      0.7042835
      2256.0000         0.6719        -999.25         1.4607       -70.5604      -5.818024      0.6801464
      2256.5000         0.6685        -999.25         1.4608       -70.9694      -6.231277       0.649535
      2257.0000         0.6651        -999.25         1.4609       -71.3783      -6.644432      0.6189309
      2257.5000         0.6617        -999.25         1.4611       -71.7943      -7.064674      0.5878019
      2258.0000         0.6583        -999.25         1.4612       -72.2872      -7.561829      0.5509757
      2258.5000         0.6549        -999.25         1.4613       -72.7802      -8.059082      0.5141421
      2259.0000         0.6515        -999.25         1.4615       -73.2731      -8.556236      0.4773158
      2259.5000         0.6481        -999.25         1.4616       -73.7474      -9.034782       0.441868
      2260.0000         0.6447        -999.25         1.4627       -74.1855      -9.477142      0.4091006
      2260.5000         0.6401        -999.25         1.4642       -74.6237      -9.919594      0.3763264
      2261.0000         0.6354        -999.25         1.4657        -74.951      -10.25114      0.3517677
      2261.5000         0.6307        -999.25         1.4672       -75.1696        -10.474      0.3352593
      2262.0000          0.626        -999.25         1.4687       -75.0669      -10.37555      0.3425519
      2262.5000         0.6213        -999.25         1.4702       -74.5168      -9.829697      0.3829854
      2263.0000         0.6166        -999.25         1.4717       -73.9672      -9.284348      0.4233817
      2263.5000         0.6119        -999.25         1.4732       -73.5503      -8.871704      0.4539478
      2264.0000          0.608        -999.25         1.4747       -73.4078      -8.733452      0.4641888
      2264.5000          0.605        -999.25         1.4762       -73.2651      -8.595001      0.4744444
      2265.0000          0.602        -999.25         1.4777       -73.2396      -8.573761      0.4760177
      2265.5000         0.6006        -999.25         1.4782       -73.2158      -8.554207      0.4774662
      2266.0000         0.6058        -999.25         1.4777        -73.192       -8.53466      0.4789141
      2266.5000         0.6111        -999.25         1.4773       -73.1132      -8.460114       0.484436
      2267.0000         0.6163        -999.25         1.4768        -72.808      -8.159164      0.5067286
      2267.5000          0.622        -999.25         1.4763       -72.5029      -7.858315      0.5290138
      2268.0000         0.6314        -999.25         1.4758       -72.1978      -7.557465      0.5512989
      2268.5000         0.6408        -999.25         1.4754       -71.7587       -7.12262      0.5835097
      2269.0000         0.6502        -999.25         1.4749       -71.3157      -6.683868      0.6160098
      2269.5000         0.6597        -999.25         1.4744       -70.8727      -6.245125      0.6485093
      2270.0000         0.6691        -999.25         1.4739       -70.4755       -5.85218      0.6776162
      2270.5000         0.6794        -999.25         1.4735       -70.1333      -5.514229      0.7026497
      2271.0000         0.6985        -999.25         1.4762       -69.7911      -5.176277      0.7276832
      2271.5000         0.7176        -999.25         1.4795       -69.4489      -4.838333      0.7527161
      2272.0000         0.7367        -999.25         1.4827       -69.0967      -4.490387      0.7784898
      2272.5000         0.7501        -999.25         1.4859       -68.7218      -4.119736      0.8059455
      2273.0000         0.7614        -999.25         1.4892        -68.347      -3.749184      0.8333938
      2273.5000         0.7727        -999.25         1.4924       -68.2289      -3.635338      0.8418269
      2274.0000          0.784        -999.25         1.4956       -68.3672      -3.777893      0.8312672
      2274.5000         0.7953        -999.25         1.4989       -68.5055      -3.920441      0.8207081
      2275.0000         0.8069        -999.25         1.5045       -68.6437      -4.062897      0.8101558
      2275.5000         0.8205        -999.25         1.5104        -68.782      -4.205444      0.7995967
      2276.0000          0.834        -999.25         1.5163       -68.9203         -4.348       0.789037
      2276.5000         0.8345        -999.25         1.5221       -69.0586      -4.490555      0.7784774
      2277.0000         0.8254        -999.25          1.528       -69.1968      -4.633003      0.7679257
      2277.5000         0.8162        -999.25         1.5314       -69.0795      -4.519951         0.7763
      2278.0000         0.8071        -999.25         1.5325       -68.3473         -3.792      0.8302222
      2278.5000          0.798        -999.25         1.5336       -67.4939      -2.942856      0.8931218
      2279.0000         0.7889        -999.25         1.5347       -66.7891       -2.24231      0.9450141
      2279.5000         0.7769        -999.25         1.5358       -66.0842      -1.541656      0.9969143
      2280.0000         0.7628        -999.25         1.5369       -66.1505      -1.612213      0.9916879
      2280.5000         0.7488        -999.25          1.538       -68.1843      -3.650269      0.8407208
      2281.0000         0.7348        -999.25         1.5385        -70.235      -5.705215      0.6885026
      2281.5000         0.7208        -999.25         1.5391       -71.9756      -7.450073      0.5592538
      2282.0000         0.7088        -999.25         1.5396       -73.3152      -8.793922      0.4597094
      2282.5000         0.6977        -999.25         1.5401       -74.0791      -9.562073      0.4028094
      2283.0000         0.6866        -999.25         1.5407       -74.3546       -9.84182      0.3820874
      2283.5000         0.6756        -999.25         1.5425       -74.4667      -9.958176      0.3734685
      2284.0000         0.6641        -999.25         1.5475       -74.5334      -10.02913      0.3682127
      2284.5000         0.6507        -999.25         1.5524       -74.4926      -9.992577      0.3709202
      2285.0000         0.6567        -999.25         1.5574       -74.4517      -9.955933      0.3736346
      2285.5000         0.6668        -999.25         1.5623       -74.4108      -9.919281      0.3763496
      2286.0000         0.6778        -999.25         1.5672       -74.2347      -9.747437      0.3890788
      2286.5000         0.6903        -999.25         1.5722        -73.772      -9.288994      0.4230375
      2287.0000         0.7028        -999.25         1.5771       -73.3092      -8.830437      0.4570047
      2287.5000         0.7152        -999.25         1.5835       -71.7186      -7.244087      0.5745121
      2288.0000         0.7277        -999.25         1.5994       -68.3131      -3.842842      0.8264561
      2288.5000         0.7393        -999.25         1.6153       -67.3368      -2.870796      0.8984596
      2289.0000         0.7478        -999.25         1.6312       -66.5126       -2.05085      0.9591963
      2289.5000         0.7563        -999.25         1.6471       -65.9982      -1.540695      0.9969856
