#------------------------------------------------------------------------------
# Created by    : vladimir.rabinovich
# Created on    : 09/19/2023 17:22:48
#------------------------------------------------------------------------------
~Version Information Section
VERS.           2.0     :   CWLS log ASCII Standard - VERSION 2.0
WRAP.           NO      :   One line per depth step
~Well Information Section
#MNEM       .UNIT                                         VALUE :DESCRIPTION
#------------------------------------------------------------------------------
STRT        .FT                                            3512 :START DEPTH
STOP        .FT                                           11028 :STOP DEPTH
STEP        .FT                                             0.5 :STEP      
NULL        .                                           -999.25 :NULL      
COMP        .                          SEAGULL ENERGY E & P INC :COMPANY   
WELL        .                   ST TR 147-L NE/4 /ST LSE 88034/ :WELL      
FLD         .                                           WILDCAT :FIELD     
LOC         .                                                   :LOCATION  
CNTY        .                             GALVESTON LARGE BLOCK :LOCATION  
STAT        .                                             TEXAS :STATE     
CTRY        .                                     UNITED STATES :COUNTRY   
SRVC        .                                                   :SERVICE COMPANY
DATE        .                             9/13/2023 11:18:53 AM :LOG DATE  
API         .                                    42706302000000 :API NUMBER
UWI         .                                    42706302000000 :UNIQUE WELL ID
XCOORD      .                                  1107149.67333588 :SURFACE X 
YCOORD      .                                  10638300.0198507 :SURFACE Y 
LAT         .                                        29.3031745 :LATITUDE  
LON         .                                         -94.67354 :LONGITUDE 
ELEV        .FT                                              25 :ELEVATION VALUE
ELEV_TYPE   .                                                KB :ELEVATION REFERENCE TYPE
~Curve Information Section
#MNEM       .UNIT                                      API CODE :CURVE DESCRIPTION
#------------------------------------------------------------------------------
DEPT        .FT                                                 :DEPTH     
DT          .US/F                                               :          
GR          .GAPI                                               :          
GR_NORM     .GAPI                                               :GammaRay Normalized
ILD         .OHMM                                               :          
ILM         .OHMM                                               :          
SFL         .OHMM                                               :          
SP          .MV                                                 :          
SP_NORM     .MV                                                 :SP Normalized
VSH_GR      .V/V                                                :Volume of Shale from GR
VSH_SP      .V/V                                                :Volume of Shale from SP
~A        DEPTH             DT             GR        GR_NORM            ILD            ILM            SFL             SP        SP_NORM         VSH_GR         VSH_SP
# ...
     10519.0000        98.3077        53.3228       75.99119         0.7254         0.7553          0.822        -22.234       2.602602      0.9147061              1
     10519.5000        98.1517        53.3942       75.98654         0.7272         0.7547         0.8233       -21.9555       2.881102      0.9146073              1
     10520.0000        98.0233        53.5148        76.0311         0.7289         0.7521         0.8288       -21.8021       3.034502      0.9155552              1
     10520.5000        98.0039        53.7559       76.19615         0.7286         0.7491         0.8446       -21.6931       3.143501      0.9190671              1
     10521.0000        98.0667        53.3248         75.689         0.7254         0.7429         0.8588       -21.6582       3.178402      0.9082765              1
     10521.5000        98.2939        52.7042       74.99236         0.7222         0.7369         0.8688       -21.6774       3.159201      0.8934544              1
     10522.0000        98.6753        52.0052        74.2173         0.7209         0.7301         0.8694        -21.611       3.225601      0.8769639              1
     10522.5000        99.2207        51.3198       73.45586         0.7198         0.7229         0.8593       -21.4714       3.365202      0.8607629              1
     10523.0000        99.9049        50.9922       73.05221         0.7188         0.7163         0.8439       -21.2505       3.586102      0.8521746              1
     10523.5000       100.6567        54.2831       76.26706         0.7177         0.7103         0.8178       -20.9754         3.8612      0.9205757              1
     10524.0000       101.4552        59.7571       81.66501         0.7167         0.7061         0.7914       -20.8377       3.998901              1              1
     10524.5000       102.1953        63.2726       85.10446         0.7156         0.7041         0.7659       -20.9757       3.860901              1              1
     10525.0000       102.4827        65.4073       87.16312         0.7146         0.7038         0.7643       -21.3362       3.500401              1              1
     10525.5000       102.3402        63.3362       85.01597         0.7136         0.7049         0.7856       -21.8955       2.941101              1              1
     10526.0000       101.1284         60.472       82.07572         0.7125         0.7077         0.8178       -22.6912       2.145401              1              1
     10526.5000        99.1532        58.2784       79.80608         0.7115         0.7123         0.8549       -23.5015       1.335102       0.995874              1
     10527.0000        97.7946        56.8537       78.30533         0.7105         0.7173         0.8953       -24.2219      0.6147003      0.9639432              1
     10527.5000        97.2891        56.1755       77.55107         0.7149         0.7234         0.8938       -24.6619      0.1747017      0.9478951              1
     10528.0000        98.8116        56.3359       77.63543         0.7196         0.7287           0.85       -25.0447     -0.2080994        0.94969              1
     10528.5000       100.5566        57.5906       78.81408         0.7232         0.7325         0.7942       -25.1928     -0.3561993      0.9747676              1
     10529.0000        99.9049        58.7993       79.94673         0.7258         0.7339         0.7933       -25.3307     -0.4940987      0.9988666              1
     10529.5000        97.9076        57.6175       78.68889         0.7282         0.7308         0.8373        -25.352      -0.515398       0.972104              1
     10530.0000        97.1896        56.0997       77.09504         0.7275         0.7277         0.8648       -25.3269     -0.4902992      0.9381923              1
     10530.5000        97.9003        57.0887         78.008         0.7268         0.7246         0.8645       -25.1543     -0.3176994      0.9576169              1
     10531.0000        99.3817         58.959       79.80225         0.7221         0.7215         0.8434       -25.0014     -0.1647987      0.9957924              1
     10531.5000       100.4031        60.9567       81.72389         0.7165         0.7198          0.813       -24.9287    -0.09209824              1              1
     10532.0000       100.2456        63.1967       83.88785         0.7122         0.7177         0.8189       -24.8645    -0.02789879              1              1
     10532.5000       100.3036        63.5811        84.1962         0.7071         0.7148          0.821       -25.0074     -0.1707993              1              1
     10533.0000       100.7299          62.45       82.98905         0.7014          0.712         0.8125       -25.1503     -0.3136978              1              1
     10533.5000       101.3385        61.5969       82.05991         0.7027         0.7128         0.7956        -25.314     -0.4773979              1              1
     10534.0000       101.9698        61.0081       81.39505         0.7179         0.7198         0.7736        -25.494     -0.6573982              1              1
     10534.5000       102.0178        60.6238       80.93471         0.7422         0.7366         0.7525       -25.7721     -0.9354992              1              1
     10535.0000       100.2023        60.3768       80.61166         0.7663         0.7686         0.7524       -26.1124      -1.275799              1      0.9943715
     10535.5000        95.9569        60.1574       80.31621         0.7906         0.8281         0.8732       -26.7048      -1.868198              1      0.9822817
     10536.0000        89.5594        59.8453       79.92807         0.8192         0.9002         1.1285       -27.3646      -2.527998      0.9984696      0.9688163
     10536.5000        84.9408        59.5637       79.57042         0.8441         0.9535         1.3552       -27.9705        -3.1339        0.99086       0.956451
     10537.0000        83.0343        59.6849       79.61557         0.8556         0.9042         1.5228       -28.5397      -3.703098      0.9918206      0.9448347
     10537.5000        82.4938        60.6678       80.52242         0.8352         0.8373          1.354       -29.0648      -4.228199              1      0.9341184
     10538.0000        87.8103        61.8331       81.61168         0.7809         0.7815         1.0596       -29.3044      -4.467798              1      0.9292286
     10538.5000        93.7262        63.1183       82.82083         0.7079          0.731         0.8934       -29.4048      -4.568199              1      0.9271796
     10539.0000       100.1531        64.6044       84.23088         0.6442         0.6735         0.7758       -29.2859      -4.449299              1      0.9296061
     10539.5000       105.6759        66.1344       85.68483         0.5896         0.6136         0.6511       -29.1477      -4.311098              1      0.9324266
     10540.0000       109.8721        67.4282       86.90259         0.5447         0.5583          0.565       -28.9999        -4.1633              1      0.9354429
     10540.5000       112.9922        67.8781       87.27643         0.4996          0.518         0.5235       -28.8454      -4.008799              1       0.938596
     10541.0000       114.8667        66.5457       85.86799         0.4608         0.4938         0.5176       -28.6857      -3.849098              1      0.9418551
     10541.5000       115.4508        65.3057       84.55194         0.4341         0.4833         0.5328       -28.4424      -3.605799              1      0.9468204
     10542.0000       114.8212        64.7971       83.96729         0.4426         0.4879         0.5484       -28.1388      -3.302198              1      0.9530163
     10542.5000       113.6555        64.9078         84.065         0.4699         0.5079         0.5582       -27.7318      -2.895199              1      0.9613225
     10543.0000       111.4542        65.1068       84.25986         0.5132          0.539         0.5677        -27.356        -2.5194              1      0.9689918
