#------------------------------------------------------------------------------
# Created by    : vladimir.rabinovich
# Created on    : 09/19/2023 17:20:34
#------------------------------------------------------------------------------
~Version Information Section
VERS.           2.0     :   CWLS log ASCII Standard - VERSION 2.0
WRAP.           NO      :   One line per depth step
~Well Information Section
#MNEM       .UNIT                                         VALUE :DESCRIPTION
#------------------------------------------------------------------------------
STRT        .FT                                             495 :START DEPTH
STOP        .FT                                            9652 :STOP DEPTH
STEP        .FT                                             0.5 :STEP      
NULL        .                                           -999.25 :NULL      
COMP        .                                      SHELL OIL CO :COMPANY   
WELL        .                                OCS 00714 ST00BP00 :WELL      
FLD         .                                FEDERAL BLOCK 0288 :FIELD     
LOC         .                                                   :LOCATION  
CNTY        .                             GALVESTON LARGE BLOCK :LOCATION  
STAT        .                                             TEXAS :STATE     
CTRY        .                                     UNITED STATES :COUNTRY   
SRVC        .                                                   :SERVICE COMPANY
DATE        .                             9/13/2023 11:19:25 AM :LOG DATE  
API         .                                    42706000490000 :API NUMBER
UWI         .                                    42706000490000 :UNIQUE WELL ID
XCOORD      .                                  1093419.85109126 :SURFACE X 
YCOORD      .                                  10468907.9519753 :SURFACE Y 
LAT         .                                         28.836806 :LATITUDE  
LON         .                                        -94.708909 :LONGITUDE 
ELEV        .FT                                              83 :ELEVATION VALUE
ELEV_TYPE   .                                                KB :ELEVATION REFERENCE TYPE
~Curve Information Section
#MNEM       .UNIT                                      API CODE :CURVE DESCRIPTION
#------------------------------------------------------------------------------
DEPT        .FT                                                 :DEPTH     
ASN         .OHMM                                               :          
ASN_1       .OHMM                                               :          
CALI        .IN                                                 :          
CALI_1      .IN                                                 :          
DRHO        .G/C3                                               :          
DT          .US/F                                               :          
ILD         .OHMM                                               :          
LAT         .OHMM                                               :          
LN          .OHMM                                               :          
RHOB        .G/C3                                               :          
SP          .MV                                                 :          
SP_1        .MV                                                 :          
SP_NORM     .MV                                                 :SP Normalized
VSH_SP      .V/V                                                :Volume of Shale from SP
~A        DEPTH            ASN          ASN_1           CALI         CALI_1           DRHO             DT            ILD            LAT             LN           RHOB             SP           SP_1        SP_NORM         VSH_SP
# ...
      8739.0000         1.1777        -999.25         10.657        -999.25         0.3197       101.0813         1.0264        -999.25        -999.25         2.3926        -999.25       -48.4078      -4.481331      0.9113811
      8739.5000         1.1712        -999.25        10.6457        -999.25         0.2524       101.7852         1.0153        -999.25        -999.25         2.3904        -999.25       -48.3019      -4.386063      0.9147835
      8740.0000         1.1726        -999.25        10.5685        -999.25         0.2077        99.8353         1.0054        -999.25        -999.25         2.4019        -999.25       -48.3833        -4.4781      0.9114965
      8740.5000         1.1788        -999.25        10.5686        -999.25         0.1899        99.4991         1.0061        -999.25        -999.25         2.4038        -999.25       -48.4177      -4.523136       0.909888
      8741.0000         1.1912        -999.25        10.6084        -999.25         0.1765        99.4036         1.0157        -999.25        -999.25         2.4147        -999.25       -48.3571      -4.473171      0.9116725
      8741.5000         1.2063        -999.25        10.6331        -999.25         0.1686         98.016         1.0372        -999.25        -999.25         2.4148        -999.25       -48.3407      -4.467403      0.9118785
      8742.0000         1.2226        -999.25        10.6426        -999.25          0.161        99.0978         1.0839        -999.25        -999.25         2.4246        -999.25       -48.3568      -4.494137      0.9109237
      8742.5000         1.2479        -999.25        10.6234        -999.25          0.157       100.0573         1.1344        -999.25        -999.25         2.4265        -999.25       -48.6334      -4.781372      0.9006653
      8743.0000         1.2708        -999.25        10.5932        -999.25         0.1788        97.9327         1.1913        -999.25        -999.25         2.4369        -999.25       -48.8678      -5.026409       0.891914
      8743.5000         1.3274        -999.25        10.5482        -999.25         0.2138        94.1006         1.2505        -999.25        -999.25         2.4455        -999.25       -48.8361      -5.005344      0.8926663
      8744.0000         1.3844        -999.25        10.5381        -999.25         0.2239        87.0345         1.3137        -999.25        -999.25         2.4319        -999.25       -48.5859      -4.765778      0.9012222
      8744.5000         1.4578        -999.25        10.5479        -999.25         0.2215        88.9191         1.3709        -999.25        -999.25         2.4309        -999.25       -48.3923      -4.582813      0.9077567
      8745.0000         1.5237        -999.25        10.5593        -999.25         0.2098        89.4229          1.422        -999.25        -999.25         2.4164        -999.25       -48.8172      -5.018345       0.892202
      8745.5000         1.5466        -999.25        10.5913        -999.25         0.1835        87.0637         1.4497        -999.25        -999.25         2.4002        -999.25       -49.9773      -6.189079        0.85039
      8746.0000         1.5283        -999.25        10.6043        -999.25         0.2125        96.3406         1.4443        -999.25        -999.25         2.4064        -999.25        -50.853      -7.075417      0.8187351
      8746.5000         1.4733        -999.25        10.5257        -999.25         0.2271        98.5226         1.4115        -999.25        -999.25         2.3936        -999.25       -51.6769       -7.90995      0.7889304
      8747.0000         1.4333        -999.25        10.5088        -999.25         0.2066        94.7843         1.3756        -999.25        -999.25         2.3891        -999.25        -52.465      -8.708687      0.7604041
      8747.5000          1.411        -999.25        10.5505        -999.25         0.2071        87.8239         1.3255        -999.25        -999.25         2.3994        -999.25       -53.2372       -9.49152      0.7324457
      8748.0000         1.3876        -999.25        10.4904        -999.25         0.2388        90.9735         1.2646        -999.25        -999.25         2.3992        -999.25       -53.7791      -10.04405      0.7127124
      8748.5000         1.3549        -999.25        10.4176        -999.25         0.1968        89.8546         1.2014        -999.25        -999.25         2.3464        -999.25       -54.3782      -10.65379      0.6909361
      8749.0000         1.3227        -999.25        10.4494        -999.25         0.1152        94.3256         1.1349        -999.25        -999.25         2.2937        -999.25       -55.9373      -12.22353       0.634874
      8749.5000         1.2968        -999.25        10.4537        -999.25         0.0444        94.3929         1.0685        -999.25        -999.25         2.2791        -999.25       -58.0664      -14.36326       0.558455
      8750.0000         1.2785        -999.25        10.2436        -999.25         0.0155        89.2609         1.0027        -999.25        -999.25         2.2826        -999.25       -60.2831      -16.59059      0.4789074
      8750.5000         1.2614        -999.25        10.2005        -999.25         0.0366        84.1995         0.9373        -999.25        -999.25         2.3052        -999.25        -60.673      -16.99113      0.4646026
      8751.0000          1.207        -999.25        10.1996        -999.25         0.0748        91.0331         0.8767        -999.25        -999.25         2.3314        -999.25        -60.766      -17.09476      0.4609014
      8751.5000         1.1483        -999.25        10.2196        -999.25         0.0833        97.8248         0.8287        -999.25        -999.25         2.3106        -999.25       -63.3182       -19.6576      0.3693716
      8752.0000         1.1115        -999.25        10.3092        -999.25         0.0368         96.606         0.7838        -999.25        -999.25         2.2723        -999.25       -68.3182      -24.66823      0.1904203
      8752.5000         1.0943        -999.25        10.3492        -999.25         0.0264        93.8904          0.747        -999.25        -999.25          2.242        -999.25       -73.1654      -29.52607     0.01692622
      8753.0000         1.0846        -999.25        10.3252        -999.25         0.0334        95.5984         0.7175        -999.25        -999.25         2.2272        -999.25       -75.2113       -31.5826              0
      8753.5000         1.0911        -999.25        10.1542        -999.25         0.0221        98.3871         0.7026        -999.25        -999.25         2.2203        -999.25       -75.4586      -31.84054              0
      8754.0000         1.1314        -999.25        10.0008        -999.25         0.0098       100.2806         0.7058        -999.25        -999.25         2.2282        -999.25       -75.5441      -31.93667              0
      8754.5000          1.177        -999.25         9.9703        -999.25        -0.0013        101.241         0.7151        -999.25        -999.25         2.2335        -999.25        -78.876      -35.27921              0
      8755.0000         1.1926        -999.25         9.9694        -999.25        -0.0031       101.4343         0.7138        -999.25        -999.25         2.2152        -999.25       -82.3741      -38.78794              0
      8755.5000         1.1926        -999.25         9.9685        -999.25         0.0045        99.2596          0.699        -999.25        -999.25         2.1935        -999.25       -84.7347      -41.15918              0
      8756.0000         1.1569        -999.25          9.969        -999.25         0.0099         97.616         0.6683        -999.25        -999.25         2.1836        -999.25       -84.8944      -41.32951              0
      8756.5000         1.0975        -999.25         9.9708        -999.25        -0.0093        97.6719         0.6299        -999.25        -999.25         2.1878        -999.25       -83.7141      -40.15985              0
