#------------------------------------------------------------------------------
# Created by    : vladimir.rabinovich
# Created on    : 09/19/2023 17:22:54
#------------------------------------------------------------------------------
~Version Information Section
VERS.           2.0     :   CWLS log ASCII Standard - VERSION 2.0
WRAP.           NO      :   One line per depth step
~Well Information Section
#MNEM       .UNIT                                         VALUE :DESCRIPTION
#------------------------------------------------------------------------------
STRT        .FT                                             494 :START DEPTH
STOP        .FT                                            6854 :STOP DEPTH
STEP        .FT                                             0.5 :STEP      
NULL        .                                           -999.25 :NULL      
COMP        .                          HUMBLE OIL & REFINING CO :COMPANY   
WELL        .                                     ST TR 00247-L :WELL      
FLD         .                                           WILDCAT :FIELD     
LOC         .                                                   :LOCATION  
CNTY        .                             GALVESTON LARGE BLOCK :LOCATION  
STAT        .                                             TEXAS :STATE     
CTRY        .                                     UNITED STATES :COUNTRY   
SRVC        .                                                   :SERVICE COMPANY
DATE        .                             9/13/2023 11:19:42 AM :LOG DATE  
API         .                                    42706000180000 :API NUMBER
UWI         .                                    42706000180000 :UNIQUE WELL ID
XCOORD      .                                  979775.061814126 :SURFACE X 
YCOORD      .                                  10543201.0009156 :SURFACE Y 
LAT         .                                        29.0361078 :LATITUDE  
LON         .                                       -95.0678326 :LONGITUDE 
ELEV        .FT                                              11 :ELEVATION VALUE
ELEV_TYPE   .                                                KB :ELEVATION REFERENCE TYPE
~Curve Information Section
#MNEM       .UNIT                                      API CODE :CURVE DESCRIPTION
#------------------------------------------------------------------------------
DEPT        .FT                                                 :DEPTH     
LAT         .OHMM                                               :          
LN          .OHMM                                               :          
SN          .OHMM                                               :          
SP          .MV                                                 :          
SP_NORM     .MV                                                 :SP Normalized
VSH_SP      .V/V                                                :Volume of Shale from SP
~A        DEPTH            LAT             LN             SN             SP        SP_NORM         VSH_SP
# ...
      6802.0000         0.6312         0.5419         0.4068        -55.876      -14.41259      0.7904283
      6802.5000         0.6358         0.5446         0.4041       -56.2214      -14.75799      0.7850314
      6803.0000         0.6355         0.5473         0.4014       -56.5666      -15.10319      0.7796377
      6803.5000         0.6284         0.5499         0.3986        -56.912      -15.44859      0.7742409
      6804.0000         0.6213         0.5526         0.3959       -57.3702      -15.90679      0.7670814
      6804.5000         0.6142         0.5555         0.3932       -57.7657      -16.30229      0.7609017
      6805.0000         0.6071         0.5591         0.3923       -57.7123      -16.24889      0.7617362
      6805.5000            0.6         0.5627         0.3918       -57.6591      -16.19569      0.7625674
      6806.0000         0.5929         0.5662         0.3912       -57.8554      -16.39199      0.7595002
      6806.5000         0.5907         0.5698         0.3907          -58.3      -16.83659      0.7525533
      6807.0000         0.5979         0.5722         0.3902       -58.7452      -17.28179      0.7455971
      6807.5000         0.6052         0.5678         0.3897       -59.1903      -17.72689      0.7386424
      6808.0000         0.6124         0.5633         0.3867       -59.5626      -18.09919      0.7328252
      6808.5000         0.6196         0.5589         0.3826       -59.8846      -18.42119      0.7277939
      6809.0000           0.63         0.5544         0.3784       -60.2063      -18.74289      0.7227674
      6809.5000         0.6457           0.55         0.3742       -60.4718      -19.00839      0.7186189
      6810.0000         0.6614         0.5455         0.3701       -60.2278      -18.76439      0.7224315
      6810.5000          0.677         0.5419         0.3659        -59.984      -18.52059      0.7262408
      6811.0000         0.6896         0.5384         0.3632        -59.756      -18.29259      0.7298033
      6811.5000         0.6933          0.535         0.3611       -59.5485      -18.08509      0.7330455
      6812.0000          0.697         0.5316          0.359       -59.3782      -17.91479      0.7357064
      6812.5000         0.6967         0.5281         0.3569       -59.3674      -17.90399      0.7358752
      6813.0000         0.6893         0.5304         0.3547       -59.3567      -17.89329      0.7360424
      6813.5000         0.6818         0.5359         0.3538       -59.3688      -17.90539      0.7358533
      6814.0000         0.6743         0.5414         0.3532       -59.5544      -18.09099      0.7329533
      6814.5000         0.6668         0.5469         0.3526         -59.74      -18.27659      0.7300533
      6815.0000         0.6594         0.5524          0.352       -59.9255      -18.46209      0.7271549
      6815.5000         0.6516         0.5579         0.3514       -60.1111      -18.64769      0.7242549
      6816.0000         0.6419         0.5613         0.3513       -60.3125      -18.84909       0.721108
      6816.5000         0.6321         0.5636          0.352       -60.5178      -19.05439      0.7179002
      6817.0000         0.6224          0.566         0.3527       -60.7229      -19.25949      0.7146955
      6817.5000         0.6127         0.5683         0.3534       -60.9283      -19.46489      0.7114862
      6818.0000          0.603         0.5707         0.3541       -61.1336      -19.67019      0.7082784
      6818.5000         0.5932          0.573         0.3548        -61.314      -19.85059      0.7054596
      6819.0000         0.5835         0.5754         0.3605       -61.4823      -20.01889      0.7028299
      6819.5000          0.574         0.5777         0.3684       -61.6506      -20.18719      0.7002002
      6820.0000          0.582         0.5801         0.3762        -61.819      -20.35559       0.697569
      6820.5000         0.5901         0.5811         0.3841       -62.0422      -20.57878      0.6940815
      6821.0000         0.5981         0.5782         0.3919       -61.7787      -20.31529      0.6981986
      6821.5000         0.6062         0.5753         0.3998       -61.3375      -19.87409      0.7050924
      6822.0000         0.6143         0.5723         0.4077       -60.8958      -19.43239      0.7119939
      6822.5000          0.623         0.5694         0.4146       -55.7675      -14.30409      0.7921236
      6823.0000         0.6342         0.5665         0.4194       -50.7194      -9.255985      0.8710002
      6823.5000         0.6453         0.5635         0.4243       -46.7707      -5.307285      0.9326987
      6824.0000         0.6565         0.5604         0.4291        -46.121      -4.657585      0.9428502
      6824.5000         0.6677         0.5542          0.434        -45.472      -4.008587      0.9529908
      6825.0000         0.6788          0.548         0.4277       -44.8376      -3.374187      0.9629033
      6825.5000         0.6904         0.5418         0.4187         -44.21      -2.746586      0.9727096
      6826.0000         0.7025         0.5355         0.4096       -44.2072      -2.743786      0.9727533
      6826.5000         0.7146         0.5293         0.4006       -44.9822      -3.518787      0.9606439
      6827.0000         0.7267         0.5231         0.3916       -45.7561      -4.292686      0.9485518
      6827.5000         0.7387         0.5169         0.3845         -46.53      -5.066586      0.9364596
      6828.0000         0.7558         0.5107         0.3784        -47.304      -5.840588      0.9243658
      6828.5000          0.775         0.5057         0.3723       -48.9886      -7.525188      0.8980439
      6829.0000         0.7943         0.5007         0.3662       -50.7646      -9.301186       0.870294
      6829.5000         0.8135         0.4957         0.3601       -52.5407      -11.07729      0.8425424
      6830.0000         0.8296         0.4907         0.3539       -53.7869      -12.32349      0.8230705
      6830.5000         0.8397         0.4857         0.3478       -55.0309      -13.56749       0.803633
      6831.0000         0.8147         0.4807         0.3428       -56.2748      -14.81139      0.7841971
      6831.5000         0.7898         0.4757         0.3382       -57.6069      -16.14349       0.763383
      6832.0000         0.7652         0.4708         0.3336        -59.035      -17.57159       0.741069
      6832.5000         0.7407         0.4661         0.3291       -60.3026      -18.83919      0.7212627
      6833.0000         0.7162         0.4614         0.3245       -60.9229      -19.45949      0.7115705
      6833.5000         0.6916         0.4567         0.3199       -61.5432      -20.07979      0.7018783
      6834.0000         0.6671          0.452         0.3154       -62.1635      -20.70009      0.6921861
      6834.5000         0.6426         0.4473         0.3118       -62.7911      -21.32769      0.6823799
      6835.0000         0.6181         0.4426         0.3087       -63.4221      -21.95869      0.6725205
      6835.5000         0.5973         0.4378         0.3055        -64.053      -22.58959      0.6626627
      6836.0000         0.5801         0.4331         0.3024       -64.6228      -23.15939      0.6537595
      6836.5000         0.5629         0.4288         0.2993       -64.9357      -23.47229      0.6488705
      6837.0000         0.5457          0.426         0.2962       -65.2487      -23.78529      0.6439798
      6837.5000         0.5285         0.4232         0.2931       -65.5616      -24.09819      0.6390908
      6838.0000         0.5113         0.4204         0.2932       -65.8743      -24.41088      0.6342049
      6838.5000         0.5033         0.4177         0.2936       -66.1576      -24.69419      0.6297783
      6839.0000         0.4966         0.4149         0.2941       -66.4263      -24.96289      0.6255799
      6839.5000         0.4898         0.4121         0.2945       -66.6948      -25.23139      0.6213846
