#------------------------------------------------------------------------------
# Created by    : vladimir.rabinovich
# Created on    : 09/19/2023 17:21:45
#------------------------------------------------------------------------------
~Version Information Section
VERS.           2.0     :   CWLS log ASCII Standard - VERSION 2.0
WRAP.           NO      :   One line per depth step
~Well Information Section
#MNEM       .UNIT                                         VALUE :DESCRIPTION
#------------------------------------------------------------------------------
STRT        .FT                                            4296 :START DEPTH
STOP        .FT                                         10848.5 :STOP DEPTH
STEP        .FT                                             0.5 :STEP      
NULL        .                                           -999.25 :NULL      
COMP        .                                 CHEVRON U S A INC :COMPANY   
WELL        .                               OCS G07271 ST00BP00 :WELL      
FLD         .                                           WILDCAT :FIELD     
LOC         .                                                   :LOCATION  
CNTY        .                           HIGH ISLAND LARGE BLOCK :LOCATION  
STAT        .                                             TEXAS :STATE     
CTRY        .                                     UNITED STATES :COUNTRY   
SRVC        .                                                   :SERVICE COMPANY
DATE        .                             9/13/2023 11:19:59 AM :LOG DATE  
API         .                                    42708403180000 :API NUMBER
UWI         .                                    42708403180000 :UNIQUE WELL ID
XCOORD      .                                  1325118.04890174 :SURFACE X 
YCOORD      .                                  10672078.9744079 :SURFACE Y 
LAT         .                                          29.40291 :LATITUDE  
LON         .                                        -93.990507 :LONGITUDE 
ELEV        .FT                                              89 :ELEVATION VALUE
ELEV_TYPE   .                                                KB :ELEVATION REFERENCE TYPE
~Curve Information Section
#MNEM       .UNIT                                      API CODE :CURVE DESCRIPTION
#------------------------------------------------------------------------------
DEPT        .FT                                                 :DEPTH     
CALI        .IN                                                 :          
DRHO        .G/C3                                               :          
DTLN        .US/F                                               :          
GR          .GAPI                                               :          
GR_1        .GAPI                                               :          
GR_NORM     .GAPI                                               :GammaRay Normalized
ILD         .OHMM                                               :          
ILM         .OHMM                                               :          
NPHI        .%                                                  :          
RHOB        .G/C3                                               :          
SFL         .OHMM                                               :          
SP          .MV                                                 :          
SP_NORM     .MV                                                 :SP Normalized
VSH_GR      .V/V                                                :Volume of Shale from GR
VSH_SP      .V/V                                                :Volume of Shale from SP
~A        DEPTH           CALI           DRHO           DTLN             GR           GR_1        GR_NORM            ILD            ILM           NPHI           RHOB            SFL             SP        SP_NORM         VSH_GR         VSH_SP
# ...
     10807.0000        -999.25         0.0934        -999.25        -999.25         77.828       98.64143         0.4597         0.4458        -999.25         2.1271         0.4679       -21.5439       1.869159              1              1
     10807.5000        -999.25         0.0947        -999.25        -999.25        77.8881       98.71562         0.4601         0.4435        -999.25           2.13         0.4686       -21.4057       1.869159              1              1
     10808.0000        -999.25          0.096        -999.25        -999.25        77.9414       98.78143          0.466         0.4392        -999.25         2.1366         0.4702       -21.2557       1.869159              1              1
     10808.5000        -999.25         0.0978        -999.25        -999.25        77.9869        98.8376         0.4774          0.433        -999.25         2.1426          0.476       -21.0888       1.869159              1              1
     10809.0000        -999.25         0.0997        -999.25        -999.25        78.0197        98.8781         0.4823         0.4265        -999.25         2.1473         0.4816       -21.3663       1.869159              1              1
     10809.5000        -999.25         0.1013        -999.25        -999.25        78.0393       98.90229         0.4775         0.4197        -999.25         2.1509         0.4819       -21.7053       1.869159              1              1
     10810.0000        -999.25         0.1025        -999.25        -999.25        78.0333       98.89489         0.4628         0.4143        -999.25         2.1534         0.4615       -22.1187       1.869159              1              1
     10810.5000        -999.25         0.1032        -999.25        -999.25        78.0275       98.88773         0.4803         0.4127        -999.25         2.1548         0.4441       -22.1455       1.869159              1              1
     10811.0000        -999.25         0.1039        -999.25        -999.25        78.0215       98.88032           0.51         0.4161        -999.25         2.1549         0.4382       -21.9762       1.869159              1              1
     10811.5000        -999.25         0.1045        -999.25        -999.25        78.0156       98.87304         0.5415         0.4339        -999.25         2.1544         0.4354       -21.4436       1.869159              1              1
     10812.0000        -999.25         0.1052        -999.25        -999.25        78.0254       98.88513         0.5629         0.4576        -999.25         2.1539         0.4557       -21.4494       1.869159              1              1
     10812.5000        -999.25          0.106        -999.25        -999.25        78.0356       98.89773         0.5737         0.4714        -999.25         2.1536         0.5121       -21.5828       1.869159              1              1
     10813.0000        -999.25         0.1063        -999.25        -999.25         78.011       98.86736         0.5847         0.4727        -999.25         2.1533         0.5434       -21.6852       1.869159              1              1
     10813.5000        -999.25         0.1066        -999.25        -999.25        77.9551       98.79835         0.5832         0.4567        -999.25         2.1531         0.5369       -21.7877       1.869159              1              1
     10814.0000        -999.25         0.1068        -999.25        -999.25        77.8922       98.72069         0.5799         0.4392        -999.25         2.1531         0.5114       -21.9031       1.869159              1              1
     10814.5000        -999.25         0.1067        -999.25        -999.25        77.7915       98.59637         0.5635          0.421        -999.25         2.1532         0.4825       -22.0191       1.869159              1              1
     10815.0000        -999.25         0.1065        -999.25        -999.25        77.6943       98.47636         0.5448         0.4098        -999.25         2.1532         0.4549       -22.0997       1.869159              1              1
     10815.5000        -999.25         0.1065        -999.25        -999.25        77.6357       98.40402         0.5202         0.4021        -999.25          2.153         0.4396       -22.1469       1.869159              1              1
     10816.0000        -999.25         0.1065        -999.25        -999.25        77.5771       98.33168         0.5024         0.4038        -999.25         2.1528         0.4443       -22.1308       1.869159              1              1
     10816.5000        -999.25         0.1066        -999.25        -999.25        77.5466       98.29402         0.4911         0.4086        -999.25         2.1526         0.4537       -21.9478       1.869159              1              1
     10817.0000        -999.25         0.1065        -999.25        -999.25        77.5214       98.26292           0.49         0.4174        -999.25         2.1526         0.4615       -21.7653       1.869159              1              1
     10817.5000        -999.25         0.1065        -999.25        -999.25         77.528       98.27106         0.4912         0.4264        -999.25         2.1526          0.468       -21.6947       1.869159              1              1
     10818.0000        -999.25         0.1063        -999.25        -999.25        77.5422       98.28859         0.4954         0.4356        -999.25         2.1525         0.4686       -21.6346       1.869159              1              1
     10818.5000        -999.25         0.1061        -999.25        -999.25        77.5868       98.34365          0.504         0.4412        -999.25         2.1525          0.472       -21.6705       1.869159              1              1
     10819.0000        -999.25         0.1056        -999.25        -999.25        77.6366       98.40514         0.5128         0.4408        -999.25         2.1525         0.4785       -21.7451       1.869159              1              1
     10819.5000        -999.25         0.1048        -999.25        -999.25        77.6594       98.43329         0.5186         0.4337        -999.25         2.1525         0.4805       -21.8196       1.869159              1              1
     10820.0000        -999.25         0.1042        -999.25        -999.25        77.6725       98.44946         0.5232         0.4235        -999.25         2.1525         0.4747       -21.9581       1.869159              1              1
     10820.5000        -999.25         0.1037        -999.25        -999.25        77.6965       98.47909         0.5279         0.4122        -999.25         2.1524         0.4575       -22.1178       1.869159              1              1
     10821.0000        -999.25         0.1033        -999.25        -999.25        77.7264       98.51601         0.5174         0.4035        -999.25         2.1524         0.4361       -22.3077       1.869159              1              1
     10821.5000        -999.25         0.1031        -999.25        -999.25        77.7556       98.55205         0.5069         0.4009        -999.25         2.1524         0.4193       -22.5182       1.869159              1              1
     10822.0000        -999.25         0.1028        -999.25        -999.25        77.7842       98.58736         0.4892         0.4041        -999.25         2.1524         0.4134       -22.7023       1.869159              1              1
     10822.5000        -999.25         0.1026        -999.25        -999.25        77.8126       98.62242         0.4699         0.4117        -999.25         2.1524         0.4168       -22.8452       1.869159              1              1
     10823.0000        -999.25         0.1027        -999.25        -999.25        77.8406       98.65699         0.4647         0.4219        -999.25         2.1523         0.4229       -22.9437       1.869159              1              1
     10823.5000        -999.25         0.1027        -999.25        -999.25        77.8684       98.69131         0.4648         0.4324        -999.25         2.1523         0.4342       -22.9724       1.869159              1              1
