#------------------------------------------------------------------------------
# Created by    : vladimir.rabinovich
# Created on    : 09/19/2023 17:22:39
#------------------------------------------------------------------------------
~Version Information Section
VERS.           2.0     :   CWLS log ASCII Standard - VERSION 2.0
WRAP.           NO      :   One line per depth step
~Well Information Section
#MNEM       .UNIT                                         VALUE :DESCRIPTION
#------------------------------------------------------------------------------
STRT        .FT                                            2600 :START DEPTH
STOP        .FT                                            8208 :STOP DEPTH
STEP        .FT                                             0.5 :STEP      
NULL        .                                           -999.25 :NULL      
COMP        .                          SEAGULL ENERGY E & P INC :COMPANY   
WELL        .                               OCS G09039 ST00BP00 :WELL      
FLD         .                              GALVESTON BLOCK 0273 :FIELD     
LOC         .                                                   :LOCATION  
CNTY        .                             GALVESTON LARGE BLOCK :LOCATION  
STAT        .                                             TEXAS :STATE     
CTRY        .                                     UNITED STATES :COUNTRY   
SRVC        .                                                   :SERVICE COMPANY
DATE        .                             9/13/2023 11:19:54 AM :LOG DATE  
API         .                                    42706403220000 :API NUMBER
UWI         .                                    42706403220000 :UNIQUE WELL ID
XCOORD      .                                  1018306.80056624 :SURFACE X 
YCOORD      .                                  10490966.5196098 :SURFACE Y 
LAT         .                                         28.894284 :LATITUDE  
LON         .                                        -94.944599 :LONGITUDE 
ELEV        .FT                                             103 :ELEVATION VALUE
ELEV_TYPE   .                                                KB :ELEVATION REFERENCE TYPE
~Curve Information Section
#MNEM       .UNIT                                      API CODE :CURVE DESCRIPTION
#------------------------------------------------------------------------------
DEPT        .FT                                                 :DEPTH     
DCAL        .IN                                                 :          
DPHI        .%                                                  :          
DTL         .US/F                                               :          
GR          .GAPI                                               :          
GR_1        .GAPI                                               :          
GR_NORM     .GAPI                                               :GammaRay Normalized
ILD         .OHMM                                               :          
ILM         .OHMM                                               :          
NPHI        .%                                                  :          
SFL         .OHMM                                               :          
SP          .MV                                                 :          
SP_NORM     .MV                                                 :SP Normalized
VSH_GR      .V/V                                                :Volume of Shale from GR
VSH_SP      .V/V                                                :Volume of Shale from SP
~A        DEPTH           DCAL           DPHI            DTL             GR           GR_1        GR_NORM            ILD            ILM           NPHI            SFL             SP        SP_NORM         VSH_GR         VSH_SP
# ...
      5246.0000        -999.25        -999.25        -999.25        45.7744        -999.25       62.77744          0.393         0.4457        -999.25         0.5903        -68.458      -31.77039      0.6335625      0.4704935
      5246.5000        -999.25        -999.25        -999.25        46.0466        -999.25       63.12749         0.3988         0.4606        -999.25         0.6057       -67.6654       -30.9164      0.6410105      0.4847267
      5247.0000        -999.25        -999.25        -999.25        45.6476        -999.25       62.61436         0.4134          0.477        -999.25         0.7267       -66.8125      -29.99747      0.6300929      0.5000421
      5247.5000        -999.25        -999.25        -999.25        44.6703        -999.25       61.35755         0.4421         0.5115        -999.25         0.7809       -65.4037      -28.47988      0.6033522      0.5253353
      5248.0000        -999.25        -999.25        -999.25        42.1094        -999.25       58.06422         0.4984         0.5865        -999.25         0.8006       -62.9878      -25.87773      0.5332813      0.5687045
      5248.5000        -999.25        -999.25        -999.25        39.3273        -999.25       54.48642         0.5943         0.6799        -999.25         0.8258       -60.0189      -22.68003      0.4571579      0.6219995
      5249.0000        -999.25        -999.25        -999.25        37.9436        -999.25       52.70696         0.7131         0.8147        -999.25         0.8745       -58.1523      -20.66943      0.4192971      0.6555096
      5249.5000        -999.25        -999.25        -999.25         36.453        -999.25       50.79004         0.8293         0.9478        -999.25         0.9878       -56.9237       -19.3459      0.3785115      0.6775684
      5250.0000        -999.25        -999.25        -999.25        34.8948        -999.25       48.78618         0.8488         1.0438        -999.25         1.1144       -56.6395      -19.03942      0.3358761      0.6826764
      5250.5000        -999.25        -999.25        -999.25        33.2113        -999.25       46.62119         0.8631          1.039        -999.25         1.1156       -57.1686      -19.60879      0.2898124      0.6731868
      5251.0000        -999.25        -999.25        -999.25        30.5263        -999.25       43.16825         0.8766         1.0029        -999.25         1.1258       -58.0871      -20.59753      0.2163458      0.6567078
      5251.5000        -999.25        -999.25        -999.25        29.6062        -999.25         41.985         0.8271          0.953        -999.25         1.1604       -59.6158       -22.2434      0.1911702      0.6292766
      5252.0000        -999.25        -999.25        -999.25        30.3518        -999.25       42.94384         0.7921          0.923        -999.25         1.1389       -62.0735      -24.88974      0.2115711       0.585171
      5252.5000        -999.25        -999.25        -999.25        31.7785        -999.25       44.77859         0.7694         0.9399        -999.25         1.1859         -65.47      -28.54709      0.2506084      0.5242152
      5253.0000        -999.25        -999.25        -999.25        32.4734        -999.25       45.67224         0.7913         0.9787        -999.25         1.6499        -67.387      -30.61113      0.2696221      0.4898146
      5253.5000        -999.25        -999.25        -999.25        32.1643        -999.25       45.27473         0.8089         1.0356        -999.25         1.8514       -69.0005      -32.34833      0.2611646      0.4608612
      5254.0000        -999.25        -999.25        -999.25        30.8163        -999.25        43.5412         0.8097         1.0718        -999.25         1.4723        -71.366      -34.89536      0.2242808      0.4184106
      5254.5000        -999.25        -999.25        -999.25        28.8157        -999.25       40.96841         0.7389         0.9739        -999.25         1.1656       -75.2836       -39.1139      0.1695406      0.3481017
      5255.0000        -999.25        -999.25        -999.25        28.4766        -999.25       40.53233         0.6214          0.852        -999.25         0.8985       -77.9133      -41.94547      0.1602623      0.3009089
      5255.5000        -999.25        -999.25        -999.25        29.9119        -999.25       42.37813         0.5071         0.6762        -999.25         0.5453       -80.2432      -44.45417      0.1995347      0.2590972
      5256.0000        -999.25        -999.25        -999.25        32.5613        -999.25       45.78528         0.3447         0.3983        -999.25         0.4609       -82.5731      -46.96287      0.2720273      0.2172855
      5256.5000        -999.25        -999.25        -999.25        36.1815        -999.25       50.44089         0.2649         0.3097        -999.25         0.4152       -84.7654      -49.32339      0.3710828      0.1779435
      5257.0000        -999.25        -999.25        -999.25        36.3636        -999.25       50.67508         0.2227         0.2634        -999.25         0.3941        -86.498      -51.18885      0.3760654      0.1468526
      5257.5000        -999.25        -999.25        -999.25        33.3895        -999.25       46.85036         0.2054         0.2314        -999.25         0.4087       -87.6704      -52.45102      0.2946884      0.1258164
      5258.0000        -999.25        -999.25        -999.25        29.4646        -999.25        41.8029         0.1968         0.2173        -999.25         0.4037       -88.1389      -52.95513      0.1872958      0.1174145
      5258.5000        -999.25        -999.25        -999.25        27.3092        -999.25       39.03104          0.194         0.2153        -999.25         0.3954       -88.2172      -53.03903      0.1283199      0.1160161
      5259.0000        -999.25        -999.25        -999.25        27.3829        -999.25       39.12582         0.1969         0.2263        -999.25         0.3894       -87.0842      -51.81845      0.1303366      0.1363591
      5259.5000        -999.25        -999.25        -999.25         29.848        -999.25       42.29596         0.2167         0.2562        -999.25         0.4057       -85.2618      -49.85546      0.1977863      0.1690757
      5260.0000        -999.25        -999.25        -999.25        31.0443        -999.25       43.83441         0.2429          0.289        -999.25         0.4278       -80.6512      -44.88977      0.2305194      0.2518371
      5260.5000        -999.25        -999.25        -999.25        30.2596        -999.25       42.82528         0.2556         0.3037        -999.25          0.439       -75.3524      -39.18296      0.2090484      0.3469507
      5261.0000        -999.25        -999.25        -999.25        27.9088        -999.25       39.80213         0.2593         0.3001        -999.25         0.4246       -70.9482      -34.43954      0.1447261      0.4260076
      5261.5000        -999.25        -999.25        -999.25         24.736        -999.25       35.72188         0.2604         0.2929        -999.25         0.4071       -66.7603      -29.92908     0.05791238       0.501182
      5262.0000        -999.25        -999.25        -999.25        23.0555        -999.25       33.56075         0.2621         0.2884        -999.25          0.421       -64.0863      -27.04897     0.01193075      0.5491837
      5262.5000        -999.25        -999.25        -999.25        23.2122        -999.25       33.76226         0.2716         0.2915        -999.25         0.5061       -62.6265      -25.47646     0.01621831      0.5753924
      5263.0000        -999.25        -999.25        -999.25        25.2889        -999.25       36.43292         0.2985           0.32        -999.25         0.5999       -59.8862      -22.52495     0.07304082      0.6245842
      5263.5000        -999.25        -999.25        -999.25        29.1057        -999.25       41.34135         0.3529         0.3803        -999.25         0.7722       -55.5778      -17.88471      0.1774755      0.7019214
