#------------------------------------------------------------------------------
# Created by    : vladimir.rabinovich
# Created on    : 09/19/2023 17:20:30
#------------------------------------------------------------------------------
~Version Information Section
VERS.           2.0     :   CWLS log ASCII Standard - VERSION 2.0
WRAP.           NO      :   One line per depth step
~Well Information Section
#MNEM       .UNIT                                         VALUE :DESCRIPTION
#------------------------------------------------------------------------------
STRT        .FT                                             609 :START DEPTH
STOP        .FT                                           12866 :STOP DEPTH
STEP        .FT                                             0.5 :STEP      
NULL        .                                           -999.25 :NULL      
COMP        .                                        SUN OIL CO :COMPANY   
WELL        .                               OCS G01769 ST00BP00 :WELL      
FLD         .                                           WILDCAT :FIELD     
LOC         .                                                   :LOCATION  
CNTY        .                             GALVESTON LARGE BLOCK :LOCATION  
STAT        .                                             TEXAS :STATE     
CTRY        .                                     UNITED STATES :COUNTRY   
SRVC        .                                                   :SERVICE COMPANY
DATE        .                             9/13/2023 11:19:24 AM :LOG DATE  
API         .                                    42706001410000 :API NUMBER
UWI         .                                    42706001410000 :UNIQUE WELL ID
XCOORD      .                                  1110717.91749569 :SURFACE X 
YCOORD      .                                  10538856.4752018 :SURFACE Y 
LAT         .                                         29.029845 :LATITUDE  
LON         .                                        -94.657945 :LONGITUDE 
ELEV        .FT                                              65 :ELEVATION VALUE
ELEV_TYPE   .                                                KB :ELEVATION REFERENCE TYPE
~Curve Information Section
#MNEM       .UNIT                                      API CODE :CURVE DESCRIPTION
#------------------------------------------------------------------------------
DEPT        .FT                                                 :DEPTH     
ASN         .OHMM                                               :          
CALI        .IN                                                 :          
CILD        .MMHO                                               :          
DT          .US/F                                               :          
ILD         .OHMM                                               :          
SP          .MV                                                 :          
SP_NORM     .MV                                                 :SP Normalized
VSH_SP      .V/V                                                :Volume of Shale from SP
~A        DEPTH            ASN           CALI           CILD             DT            ILD             SP        SP_NORM         VSH_SP
# ...
      1435.0000         1.1383        12.6163       1060.871       150.0962         0.8813        -90.059      -3.330978       0.897617
      1435.5000         1.1414        12.4709       1048.195       148.9165         0.8937        -89.959      -3.232597      0.9051848
      1436.0000         1.1445        12.6301       1035.523        144.855         0.9079       -89.8591      -3.134323      0.9127444
      1436.5000         1.1533        12.6454        1022.85       141.8682         0.9221       -90.3499       -3.62674      0.8748662
      1437.0000         1.1651        12.7498        1006.31       139.9019         0.9346       -90.8411       -4.11956      0.8369569
      1437.5000         1.1769        12.9187       987.8291        141.165         0.9419       -91.1929      -4.472984      0.8097705
      1438.0000         1.2241        13.1914       973.3574       144.6553         0.9492       -91.4478        -4.7295      0.7900385
      1438.5000         1.2776        13.4774       967.5723       148.3633         0.9565       -91.7026      -4.985924      0.7703136
      1439.0000         1.2951        13.1545       961.7891       151.0801         0.9687       -91.8096      -5.094543      0.7619582
      1439.5000         1.2675        12.9353       956.0049       149.9587         0.9871       -91.3956      -4.682159      0.7936801
      1440.0000         1.2421        12.8373       949.7676        145.427         1.0055       -91.0632      -4.351387      0.8191241
      1440.5000         1.2233        12.7393       942.7314       146.9805          1.072       -90.7307        -4.0205      0.8445769
      1441.0000         1.2045        12.6261       935.6934       145.5332         1.1809       -90.3982      -3.689621      0.8700292
      1441.5000         1.1911        12.4047       928.6553       142.6255         1.2199       -90.0657      -3.358742      0.8954814
      1442.0000         1.2121        12.2776       919.7139       143.4749          1.232        -89.873      -3.167664      0.9101797
      1442.5000          1.251         12.247       903.6162       139.8123          1.244       -89.7087       -3.00499      0.9226931
      1443.0000         1.2789        12.3215       887.5166       134.7034         1.2561       -89.5446      -2.842506      0.9351918
      1443.5000         1.3045        12.5707       865.9951       134.0833         1.2702       -89.2861      -2.585625      0.9549519
      1444.0000         1.3262        12.8277       841.6875       133.6575         1.2855       -88.9121      -2.213249      0.9835962
      1444.5000         1.3427        13.0473       809.3213       132.7476         1.2973       -88.5378      -1.840569              1
      1445.0000         1.3598        13.0178       784.7725       131.1899         1.3079       -88.2048      -1.509186              1
      1445.5000         1.3791        12.8914       767.3115       129.7573         1.3034       -87.9805      -1.286507              1
      1446.0000          1.398        12.7458       749.8545         130.52         1.2989        -88.217      -1.524628              1
      1446.5000         1.3908        12.6875       752.5352       131.1628         1.2829       -88.6179      -1.927147              1
      1447.0000         1.3727        13.0309       768.0586       154.3433         1.2508       -88.8936      -2.204468      0.9842717
      1447.5000         1.3525         13.464        783.582       160.9167         1.2187       -89.1692      -2.481682      0.9629475
      1448.0000         1.3344        14.0397       799.1016       164.9368         1.1866       -89.4448      -2.758911      0.9416222
      1448.5000         1.3163        14.0162       819.5586       166.8147         1.1547       -89.7205      -3.036224      0.9202904
      1449.0000         1.2979         13.576       847.8711        161.803         1.1229       -89.8727      -3.190048      0.9084578
      1449.5000         1.2785        13.4444       876.1777       158.2698         1.0912       -89.6998      -3.018768      0.9216332
      1450.0000         1.2591        13.4053       896.5508       160.9187         1.1061        -89.527      -2.847588       0.934801
      1450.5000         1.2431        13.1523       910.1426       161.2112         1.1211       -89.3542      -2.676414      0.9479681
      1451.0000         1.2411        12.8838       913.3975       153.7659          1.136       -89.1814      -2.505226      0.9611365
      1451.5000         1.2419        12.6334       895.6162       150.4766          1.151       -89.0085      -2.333946      0.9743118
      1452.0000         1.2541        12.3581       877.8369       145.8103          1.166       -88.8995       -2.22657      0.9825715
      1452.5000         1.2663        12.1805       860.0557       143.2778         1.1815       -88.9344      -2.263092      0.9797621
      1453.0000         1.2785         12.302       837.5283       144.2451         1.1992       -88.9694      -2.299706      0.9769458
      1453.5000         1.2907        12.7058       814.9854       138.6025         1.2169       -89.0042      -2.336136      0.9741434
      1454.0000         1.3022        13.1372       796.7705       135.0991         1.2347       -89.0391      -2.373024      0.9713058
      1454.5000         1.3137         13.422        790.499       136.2249         1.2524       -89.0739      -2.412163      0.9682952
      1455.0000         1.3252        13.5442       808.9629       138.2122         1.2702       -89.1088      -2.451401      0.9652768
      1455.5000         1.3367        13.7077       828.9141       134.9692         1.2768       -89.1436       -2.49054      0.9622662
      1456.0000         1.3482        13.8465       846.7969       137.9924         1.2252       -89.1936      -2.544876      0.9580864
      1456.5000         1.3548        13.8001       864.6748        139.175         1.1612       -89.2571      -2.612717      0.9528679
      1457.0000         1.3612        13.5797       882.9658       139.2068          1.113       -89.3206       -2.68055        0.94765
      1457.5000         1.3354        13.4037       902.5332       136.6367         1.0695       -89.3842      -2.748489      0.9424239
      1458.0000         1.2035        13.6785       922.0215       135.0481          1.026       -89.4476      -2.816223      0.9372136
      1458.5000         1.1416        13.7693        941.207       133.6353         0.9825       -89.5111      -2.884064      0.8891727
      1459.0000         1.1395        13.8222       961.2568        132.825         0.9511       -89.5746      -2.951897      0.8851826
      1459.5000         1.1761        13.8628       984.6689       133.0037         0.9487       -89.6309      -3.012535      0.8816156
      1460.0000         1.2133        13.9249       1001.235       134.2964         0.9684       -89.6434      -3.029373      0.8806251
      1460.5000         1.2196        13.7068       986.4834       134.2747         0.9881       -89.6559      -3.046211      0.8796346
      1461.0000         1.1865        13.4829       960.4355       133.5576         1.0133       -89.6495      -3.044144      0.8797563
      1461.5000         1.1527         13.345       934.3818       138.8464         1.0483       -89.5372      -2.936188      0.8861066
      1462.0000          1.135        13.5245        908.334       131.6829         1.0834       -89.4249      -2.828217      0.8924578
      1462.5000          1.164        13.5993       886.2637        127.199         1.1184       -89.3125      -2.720161       0.898814
      1463.0000         1.2029         13.416       873.3604       129.5623         1.1524       -89.2002      -2.612198      0.9051648
      1463.5000          1.322        13.3216         860.46       134.3252          1.186       -89.0879      -2.504234      0.9115157
      1464.0000         1.3559        13.3622       843.5518        136.449         1.2196       -88.9756      -2.396271      0.9178664
