#------------------------------------------------------------------------------
# Created by    : vladimir.rabinovich
# Created on    : 09/19/2023 17:20:32
#------------------------------------------------------------------------------
~Version Information Section
VERS.           2.0     :   CWLS log ASCII Standard - VERSION 2.0
WRAP.           NO      :   One line per depth step
~Well Information Section
#MNEM       .UNIT                                         VALUE :DESCRIPTION
#------------------------------------------------------------------------------
STRT        .FT                                             530 :START DEPTH
STOP        .FT                                           15895 :STOP DEPTH
STEP        .FT                                             0.5 :STEP      
NULL        .                                           -999.25 :NULL      
COMP        .                                      SHELL OIL CO :COMPANY   
WELL        .                                OCS 00708 ST00BP00 :WELL      
FLD         .                                FEDERAL BLOCK 0288 :FIELD     
LOC         .                                                   :LOCATION  
CNTY        .                             GALVESTON LARGE BLOCK :LOCATION  
STAT        .                                             TEXAS :STATE     
CTRY        .                                     UNITED STATES :COUNTRY   
SRVC        .                                                   :SERVICE COMPANY
DATE        .                             9/13/2023 11:19:24 AM :LOG DATE  
API         .                                    42706000930000 :API NUMBER
UWI         .                                    42706000930000 :UNIQUE WELL ID
XCOORD      .                                  1077631.85251343 :SURFACE X 
YCOORD      .                                  10490946.9562601 :SURFACE Y 
LAT         .                                         28.896779 :LATITUDE  
LON         .                                        -94.759235 :LONGITUDE 
ELEV        .FT                                              76 :ELEVATION VALUE
ELEV_TYPE   .                                                KB :ELEVATION REFERENCE TYPE
~Curve Information Section
#MNEM       .UNIT                                      API CODE :CURVE DESCRIPTION
#------------------------------------------------------------------------------
DEPT        .FT                                                 :DEPTH     
ASN         .OHMM                                               :          
CILD        .MMHO                                               :          
SP          .MV                                                 :          
SP_NORM     .MV                                                 :SP Normalized
VSH_SP      .V/V                                                :Volume of Shale from SP
~A        DEPTH            ASN           CILD             SP        SP_NORM         VSH_SP
# ...
     12762.0000         0.8635       1571.281       -42.7413      -2.741299      0.9553513
     12762.5000          0.886       1551.063        -42.766      -2.765999       0.954718
     12763.0000         0.9063       1530.813       -42.7906        -2.7906      0.9540872
     12763.5000         0.9107       1513.781       -42.8152      -2.815201      0.9534564
     12764.0000         0.9137       1497.375       -42.8399      -2.839901       0.952823
     12764.5000          0.916       1480.969       -42.8645      -2.864498      0.9521924
     12765.0000         0.9183       1464.563       -42.8892      -2.889198       0.951559
     12765.5000         0.9205       1454.688       -42.9138      -2.913799      0.9509282
     12766.0000         0.9228       1445.953       -42.9384        -2.9384      0.9502974
     12766.5000         0.9286       1437.203       -42.9619      -2.961899      0.9496949
     12767.0000          0.935       1428.453       -42.9839      -2.983898      0.9491308
     12767.5000         0.9408       1419.641        -43.006      -3.006001      0.9485641
     12768.0000         0.9457       1410.422       -43.0281      -3.028099      0.9479975
     12768.5000         0.9506       1401.203       -43.0502      -3.050201      0.9474307
     12769.0000         0.9507       1399.375       -43.0723        -3.0723      0.9468641
     12769.5000         0.9415       1406.266       -43.0844        -3.0844      0.9465538
     12770.0000         0.9323       1418.313       -43.0657      -3.065701      0.9470333
     12770.5000         0.9147       1435.938       -43.0471        -3.0471      0.9475102
     12771.0000          0.898       1453.563       -43.0284        -3.0284      0.9479898
     12771.5000         0.9092       1471.188       -43.0097      -3.009701      0.9484692
     12772.0000         0.9249       1500.063        -42.991      -2.991001      0.9489487
     12772.5000         0.9189       1533.281       -42.9724      -2.972401      0.9494256
     12773.0000         0.9057       1552.438       -42.9537      -2.953701      0.9499051
     12773.5000         0.8908       1569.203       -42.9065      -2.906502      0.9511153
     12774.0000         0.8766       1577.844       -42.8518      -2.851799       0.952518
     12774.5000         0.8681       1582.508       -42.7971        -2.7971      0.9539205
     12775.0000         0.8646           1585       -42.7424      -2.742401       0.955323
     12775.5000         0.8626       1587.734       -42.6877      -2.687698      0.9567257
     12776.0000         0.8607       1595.141       -42.6331      -2.633099      0.9581257
     12776.5000         0.8588       1602.547       -42.6195      -2.619499      0.9584744
     12777.0000         0.8545       1609.953       -42.6416      -2.641602      0.9579077
     12777.5000           0.85       1616.359       -42.6637        -2.6637       0.957341
     12778.0000         0.8455       1622.328       -42.6857      -2.685699      0.9567769
     12778.5000         0.8411       1628.297       -42.7078      -2.707802      0.9562102
     12779.0000         0.8366       1634.266       -42.7299        -2.7299      0.9556436
     12779.5000         0.8324       1631.633       -42.7493      -2.749298      0.9551462
     12780.0000         0.8287       1628.336       -42.7628      -2.762798      0.9548001
     12780.5000          0.825       1625.039       -42.7764      -2.776402      0.9544513
     12781.0000         0.8269       1621.742       -42.7899      -2.789902      0.9541051
     12781.5000         0.8302       1618.445       -42.8035      -2.803501      0.9537564
     12782.0000         0.8336         1609.5       -42.8171      -2.817101      0.9534077
     12782.5000         0.8399       1597.719       -42.8306      -2.830601      0.9530615
     12783.0000         0.8473       1585.906       -42.8442        -2.8442      0.9527128
     12783.5000         0.8538       1578.422        -42.853      -2.853001      0.9524872
     12784.0000         0.8584       1572.266       -42.8611      -2.861099      0.9522795
     12784.5000         0.8629       1566.594       -42.8693      -2.869301      0.9520692
     12785.0000         0.8674       1561.992       -42.8775      -2.877499       0.951859
     12785.5000         0.8653       1557.391       -42.8856      -2.885601      0.9516513
     12786.0000         0.8627       1552.781       -42.8938      -2.893799       0.951441
     12786.5000         0.8612        1548.18        -42.902         -2.902      0.9512308
     12787.0000         0.8597       1541.609       -42.8916      -2.891602      0.9514974
     12787.5000         0.8583       1534.688       -42.8588      -2.858799      0.9523385
     12788.0000         0.8568       1527.781        -42.826         -2.826      0.9531795
     12788.5000         0.8553       1520.859       -42.7932      -2.793201      0.9540205
     12789.0000         0.8538       1515.719       -42.7604      -2.760399      0.9548616
     12789.5000         0.8521        1521.25       -42.7275      -2.727501      0.9557051
     12790.0000          0.847       1526.766       -42.6948      -2.694801      0.9565436
     12790.5000         0.8373       1532.375       -42.6619        -2.6619      0.9573872
     12791.0000         0.8288       1537.969       -42.6146      -2.614601         0.9586
     12791.5000         0.8233        1569.25       -42.5574        -2.5574      0.9600667
     12792.0000         0.8174       1651.125       -42.5002      -2.500198      0.9615334
     12792.5000         0.8084       1710.875        -42.443      -2.443001          0.963
     12793.0000         0.7995       1734.625       -42.3859      -2.385899      0.9644641
     12793.5000          0.791       1754.398       -42.3286      -2.328602      0.9659333
     12794.0000         0.7829       1751.672       -42.2715        -2.2715      0.9673975
     12794.5000         0.7761       1748.531       -42.2087      -2.208698      0.9690077
     12795.0000         0.7735       1737.875       -42.1456      -2.145599      0.9706256
     12795.5000         0.7768        1727.25       -42.0824      -2.082401      0.9722461
     12796.0000         0.7845       1716.594       -42.0326        -2.0326      0.9735231
     12796.5000         0.7923       1707.984       -42.0145        -2.0145      0.9739872
     12797.0000         0.8001       1701.109       -41.9964      -1.996399      0.9744513
     12797.5000          0.808       1694.234       -41.9783      -1.978298      0.9749154
     12798.0000         0.8158       1674.438       -42.0369        -2.0369      0.9734128
     12798.5000         0.8227       1635.875       -42.1802      -2.180199      0.9697385
     12799.0000         0.8292           1575       -42.3237        -2.3237       0.966059
     12799.5000         0.8357       1528.125        -42.467      -2.466999      0.9623846
     12800.0000         0.8635       1483.813       -42.6104      -2.610401      0.9587077
     12800.5000         0.8928       1451.313       -42.7537        -2.7537      0.9550333
     12801.0000         0.9227       1414.375       -42.8972      -2.897202      0.9513538
     12801.5000         0.9434        1363.25       -43.0405      -3.040501      0.9476795
     12802.0000         0.9642       1291.625       -43.1838        -3.1838      0.9440051
     12802.5000         0.9869       1231.813       -43.3059      -3.305901      0.9408743
     12803.0000         1.0101       1197.438       -43.3921      -3.392101      0.9386641
     12803.5000         1.0352       1176.438       -43.4783      -3.478298      0.9364539
     12804.0000         1.0476       1156.625       -43.5645      -3.564499      0.9342436
     12804.5000           1.06       1141.031       -43.6506        -3.6506      0.9320359
     12805.0000         1.0705       1127.938       -43.7368      -3.736801      0.9298256
     12805.5000          1.081       1114.813       -43.7965      -3.796501      0.9282948
