#------------------------------------------------------------------------------
# Created by    : vladimir.rabinovich
# Created on    : 09/19/2023 17:19:40
#------------------------------------------------------------------------------
~Version Information Section
VERS.           2.0     :   CWLS log ASCII Standard - VERSION 2.0
WRAP.           NO      :   One line per depth step
~Well Information Section
#MNEM       .UNIT                                         VALUE :DESCRIPTION
#------------------------------------------------------------------------------
STRT        .FT                                             305 :START DEPTH
STOP        .FT                                          9892.5 :STOP DEPTH
STEP        .FT                                             0.5 :STEP      
NULL        .                                           -999.25 :NULL      
COMP        .                         ATLANTIC RICHFIELD CO THE :COMPANY   
WELL        .                               OCS G07247 ST00BP00 :WELL      
FLD         .                                           WILDCAT :FIELD     
LOC         .                                                   :LOCATION  
CNTY        .                             GALVESTON LARGE BLOCK :LOCATION  
STAT        .                                             TEXAS :STATE     
CTRY        .                                     UNITED STATES :COUNTRY   
SRVC        .                                                   :SERVICE COMPANY
DATE        .                             9/13/2023 11:19:27 AM :LOG DATE  
API         .                                    42706401220000 :API NUMBER
UWI         .                                    42706401220000 :UNIQUE WELL ID
XCOORD      .                                  995038.545578968 :SURFACE X 
YCOORD      .                                  10445559.0196594 :SURFACE Y 
LAT         .                                         28.768363 :LATITUDE  
LON         .                                        -95.014888 :LONGITUDE 
ELEV        .FT                                              98 :ELEVATION VALUE
ELEV_TYPE   .                                                KB :ELEVATION REFERENCE TYPE
~Curve Information Section
#MNEM       .UNIT                                      API CODE :CURVE DESCRIPTION
#------------------------------------------------------------------------------
DEPT        .FT                                                 :DEPTH     
ALL         .OHMM                                               :          
CILD        .MMHO                                               :          
GR          .GAPI                                               :          
GR_NORM     .GAPI                                               :GammaRay Normalized
ILD         .OHMM                                               :          
SP          .MV                                                 :          
VSH_GR      .V/V                                                :Volume of Shale from GR
~A        DEPTH            ALL           CILD             GR        GR_NORM            ILD             SP         VSH_GR
# ...
      3521.0000         1.0257       1562.277        66.9756       78.16842         0.6795        35.8444      0.9610302
      3521.5000         1.0192       1611.582        69.0426       80.93184         0.6721        35.8705              1
      3522.0000         1.0126        1651.41        70.5774       82.98248         0.6606        35.8965              1
      3522.5000         1.0073       1682.055        71.8362       84.66345         0.6491        35.9226              1
      3523.0000         1.0023       1701.652        72.8378       85.99999         0.6376        35.9487              1
      3523.5000         1.0016        1716.67        73.5548       86.95537         0.6261        35.9307              1
      3524.0000         1.0028        1727.18         74.272         87.911         0.6147        35.8932              1
      3524.5000          1.004       1735.611         74.828       88.65075         0.6032        35.8558              1
      3525.0000         1.0062       1744.045        75.2008       89.14513         0.5993        35.8184              1
      3525.5000         1.0084       1739.975        75.5736       89.63952         0.6023        35.8051              1
      3526.0000         1.0106       1722.867        75.2063        89.1427         0.6053        35.8063              1
      3526.5000         1.0128       1700.242        74.7003       88.46013         0.6082        35.8514              1
      3527.0000         1.0151       1676.768         74.194       87.77715         0.6112        36.0891              1
      3527.5000         1.0174        1661.18        73.0249        86.2065         0.6142        36.3265              1
      3528.0000         1.0196       1650.215        71.8307       84.60222         0.6163        36.5746              1
      3528.5000         1.0219       1639.248        70.6364        82.9978         0.6173        36.8318              1
      3529.0000         1.0242       1628.277        71.6367        84.3326         0.6182        37.0889              1
      3529.5000         1.0265       1628.672        73.0648       86.24033         0.6192        37.3463              1
      3530.0000         1.0267       1629.127        74.2468       87.81847         0.6202          37.57              1
      3530.5000         1.0269        1629.58        75.3889       89.34317         0.6211        37.6835              1
      3531.0000          1.027       1630.033        76.4856       90.80707         0.6221        37.7971              1
      3531.5000         1.0271       1630.486        77.0309       91.53248         0.6225         37.774              1
      3532.0000         1.0272       1634.289        77.4976       92.15263         0.6228        37.7137              1
      3532.5000         1.0261       1639.035        76.7897       91.19965          0.623        37.6534              1
      3533.0000         1.0251       1643.783        76.0814       90.24613         0.6233        37.5931              1
      3533.5000         1.0241       1648.531        75.3097       89.20771         0.6235        37.5328              1
      3534.0000         1.0231        1655.02        74.2321       87.75961         0.6238        37.4725              1
      3534.5000          1.022       1664.381         73.155       86.31215          0.624        37.4122              1
      3535.0000          1.021        1673.75        72.0774       84.86404         0.6243        37.3519              1
      3535.5000         1.0198       1683.117        70.9996       83.41567         0.6245        37.2916              1
      3536.0000         1.0187       1692.479        69.8857       81.91893         0.6256        37.4452              1
      3536.5000         1.0191       1700.443        68.7712        80.4214         0.6266        37.6389              1
      3537.0000         1.0201       1674.959         68.319       79.81088         0.6276        37.8444      0.9959762
      3537.5000         1.0218       1646.793        67.9158       79.26599         0.6287        38.1016      0.9843828
      3538.0000         1.0244       1625.008        67.5126       78.72109         0.6297        38.3587      0.9727892
      3538.5000         1.0266       1603.236        67.1094       78.17619         0.6307        38.6001      0.9611954
      3539.0000         1.0247       1583.443        67.7992       79.09514         0.6323        38.7258      0.9807476
      3539.5000         1.0227       1564.451        68.7161       80.31822         0.6342        38.8517              1
      3540.0000         1.0208       1557.332        69.6323       81.54037          0.636        38.9774              1
      3540.5000         1.0188       1581.061        72.1356       84.88811         0.6379        39.0437              1
      3541.0000         1.0169       1604.803        74.7614       88.39991         0.6397        39.0784              1
      3541.5000         1.0149         1630.1        74.8157       88.46772         0.6415        39.1132              1
      3542.0000         1.0128       1656.064        74.4315       87.94829         0.6421        39.1479              1
      3542.5000         1.0108       1682.018         74.047       87.42843         0.6426        39.1826              1
      3543.0000         1.0088       1706.463        72.8414       85.80888         0.6431        39.1352              1
      3543.5000         1.0102       1722.271        71.1427       83.52895         0.6436        39.0852              1
      3544.0000         1.0149       1681.543        69.4452        81.2506         0.6441        39.0352              1
      3544.5000         1.0216       1564.027        67.7477       78.97227         0.6494        38.9852      0.9781335
      3545.0000         1.0285       1509.775        65.9225       76.52292         0.6588        38.9353      0.9260195
      3545.5000         1.0355       1481.965        64.0188       73.96841         0.6681        38.8853      0.8716684
      3546.0000         1.0412        1457.42        63.2682       72.95825         0.6762        38.8282      0.8501756
      3546.5000         1.0454       1435.818        62.6082       72.06943         0.6838        38.6585      0.8312644
      3547.0000         1.0496       1424.682         62.644       72.11248         0.6914        38.4888      0.8321804
      3547.5000         1.0538       1413.547        64.8055       75.00244         0.6991        38.3191      0.8936689
      3548.0000         1.0531       1409.768        67.0419       77.99272         0.7032        38.1353       0.957292
      3548.5000         1.0511       1510.443        69.9362       81.86412         0.6967        37.9426              1
      3549.0000         1.0492       1537.174        70.8033       83.02051         0.6902        38.0081              1
      3549.5000         1.0473       1557.709        71.4883       83.93301         0.6836        38.2714              1
      3550.0000         1.0457       1574.391        71.7328       84.25558         0.6771        38.6176              1
      3550.5000         1.0441       1585.678        71.9773       84.57815         0.6705        38.9158              1
      3551.0000         1.0424       1595.859        72.1556       84.81203         0.6649        38.8041              1
      3551.5000         1.0408       1605.719         71.795        84.3242         0.6647        38.6924              1
      3552.0000         1.0402       1607.225        71.4344       83.83636         0.6645        38.5418              1
      3552.5000         1.0423       1608.729         71.074       83.34876         0.6643        38.3721              1
      3553.0000         1.0444       1610.232        70.2909       82.29508         0.6642        38.2023              1
      3553.5000         1.0473       1611.736        69.4213       81.12553          0.664        38.0383              1
      3554.0000         1.0511       1600.988        68.5522       79.95667         0.6638        37.8943       0.999078
