#------------------------------------------------------------------------------
# Created by    : vladimir.rabinovich
# Created on    : 09/19/2023 17:19:47
#------------------------------------------------------------------------------
~Version Information Section
VERS.           2.0     :   CWLS log ASCII Standard - VERSION 2.0
WRAP.           NO      :   One line per depth step
~Well Information Section
#MNEM       .UNIT                                         VALUE :DESCRIPTION
#------------------------------------------------------------------------------
STRT        .FT                                            2960 :START DEPTH
STOP        .FT                                           11758 :STOP DEPTH
STEP        .FT                                             0.5 :STEP      
NULL        .                                           -999.25 :NULL      
COMP        .                             CHAMPLIN PETROLEUM CO :COMPANY   
WELL        .                               OCS G06095 ST00BP00 :WELL      
FLD         .                                           WILDCAT :FIELD     
LOC         .                                                   :LOCATION  
CNTY        .                             GALVESTON LARGE BLOCK :LOCATION  
STAT        .                                             TEXAS :STATE     
CTRY        .                                     UNITED STATES :COUNTRY   
SRVC        .                                                   :SERVICE COMPANY
DATE        .                             9/13/2023 11:19:27 AM :LOG DATE  
API         .                                    42706401150000 :API NUMBER
UWI         .                                    42706401150000 :UNIQUE WELL ID
XCOORD      .                                  1057213.14222316 :SURFACE X 
YCOORD      .                                  10507856.7651171 :SURFACE Y 
LAT         .                                        28.9424301 :LATITUDE  
LON         .                                       -94.8238502 :LONGITUDE 
ELEV        .FT                                              89 :ELEVATION VALUE
ELEV_TYPE   .                                                KB :ELEVATION REFERENCE TYPE
~Curve Information Section
#MNEM       .UNIT                                      API CODE :CURVE DESCRIPTION
#------------------------------------------------------------------------------
DEPT        .FT                                                 :DEPTH     
ASFL        .OHMM                                               :          
CILD        .MMHO                                               :          
GR          .GAPI                                               :          
GR_NORM     .GAPI                                               :GammaRay Normalized
ILD         .OHMM                                               :          
SP          .MV                                                 :          
SP_NORM     .MV                                                 :SP Normalized
VSH_GR      .V/V                                                :Volume of Shale from GR
VSH_SP      .V/V                                                :Volume of Shale from SP
~A        DEPTH           ASFL           CILD             GR        GR_NORM            ILD             SP        SP_NORM         VSH_GR         VSH_SP
# ...
      8233.5000         0.9729       1029.074        44.2001        63.6663         0.9337        22.3615        1.07309      0.6524744              1
      8234.0000         0.9972       1008.444        43.2077        61.7454         0.9435        22.5269      0.9055328      0.6116042              1
      8234.5000         1.0214       987.8369        42.2141        59.8222         0.9543        22.6921      0.7381744      0.5706852              1
      8235.0000         1.0389        967.207        41.9684       59.34364         0.9685        22.8576      0.5705185      0.5605031              1
      8235.5000          1.052       956.1455        42.7139       60.77973         0.9827        23.0231      0.4028587      0.5910581              1
      8236.0000          1.063       946.4453        44.5901       64.39988         0.9969        23.1779      0.2459011      0.6680825              1
      8236.5000         1.0737       936.7461        47.8678       70.72722         1.0177        23.3306     0.09104347      0.8027068              1
      8237.0000         1.0768       931.0996        49.1321       73.16542         1.0265        23.4829    -0.06341362      0.8545834              1
      8237.5000         1.0773       930.5068        49.9074       74.65903         1.0193        23.6094     -0.1920719      0.8863624              1
      8238.0000         1.0778       929.9141        49.7589       74.36822         1.0121        23.6697       -0.25453      0.8801748              1
      8238.5000         1.0769       929.3213        49.4327       73.73419         1.0064        23.7301     -0.3170872      0.8666849              1
      8239.0000         1.0759       928.7295        49.1065       73.10015         1.0056        23.7904     -0.3795433      0.8531947              1
      8239.5000         1.0749       929.1055        48.7797       72.46495         1.0048        23.8508     -0.4421024      0.8396798              1
      8240.0000         1.0739       930.3809        48.5189       71.95721          1.004        23.9128     -0.5062599      0.8288769              1
      8240.5000         1.0728       931.6553         48.371       71.66758         1.0032        24.0168     -0.6124172      0.8227144              1
      8241.0000         1.0718       932.9277        48.2231       71.37795         1.0024        24.1209     -0.7186737      0.8165522              1
      8241.5000         1.0701       934.2031        48.2519       71.42963         1.0016         24.225      -0.824934      0.8176518              1
      8242.0000         1.0684       935.4775         48.361       71.63643         1.0008         24.329     -0.9310913      0.8220517              1
      8242.5000         1.0666       935.0352        48.8071       72.49415              1        24.1449     -0.7491474       0.840301              1
      8243.0000         1.0648       932.5977         49.354       73.54663         0.9992        23.9368     -0.5432053      0.8626943              1
      8243.5000          1.063       930.1611        50.0804       74.94579         0.9984        23.7289     -0.3374634      0.8924637              1
      8244.0000         1.0612       927.7246        50.5223       75.79544         0.9975        23.5208     -0.1315212      0.9105413              1
      8244.5000         1.0583       925.2881        50.9088       76.53804         0.9978        23.3127     0.07442093      0.9263413              1
      8245.0000          1.055       924.8115        51.2011       77.09871         0.9993        23.1862      0.1987648      0.9382704              1
      8245.5000         1.0517       926.0664        51.3413       77.36556         1.0008        23.1023      0.2805061      0.9439481              1
      8246.0000         1.0484       927.3223        50.8712       76.45358         1.0023        23.0184      0.3622475      0.9245442              1
      8246.5000         1.0533       928.5771        49.8311       74.44054         1.0039        22.9344      0.4440899      0.8817136              1
      8247.0000         1.0601        929.833        48.8972       72.63264         1.0054        22.8505      0.5258331      0.8432478              1
      8247.5000         1.0669       931.0869        47.9633       70.82476         1.0069        22.7807      0.5934753      0.8047822              1
      8248.0000         1.0737       932.3418        46.9709       68.90387         1.0038         22.715      0.6570168      0.7639121              1
      8248.5000         1.0805       933.6641        46.3972       67.79175         0.9982        22.6494       0.720459      0.7402499              1
      8249.0000         1.0799       935.3545        46.1682       67.34545         0.9927        22.5837      0.7840023      0.7307543              1
      8249.5000         1.0776       937.0479         46.166       67.33728         0.9871         22.518      0.8475456      0.7305804              1
      8250.0000         1.0753       938.7383        46.4675        67.9157         0.9815        22.4414      0.9219856      0.7428873              1
      8250.5000         1.0711       940.4326        48.2972       71.44603          0.976          22.36       1.001228      0.8180006              1
      8251.0000         1.0664       943.3076        50.1269       74.97634         0.9704        22.2787       1.080372      0.8931137              1
      8251.5000         1.0618       946.9375        51.9375        78.4698         0.9719        22.1974       1.159515      0.9674426              1
      8252.0000         1.0571       950.5732        53.4476        81.3828         0.9774         22.116       1.238756              1              1
      8252.5000         1.0524       954.2031        54.9576       84.29561          0.983        22.0348       1.317799              1              1
      8253.0000         1.0531       950.2588        55.5325       85.40213         0.9885        21.9535        1.39694              1              1
      8253.5000         1.0545       944.7578        54.4542       83.31531          0.994        21.9279       1.420383              1              1
      8254.0000         1.0558       942.3652         53.376       81.22868         0.9996        21.9916       1.354525              1              1
      8254.5000         1.0571       945.5273        52.2977       79.14185         1.0051        22.0553       1.288668      0.9817415              1
      8255.0000         1.0585       948.6895        51.1551       76.93085         1.0106         22.119       1.222811      0.9346991              1
      8255.5000         1.0598       951.8516        49.8812       74.46619         1.0028        22.1826       1.157053      0.8822594              1
      8256.0000         1.0576       955.3867        48.9055       72.57758         0.9878        22.2462       1.091295      0.8420761              1
      8256.5000         1.0441       991.2012        48.1302       71.07604         0.9727        22.3098       1.025537      0.8101286              1
      8257.0000         1.0306       1016.852        47.3967       69.65525         0.9577        22.3735      0.9596786      0.7798989              1
      8257.5000          1.017       1033.504         47.436        69.7272         0.9427        22.4372      0.8938217      0.7814299              1
      8258.0000         1.0034       1050.154        48.1708       71.14262         0.9312        22.5009      0.8279648       0.811545              1
      8258.5000         0.9899       1066.641        48.9055       72.55782         0.9224        22.6513      0.6754055      0.8416558              1
      8259.0000         0.9789       1082.297        50.2343       75.12061         0.9137        22.9024      0.4221497      0.8961831              1
      8259.5000         0.9679        1097.93        51.8469        78.2316          0.905        23.1534      0.1689911      0.9623744              1
