#------------------------------------------------------------------------------
# Created by    : vladimir.rabinovich
# Created on    : 09/19/2023 17:19:50
#------------------------------------------------------------------------------
~Version Information Section
VERS.           2.0     :   CWLS log ASCII Standard - VERSION 2.0
WRAP.           NO      :   One line per depth step
~Well Information Section
#MNEM       .UNIT                                         VALUE :DESCRIPTION
#------------------------------------------------------------------------------
STRT        .FT                                             816 :START DEPTH
STOP        .FT                                            7470 :STOP DEPTH
STEP        .FT                                             0.5 :STEP      
NULL        .                                           -999.25 :NULL      
COMP        .                                   KERR-MCGEE CORP :COMPANY   
WELL        .                               OCS G05003 ST00BP00 :WELL      
FLD         .                                 BRAZOS BLOCK 0412 :FIELD     
LOC         .                                                   :LOCATION  
CNTY        .                                BRAZOS LARGE BLOCK :LOCATION  
STAT        .                                             TEXAS :STATE     
CTRY        .                                     UNITED STATES :COUNTRY   
SRVC        .                                                   :SERVICE COMPANY
DATE        .                             9/13/2023 11:19:08 AM :LOG DATE  
API         .                                    42704401140000 :API NUMBER
UWI         .                                    42704401140000 :UNIQUE WELL ID
XCOORD      .                                  819493.037302503 :SURFACE X 
YCOORD      .                                  10380289.6446028 :SURFACE Y 
LAT         .                                         28.579682 :LATITUDE  
LON         .                                        -95.558179 :LONGITUDE 
ELEV        .FT                                              90 :ELEVATION VALUE
ELEV_TYPE   .                                                KB :ELEVATION REFERENCE TYPE
~Curve Information Section
#MNEM       .UNIT                                      API CODE :CURVE DESCRIPTION
#------------------------------------------------------------------------------
DEPT        .FT                                                 :DEPTH     
ASFL        .OHMM                                               :          
CALI        .IN                                                 :          
CILD        .MMHO                                               :          
GR          .GAPI                                               :          
GR_NORM     .GAPI                                               :GammaRay Normalized
ILD         .OHMM                                               :          
ILM         .OHMM                                               :          
RHOB        .G/C3                                               :          
SP          .MV                                                 :          
SP_NORM     .MV                                                 :SP Normalized
VSH_GR      .V/V                                                :Volume of Shale from GR
VSH_SP      .V/V                                                :Volume of Shale from SP
~A        DEPTH           ASFL           CALI           CILD             GR        GR_NORM            ILD            ILM           RHOB             SP        SP_NORM         VSH_GR         VSH_SP
# ...
      3932.0000         0.6921        10.6167       3511.918        -999.25        -999.25          0.283         0.2952         2.1524       -96.2555      -20.88258        -999.25      0.0532103
      3932.5000         0.6806        10.6505       3515.938        -999.25        -999.25         0.2841          0.294         2.1327       -96.2354       -20.8571        -999.25     0.05442374
      3933.0000         0.6699        10.6853       3519.953        -999.25        -999.25         0.2851         0.2928         2.1043       -96.2256      -20.84193        -999.25     0.05514599
      3933.5000         0.6923        10.7431       3523.973        -999.25        -999.25         0.2875         0.2916         2.0976       -96.2872      -20.89816        -999.25     0.05246844
      3934.0000         0.7175           10.8       3529.344        -999.25        -999.25         0.2906         0.2944         2.1302        -96.349      -20.95459        -999.25     0.04978143
      3934.5000          0.718        10.8551       3536.133        -999.25        -999.25         0.2937          0.312          2.162       -96.4106      -21.01081        -999.25     0.04710425
      3935.0000         0.7102        10.9025       3401.816        -999.25        -999.25         0.2968         0.3392         2.1846       -96.6382      -21.23304        -999.25     0.03652191
      3935.5000         0.6918        10.9486       3035.578        -999.25        -999.25         0.2999          0.372         2.1903       -96.9591      -21.54857        -999.25     0.02149673
      3936.0000         0.6696        10.9874       2839.879        -999.25        -999.25          0.303         0.4056           2.18       -96.7122       -21.2963        -999.25     0.03350975
      3936.5000         0.6411        11.0199       2704.199        -999.25        -999.25         0.3061         0.4376         2.1651       -93.5809      -18.15962        -999.25      0.1828751
      3937.0000         0.6366         11.025       2627.691        -999.25        -999.25         0.3092         0.4606         2.1512       -92.2319      -16.80525        -999.25      0.2473689
      3937.5000         0.7015        10.9843       2574.461        -999.25        -999.25         0.3123         0.4679         2.1382       -91.4829      -16.05088        -999.25      0.2832914
      3938.0000         0.7394        10.8809       2524.867        -999.25        -999.25         0.3154          0.455         2.1288       -90.7332      -15.29581        -999.25      0.3192473
      3938.5000         0.8102        10.7534       2475.969        -999.25        -999.25         0.3185         0.4184         2.1211        -89.703      -14.26023        -999.25      0.3685604
      3939.0000         0.8306          10.64       2448.336        -999.25        -999.25         0.3216         0.3939         2.1543       -88.8639      -13.41576        -999.25      0.4087735
      3939.5000           0.82        10.5855       2501.816        -999.25        -999.25         0.3337         0.3839         2.2221       -89.6719      -14.21838        -999.25      0.3705532
      3940.0000         0.8008         10.566       2555.691        -999.25        -999.25         0.3479         0.3823         2.2312       -90.4797      -15.02081        -999.25      0.3323422
      3940.5000         0.7717        10.5681       2616.402        -999.25        -999.25         0.3709         0.3931         2.2075       -92.1488      -16.68454        -999.25      0.2531171
      3941.0000         0.7382        10.5729       2677.113        -999.25        -999.25         0.4028         0.4217         2.1871       -92.9224      -17.45277        -999.25      0.2165349
      3941.5000         0.7006        10.5791       2719.699        -999.25        -999.25         0.4389         0.4742         2.2091       -93.6189      -18.14389        -999.25      0.1836243
      3942.0000         0.9323        10.5844       2759.711        -999.25        -999.25          0.489         0.5616         2.2422       -94.0295      -18.54912        -999.25      0.1643277
      3942.5000         0.9863        10.5825       1708.086        -999.25        -999.25         0.5391         0.6566         2.2687       -94.3726      -18.88684        -999.25      0.1482457
      3943.0000         1.0917        10.5806       1545.766        -999.25        -999.25         0.5704         0.7426         2.2943       -94.7159      -19.22477        -999.25      0.1321538
      3943.5000         1.1449        10.5806       1412.361        -999.25        -999.25         0.6017         0.8033         2.3108       -95.1365         -19.64        -999.25       0.112381
      3944.0000         1.2634        10.5805       1353.732        -999.25        -999.25         0.6329         0.8497         2.2907       -95.5865      -20.08463        -999.25     0.09120832
      3944.5000         1.3617        10.5824       1303.223        -999.25        -999.25         0.6564         0.8345         2.2821       -96.2201      -20.71285        -999.25     0.06129274
      3945.0000         1.3811        10.5852       1264.525        -999.25        -999.25         0.6545         0.7761         2.2665       -96.9674      -21.45478        -999.25     0.02596283
      3945.5000          1.307        10.5881       1225.975        -999.25        -999.25         0.6237         0.7053         2.2292       -97.6993      -22.18131        -999.25              0
      3946.0000         1.1624        10.5866       1197.773        -999.25        -999.25         0.5928         0.6279          2.193       -97.8545      -22.33113        -999.25              0
      3946.5000         0.9763        10.5848       1163.582        -999.25        -999.25          0.562         0.5706         2.1651       -97.3553      -21.82656        -999.25    0.008259001
      3947.0000          0.881        10.5969       1190.916        -999.25        -999.25         0.5287         0.5228         2.1476       -95.6937      -20.15959        -999.25     0.08763849
      3947.5000         0.8564        10.6222        1389.98        -999.25        -999.25         0.4884          0.481         2.1344       -94.2554      -18.71592        -999.25      0.1563848
      3948.0000         0.8443        10.6822        1508.18        -999.25        -999.25         0.4481         0.4454         2.1232        -93.098      -17.55314        -999.25      0.2117553
      3948.5000         0.8322        10.7581       1604.543        -999.25        -999.25         0.4079         0.4159         2.1124       -92.0282      -16.47797        -999.25       0.262954
      3949.0000         0.8204        10.8343       1717.891        -999.25        -999.25           0.37         0.3914         2.0996       -91.0146        -15.459        -999.25      0.3114762
      3949.5000         0.8131        10.9139       1857.137        -999.25        -999.25         0.3322         0.3705          2.094       -90.0299      -14.46893        -999.25      0.3586226
      3950.0000         0.8058        10.9982       1996.283        -999.25        -999.25         0.2948         0.3481         2.1024       -89.0555      -13.48914        -999.25      0.4052789
      3950.5000         0.7985        11.0619       2122.852        -999.25        -999.25         0.2702         0.3284         2.1141       -88.5858      -13.01408        -999.25      0.4279011
      3951.0000         0.7912        11.1054       2251.105        -999.25        -999.25         0.2456         0.3171         2.1261       -89.1281        -13.551        -999.25      0.4023332
      3951.5000         0.7839        11.1139       2390.746        -999.25        -999.25         0.2392         0.3148         2.1269       -90.1473      -14.56483        -999.25      0.3540555
      3952.0000         0.7762        11.1085       2573.766        -999.25        -999.25         0.2424         0.3133         2.1114       -91.9149      -16.32706        -999.25      0.2701401
