#------------------------------------------------------------------------------
# Created by    : vladimir.rabinovich
# Created on    : 09/19/2023 17:20:39
#------------------------------------------------------------------------------
~Version Information Section
VERS.           2.0     :   CWLS log ASCII Standard - VERSION 2.0
WRAP.           NO      :   One line per depth step
~Well Information Section
#MNEM       .UNIT                                         VALUE :DESCRIPTION
#------------------------------------------------------------------------------
STRT        .FT                                             502 :START DEPTH
STOP        .FT                                           11475 :STOP DEPTH
STEP        .FT                                             0.5 :STEP      
NULL        .                                           -999.25 :NULL      
COMP        .                                      SHELL OIL CO :COMPANY   
WELL        .                                OCS 00730 ST00BP00 :WELL      
FLD         .                                           WILDCAT :FIELD     
LOC         .                                                   :LOCATION  
CNTY        .                             GALVESTON LARGE BLOCK :LOCATION  
STAT        .                                             TEXAS :STATE     
CTRY        .                                     UNITED STATES :COUNTRY   
SRVC        .                                                   :SERVICE COMPANY
DATE        .                             9/13/2023 11:19:42 AM :LOG DATE  
API         .                                    42706000250000 :API NUMBER
UWI         .                                    42706000250000 :UNIQUE WELL ID
XCOORD      .                                  958538.282477158 :SURFACE X 
YCOORD      .                                   10357465.718335 :SURFACE Y 
LAT         .                                         28.524406 :LATITUDE  
LON         .                                        -95.123893 :LONGITUDE 
ELEV        .FT                                              80 :ELEVATION VALUE
ELEV_TYPE   .                                                KB :ELEVATION REFERENCE TYPE
~Curve Information Section
#MNEM       .UNIT                                      API CODE :CURVE DESCRIPTION
#------------------------------------------------------------------------------
DEPT        .FT                                                 :DEPTH     
ASN         .OHMM                                               :          
CILD        .MMHO                                               :          
ILD         .OHMM                                               :          
LAT         .OHMM                                               :          
LN          .OHMM                                               :          
SP          .MV                                                 :          
SP_NORM     .MV                                                 :SP Normalized
VSH_SP      .V/V                                                :Volume of Shale from SP
~A        DEPTH            ASN           CILD            ILD            LAT             LN             SP        SP_NORM         VSH_SP
# ...
      7080.5000           0.56       2196.105         0.5822        -999.25        -999.25        -42.291       1.905487              1
      7081.0000           0.56        2194.84         0.5856        -999.25        -999.25       -42.6467       1.551949              1
      7081.5000         0.5603       2186.898         0.5891        -999.25        -999.25       -43.0018       1.199013              1
      7082.0000         0.5622       2178.945         0.5926        -999.25        -999.25       -43.3569       0.846077              1
      7082.5000         0.5641       2170.996         0.5961        -999.25        -999.25        -43.712      0.4931335              1
      7083.0000          0.566       2163.043         0.5995        -999.25        -999.25       -44.0381      0.1691971              1
      7083.5000         0.5681       2155.094          0.603        -999.25        -999.25       -43.9668      0.2426605              1
      7084.0000         0.5704        2133.66         0.6065        -999.25        -999.25       -43.8777      0.3339233              1
      7084.5000         0.5727       2100.918           0.61        -999.25        -999.25       -43.5895      0.6242867              1
      7085.0000         0.5858       2041.973         0.6134        -999.25        -999.25       -43.3015      0.9144478              1
      7085.5000         0.5997       2011.811         0.6182        -999.25        -999.25       -43.0136        1.20451              1
      7086.0000         0.6151       1918.975         0.6308        -999.25        -999.25       -42.7256       1.494671              1
      7086.5000         0.6306       1749.682         0.6434        -999.25        -999.25       -42.4374       1.785034              1
      7087.0000         0.6481       1729.604          0.656        -999.25        -999.25       -42.1495       2.075092              1
      7087.5000         0.6671       1709.547         0.6686        -999.25        -999.25       -43.3068      0.9199562              1
      7088.0000         0.6805       1694.465         0.6811        -999.25        -999.25       -44.7404     -0.5114784              1
      7088.5000         0.6766       1712.189         0.6937        -999.25        -999.25       -45.8338      -1.602718      0.9832578
      7089.0000           0.66       1729.914         0.7063        -999.25        -999.25       -46.5925      -2.359253       0.962243
      7089.5000         0.6434       1747.617         0.7189        -999.25        -999.25       -47.3509      -3.115494      0.9412363
      7090.0000         0.6319        1765.34         0.7237        -999.25        -999.25       -47.6424      -3.404831      0.9331992
      7090.5000         0.6234        1784.73         0.7164        -999.25        -999.25       -47.2097      -2.969971      0.9452786
      7091.0000         0.6149       1815.826         0.7092        -999.25        -999.25       -46.5881      -2.346207      0.9626054
      7091.5000         0.6093       1846.922         0.7019        -999.25        -999.25       -45.9665      -1.722443      0.9799321
      7092.0000         0.6134       1863.365         0.6939        -999.25        -999.25       -45.3455      -1.099285      0.9972421
      7092.5000         0.6175       1866.342         0.6858        -999.25        -999.25       -44.7239     -0.4755211              1
      7093.0000         0.6215        1869.32         0.6778        -999.25        -999.25       -44.3616     -0.1110573              1
      7093.5000         0.6256       1866.301         0.6698        -999.25        -999.25        -44.088      0.1647034              1
      7094.0000         0.6297       1862.725         0.6618        -999.25        -999.25       -43.8144       0.440464              1
      7094.5000         0.6338       1859.148         0.6537        -999.25        -999.25       -43.5416      0.7154274              1
      7095.0000         0.6369       1855.578          0.651        -999.25        -999.25       -43.5412      0.7179909              1
      7095.5000         0.6376       1852.002         0.6555        -999.25        -999.25       -43.5408      0.7205544              1
      7096.0000         0.6383       1848.432           0.66        -999.25        -999.25       -43.5405      0.7230148              1
      7096.5000         0.6385       1850.574         0.6645        -999.25        -999.25       -43.5402      0.7254753              1
      7097.0000         0.6343       1858.293         0.6689        -999.25        -999.25       -43.5505      0.7173386              1
      7097.5000         0.6301       1870.064         0.6734        -999.25        -999.25       -43.5972       0.672802              1
      7098.0000         0.6259       1891.121         0.6779        -999.25        -999.25        -43.644      0.6281624              1
      7098.5000         0.6216       1912.178         0.6806        -999.25        -999.25        -43.611      0.6633224              1
      7099.0000         0.6136       1933.232         0.6777        -999.25        -999.25       -43.3208      0.9556847              1
      7099.5000         0.6052       1993.975         0.6749        -999.25        -999.25       -43.0304       1.248249              1
      7100.0000         0.5967       2012.477         0.6721        -999.25        -999.25       -42.7402       1.540611              1
      7100.5000         0.5898       2030.002         0.6693        -999.25        -999.25       -42.4418       1.841175              1
      7101.0000         0.5862       2045.127         0.6665        -999.25        -999.25       -42.0751       2.210033              1
      7101.5000         0.5827       2060.363         0.6626        -999.25        -999.25        -41.709       2.578297              1
      7102.0000         0.5821       2054.012         0.6469        -999.25        -999.25       -41.3423       2.947159              1
      7102.5000         0.5884       2034.244         0.6312        -999.25        -999.25       -40.9757       3.315922              1
      7103.0000         0.5947       2012.922         0.6154        -999.25        -999.25       -40.6112       3.682583              1
      7103.5000         0.6009       1921.039         0.6109        -999.25        -999.25       -40.6698       3.626144              1
      7104.0000         0.6072       1905.713         0.6182        -999.25        -999.25       -40.7283       3.569809              1
      7104.5000         0.6135       1890.365         0.6255        -999.25        -999.25        -41.033       3.267269              1
      7105.0000         0.6198       1875.041         0.6328        -999.25        -999.25       -41.4938       2.808632              1
      7105.5000          0.626       1861.758         0.6401        -999.25        -999.25       -41.9546       2.349991              1
      7106.0000         0.6341       1853.807         0.6464        -999.25        -999.25        -42.416       1.890755              1
      7106.5000         0.6423       1845.844         0.6454        -999.25        -999.25       -42.8768       1.432117              1
      7107.0000         0.6478       1837.893         0.6444        -999.25        -999.25        -43.266       1.045082              1
      7107.5000         0.6411       1847.143         0.6434        -999.25        -999.25       -43.5173      0.7959404              1
      7108.0000         0.6345       1858.871         0.6424        -999.25        -999.25       -43.7684      0.5470047              1
      7108.5000         0.6278       1870.598         0.6414        -999.25        -999.25       -44.0195      0.2980652              1
      7109.0000         0.6212       1882.326         0.6404        -999.25        -999.25       -44.2705     0.04922867              1
      7109.5000         0.6151       1894.053         0.6394        -999.25        -999.25       -44.6534     -0.3315086              1
