#------------------------------------------------------------------------------
# Created by    : vladimir.rabinovich
# Created on    : 09/19/2023 17:20:39
#------------------------------------------------------------------------------
~Version Information Section
VERS.           2.0     :   CWLS log ASCII Standard - VERSION 2.0
WRAP.           NO      :   One line per depth step
~Well Information Section
#MNEM       .UNIT                                         VALUE :DESCRIPTION
#------------------------------------------------------------------------------
STRT        .FT                                             502 :START DEPTH
STOP        .FT                                           11475 :STOP DEPTH
STEP        .FT                                             0.5 :STEP      
NULL        .                                           -999.25 :NULL      
COMP        .                                      SHELL OIL CO :COMPANY   
WELL        .                                OCS 00730 ST00BP00 :WELL      
FLD         .                                           WILDCAT :FIELD     
LOC         .                                                   :LOCATION  
CNTY        .                             GALVESTON LARGE BLOCK :LOCATION  
STAT        .                                             TEXAS :STATE     
CTRY        .                                     UNITED STATES :COUNTRY   
SRVC        .                                                   :SERVICE COMPANY
DATE        .                             9/13/2023 11:19:42 AM :LOG DATE  
API         .                                    42706000250000 :API NUMBER
UWI         .                                    42706000250000 :UNIQUE WELL ID
XCOORD      .                                  958538.282477158 :SURFACE X 
YCOORD      .                                   10357465.718335 :SURFACE Y 
LAT         .                                         28.524406 :LATITUDE  
LON         .                                        -95.123893 :LONGITUDE 
ELEV        .FT                                              80 :ELEVATION VALUE
ELEV_TYPE   .                                                KB :ELEVATION REFERENCE TYPE
~Curve Information Section
#MNEM       .UNIT                                      API CODE :CURVE DESCRIPTION
#------------------------------------------------------------------------------
DEPT        .FT                                                 :DEPTH     
ASN         .OHMM                                               :          
CILD        .MMHO                                               :          
ILD         .OHMM                                               :          
LAT         .OHMM                                               :          
LN          .OHMM                                               :          
SP          .MV                                                 :          
SP_NORM     .MV                                                 :SP Normalized
VSH_SP      .V/V                                                :Volume of Shale from SP
~A        DEPTH            ASN           CILD            ILD            LAT             LN             SP        SP_NORM         VSH_SP
       502.0000         0.8633        -999.25        -999.25              0         0.6167       -19.6452       2.306019              1
       502.5000         0.8705        -999.25        -999.25              0         0.7102       -19.9668       1.984419              1
       503.0000         0.8778        -999.25        -999.25              0         0.7923       -20.2885        1.66272              1
       503.5000         0.9476        -999.25        -999.25              0         0.8518       -21.0964        1.45273              1
       504.0000         1.0312        -999.25        -999.25              0         0.9114       -23.3315      0.8106613              1
       504.5000         1.0588        -999.25        -999.25              0         0.9709       -29.3584      -3.623209      0.8456936
       505.0000         1.0864        -999.25        -999.25              0         1.0085       -33.0624      -5.734179      0.7215189
       505.5000         1.1029        -999.25        -999.25              0         1.0324       -37.7715      -8.850246      0.5382208
       506.0000         1.1178        -999.25        -999.25              0         1.0564       -38.6937      -8.179413      0.5776816
       506.5000         1.1327        -999.25        -999.25              0         1.0804       -39.4254      -7.318085      0.6283479
       507.0000         1.1458        -999.25        -999.25              0         1.1044       -40.1907      -6.490353      0.6770381
       507.5000         1.1559        -999.25        -999.25              0         1.1284       -41.8087       -6.51532      0.6755694
       508.0000         1.1659        -999.25        -999.25              0         1.1523       -43.8047      -6.918289      0.6518654
       508.5000         1.1753        -999.25        -999.25              0         1.1542       -45.2357      -6.756256      0.6613967
       509.0000         1.1612        -999.25        -999.25              0         1.1537       -46.9204      -6.847927      0.6560043
       509.5000         1.1534        -999.25        -999.25              0         1.1532       -49.8445      -8.178997       0.577706
       510.0000          1.147        -999.25        -999.25              0         1.1527       -51.3975      -8.138962      0.5800611
       510.5000         1.1406        -999.25        -999.25              0         1.1521       -52.2562      -7.404633      0.6232569
       511.0000         1.1341        -999.25        -999.25              0         1.1513       -52.9631      -6.518501      0.6753823
       511.5000         1.1277        -999.25        -999.25              0         1.1479       -53.5869      -5.549267      0.7323961
       512.0000         1.1213        -999.25        -999.25              0         1.1445       -53.8974      -4.266739      0.8078389
       512.5000         1.1188        -999.25        -999.25              0         1.1412       -54.2079      -2.988388       0.883036
       513.0000         1.1224        -999.25        -999.25              0         1.1378       -54.5118      -3.292286      0.8651596
       513.5000          1.126        -999.25        -999.25              0         1.1344       -54.2806      -3.061089      0.8787595
       514.0000         1.1297        -999.25        -999.25              0         1.1311       -54.0495      -2.829987      0.8923537
       514.5000          1.124        -999.25        -999.25              0         1.1628       -53.8183      -2.598785      0.9059538
       515.0000         1.1133        -999.25        -999.25              0         1.1959       -53.5872      -2.367687      0.9195478
       515.5000         1.1035        -999.25        -999.25              0          1.229        -53.356      -2.136486      0.9331479
       516.0000         1.1189        -999.25        -999.25              0         1.2622       -53.1249      -1.905388      0.9467419
       516.5000           1.15        -999.25        -999.25              0         1.2912       -52.9383      -1.718788      0.9577184
       517.0000         1.1724        -999.25        -999.25              0         1.3147       -55.3506      -4.131088      0.8158183
       517.5000         1.1949        -999.25        -999.25              0         1.3383       -56.6235      -5.403988      0.7409419
       518.0000         1.2136        -999.25        -999.25              0         1.3619       -57.4548      -6.235287      0.6920419
       518.5000         1.2261        -999.25        -999.25              0         1.3854       -58.0191      -6.799587      0.6588478
       519.0000         1.2387        -999.25        -999.25              0          1.409       -58.5834      -7.363888      0.6256537
       519.5000         1.2392        -999.25        -999.25              0         1.4151       -59.0642      -7.844688      0.5973713
       520.0000          1.233        -999.25        -999.25          0.044         1.4039       -59.4279      -8.208385      0.5759773
       520.5000          1.226        -999.25        -999.25         0.1418         1.3928       -59.7915      -8.571987       0.554589
       521.0000         1.2165        -999.25        -999.25         0.3247         1.3816       -60.1551      -8.935589      0.5332007
       521.5000          1.207        -999.25        -999.25         0.4794         1.3653       -60.4222      -9.202686       0.517489
       522.0000         1.1975        -999.25        -999.25         0.5435         1.3469       -60.5536      -9.334087      0.5097595
       522.5000         1.1879        -999.25        -999.25         0.6076         1.3285       -60.6852      -9.465687      0.5020185
       523.0000         1.1784        -999.25        -999.25         0.6409         1.3101       -60.8167      -9.597187      0.4942831
       523.5000         1.1689        -999.25        -999.25         0.6654         1.2917       -60.9482      -9.728687      0.4865478
       524.0000         1.1594        -999.25        -999.25           0.69         1.2795       -61.0752      -9.855686      0.4790773
       524.5000         1.1457        -999.25        -999.25         0.7092         1.2808       -61.0629      -9.843388      0.4798007
       525.0000         1.1318        -999.25        -999.25         0.7131         1.2822       -61.0506      -9.831085      0.4805244
       525.5000          1.118        -999.25        -999.25         0.7171         1.2836       -61.0383      -9.818787      0.4812478
       526.0000         1.1024        -999.25        -999.25         0.7211          1.285       -61.0261      -9.806587      0.4819655
       526.5000         1.0832        -999.25        -999.25         0.7211         1.2864       -61.0138      -9.794289      0.4826889
       527.0000          1.064        -999.25        -999.25         0.7174         1.2899       -61.0015      -9.781986      0.4834126
       527.5000         1.0477        -999.25        -999.25         0.7137         1.2941       -60.9892      -9.769688       0.484136
       528.0000         1.0318        -999.25        -999.25           0.71         1.2984       -60.9769      -9.757385      0.4848597
       528.5000          1.024        -999.25        -999.25         0.7063         1.3026       -60.9645      -9.744987       0.485589
       529.0000         1.0209        -999.25        -999.25         0.7026         1.3068       -60.9514      -9.731888      0.4863595
       529.5000         1.0273        -999.25        -999.25         0.6989         1.3072       -60.9383      -9.718788      0.4871301
       530.0000         1.0355        -999.25        -999.25         0.6952         1.3047       -60.9832      -9.763687       0.484489
       530.5000         1.0438        -999.25        -999.25         0.6937         1.3023       -61.1735      -9.953987      0.4732949
       531.0000          1.052        -999.25        -999.25         0.7017         1.2998       -61.3637      -10.14419      0.4621066
