#------------------------------------------------------------------------------
# Created by    : vladimir.rabinovich
# Created on    : 09/19/2023 17:22:16
#------------------------------------------------------------------------------
~Version Information Section
VERS.           2.0     :   CWLS log ASCII Standard - VERSION 2.0
WRAP.           NO      :   One line per depth step
~Well Information Section
#MNEM       .UNIT                                         VALUE :DESCRIPTION
#------------------------------------------------------------------------------
STRT        .FT                                              10 :START DEPTH
STOP        .FT                                            7932 :STOP DEPTH
STEP        .FT                                             0.5 :STEP      
NULL        .                                           -999.25 :NULL      
COMP        .                                       ALLIED CORP :COMPANY   
WELL        .                               OCS G04069 ST00BP00 :WELL      
FLD         .                                           WILDCAT :FIELD     
LOC         .                                                   :LOCATION  
CNTY        .                             GALVESTON LARGE BLOCK :LOCATION  
STAT        .                                             TEXAS :STATE     
CTRY        .                                     UNITED STATES :COUNTRY   
SRVC        .                                                   :SERVICE COMPANY
DATE        .                             9/13/2023 11:18:53 AM :LOG DATE  
API         .                                    42706400790000 :API NUMBER
UWI         .                                    42706400790000 :UNIQUE WELL ID
XCOORD      .                                  993545.470392299 :SURFACE X 
YCOORD      .                                  10396443.6120929 :SURFACE Y 
LAT         .                                         28.633244 :LATITUDE  
LON         .                                        -95.016955 :LONGITUDE 
ELEV        .FT                                              82 :ELEVATION VALUE
ELEV_TYPE   .                                                KB :ELEVATION REFERENCE TYPE
~Curve Information Section
#MNEM       .UNIT                                      API CODE :CURVE DESCRIPTION
#------------------------------------------------------------------------------
DEPT        .FT                                                 :DEPTH     
CALI        .IN                                                 :          
CILD        .MMHO                                               :          
DPHI        .B                                                  :          
DRHO        .G/C3                                               :          
DT          .US/F                                               :          
GR          .GAPI                                               :          
GR_1        .GAPI                                               :          
GR_NORM     .GAPI                                               :GammaRay Normalized
ILD         .OHMM                                               :          
ILM         .OHMM                                               :          
NPHI        .%                                                  :          
SFL         .OHMM                                               :          
SP          .MV                                                 :          
SP_NORM     .MV                                                 :SP Normalized
VSH_GR      .V/V                                                :Volume of Shale from GR
VSH_SP      .V/V                                                :Volume of Shale from SP
~A        DEPTH           CALI           CILD           DPHI           DRHO             DT             GR           GR_1        GR_NORM            ILD            ILM           NPHI            SFL             SP        SP_NORM         VSH_GR         VSH_SP
# ...
      5386.0000        16.1666       1612.447        29.3495         -0.027       132.1848        82.2067        96.2843       83.79025         0.5727         0.6664        46.3659         0.9055       -57.2928       -3.19146              1      0.9544077
      5386.5000        16.1616       1627.211        28.7948        -0.0201       132.3247        95.4469        94.9117       100.3425         0.5603         0.6657        45.6354         0.9034       -57.1974      -3.098316              1      0.9557384
      5387.0000        16.1583       1642.953        28.6137        -0.0194       132.3967        96.9114        93.6703       102.1751         0.5619         0.6709        44.7677         0.8849       -57.1498      -3.052975              1      0.9563861
      5387.5000        16.1537       1633.068        28.9612        -0.0332       132.2334        93.3876        92.5741       97.77241         0.5674         0.6765        42.1437         0.8622       -56.9779      -2.883335              1      0.9588095
      5388.0000        16.1388       1594.525         29.769        -0.0514        131.354        93.4563        91.6274       97.86029          0.573         0.6854        41.1939         0.8822        -56.785      -2.692696              1      0.9615329
      5388.5000        16.1239       1556.352        29.9326        -0.0534       129.9878        92.4194        95.0343       96.56618         0.5786         0.6934        40.8223         0.9085       -56.4002      -2.310154              1      0.9669978
      5389.0000        16.1109       1518.203        29.0349        -0.0455       128.4836        87.7633        99.0857       90.74806         0.5925         0.7002        40.2394         0.9202       -55.8345      -1.746712              1       0.975047
      5389.5000        16.0982       1475.125        28.5231        -0.0418       127.2628        81.2888       100.6163       82.65695         0.6126         0.7071        40.0179         0.9074        -55.489      -1.403469              1      0.9799504
      5390.0000        16.0858       1436.023        28.7545        -0.0482       126.2164        82.1278        98.3381        83.7077         0.6333          0.715        39.8322         0.8982       -55.3429      -1.259628              1      0.9820053
      5390.5000        16.0774       1430.432        29.4933        -0.0535       125.3765        90.9414        96.5875       94.72672         0.6477         0.7212        40.1329         0.8908       -55.6588      -1.577789              1      0.9774601
      5391.0000         16.069       1435.268        29.5892        -0.0532       124.8617        96.2821        97.5195       101.4046         0.6567         0.7236        41.1332         0.9062       -56.4489      -2.370148              1      0.9661407
      5391.5000        16.0636       1440.328        29.1061        -0.0435       125.0222        96.8027        98.3799       102.0574         0.6658         0.7191        41.6536         0.9548        -57.183      -3.106506              1      0.9556214
      5392.0000        16.0648        1457.34        29.0789        -0.0414       126.9164        94.8004        96.2426        99.5565         0.6646          0.712        41.5539         0.9788       -57.4911      -3.416866              1      0.9511876
      5392.5000         16.066       1476.785        29.6953        -0.0423       129.2854        88.0496        94.1299          91.12         0.6589         0.7016        41.0693         0.9792       -57.7993      -3.727325              1      0.9467525
      5393.0000        16.0697       1495.811        30.8518        -0.0515       132.2383        86.2725        97.5146       88.90064         0.6532         0.6904        41.5219         0.9308       -56.6328      -2.563087              1      0.9633844
      5393.5000         16.077       1514.611        32.1841          -0.06       134.5073        85.9135       101.9043        88.4539         0.6476         0.6791        43.5618          0.895       -55.8647      -1.797245              1      0.9743251
      5394.0000        16.0842       1533.426        32.2026        -0.0592       135.0493        86.4032       102.4412       89.06804         0.6347         0.6693        44.4431         0.8832       -55.4583      -1.393105              1      0.9800985
      5394.5000        16.0904        1565.84        31.3036        -0.0485       134.7144        86.5555       101.2659       89.26042         0.6204         0.6595        43.3177         0.8952       -55.4677      -1.404762              1       0.979932
      5395.0000         16.094       1602.674        30.0999        -0.0407       134.1311        86.6113       101.3051       89.33218         0.6064         0.6484         41.608         0.9216       -55.4711      -1.410423              1      0.9798511
      5395.5000        16.0976       1622.715        29.6433        -0.0422       133.8477         87.936       102.3152       90.99007         0.5927         0.6385        41.8146         0.9178       -55.4358       -1.37738              1      0.9803231
      5396.0000           16.1       1642.756        29.8511        -0.0466       133.6252        90.8871       101.8538       94.68095         0.5791         0.6303        43.1056         0.9078       -55.1443      -1.088139              1      0.9844552
      5396.5000        16.0986       1662.795        30.3135        -0.0475       133.9705        94.1145       100.6188       98.71722         0.5657         0.6252        45.7354         0.8917       -54.4713     -0.4173965              1      0.9940372
      5397.0000        16.0972       1682.859        30.3677        -0.0436       134.3958         94.969        99.3909       99.78736         0.5527         0.6218        49.2049         0.8757       -53.9045      0.1471443              1              1
      5397.5000          16.09       1702.949        30.1226        -0.0434       134.7666        94.9764        98.2291       99.79861         0.5418         0.6208        51.0559         0.8605       -53.7198      0.3295822              1              1
      5398.0000        16.0822       1720.477        30.1372        -0.0422       134.7498        95.0966        98.1788       99.95087         0.5397         0.6207        52.2211          0.863       -53.6071      0.4400215              1              1
      5398.5000        16.0753       1737.482        29.9183        -0.0373       134.5117        96.5338        99.0392       101.7494         0.5376         0.6219          52.56         0.8655       -53.9784     0.06646347              1              1
      5399.0000        16.0694       1752.902        29.2387        -0.0309       134.3013        98.4078        99.5244       104.0939         0.5355         0.6282        49.3182         0.8652       -54.3751     -0.3324928              1      0.9952501
      5399.5000        16.0636        1740.17        28.8304        -0.0274       134.7571        99.6786        97.6494       105.6844         0.5356         0.6349        45.4476         0.8638       -55.1813      -1.140953              1      0.9837007
      5400.0000        16.0675       1727.424        29.2202        -0.0333       135.1721        98.8545        96.5037       104.6563         0.5419         0.6415        42.8121         0.8649       -55.9875      -1.949413              1      0.9721512
      5400.5000        16.0727        1714.68        30.7123        -0.0488       135.5876        96.1823        96.6715        101.318         0.5483         0.6469        42.2701         0.8722       -55.6187       -1.58287              1      0.9773875
      5401.0000        16.0779       1701.947        32.1986        -0.0654       135.5894        94.6044        99.8333       99.34769         0.5547         0.6516        43.2687         0.8795       -55.2035       -1.16993              1      0.9832867
      5401.5000        16.0811        1691.48        32.3574        -0.0711       135.2866        93.6296       102.2163        98.1312          0.563         0.6523        42.6363         0.8783       -54.5466     -0.5152893              1      0.9926387
