#------------------------------------------------------------------------------
# Created by    : vladimir.rabinovich
# Created on    : 09/19/2023 17:21:46
#------------------------------------------------------------------------------
~Version Information Section
VERS.           2.0     :   CWLS log ASCII Standard - VERSION 2.0
WRAP.           NO      :   One line per depth step
~Well Information Section
#MNEM       .UNIT                                         VALUE :DESCRIPTION
#------------------------------------------------------------------------------
STRT        .FT                                            2869 :START DEPTH
STOP        .FT                                           10002 :STOP DEPTH
STEP        .FT                                             0.5 :STEP      
NULL        .                                           -999.25 :NULL      
COMP        .                          SEAGULL ENERGY E & P INC :COMPANY   
WELL        .                               OCS G06145 ST00BP00 :WELL      
FLD         .                                           WILDCAT :FIELD     
LOC         .                                                   :LOCATION  
CNTY        .                           HIGH ISLAND LARGE BLOCK :LOCATION  
STAT        .                                             TEXAS :STATE     
CTRY        .                                     UNITED STATES :COUNTRY   
SRVC        .                                                   :SERVICE COMPANY
DATE        .                             9/13/2023 11:19:59 AM :LOG DATE  
API         .                                    42708402850000 :API NUMBER
UWI         .                                    42708402850000 :UNIQUE WELL ID
XCOORD      .                                  1277324.30822617 :SURFACE X 
YCOORD      .                                   10672684.104362 :SURFACE Y 
LAT         .                                         29.403374 :LATITUDE  
LON         .                                        -94.140646 :LONGITUDE 
ELEV        .FT                                              88 :ELEVATION VALUE
ELEV_TYPE   .                                                KB :ELEVATION REFERENCE TYPE
~Curve Information Section
#MNEM       .UNIT                                      API CODE :CURVE DESCRIPTION
#------------------------------------------------------------------------------
DEPT        .FT                                                 :DEPTH     
CALI        .IN                                                 :          
DPHI        .%                                                  :          
DRHO        .G/C3                                               :          
GR          .GAPI                                               :          
GR_NORM     .GAPI                                               :GammaRay Normalized
ILD         .OHMM                                               :          
ILM         .OHMM                                               :          
NPHI        .%                                                  :          
SFL         .OHMM                                               :          
SP          .MV                                                 :          
SP_NORM     .MV                                                 :SP Normalized
VSH_GR      .V/V                                                :Volume of Shale from GR
VSH_SP      .V/V                                                :Volume of Shale from SP
~A        DEPTH           CALI           DPHI           DRHO             GR        GR_NORM            ILD            ILM           NPHI            SFL             SP        SP_NORM         VSH_GR         VSH_SP
# ...
      8113.0000        11.3212         20.536          0.012         86.347       87.22408         0.5238          0.546        32.9907         0.6773       -17.2636      -2.205044              1      0.9684994
      8113.5000        11.3147        21.1319         0.0156        86.6233       87.53195         0.5295         0.5483        34.1368         0.6494       -17.1077      -2.078726              1      0.9703039
      8114.0000        11.3122        21.0515         0.0182        85.2539       86.01128         0.5342         0.5566        33.9601         0.6241       -17.0541      -2.036653              1      0.9709049
      8114.5000        11.2766        20.5968         0.0211        83.6704       84.25273         0.5392          0.568        33.1913          0.628       -17.0997      -2.076276              1      0.9703389
      8115.0000        11.1845        20.1467         0.0232        83.0742       83.59116         0.5452         0.5776        32.6417         0.6643       -17.2557      -2.206815              1      0.9684741
      8115.5000        11.0601         19.659         0.0204        83.1973       83.72883         0.5519          0.586        32.5525         0.6939       -17.5919      -2.485755              1      0.9644892
      8116.0000        10.9538        19.1284         0.0169        83.4708        84.0336          0.559         0.5859        32.5864         0.7039       -18.0906      -2.898518              1      0.9585926
      8116.5000        10.8669        18.6181         0.0137         83.974        84.5936          0.567         0.5858        32.4936          0.692       -18.6854      -3.390422              1      0.9515654
      8117.0000        10.7957        18.1586         0.0114        83.4574       84.02048         0.5753         0.5871        32.3153         0.6798       -19.2516      -3.858775              1      0.9448746
      8117.5000        10.7527         18.068         0.0101         82.353       82.79426         0.5836         0.5936        32.7352         0.6798       -19.8254      -4.333385              1      0.9380945
      8118.0000        10.7291        18.7421         0.0106        81.7969       82.17725         0.5918         0.5985         33.625         0.6931       -20.2688      -4.700607              1      0.9328485
      8118.5000        10.7141        19.7596         0.0134        82.9745        83.4866         0.5999         0.6022        34.1465         0.6868       -20.4807      -4.877182              1       0.930326
      8119.0000        10.7156        20.6615         0.0181        84.8091       85.52591         0.6043         0.6054        33.9775         0.6736       -20.1225      -4.584262              1      0.9345105
      8119.5000        10.7267        21.5648         0.0213         85.813       86.64226         0.6085         0.6102         33.824         0.6748       -19.8024      -4.322721              1      0.9382468
      8120.0000        10.7271        22.4561         0.0198        86.0651       86.92325         0.6138          0.617        34.9988         0.6837       -19.4011      -3.994307              1      0.9429384
      8120.5000        10.7209          23.09         0.0173        85.9535       86.80013         0.6167         0.6246        37.1812         0.6983       -19.4942      -4.073046              1      0.9418136
      8121.0000        10.7017        22.4876          0.016        85.5692       86.37402          0.617          0.626        38.0146         0.7189       -20.2143      -4.668139              1      0.9333123
      8121.5000        10.6696         21.189         0.0182        84.9012       85.63268          0.609         0.6206        37.3555          0.737       -21.0516       -5.35975              1      0.9234322
      8122.0000        10.6366        20.4447         0.0217        84.1477       84.79633         0.5966          0.611        36.6423         0.7483       -21.6557      -5.859313              1      0.9162955
      8122.5000        10.6281        20.4676         0.0249        83.6169       84.20745         0.5819         0.5985        38.9126         0.6996       -21.9922      -6.138501              1      0.9123071
      8123.0000        10.6432        21.0613          0.026        83.7634       84.37111         0.5661         0.5848        40.4202         0.6537       -22.2003      -6.311945              1      0.9098294
      8123.5000        10.6721        22.1029         0.0226        84.5087       85.20011         0.5505         0.5697        40.8184         0.6304       -22.4211      -6.495851              1      0.9072021
      8124.0000        10.7046        22.9761         0.0173         85.332       86.11577         0.5366         0.5521        40.6595         0.6171       -22.6803      -6.711378              1      0.9041232
      8124.5000        10.7217        23.2469         0.0142        86.1265       86.99944         0.5241         0.5362        40.1624         0.6066        -22.947      -6.933083              1       0.900956
      8125.0000        10.7151        23.1054         0.0124        86.2279       87.11299         0.5113         0.5272        39.1741         0.6001       -23.1601      -7.110647              1      0.8984193
      8125.5000        10.7068         22.904         0.0115        84.5468       85.24599         0.4978         0.5219        37.8545         0.5957        -23.196      -7.142279              1      0.8979675
      8126.0000        10.6938        22.8331         0.0111        81.6515       82.02987         0.4857         0.5184        36.7452         0.5931       -22.9796      -6.966137              1      0.9004837
      8126.5000          10.69        22.9423         0.0109        79.0521       79.14254         0.4797         0.5163        37.0609         0.5931       -22.4942      -6.568465      0.9817562      0.9061648
      8127.0000        10.6971        23.2654         0.0109        78.7228       78.77753         0.4777         0.5144        38.1265         0.5941       -21.7028      -5.918793      0.9739901      0.9154458
      8127.5000        10.7292        23.6175          0.011        80.7286       81.00709         0.4786         0.5138        39.0479          0.595       -21.4218      -5.689451              1      0.9187222
      8128.0000        10.7803        23.9366         0.0114        82.3833       82.84653         0.4814         0.5145        39.2211         0.5967       -21.4479      -5.713015              1      0.9183855
      8128.5000        10.8252        23.6743         0.0123        82.0916       82.52331         0.4866         0.5173        39.0708         0.6004       -21.5785      -5.822636              1      0.9168195
      8129.0000        10.8629        23.3398          0.014         81.123       81.44797         0.4928         0.5223        39.0599         0.6075       -21.7307      -5.950046              1      0.9149994
      8129.5000        10.8837        23.2653         0.0176        80.0345       80.23941         0.5015         0.5294        39.1354         0.6166       -21.4547      -5.724821              1      0.9182168
      8130.0000         10.876        24.1041         0.0226        80.0848       80.29618         0.5145         0.5391        39.0492         0.6252       -21.1003      -5.435031              1      0.9223567
      8130.5000        10.8446        24.0906         0.0295        80.6086       80.87907         0.5305         0.5498         38.709         0.6274       -20.7877      -5.179667              1      0.9260048
      8131.0000        10.8036        23.3398         0.0369        80.6226        80.8955         0.5435         0.5596        37.9965         0.6277       -20.5931      -5.021475              1      0.9282646
      8131.5000        10.7766        22.3674         0.0442        79.4149       79.55451         0.5544         0.5687        36.9527          0.634       -20.4006      -4.865016      0.9905216      0.9304998
