#------------------------------------------------------------------------------
# Created by    : vladimir.rabinovich
# Created on    : 09/19/2023 17:20:12
#------------------------------------------------------------------------------
~Version Information Section
VERS.           2.0     :   CWLS log ASCII Standard - VERSION 2.0
WRAP.           NO      :   One line per depth step
~Well Information Section
#MNEM       .UNIT                                         VALUE :DESCRIPTION
#------------------------------------------------------------------------------
STRT        .FT                                             309 :START DEPTH
STOP        .FT                                            9124 :STOP DEPTH
STEP        .FT                                             0.5 :STEP      
NULL        .                                           -999.25 :NULL      
COMP        .                         SONAT EXPLORATION GOM INC :COMPANY   
WELL        .                               OCS G03084 ST00BP00 :WELL      
FLD         .                                           WILDCAT :FIELD     
LOC         .                                                   :LOCATION  
CNTY        .                      MATAGORDA ISLAND LARGE BLOCK :LOCATION  
STAT        .                                             TEXAS :STATE     
CTRY        .                                     UNITED STATES :COUNTRY   
SRVC        .                                                   :SERVICE COMPANY
DATE        .                             9/13/2023 11:12:09 AM :LOG DATE  
API         .                                    42703400260000 :API NUMBER
UWI         .                                    42703400260000 :UNIQUE WELL ID
XCOORD      .                                  563826.313549269 :SURFACE X 
YCOORD      .                                  10238444.2560225 :SURFACE Y 
LAT         .                                         28.172716 :LATITUDE  
LON         .                                        -96.341662 :LONGITUDE 
ELEV        .FT                                              97 :ELEVATION VALUE
ELEV_TYPE   .                                                KB :ELEVATION REFERENCE TYPE
~Curve Information Section
#MNEM       .UNIT                                      API CODE :CURVE DESCRIPTION
#------------------------------------------------------------------------------
DEPT        .FT                                                 :DEPTH     
ASFL        .OHMM                                               :          
CILD        .MMHO                                               :          
DT          .US/F                                               :          
GR          .GAPI                                               :          
GR_NORM     .GAPI                                               :GammaRay Normalized
ILD         .OHMM                                               :          
SP          .MV                                                 :          
SP_NORM     .MV                                                 :SP Normalized
VSH_GR      .V/V                                                :Volume of Shale from GR
VSH_SP      .V/V                                                :Volume of Shale from SP
~A        DEPTH           ASFL           CILD             DT             GR        GR_NORM            ILD             SP        SP_NORM         VSH_GR         VSH_SP
# ...
      2661.0000         0.6884       1296.424       171.9636        57.1301       84.29778         0.6945       -96.5942      -2.264153              1      0.9334657
      2661.5000         0.6865       1295.322       165.0708        57.4263       84.84286         0.6929       -96.5814      -2.253807              1      0.9340101
      2662.0000         0.6857       1291.402       162.5149        57.7225         85.388         0.6912       -96.5686      -2.243462              1      0.9345546
      2662.5000          0.688        1287.48       161.7302        58.0187       85.93311         0.6896       -96.5558      -2.233116              1      0.9350991
      2663.0000         0.6903       1283.563       161.6697        57.8736       85.65887          0.688       -96.5878       -2.26757              1      0.9332858
      2663.5000         0.6926       1279.643       161.5762        57.4931       84.94763         0.6875       -96.6292      -2.311424              1      0.9309776
      2664.0000         0.6949       1275.723       161.4736        57.1127       84.23657         0.6895       -96.6705      -2.355179              1      0.9286748
      2664.5000         0.6972       1272.865       160.7017        56.7896       83.63187         0.6914       -96.7173      -2.404434              1      0.9260824
      2665.0000         0.6995       1271.053        159.395        56.9688       83.95974         0.6934        -96.842      -2.531586              1      0.9193902
      2665.5000         0.7017        1269.24       158.2866        57.2445       84.46679         0.6951       -96.9669      -2.658943              1      0.9126872
      2666.0000         0.6995        1267.43       157.2634        57.7292       85.36187         0.6952       -97.0918      -2.786293              1      0.9059846
      2666.5000         0.6969        1271.27       158.5469        58.2142       86.25751         0.6953       -97.2321      -2.929054              1      0.8984708
      2667.0000         0.6943       1275.535       162.3262        58.6991       87.15295         0.6954       -97.3739      -3.073303              1      0.8908788
      2667.5000         0.6917       1279.801       165.8662        59.1337       87.95502         0.6955       -97.5157       -3.21756              1      0.8832863
      2668.0000         0.6891       1284.064       167.4531        59.5239       88.67465         0.6955       -97.6577      -3.362015              1      0.8756834
      2668.5000          0.689       1288.328       168.2725        59.9139       89.39391         0.6956       -97.7996      -3.506363              1      0.8680862
      2669.0000         0.6898       1292.594       169.1138         60.304       90.11339         0.6927       -97.9414       -3.65062              1      0.8604937
      2669.5000         0.6928       1297.816       169.9773        60.6754       90.79811          0.689       -97.7841      -3.495781              1      0.8686431
      2670.0000         0.6975       1303.066       169.6086        61.0458       91.48096         0.6853       -97.5364      -3.250526              1      0.8815513
      2670.5000          0.702        1308.32       163.6697        61.4452       92.21768         0.6849       -97.2733      -2.989883              1      0.8952693
      2671.0000         0.6974       1313.574       159.1235        59.6703       88.91754         0.6865       -96.9435      -2.662537              1      0.9124981
      2671.5000         0.6927       1318.824       157.4629        57.0131       83.97933         0.6881       -96.6135      -2.334999              1      0.9297369
      2672.0000         0.6885       1324.076       155.9985        57.0811       84.10077         0.6896       -96.3351      -2.059044              1      0.9442608
      2672.5000         0.6845       1328.836       154.9561        57.1681       84.25747         0.6912       -96.1335      -1.859901              1       0.954742
      2673.0000         0.7076       1333.279       153.6519         57.619       85.08982         0.6948       -95.9801      -1.708961              1      0.9626862
      2673.5000         0.7485       1333.051        150.896        58.0698       85.92196         0.7038       -96.0015      -1.732811              1       0.961431
      2674.0000          0.767       1331.789       147.0942        58.5204       86.75372         0.7184       -96.0228      -1.756561              1       0.960181
      2674.5000         0.7778         1323.6       142.3955        57.0592         84.036         0.7385       -96.0442      -1.780418              1      0.9589254
      2675.0000         0.8335       1293.148       132.5278         54.366       79.03096         0.7587       -96.0026      -1.741272      0.9793822      0.9609857
      2675.5000         0.8718       1262.697       124.3866        52.5514       75.65714         0.7935       -95.9271      -1.668228      0.9075988      0.9648301
      2676.0000         0.9056       1232.246       113.9735        49.8252       70.59081         0.8677       -95.8518      -1.595383      0.7998044      0.9686641
      2676.5000         0.9302       1177.475       109.1597        48.6541       68.41174         0.9514       -95.7764      -1.522438      0.7534412      0.9725032
      2677.0000         0.9754       1037.143       105.4738         46.916       65.17994         1.0445        -95.701      -1.449486      0.6846796      0.9763429
      2677.5000         1.0427       885.0498       104.8191        45.0934       61.79124         1.2384       -95.7001       -1.45105      0.6125795      0.9762605
      2678.0000         1.1261       810.4639       105.6063         43.089       58.06502         1.3464       -95.8754      -1.628799      0.5332983      0.9669053
      2678.5000         1.1734       699.4727       107.5685        41.5756        55.2504          1.417         -96.11      -1.865852      0.4734127      0.9544289
      2679.0000         1.2401       640.0811       110.0228        40.8774       53.94931         1.4833       -96.3682      -2.126511        0.44573      0.9407099
      2679.5000         1.2382        610.416       111.9988        40.3616       52.98684         1.5253       -96.6263      -2.387062       0.425252      0.9269967
      2680.0000         1.2304       604.4277       112.3171        39.6671        51.6926         1.5567       -97.0704      -2.833611      0.3977148      0.9034942
      2680.5000         1.2225       603.6719       111.1913        38.9648       50.38388         1.5761       -97.7085      -3.474174      0.3698698      0.8697803
      2681.0000         1.2147        602.917       109.1246        38.2449        49.0425         1.5346       -98.6061      -4.374229      0.3413297       0.822409
      2681.5000         1.2036       602.1611       108.7169        37.6533        47.9393          1.428       -99.2996      -5.070183      0.3178574      0.7857798
      2682.0000          1.186        628.083        114.001        37.2191       47.12833         1.2287      -100.0691      -5.842133      0.3006029      0.7451509
      2682.5000          1.159            676       119.9181         36.785       46.31756         1.1187      -100.8914      -6.666893      0.2833523      0.7017425
      2683.0000         1.1065       741.8213       132.1475        37.2054       47.09325         1.0268      -101.7822       -7.56015      0.2998565      0.6547289
      2683.5000         1.0552        837.332       133.5024        37.7355       48.07263         0.9187      -102.5859      -8.366295      0.3206942      0.6123003
      2684.0000         0.9699       970.8467       129.3555        38.2661       49.05293         0.8228      -103.6985      -9.481354      0.3415518      0.5536129
      2684.5000         0.8789       1033.422       116.5504        38.7962        50.0323         0.7751      -105.0476      -10.83291      0.3623894      0.4824785
      2685.0000         0.8345       1094.623       108.9196        39.0671       50.53045         0.7275      -106.0345      -11.82227      0.3729883      0.4304071
