#------------------------------------------------------------------------------
# Created by    : vladimir.rabinovich
# Created on    : 09/19/2023 17:21:35
#------------------------------------------------------------------------------
~Version Information Section
VERS.           2.0     :   CWLS log ASCII Standard - VERSION 2.0
WRAP.           NO      :   One line per depth step
~Well Information Section
#MNEM       .UNIT                                         VALUE :DESCRIPTION
#------------------------------------------------------------------------------
STRT        .FT                                            4200 :START DEPTH
STOP        .FT                                            8641 :STOP DEPTH
STEP        .FT                                             0.5 :STEP      
NULL        .                                           -999.25 :NULL      
COMP        .                                       HUNT OIL CO :COMPANY   
WELL        .                               OCS G25526 ST00BP00 :WELL      
FLD         .                                           WILDCAT :FIELD     
LOC         .                                                   :LOCATION  
CNTY        .                             GALVESTON LARGE BLOCK :LOCATION  
STAT        .                                             TEXAS :STATE     
CTRY        .                                     UNITED STATES :COUNTRY   
SRVC        .                                                   :SERVICE COMPANY
DATE        .                             9/13/2023 11:19:33 AM :LOG DATE  
API         .                                    42706404520000 :API NUMBER
UWI         .                                    42706404520000 :UNIQUE WELL ID
XCOORD      .                                  1090250.84236946 :SURFACE X 
YCOORD      .                                  10532258.5226608 :SURFACE Y 
LAT         .                                         29.010895 :LATITUDE  
LON         .                                        -94.721682 :LONGITUDE 
ELEV        .FT                                             108 :ELEVATION VALUE
ELEV_TYPE   .                                                KB :ELEVATION REFERENCE TYPE
~Curve Information Section
#MNEM       .UNIT                                      API CODE :CURVE DESCRIPTION
#------------------------------------------------------------------------------
DEPT        .FT                                                 :DEPTH     
CALI        .IN                                                 :          
DCAL        .IN                                                 :          
DFL         .OHMM                                               :          
DLOD        .LB                                                 :          
DPHI        .DEC                                                :          
DRHO        .G/C3                                               :          
GR          .GAPI                                               :          
GR_NORM     .GAPI                                               :GammaRay Normalized
HDCN        .MMHO                                               :          
HO24        .OHMM                                               :          
HO30        .OHMM                                               :          
HO40        .OHMM                                               :          
HO60        .OHMM                                               :          
HO90        .OHMM                                               :          
HT24        .OHMM                                               :          
HT30        .OHMM                                               :          
HT40        .OHMM                                               :          
HT60        .OHMM                                               :          
HT90        .OHMM                                               :          
NPHI        .DEC                                                :          
RHOB        .G/C3                                               :          
RWA         .OHMM                                               :          
SP_NORM     .MV                                                 :SP Normalized
SPA         .MV                                                 :          
TENS        .LBS                                                :          
VSH_GR      .V/V                                                :Volume of Shale from GR
VSH_SP      .V/V                                                :Volume of Shale from SP
~A        DEPTH           CALI           DCAL            DFL           DLOD           DPHI           DRHO             GR        GR_NORM           HDCN           HO24           HO30           HO40           HO60           HO90           HT24           HT30           HT40           HT60           HT90           NPHI           RHOB            RWA        SP_NORM            SPA           TENS         VSH_GR         VSH_SP
# ...
      6860.0000        12.6717         0.4217         0.2593        1449.02         0.3268        -0.0075        48.4586       42.54979       4534.882         0.2383          0.233         0.2289          0.224         0.2182         0.2409         0.2354         0.2314         0.2264         0.2205          0.384         2.1108         0.0363      -71.55734       107.2531       3556.401      0.2031869     0.04781469
      6860.5000        12.7089         0.4589         0.2285       1451.058         0.3156         0.0045        59.5146       55.69402       4313.637         0.2436         0.2366         0.2314         0.2251         0.2178         0.2586         0.2514          0.246         0.2394         0.2318         0.3875         2.1292         0.0372      -68.54711       109.2469       3552.989      0.4828514     0.08962345
      6861.0000        12.7268         0.4768         0.2268       1438.829         0.2866         0.0153        68.4897       66.36424       3593.216         0.2966         0.2865         0.2792         0.2703         0.2601         0.3113         0.3024         0.2957         0.2876         0.2783         0.3922         2.1771         0.0374      -61.14801       114.1517       3545.994      0.7098775      0.1923887
      6861.5000        12.7247         0.4747         0.3615       1418.445         0.2446         0.0207        73.1781       71.93797       2650.358         0.4623         0.4488         0.4388         0.4265         0.4125         0.4297         0.4153         0.4047         0.3919         0.3773            0.4         2.2464         0.0428      -48.56652       122.4938       3541.899      0.8284675      0.3671317
      6862.0000        13.1778         0.9278         0.5743       1420.484         0.2155         0.0239        73.9551       72.86141       1896.792         0.8629         0.7979         0.7538         0.7037         0.6508         0.6246          0.597         0.5772         0.5536         0.5272         0.4053         2.2944         0.0576      -36.67178       130.3804       3539.852      0.8481151      0.5323364
      6862.5000        13.2984         1.0484         0.7419       1416.408          0.205         0.0352        73.3554       72.14809       1523.781         0.9146         0.8567         0.8165         0.7701         0.7201         0.7718         0.7393         0.7158         0.6877         0.6563         0.4079         2.3117         0.0746      -30.73559       134.3149       3539.852       0.832938      0.6147835
      6863.0000        13.7642         1.5142         0.7503       1414.369         0.2002         0.0361        72.9955       71.71986       1397.495         0.7285         0.7248          0.722         0.7184          0.714         0.7745         0.7589         0.7471         0.7326         0.7156         0.4017         2.3197         0.0829      -28.93846       135.5041       3544.117      0.8238267      0.6397436
      6863.5000        14.5276         2.2776         0.7629       1408.254         0.1887         0.0179        71.4154       69.84093       1308.253         0.7269         0.7356         0.7425         0.7516          0.763         0.7576         0.7593         0.7606         0.7623         0.7644         0.3763         2.3386         0.0815      -28.55963       135.7526       3548.894      0.7838495      0.6450051
      6864.0000        13.8387         1.5887         0.8158       1414.369         0.1756        -0.0003        66.9408        64.5207       1210.037           0.78         0.8004         0.8171         0.8395         0.8687         0.7919         0.8002         0.8069         0.8155         0.8264         0.3434         2.3602          0.068      -28.93011       135.5041       3548.041      0.6706532      0.6398596
      6864.5000        13.3669         1.1169         0.9386       1426.599         0.1663        -0.0016        62.7114       59.49199       1163.004         0.9084         0.9136         0.9176         0.9229         0.9294         0.8593         0.8594         0.8595         0.8597         0.8598         0.3236         2.3756         0.0589       -30.9687       134.1492       3545.482      0.5636594      0.6115458
      6865.0000        13.2488         0.9988         1.0843       1426.599         0.1664        -0.0032        60.6514        57.0425       1230.022         0.9845         0.9547         0.9327         0.9059         0.8751          0.894         0.8723         0.8561         0.8362          0.813         0.3232         2.3754         0.0555      -35.21051        131.333       3544.288      0.5115426      0.5526317
      6865.5000         13.232          0.982         1.0816       1420.484         0.1868        -0.0212        57.6058       53.42123       1424.622         0.8971         0.8556         0.8258         0.7905         0.7513         0.8364         0.7982         0.7708         0.7382         0.7019         0.3346         2.3418         0.0594      -41.50395        127.156       3545.994      0.4344942      0.4652229
      6866.0000        13.1132         0.8632         0.9092        1424.56         0.2292        -0.0395        52.8966       47.82208        1726.56         0.7435         0.7008         0.6708         0.6359         0.5978         0.7156         0.6758         0.6478          0.615         0.5792         0.3486         2.2718         0.0669      -49.10866       122.1093       3549.406      0.3153634       0.359602
      6866.5000        12.7697         0.5197         0.7054        1424.56         0.2746        -0.0356         51.937       46.68087       2074.974         0.5943         0.5604         0.5367         0.5089         0.4786         0.5987         0.5645         0.5405         0.5125         0.4819         0.3594         2.1969         0.0685      -56.39235       117.2755        3547.87      0.2910824      0.2584395
      6867.0000         12.739          0.489         0.5864       1438.829         0.2993        -0.0218        56.2447       51.80198       2381.643         0.5028         0.4775         0.4596         0.4384         0.4151         0.5157         0.4879         0.4682         0.4451         0.4199         0.3631         2.1562         0.0603      -61.21386       114.0748       3544.288      0.4000422      0.1914742
      6867.5000        12.6634         0.4134         0.5225       1434.753         0.2917        -0.0065        62.0856       58.74594       2566.649         0.4527         0.4304         0.4146         0.3958         0.3751         0.4712         0.4478         0.4311         0.4114         0.3896         0.3702         2.1686         0.0532      -62.43181       113.2642       3541.899      0.5477859      0.1745582
      6868.0000         12.642          0.392         0.4801       1420.484         0.2612         0.0046        66.3724        63.8422       2541.343         0.4371          0.417         0.4026         0.3855         0.3664         0.4633         0.4436         0.4295         0.4125         0.3935         0.3821          2.219         0.0469      -60.07277       114.8261       3543.776       0.656217      0.2073226
      6868.5000        12.6769         0.4269         0.5173       1426.599         0.2257         0.0166        67.1859       64.80904       2288.856         0.4754         0.4615         0.4512         0.4387         0.4242         0.4898         0.4754         0.4648         0.4518         0.4369         0.3847         2.2776         0.0451      -52.52214       119.8314       3546.165       0.676788      0.3121925
      6869.0000        12.9249         0.6749         0.6362       1438.829         0.2057         0.0189        66.1846       63.61824       1949.022         0.5573         0.5543          0.552          0.549         0.5454         0.5414          0.534         0.5284         0.5214         0.5131         0.3866         2.3106         0.0543      -42.24184       126.6472       3543.946       0.651452      0.4549744
      6869.5000        12.7542         0.5042          0.742       1420.484         0.1982         0.0189        66.7635       64.30616        1704.99         0.6184         0.6201         0.6214         0.6232         0.6253         0.5966          0.594         0.5921         0.5896         0.5865         0.3957          2.323         0.0612      -33.54054       132.4157       3534.733      0.6660885      0.5758259
