#------------------------------------------------------------------------------
# Created by    : vladimir.rabinovich
# Created on    : 09/19/2023 17:22:48
#------------------------------------------------------------------------------
~Version Information Section
VERS.           2.0     :   CWLS log ASCII Standard - VERSION 2.0
WRAP.           NO      :   One line per depth step
~Well Information Section
#MNEM       .UNIT                                         VALUE :DESCRIPTION
#------------------------------------------------------------------------------
STRT        .FT                                            3512 :START DEPTH
STOP        .FT                                           11028 :STOP DEPTH
STEP        .FT                                             0.5 :STEP      
NULL        .                                           -999.25 :NULL      
COMP        .                          SEAGULL ENERGY E & P INC :COMPANY   
WELL        .                   ST TR 147-L NE/4 /ST LSE 88034/ :WELL      
FLD         .                                           WILDCAT :FIELD     
LOC         .                                                   :LOCATION  
CNTY        .                             GALVESTON LARGE BLOCK :LOCATION  
STAT        .                                             TEXAS :STATE     
CTRY        .                                     UNITED STATES :COUNTRY   
SRVC        .                                                   :SERVICE COMPANY
DATE        .                             9/13/2023 11:18:53 AM :LOG DATE  
API         .                                    42706302000000 :API NUMBER
UWI         .                                    42706302000000 :UNIQUE WELL ID
XCOORD      .                                  1107149.67333588 :SURFACE X 
YCOORD      .                                  10638300.0198507 :SURFACE Y 
LAT         .                                        29.3031745 :LATITUDE  
LON         .                                         -94.67354 :LONGITUDE 
ELEV        .FT                                              25 :ELEVATION VALUE
ELEV_TYPE   .                                                KB :ELEVATION REFERENCE TYPE
~Curve Information Section
#MNEM       .UNIT                                      API CODE :CURVE DESCRIPTION
#------------------------------------------------------------------------------
DEPT        .FT                                                 :DEPTH     
DT          .US/F                                               :          
GR          .GAPI                                               :          
GR_NORM     .GAPI                                               :GammaRay Normalized
ILD         .OHMM                                               :          
ILM         .OHMM                                               :          
SFL         .OHMM                                               :          
SP          .MV                                                 :          
SP_NORM     .MV                                                 :SP Normalized
VSH_GR      .V/V                                                :Volume of Shale from GR
VSH_SP      .V/V                                                :Volume of Shale from SP
~A        DEPTH             DT             GR        GR_NORM            ILD            ILM            SFL             SP        SP_NORM         VSH_GR         VSH_SP
# ...
      7505.5000       111.9434        77.8058       82.28081         0.5936         0.5898         0.5968       -18.3875     -0.5432358              1              1
      7506.0000       111.2319        73.6113       77.43233         0.5977         0.6045         0.6446       -19.1875      -1.347593      0.9453688      0.9962218
      7506.5000       108.3025        71.4014       74.87484         0.6021         0.6152         0.8623       -19.8949      -2.059351       0.890954      0.9884853
      7507.0000       105.2527         69.989       73.23795         0.6068         0.6158         0.9683       -19.7259      -1.894712      0.8561265      0.9902748
      7507.5000       102.8787        69.5332       72.70533         0.6063         0.6117          0.899       -19.3767       -1.54987      0.8447943      0.9940231
      7508.0000       104.1222        70.5414        73.8627         0.6037         0.6063         0.7616       -19.0172      -1.194729      0.8694192      0.9978834
      7508.5000       106.0808        73.0331       76.73259         0.5986         0.5992         0.7099       -18.6558     -0.8376865      0.9304807              1
      7509.0000       107.2678         75.787       79.90514         0.5928          0.593          0.704        -18.292     -0.4782448      0.9979818              1
      7509.5000       107.4196        77.6587        82.0593         0.5867         0.5883         0.7011       -17.8669    -0.05750465              1              1
      7510.0000       107.3824        79.4203       84.08639         0.5872         0.5867         0.6889       -17.3181      0.4869366              1              1
      7510.5000       107.6586        80.0647       84.82379         0.5884         0.5879         0.6763       -16.8667       0.933979              1              1
      7511.0000       108.4272        79.1777       83.79341         0.5912         0.5898         0.6854       -16.5078       1.288521              1              1
      7511.5000       108.8044        79.0553       83.64565         0.5949         0.5934         0.7266       -16.1898       1.602161              1              1
      7512.0000       107.1819        79.7891       84.48628         0.5948         0.5957         0.7797       -15.8974       1.890202              1              1
      7512.5000       105.4247        79.8711       84.57448         0.5934         0.5955         0.8212       -15.6046       2.178643              1              1
      7513.0000       104.8828        78.6021       83.10311         0.5891         0.5937         0.7807        -15.314       2.464885              1              1
      7513.5000        105.389        77.7579       82.12214         0.5845         0.5923         0.7236       -15.0145       2.760027              1              1
      7514.0000       106.7419        79.4644       84.08561         0.5877          0.602         0.6679       -14.7346       3.035568              1              1
      7514.5000       108.0432        81.6768       86.63308         0.5912         0.6149         0.6413       -16.4042        1.36161              1              1
      7515.0000       108.9015        83.8745       89.16357         0.5941         0.6319         0.6662       -19.4472      -1.685751              1      0.9925462
      7515.5000       108.5581        84.5446       89.93065         0.5966         0.6502         0.7828       -22.4117      -4.654608              1       0.960276
      7516.0000       107.4215        83.7349       88.98949         0.5983         0.6338         0.8781       -24.3595      -6.606768              1      0.9390569
      7516.5000       106.1079        81.4636       86.36112         0.5994         0.6194          0.907       -25.3138      -7.565426              1      0.9286367
      7517.0000       106.5809        78.6534       83.11064         0.6004         0.6067         0.8039       -25.3928      -7.648783              1      0.9277306
      7517.5000       107.9978        76.9801        81.1726         0.5983         0.5962         0.7303       -24.5003      -6.760643              1      0.9373843
      7518.0000       109.1792        78.7025       83.15441         0.5938         0.5894          0.705       -23.2373      -5.502003              1      0.9510652
      7518.5000        109.484        81.4269       86.29292         0.5924         0.5841         0.6959       -21.8862       -4.15526              1      0.9657037
      7519.0000       108.7941        81.7307       86.63715         0.5917         0.5863         0.6867       -20.9576      -3.231018              1      0.9757498
      7519.5000       107.6292        79.9961       84.62833         0.5916         0.5901         0.6785       -20.7642      -3.041977              1      0.9778046
      7520.0000       105.9285         77.943       82.25183         0.5921         0.6032         0.6766       -21.3864      -3.668537              1      0.9709942
      7520.5000       104.8367        76.2108       80.24578         0.5925          0.617         0.6875        -22.223      -4.509495              1      0.9618533
      7521.0000       103.8248        73.7632       77.41389         0.5938         0.6365         0.7208       -23.0646      -5.355453      0.9449763      0.9526581
      7521.5000       101.7506        69.8677       72.91058         0.5962         0.6515         0.8282       -23.4943      -5.789513      0.8491613      0.9479401
      7522.0000        98.8408        64.7324       66.97609         0.5987         0.6557         0.9707       -23.7182      -6.017771      0.7228955       0.945459
      7522.5000        96.5111        60.7708       62.39648         0.6021         0.6485         0.9746         -23.35      -5.653931      0.6254569      0.9494138
      7523.0000        99.0768        59.5666       60.99993         0.6063         0.6385         0.8086       -22.9139      -5.222189      0.5957432      0.9541066
      7523.5000       103.5938         60.979        62.6239         0.6101         0.6318         0.7144        -22.201      -4.513647      0.6302957      0.9618082
      7524.0000       108.0715        64.7864       67.01258         0.6105         0.6251         0.6876       -21.5064      -3.823404      0.7236719      0.9693108
      7524.5000       109.8987        68.3438       71.11267         0.6087         0.6174         0.6975       -20.9227      -3.244064      0.8109079       0.975608
      7525.0000       110.2244        71.0682       74.25117         0.6037         0.6099         0.7043       -20.3684      -2.694124      0.8776846      0.9815856
      7525.5000        107.285        72.9572       76.42532         0.5986         0.6052         0.7049       -19.9451      -2.275183      0.9239429      0.9861393
      7526.0000       103.8544        74.3071       77.97713         0.5933         0.6007         0.7124       -19.5935       -1.92794      0.9569603      0.9899137
      7526.5000       101.8981        70.5732       73.66038         0.5886         0.5973         0.7303       -19.4082      -1.746998      0.8651144      0.9918805
      7527.0000       102.7115        65.8644       68.21823         0.5858         0.5945         0.7178       -19.4698      -1.812958      0.7493241      0.9911635
      7527.5000       104.4908        65.8129       68.15231          0.583         0.5919         0.6991       -19.7026      -2.050117      0.7479216      0.9885857
      7528.0000       106.3905         68.775       71.56522         0.5799         0.5897          0.682       -20.0499      -2.401775      0.8205365      0.9847633
      7528.5000       107.3201        71.2225       74.38407         0.5768          0.588         0.6744       -20.5785      -2.934734      0.8805122      0.9789703
      7529.0000       107.4385        73.2413       76.70805         0.5747         0.5872         0.6679       -21.1781      -3.538692      0.9299586      0.9724055
      7529.5000       106.5294        75.0667       78.80877         0.5767         0.5949         0.6612        -21.673      -4.037951      0.9746547      0.9669788
