#------------------------------------------------------------------------------
# Created by    : vladimir.rabinovich
# Created on    : 09/19/2023 17:21:51
#------------------------------------------------------------------------------
~Version Information Section
VERS.           2.0     :   CWLS log ASCII Standard - VERSION 2.0
WRAP.           NO      :   One line per depth step
~Well Information Section
#MNEM       .UNIT                                         VALUE :DESCRIPTION
#------------------------------------------------------------------------------
STRT        .FT                                             692 :START DEPTH
STOP        .FT                                            6716 :STOP DEPTH
STEP        .FT                                             0.5 :STEP      
NULL        .                                           -999.25 :NULL      
COMP        .                                  FMP OPERATING CO :COMPANY   
WELL        .                                          SL 89457 :WELL      
FLD         .                                           WILDCAT :FIELD     
LOC         .                                                   :LOCATION  
CNTY        .                      MATAGORDA ISLAND LARGE BLOCK :LOCATION  
STAT        .                                             TEXAS :STATE     
CTRY        .                                     UNITED STATES :COUNTRY   
SRVC        .                                                   :SERVICE COMPANY
DATE        .                             9/13/2023 11:12:01 AM :LOG DATE  
API         .                                    42703303600000 :API NUMBER
UWI         .                                    42703303600000 :UNIQUE WELL ID
XCOORD      .                                  499223.886875127 :SURFACE X 
YCOORD      .                                  10221285.9321665 :SURFACE Y 
LAT         .                                        28.1205561 :LATITUDE  
LON         .                                       -96.5403272 :LONGITUDE 
ELEV        .FT                                              81 :ELEVATION VALUE
ELEV_TYPE   .                                                KB :ELEVATION REFERENCE TYPE
~Curve Information Section
#MNEM       .UNIT                                      API CODE :CURVE DESCRIPTION
#------------------------------------------------------------------------------
DEPT        .FT                                                 :DEPTH     
CALI        .IN                                                 :          
CILD        .MMHO                                               :          
DT          .US/F                                               :          
DTL         .US/F                                               :          
GR          .GAPI                                               :          
GR_NORM     .GAPI                                               :GammaRay Normalized
ILD         .OHMM                                               :          
ILM         .OHMM                                               :          
SFLU        .OHMM                                               :          
SP          .MV                                                 :          
SP_NORM     .MV                                                 :SP Normalized
TENS        .LBS                                                :          
VSH_GR      .V/V                                                :Volume of Shale from GR
VSH_SP      .V/V                                                :Volume of Shale from SP
~A        DEPTH           CALI           CILD             DT            DTL             GR        GR_NORM            ILD            ILM           SFLU             SP        SP_NORM           TENS         VSH_GR         VSH_SP
# ...
      2060.0000        -999.25       1592.807       155.2308       152.0883        58.6702       77.23687         0.6489          0.583         0.5569       -12.9699        -3.4321       1252.599        0.94121      0.9772579
      2060.5000        -999.25       1584.931       155.4317       152.2892        56.8027       74.52477          0.644          0.583         0.5451       -13.2169        -3.6847       1252.797      0.8835058      0.9639632
      2061.0000        -999.25       1569.097       155.2348       152.0923        55.6096       72.79024         0.6391         0.5829         0.5335        -13.464        -3.9375       1252.996      0.8466008      0.9506579
      2061.5000        -999.25        1561.22       153.4466       151.2987        54.3961       71.02613         0.6359         0.5849         0.5246        -13.711        -4.1901       1253.194      0.8090666      0.9373631
      2062.0000        -999.25       1553.344       151.6585       149.9083         55.784       73.03289         0.6326         0.5868          0.527        -13.958        -4.4428       1253.392      0.8517636      0.9240631
      2062.5000        -999.25       1547.973       149.6714       148.5179         55.881       73.16842          0.641         0.5888         0.5403       -14.2051        -4.6956       1253.412      0.8546472      0.9107579
      2063.0000        -999.25       1545.546       148.8777       147.3265        52.8221       68.72932         0.6495           0.61          0.554       -14.4521        -4.9482        1273.68      0.7601984      0.8974631
      2063.5000        -999.25       1529.713       148.6808       145.9361        50.8348       65.84356         0.6581         0.6071          0.572       -14.6992         -5.201       1273.878      0.6987991      0.8841579
      2064.0000        -999.25        1513.88       148.6828       145.1425        51.2297        66.4109         0.6668         0.6043          0.572       -14.9462        -5.4537       1274.076      0.7108703      0.8708579
      2064.5000        -999.25       1506.003       148.4859       144.7467        53.6098       69.85592         0.6745         0.6043         0.5702       -15.1932        -5.7063       1274.275      0.7841685      0.8575632
      2065.0000        -999.25       1506.019       148.6868       144.3508        55.9901       73.30121         0.6744         0.6098         0.5683       -15.0712          -5.59       1274.473      0.8574725      0.8636842
      2065.5000        -999.25       1506.162       148.8877       144.1539        57.3777       75.30753         0.6718         0.6097         0.5665       -15.0722        -5.5967       1274.671      0.9001601      0.8633316
      2066.0000        -999.25       1514.197       148.6907        143.957        59.5596       78.46522         0.6693         0.6107         0.5647       -15.0724        -5.6025        1274.87      0.9673451      0.8630263
      2066.5000        -999.25       1514.277       148.4938       143.5612        59.3591        78.1695         0.6667         0.6118         0.5628       -15.0554        -5.5912       1275.068      0.9610533      0.8636211
      2067.0000        -999.25       1522.312       147.8991       143.3642        58.7614       77.29804         0.6642         0.6128          0.561       -15.0384        -5.5799       1275.266      0.9425116      0.8642158
      2067.5000        -999.25       1530.316       147.3044       142.5706         57.171        74.9876         0.6617         0.6139         0.5592       -15.0214        -5.5685       1275.484      0.8933532      0.8648158
      2068.0000        -999.25       1530.439       147.1074       142.5726         53.595       69.79895         0.6591         0.6149         0.5574       -15.0044        -5.5572       1275.683      0.7829564      0.8654105
      2068.5000        -999.25       1530.507       147.3083       142.7735        52.7986       68.63946         0.6557         0.6159         0.5556       -14.9834        -5.5418       1265.817      0.7582864      0.8662211
      2069.0000        -999.25       1530.586       147.3103       142.7755        52.7965       68.63133         0.6587          0.617         0.5534        -14.985        -5.5491       1276.079      0.7581134      0.8658369
      2069.5000        -999.25       1522.709       147.1134       142.5785        53.5886       69.77446         0.6618          0.618         0.5484       -14.9865        -5.5563       1276.278      0.7824353      0.8654579
      2070.0000        -999.25       1530.745       147.1154       142.5805        53.9837       70.34209         0.6649         0.6191         0.5508       -14.9881        -5.5635       1276.476      0.7945126      0.8650789
      2070.5000        -999.25       1530.808       147.1174       142.7814         54.181       70.62301         0.6681         0.6201         0.5537       -14.9897        -5.5708       1276.674      0.8004895      0.8646948
      2071.0000        -999.25       1524.373       147.3183       143.3801        53.5823       69.75009         0.6713         0.6212         0.5566       -14.8921        -5.4789       1276.873      0.7819169      0.8695316
      2071.5000        -999.25       1523.027        147.917       144.1777        53.5802       69.74198         0.6744         0.6222         0.5596       -14.3973        -4.9897       1277.071      0.7817443      0.8952789
      2072.0000        -999.25        1515.15       148.7146       144.5779        53.7766        70.0216         0.6776         0.6233         0.5625       -14.2004        -4.7985       1277.269      0.7876936      0.9053421
      2072.5000        -999.25       1499.317       149.1144       144.7635        54.3703       70.87712         0.6808         0.6243         0.5655       -13.7056        -4.3094       1277.468      0.8058962      0.9310842
      2073.0000        -999.25       1499.396       149.1164       144.9492        55.9569       73.17191         0.6841         0.6254         0.5685       -13.3101        -3.9195       1277.666      0.8547214      0.9516053
      2073.5000        -999.25       1499.428       149.5162       145.1348         57.345       75.17896         0.6873         0.6264         0.5715       -13.2125        -3.8276       1277.864      0.8974246      0.9564421
      2074.0000        -999.25       1491.598        149.717         145.58        59.9248       78.91341         0.6795         0.6275         0.5745       -13.1148        -3.7356       1278.063       0.976881      0.9612842
      2074.5000        -999.25       1475.781       149.9179       146.7754        60.1214       79.19332         0.6857         0.6285         0.5683       -13.1165        -3.7429       1238.254      0.9828366         0.9609
      2075.0000        -999.25       1459.948       149.9199       147.3949        60.6956       80.02058          0.708         0.6296         0.5709       -13.0188        -3.6509       1248.623              1      0.9657421
      2075.5000        -999.25       1444.115       149.9219       147.7939        61.4877        81.1637          0.708         0.6307         0.5708       -12.9212        -3.5589       1268.712              1      0.9705842
      2076.0000        -999.25       1420.325       148.9294       147.7959        62.2802       82.30738         0.7092         0.6313          0.579       -13.0221        -3.6655       1268.911              1      0.9649737
      2076.5000        -999.25       1420.405       147.9368       147.2012        63.2714       83.73911         0.7104         0.6353         0.5874       -12.9245        -3.5736       1269.109              1      0.9698105
      2077.0000        -999.25       1404.572       148.3366       146.4075        63.2894       83.76013         0.7117         0.6405         0.5958       -12.9261        -3.5808       1269.307              1      0.9694316
      2077.5000        -999.25       1396.695       148.5375       146.0117        63.0893         83.465         0.7129         0.6458         0.6044       -12.9276         -3.588       1269.505              1      0.9690526
