#------------------------------------------------------------------------------
# Created by    : vladimir.rabinovich
# Created on    : 09/19/2023 17:20:54
#------------------------------------------------------------------------------
~Version Information Section
VERS.           2.0     :   CWLS log ASCII Standard - VERSION 2.0
WRAP.           NO      :   One line per depth step
~Well Information Section
#MNEM       .UNIT                                         VALUE :DESCRIPTION
#------------------------------------------------------------------------------
STRT        .FT                                            1092 :START DEPTH
STOP        .FT                                            8058 :STOP DEPTH
STEP        .FT                                             0.5 :STEP      
NULL        .                                           -999.25 :NULL      
COMP        .                                    EXXON CO U S A :COMPANY   
WELL        .                               OCS G03029 ST00BP00 :WELL      
FLD         .                                           WILDCAT :FIELD     
LOC         .                                                   :LOCATION  
CNTY        .                        MUSTANG ISLAND LARGE BLOCK :LOCATION  
STAT        .                                             TEXAS :STATE     
CTRY        .                                     UNITED STATES :COUNTRY   
SRVC        .                                                   :SERVICE COMPANY
DATE        .                             9/13/2023 11:19:13 AM :LOG DATE  
API         .                                    42702400190000 :API NUMBER
UWI         .                                    42702400190000 :UNIQUE WELL ID
XCOORD      .                                  486295.566528254 :SURFACE X 
YCOORD      .                                  10047803.1546112 :SURFACE Y 
LAT         .                                         27.643077 :LATITUDE  
LON         .                                        -96.564717 :LONGITUDE 
ELEV        .FT                                              70 :ELEVATION VALUE
ELEV_TYPE   .                                                KB :ELEVATION REFERENCE TYPE
~Curve Information Section
#MNEM       .UNIT                                      API CODE :CURVE DESCRIPTION
#------------------------------------------------------------------------------
DEPT        .FT                                                 :DEPTH     
ASN         .OHMM                                               :          
CALI        .IN                                                 :          
CIL         .MMHO                                               :          
DRHO        .G/C3                                               :          
DT          .US/F                                               :          
GR          .GAPI                                               :          
GR_NORM     .GAPI                                               :GammaRay Normalized
ILD         .OHMM                                               :          
NPHI        .%                                                  :          
RHOB        .G/C3                                               :          
SN          .OHMM                                               :          
SP          .MV                                                 :          
SP_NORM     .MV                                                 :SP Normalized
VSH_GR      .V/V                                                :Volume of Shale from GR
VSH_SP      .V/V                                                :Volume of Shale from SP
~A        DEPTH            ASN           CALI            CIL           DRHO             DT             GR        GR_NORM            ILD           NPHI           RHOB             SN             SP        SP_NORM         VSH_GR         VSH_SP
# ...
      5767.0000         1.2184        12.6104       839.1006         0.0376       122.0714        81.2223       77.30962          1.056         37.594         2.3381         1.3119       -72.6473      -2.083168       0.942758      0.9980659
      5767.5000         1.2296        12.5947       836.3047         0.0385       121.2911         82.847       78.93385         1.0722        36.1852         2.3293         1.3202       -73.0909      -2.528633      0.9773158      0.9877062
      5768.0000         1.2423        12.5739       835.6777         0.0435       120.9436        81.9655       78.05186         1.0796        36.0374         2.3304         1.3177       -73.8135      -3.253113      0.9585502      0.9708579
      5768.5000         1.2551        12.5716       850.4082         0.0445       121.1613        82.9194       79.00528          1.074        35.5981         2.3309         1.3021       -74.6639      -4.105392      0.9788358      0.9510374
      5769.0000          1.278        12.5685       866.9131         0.0399       120.4091        84.2498       80.33519         1.0511         35.373         2.3225         1.2832       -75.1322      -4.575562              1      0.9401032
      5769.5000         1.3119        12.5768       886.9795         0.0315       119.3898        84.2797       80.36461         1.0287        35.5524         2.3085         1.2762       -74.9247      -4.369934              1      0.9448853
      5770.0000         1.2988        12.5748       912.9424         0.0267       119.6348        82.5887       78.67312         1.0069        36.0508         2.2916          1.272       -74.7528      -4.199913      0.9717685      0.9488392
      5770.5000         1.2833        12.5803       941.7041         0.0236       119.9427        81.0863       77.17024         0.9848        36.3641         2.2839         1.2691       -74.5808      -4.029785      0.9397924      0.9527957
      5771.0000         1.2677        12.5898       967.0928         0.0216       120.1788        81.0095       77.09295         0.9617        36.0074         2.2836         1.2547       -74.2739      -3.724762      0.9381478      0.9598892
      5771.5000         1.2562        12.5989        987.209         0.0213       119.8696        81.5205       77.60347         0.9409         35.923         2.2852         1.2242       -73.7498       -3.20253        0.94901      0.9720342
      5772.0000         1.2458         12.624       1002.502         0.0239       119.2902        81.6765       77.75899         0.9223        36.0067         2.2872         1.1829       -73.5085      -2.963104      0.9523189      0.9776022
      5772.5000         1.2293        12.6481       1010.573          0.027       120.0055        79.0635        75.1455         0.9039        36.0328         2.2878         1.1356       -73.7786      -3.235085      0.8967128      0.9712771
      5773.0000          1.202        12.6505       1021.431         0.0296       122.9342        76.2632       72.34472         0.8874        35.6205         2.2885          1.109       -74.1757      -3.634048      0.8371217      0.9619989
      5773.5000         1.1716        12.5413       1028.527         0.0303       126.2402        75.8389       71.91993         0.8782        35.1555         2.2786         1.0992       -74.5759      -4.036125      0.8280836      0.9526482
      5774.0000         1.1488        12.4849       1034.992         0.0286        128.844        79.1957       75.27625         0.8694        35.3644          2.268         1.1001       -74.3357      -3.797806      0.8994948      0.9581906
      5774.5000         1.1324        12.4792       1039.027         0.0322       131.0242        82.0583       78.13836         0.8614        36.1433         2.2695         1.1159       -73.5508      -3.014771      0.9603906      0.9764007
      5775.0000         1.1177        12.5292       1040.918         0.0353       130.9504        83.4785       79.55808         0.8607        36.9559          2.281         1.1224       -73.3077      -2.773552      0.9905975      0.9820104
      5775.5000         1.1077        12.6671       1040.902         0.0379       130.4487        83.7631       79.84219         0.8644        37.5768          2.286         1.1241       -73.1763      -2.644028      0.9966424      0.9850226
      5776.0000         1.1066        12.7027       1036.279         0.0414       130.0383        85.8844       81.96301         0.8697          37.81         2.2956         1.1251       -73.0167      -2.486298              1      0.9886907
      5776.5000          1.108        12.6105       1030.482         0.0417       129.8093        85.5214       81.59953         0.8753        36.7088         2.2972         1.1251        -72.675      -2.146477              1      0.9965935
      5777.0000         1.1093        12.5528       1022.974         0.0395       129.7019        84.4569       80.53455         0.8837         35.973         2.3017          1.129       -72.3241      -1.797447              1              1
      5777.5000         1.1104        12.5953       1014.359         0.0376       128.9839        84.7108       80.78796         0.8962        36.3635         2.2976         1.1403       -71.9572      -1.432419              1              1
      5778.0000         1.1127        12.6193       1004.139         0.0378       127.3247          84.48       80.55668          0.908         36.905         2.2922         1.1452       -71.8477      -1.324799              1              1
      5778.5000          1.121        12.5528       987.9209         0.0388       125.7279         84.824       80.90019         0.9194        37.2874         2.2921           1.15        -71.859      -1.337975              1              1
      5779.0000         1.1294        12.4801       972.5156         0.0406       124.7809        84.4481        80.5238         0.9268        38.1744         2.2987         1.1536         -71.96      -1.440842              1              1
      5779.5000         1.1377        12.4902       966.9385         0.0433       124.3982         83.894       79.96922         0.9321        38.2461         2.3007         1.1512         -72.09      -1.572716      0.9993452              1
      5780.0000         1.1462        12.5219       974.3145         0.0445        124.467        84.8849       80.95964         0.9321        37.2008         2.3016         1.1436       -72.2753      -1.759895              1              1
      5780.5000         1.1547        12.5639       983.7383         0.0432       124.6895        83.6357       79.70995         0.9277        36.5191          2.306         1.1369       -72.4326      -1.919067      0.9938288              1
      5781.0000         1.1632        12.5881       986.5215         0.0438       125.0082        84.7688       80.84258         0.9222        36.9338         2.3052         1.1306       -72.5547      -2.043045              1      0.9989989
      5781.5000         1.1584        12.5873        978.875         0.0459       125.8335        84.1375       80.21078         0.9171        37.2311         2.3069         1.1303       -72.4523       -1.94252              1              1
      5782.0000          1.153        12.5913       970.6553           0.05       126.6581        83.9153       79.98811         0.9145         37.791         2.3066         1.1364       -72.3096      -1.801689      0.9997469              1
      5782.5000         1.1476        12.5891       972.8965         0.0548       127.0304        84.3533       80.42562         0.9207         38.877         2.3024         1.1591       -72.1418      -1.635765              1              1
      5783.0000         1.1424        12.5641       976.8076         0.0553       125.9279        83.2802       79.35204         0.9296        39.7888         2.2979         1.1717        -71.979      -1.474831      0.9862135              1
      5783.5000         1.1413        12.5063       982.1553         0.0556       124.7509        82.2057       78.27705         0.9398        39.5263         2.2908         1.1737       -71.8132      -1.310913      0.9633416              1
