#------------------------------------------------------------------------------
# Created by    : vladimir.rabinovich
# Created on    : 09/19/2023 17:19:38
#------------------------------------------------------------------------------
~Version Information Section
VERS.           2.0     :   CWLS log ASCII Standard - VERSION 2.0
WRAP.           NO      :   One line per depth step
~Well Information Section
#MNEM       .UNIT                                         VALUE :DESCRIPTION
#------------------------------------------------------------------------------
STRT        .FT                                            9400 :START DEPTH
STOP        .FT                                           17100 :STOP DEPTH
STEP        .FT                                             0.5 :STEP      
NULL        .                                           -999.25 :NULL      
COMP        .                                   FOREST OIL CORP :COMPANY   
WELL        .                               OCS G18937 ST00BP00 :WELL      
FLD         .                            HIGH ISLAND BLOCK 0116 :FIELD     
LOC         .                                                   :LOCATION  
CNTY        .                           HIGH ISLAND LARGE BLOCK :LOCATION  
STAT        .                                             TEXAS :STATE     
CTRY        .                                     UNITED STATES :COUNTRY   
SRVC        .                                                   :SERVICE COMPANY
DATE        .                             9/13/2023 11:19:48 AM :LOG DATE  
API         .                                    42708405250000 :API NUMBER
UWI         .                                    42708405250000 :UNIQUE WELL ID
XCOORD      .                                  1337259.97993026 :SURFACE X 
YCOORD      .                                  10628189.4209318 :SURFACE Y 
LAT         .                                         29.282461 :LATITUDE  
LON         .                                        -93.951246 :LONGITUDE 
ELEV        .FT                                              93 :ELEVATION VALUE
ELEV_TYPE   .                                                KB :ELEVATION REFERENCE TYPE
~Curve Information Section
#MNEM       .UNIT                                      API CODE :CURVE DESCRIPTION
#------------------------------------------------------------------------------
DEPT        .FT                                                 :DEPTH     
AHT10       .OHMM                                               :          
AHT20       .OHMM                                               :          
AHT30       .OHMM                                               :          
AHT60       .OHMM                                               :          
AHT90       .OHMM                                               :          
CALI        .IN                                                 :          
COND        .MMHO                                               :          
DTCO        .US/F                                               :          
GR          .GAPI                                               :          
GR_NORM     .GAPI                                               :GammaRay Normalized
HDRA        .G/CC                                               :          
NPOR        .FRAC                                               :          
RHOZ        .G/CC                                               :          
VSH_GR      .V/V                                                :Volume of Shale from GR
~A        DEPTH          AHT10          AHT20          AHT30          AHT60          AHT90           CALI           COND           DTCO             GR        GR_NORM           HDRA           NPOR           RHOZ         VSH_GR
# ...
     15556.0000           4.86           1.57           1.27          0.899          0.913          6.265        1095.29           84.9         59.653       49.02716         -0.035          0.216           2.62      0.3410033
     15556.5000          4.398          1.542          1.289          0.931          0.947          6.265       1055.966           85.7         62.322       51.82961         -0.029          0.207          2.627      0.4006299
     15557.0000          3.827          1.499          1.308          0.964          0.982          6.265        1018.33           87.6         63.515       53.08226         -0.024           0.21          2.639       0.427282
     15557.5000          3.447           1.47          1.339          1.006          1.024          6.265       976.5624           84.1         64.678       54.30341         -0.022          0.211          2.635      0.4532639
     15558.0000          3.141          1.439          1.389          1.066          1.083          6.268       923.3611           82.9         57.865       47.14976         -0.024          0.218          2.627      0.3010587
     15558.5000          3.033          1.446          1.485           1.15          1.163           6.28       859.8452           79.8          56.11       45.30701         -0.028          0.221          2.603      0.2618512
     15559.0000          3.951          1.621          1.586           1.28          1.285          6.271       778.2101           78.5         59.669       49.04395         -0.032          0.214          2.591      0.3413607
     15559.5000          4.356          1.769          1.598          1.371          1.364          6.269       733.1379           80.1         72.592       62.61311         -0.033          0.211          2.589      0.6300662
     15560.0000          3.196          1.658          1.441          1.292          1.273          6.268        785.546           80.2         77.858        68.1424         -0.029          0.212          2.607      0.7477107
     15560.5000          2.137          1.421          1.245          1.169          1.141          6.269       876.4242           91.6         79.021       69.36356         -0.029          0.225          2.606      0.7736927
     15561.0000          1.615          1.212          1.108           1.08          1.047          6.268       955.1098           93.6         76.141       66.33955          -0.03          0.211          2.603      0.7093522
     15561.5000          1.437           1.13          1.054          1.034          0.995          6.268       1005.025             94         78.913       69.25017         -0.033          0.203          2.591      0.7712802
     15562.0000          1.389          1.095           1.05          1.035          0.989          6.269       1011.122           91.6         76.786       67.01682         -0.028          0.214          2.598       0.723762
     15562.5000          1.339          1.047          1.029           1.02          0.968           6.27       1033.058           90.9         74.468       64.58291         -0.026          0.214          2.606      0.6719768
     15563.0000          1.331          1.036          1.015          1.004          0.947          6.302       1055.966           92.6         70.908        60.8449         -0.029          0.197          2.598      0.5924447
     15563.5000           1.34          1.044          1.003          0.996          0.935           6.33       1069.519           87.7         69.574        59.4442         -0.025          0.182          2.598      0.5626426
     15564.0000          1.367          1.075          1.016          1.002          0.937          6.324       1067.236           89.7         73.858       63.94241         -0.027          0.248          2.589      0.6583492
     15564.5000          1.393          1.107          1.038          1.021          0.951          6.325       1051.525           84.5         75.418       65.58041         -0.034          0.239          2.588      0.6932001
     15565.0000          1.398          1.118          1.058          1.042          0.968          6.324       1033.058           85.6         78.166       68.46581         -0.038          0.213          2.581      0.7545916
     15565.5000          1.395          1.118          1.067          1.053          0.976          6.325        1024.59           87.4         78.306       68.61281         -0.038           0.22          2.575      0.7577193
     15566.0000          1.394          1.117          1.071          1.057           0.98          6.325       1020.408           85.8         75.293       65.44916         -0.044           0.22          2.561      0.6904076
     15566.5000          1.405          1.123          1.073          1.057          0.981          6.325       1019.368           91.8         73.388       63.44891         -0.039           0.22          2.573      0.6478491
     15567.0000          1.422          1.132          1.074          1.053          0.979          6.324       1021.451           97.9         74.161       64.26056         -0.033          0.225          2.584      0.6651183
     15567.5000          1.437          1.138           1.07          1.046          0.976          6.325        1024.59           93.2         74.442        64.5556         -0.029          0.227          2.596      0.6713958
     15568.0000          1.445           1.14          1.059          1.033          0.969          6.327       1031.992           92.6         77.671       67.94605          -0.03          0.225          2.594       0.743533
     15568.5000          1.453          1.142          1.044          1.008          0.953          6.333       1049.318           90.6         75.003       65.14465         -0.029          0.225          2.607      0.6839288
     15569.0000          1.451          1.134          1.019          0.977          0.932          6.325       1072.961           91.5         76.893       67.12915         -0.031           0.22          2.618      0.7261521
     15569.5000          1.403          1.102          0.995          0.943          0.908          6.324       1101.322           91.8         75.494       65.66022         -0.031          0.231          2.633      0.6948982
     15570.0000          1.371           1.07          0.991          0.926            0.9          6.324       1111.111           97.1         74.575       64.69525         -0.034           0.23           2.63      0.6743671
     15570.5000           1.47          1.098          1.037          0.947          0.928          6.324       1077.586             96         74.231       64.33406         -0.034          0.222          2.626      0.6666821
     15571.0000          1.658           1.18          1.106          0.997          0.985          6.318       1015.228           92.1          72.75       62.77901         -0.036          0.198           2.62      0.6335959
     15571.5000          1.819          1.259          1.168          1.051          1.048          6.315       954.1985           88.5         71.773       61.75316         -0.032          0.166          2.626      0.6117693
     15572.0000          1.904          1.306          1.212          1.078          1.088          6.319       919.1176           88.7         71.232       61.18511          -0.03          0.201          2.628      0.5996832
     15572.5000          1.906          1.308          1.219          1.082          1.101          6.316       908.2653           86.3         73.137       63.18536         -0.027           0.23          2.622      0.6422416
     15573.0000           1.88          1.304          1.217          1.079          1.104          6.232       905.7971           88.6         77.278       67.53341         -0.029          0.217           2.61      0.7347534
     15573.5000          1.872          1.311           1.22          1.074          1.104          6.179       905.7971           91.9         78.381       68.69155          -0.03          0.213          2.605      0.7593947
