#------------------------------------------------------------------------------
# Created by    : vladimir.rabinovich
# Created on    : 09/19/2023 17:19:48
#------------------------------------------------------------------------------
~Version Information Section
VERS.           2.0     :   CWLS log ASCII Standard - VERSION 2.0
WRAP.           NO      :   One line per depth step
~Well Information Section
#MNEM       .UNIT                                         VALUE :DESCRIPTION
#------------------------------------------------------------------------------
STRT        .FT                                             130 :START DEPTH
STOP        .FT                                            9502 :STOP DEPTH
STEP        .FT                                             0.5 :STEP      
NULL        .                                           -999.25 :NULL      
COMP        .            MOBIL PRODUCING TEXAS & NEW MEXICO INC :COMPANY   
WELL        .                               OCS G07243 ST00BP00 :WELL      
FLD         .                                           WILDCAT :FIELD     
LOC         .                                                   :LOCATION  
CNTY        .                             GALVESTON LARGE BLOCK :LOCATION  
STAT        .                                             TEXAS :STATE     
CTRY        .                                     UNITED STATES :COUNTRY   
SRVC        .                                                   :SERVICE COMPANY
DATE        .                             9/13/2023 11:19:36 AM :LOG DATE  
API         .                                    42706401330000 :API NUMBER
UWI         .                                    42706401330000 :UNIQUE WELL ID
XCOORD      .                                  993943.906145108 :SURFACE X 
YCOORD      .                                  10496155.9223708 :SURFACE Y 
LAT         .                                         28.907432 :LATITUDE  
LON         .                                        -95.020991 :LONGITUDE 
ELEV        .FT                                              92 :ELEVATION VALUE
ELEV_TYPE   .                                                KB :ELEVATION REFERENCE TYPE
~Curve Information Section
#MNEM       .UNIT                                      API CODE :CURVE DESCRIPTION
#------------------------------------------------------------------------------
DEPT        .FT                                                 :DEPTH     
ASFL        .OHMM                                               :          
CILD        .MMHO                                               :          
DT          .US/F                                               :          
GR          .GAPI                                               :          
GR_NORM     .GAPI                                               :GammaRay Normalized
ILD         .OHMM                                               :          
SP          .MV                                                 :          
SP_NORM     .GAPI                                               :SP Normalized
VSH_GR      .V/V                                                :Volume of Shale from GR
VSH_SP      .V/V                                                :Volume of Shale from SP
~A        DEPTH           ASFL           CILD             DT             GR        GR_NORM            ILD             SP        SP_NORM         VSH_GR         VSH_SP
# ...
      2653.5000           0.58       1897.398        -999.25        55.9451       70.66216         0.6281        -999.25        -999.25      0.8013225        -999.25
      2654.0000         0.5627       1942.953        -999.25        54.7306        69.2269         0.6247        -999.25        -999.25      0.7707851        -999.25
      2654.5000          0.547       1988.678        -999.25        53.8655       68.20465         0.6189        -999.25        -999.25      0.7490351        -999.25
      2655.0000         0.5297        2034.92        -999.25         52.909       67.07436         0.6116        -999.25        -999.25      0.7249864        -999.25
      2655.5000         0.5034       2107.258        -999.25        51.7022       65.64821         0.5995        -999.25        -999.25      0.6946427        -999.25
      2656.0000          0.492       2160.629        -999.25         50.046       63.69085         0.5825        -999.25        -999.25      0.6529967        -999.25
      2656.5000         0.5011       2108.465        -999.25        48.7049       62.10595         0.5631        -999.25        -999.25      0.6192755        -999.25
      2657.0000         0.5103       2043.074        -999.25        49.4395       62.97459          0.546        -999.25        -999.25      0.6377572        -999.25
      2657.5000         0.5194       2007.482        -999.25        51.0865       64.92173          0.526        -999.25        -999.25      0.6791857        -999.25
      2658.0000         0.5285       1971.879        -999.25        52.7243       66.85799         0.5274        -999.25        -999.25      0.7203827        -999.25
      2658.5000         0.5339       1942.123        -999.25        54.2291       68.63704         0.5565        -999.25        -999.25      0.7582349        -999.25
      2659.0000         0.5387       1926.393        -999.25        55.5098       70.15119         0.5879        -999.25        -999.25      0.7904509        -999.25
      2659.5000         0.5434       1910.662        -999.25        56.6317       71.47764         0.5905        -999.25        -999.25      0.8186731        -999.25
      2660.0000         0.5481       1894.934        -999.25        57.5333       72.54368         0.5932        -999.25        -999.25      0.8413548        -999.25
      2660.5000          0.553       1879.203        -999.25        58.6241       73.83337         0.5951        -999.25        -999.25      0.8687952        -999.25
      2661.0000         0.5612        1856.52        -999.25        58.8735        74.1285         0.5936        -999.25        -999.25      0.8750745        -999.25
      2661.5000         0.5694       1833.828        -999.25         58.142       73.26416         0.5921        -999.25        -999.25      0.8566843        -999.25
      2662.0000         0.5776       1811.125        -999.25        57.4105       72.39983         0.5941        -999.25        -999.25      0.8382943        -999.25
      2662.5000         0.5871       1786.355        -999.25         56.386       71.18917         0.5983        -999.25        -999.25      0.8125355        -999.25
      2663.0000         0.6014       1755.586        -999.25         55.136       69.71194         0.6025        -999.25        -999.25      0.7811052        -999.25
      2663.5000         0.6157       1724.803        -999.25        55.5098       70.15411         0.6166        -999.25        -999.25       0.790513        -999.25
      2664.0000         0.6368       1682.225        -999.25        56.7468       71.61661         0.6325        -999.25        -999.25      0.8216299        -999.25
      2664.5000         0.6727       1607.498        -999.25        57.6511       72.68585         0.6639        -999.25        -999.25      0.8443798        -999.25
      2665.0000         0.7158       1499.371        -999.25        57.3974       72.38629         0.6985        -999.25        -999.25      0.8380062        -999.25
      2665.5000         0.7607       1352.133        -999.25        57.2664       72.23178         0.7274        -999.25        -999.25      0.8347188        -999.25
      2666.0000         0.7903       1571.242        -999.25        58.6056       73.81508         0.7532        -999.25        -999.25      0.8684059        -999.25
      2666.5000         0.7906       1636.941        -999.25        60.5359       76.09708         0.7866        -999.25        -999.25      0.9169592        -999.25
      2667.0000         0.6277       1693.613        -999.25        62.1207        77.9707         0.8403        -999.25        -999.25      0.9568233        -999.25
      2667.5000         0.6053        1748.98        -999.25        63.5165        79.6209         0.8377        -999.25        -999.25      0.9919341        -999.25
      2668.0000         0.5828        1803.98        -999.25        65.2639       81.68671         0.7805        -999.25        -999.25              1        -999.25
      2668.5000         0.5709       1835.027        -999.25        66.7324       83.42285         0.7233        -999.25        -999.25              1        -999.25
      2669.0000         0.5592       1853.574        -999.25        67.3311       84.13085         0.6809        -999.25        -999.25              1        -999.25
      2669.5000         0.5475       1872.125        -999.25        67.2723       84.06168          0.649        -999.25        -999.25              1        -999.25
      2670.0000         0.5406       1886.725        -999.25        66.1136       82.69238         0.6257        -999.25        -999.25              1        -999.25
      2670.5000         0.5356       1896.033        -999.25        64.7726       81.10759         0.6143        -999.25        -999.25              1        -999.25
      2671.0000         0.5413       1905.348        -999.25         61.042       76.69824         0.5949        -999.25        -999.25      0.9297498        -999.25
      2671.5000         0.5487       1891.496        -999.25        58.0311       73.13958         0.5807        -999.25        -999.25      0.8540336        -999.25
      2672.0000         0.5627       1868.461        -999.25         56.663       71.52277         0.5729        -999.25        -999.25      0.8196333        -999.25
      2672.5000         0.5767       1845.426        -999.25        55.2555       69.85938         0.5742        -999.25        -999.25      0.7842422        -999.25
      2673.0000         0.5907       1822.379        -999.25        54.6476       69.14115         0.5861        -999.25        -999.25      0.7689607        -999.25
      2673.5000         0.6043        1791.51        -999.25        54.4913       68.95671         0.6057        -999.25        -999.25      0.7650364        -999.25
      2674.0000         0.6173       1745.906        -999.25        54.8267       69.35349         0.6252        -999.25        -999.25      0.7734786        -999.25
      2674.5000         0.6303       1700.303        -999.25         55.162       69.75015         0.6399        -999.25        -999.25      0.7819182        -999.25
      2675.0000         0.6433       1659.201        -999.25        55.5047       70.15556         0.6542        -999.25        -999.25      0.7905439        -999.25
      2675.5000         0.6523       1629.969        -999.25        55.8541        70.5689         0.6686        -999.25        -999.25      0.7993383        -999.25
      2676.0000         0.6531       1600.723        -999.25        55.3907       70.02148         0.6791        -999.25        -999.25       0.787691        -999.25
      2676.5000         0.6449       1597.205        -999.25        54.8913       69.43149         0.6896        -999.25        -999.25       0.775138        -999.25
      2677.0000         0.6366       1617.104        -999.25         54.392       68.84162         0.6999        -999.25        -999.25      0.7625877        -999.25
      2677.5000         0.6284       1640.557        -999.25        53.8926       68.25163         0.6956        -999.25        -999.25      0.7500347        -999.25
