#------------------------------------------------------------------------------
# Created by    : vladimir.rabinovich
# Created on    : 09/19/2023 17:22:30
#------------------------------------------------------------------------------
~Version Information Section
VERS.           2.0     :   CWLS log ASCII Standard - VERSION 2.0
WRAP.           NO      :   One line per depth step
~Well Information Section
#MNEM       .UNIT                                         VALUE :DESCRIPTION
#------------------------------------------------------------------------------
STRT        .FT                                             456 :START DEPTH
STOP        .FT                                           11667 :STOP DEPTH
STEP        .FT                                             0.5 :STEP      
NULL        .                                           -999.25 :NULL      
COMP        .                              PATRICK PETROLEUM CO :COMPANY   
WELL        .                                     ST TR 00693-L :WELL      
FLD         .                                           WILDCAT :FIELD     
LOC         .                                                   :LOCATION  
CNTY        .                      MATAGORDA ISLAND LARGE BLOCK :LOCATION  
STAT        .                                             TEXAS :STATE     
CTRY        .                                     UNITED STATES :COUNTRY   
SRVC        .                                                   :SERVICE COMPANY
DATE        .                             9/13/2023 11:12:01 AM :LOG DATE  
API         .                                    42703302660000 :API NUMBER
UWI         .                                    42703302660000 :UNIQUE WELL ID
XCOORD      .                                  384413.417453263 :SURFACE X 
YCOORD      .                                  10143960.4717662 :SURFACE Y 
LAT         .                                        27.8986234 :LATITUDE  
LON         .                                       -96.8882217 :LONGITUDE 
ELEV        .FT                                              92 :ELEVATION VALUE
ELEV_TYPE   .                                                KB :ELEVATION REFERENCE TYPE
~Curve Information Section
#MNEM       .UNIT                                      API CODE :CURVE DESCRIPTION
#------------------------------------------------------------------------------
DEPT        .FT                                                 :DEPTH     
CILD        .MMHO                                               :          
DPHI        .%                                                  :          
DT          .US/F                                               :          
GR          .GAPI                                               :          
GR_NORM     .GAPI                                               :GammaRay Normalized
ILD         .OHMM                                               :          
SN          .OHMM                                               :          
SP          .MV                                                 :          
SP_NORM     .MV                                                 :SP Normalized
VSH_GR      .V/V                                                :Volume of Shale from GR
VSH_SP      .V/V                                                :Volume of Shale from SP
~A        DEPTH           CILD           DPHI             DT             GR        GR_NORM            ILD             SN             SP        SP_NORM         VSH_GR         VSH_SP
# ...
      9411.0000         1918.4        -999.25       140.1195        73.8283       73.04121         0.4375         0.6214       -18.0796       1.240034      0.8519406              1
      9411.5000           1920        -999.25       139.7705        73.9578       73.17603         0.4378         0.6225       -17.7182        1.60368      0.8548092              1
      9412.0000         1932.8        -999.25          139.6         74.404       73.64777         0.4381         0.6193       -17.8311       1.493029      0.8648462              1
      9412.5000         1946.8        -999.25       140.0984        74.4545       73.69855         0.4291          0.613       -18.3267      0.9996758      0.8659267              1
      9413.0000         1963.2        -999.25       141.4257        73.7071       72.90051         0.4229         0.6059        -18.802      0.5266247      0.8489469              1
      9413.5000         1980.4        -999.25       142.8218        72.3875       71.49374         0.4158         0.6031       -18.7219      0.6089706      0.8190157              1
      9414.0000       1994.049        -999.25       143.3151        71.2557       70.28676         0.4092         0.6056       -18.5149      0.8182182      0.7933353              1
      9414.5000       2002.153        -999.25        143.649        70.8372       69.83861         0.4125         0.6056       -18.8614      0.4739666      0.7838002              1
      9415.0000       2005.545        -999.25       142.5665        70.8541       69.85365         0.4131         0.6056       -19.4653     -0.1276855      0.7841203              1
      9415.5000       2009.273        -999.25       141.8304        71.3602       70.38911         0.4132         0.6056       -19.9673     -0.6274376      0.7955129              1
      9416.0000       2008.052        -999.25       141.0571        72.6979       71.80925         0.4132         0.6056       -20.1364     -0.7942905      0.8257287              1
      9416.5000       2007.921        -999.25          140.5          73.85       73.03195         0.4144         0.6082         -20.33     -0.9856434      0.8517436              1
      9417.0000       2004.752        -999.25         141.39        74.6091       73.83657         0.4179         0.6102         -21.18      -1.833395      0.8688632      0.9848474
      9417.5000        2001.98        -999.25         142.15             75       74.24947          0.419         0.6113         -21.03      -1.681149      0.8776484      0.9876155
      9418.0000       1988.231        -999.25       142.5293        75.0315       74.28004         0.4208         0.6139       -19.8115     -0.4603996      0.8782988              1
      9418.5000       1977.376        -999.25       142.7944        75.6175       74.90051          0.421         0.6142       -19.3069     0.04644775      0.8915003              1
      9419.0000         1970.8        -999.25       142.5869        74.2108       73.40108         0.4218         0.6133       -20.5501      -1.194506      0.8595976      0.9964635
      9419.5000       1961.824        -999.25       142.0647        72.5792       71.66239         0.4237         0.6113          -21.8      -2.442156      0.8226041       0.973779
      9420.0000       1950.146        -999.25        141.444        71.3227       70.32275         0.4265         0.6082       -21.1998       -1.83971      0.7941011      0.9847326
      9420.5000         1935.2        -999.25       140.8495        70.3333       69.26726         0.4293         0.6056       -20.2794     -0.9170609      0.7716438              1
      9421.0000         1921.6        -999.25       140.2439        70.6162       69.56528         0.4309         0.6034       -20.1988     -0.8342133      0.7779848              1
      9421.5000           1916        -999.25       140.8143        71.6162       70.62617         0.4301         0.6009       -21.1899      -1.823067      0.8005568      0.9850351
      9422.0000       1926.909        -999.25       141.7756        73.4343       72.55738         0.4224            0.6       -20.8645      -1.495419      0.8416464      0.9909924
      9422.5000         1965.6        -999.25         142.45        75.6566       74.91859         0.4132            0.6       -20.0293     -0.6579723      0.8918848              1
      9423.0000       2005.137        -999.25         142.83        77.5556       76.93587         0.4056          0.597         -19.64     -0.2664223      0.9348057              1
      9423.5000       2019.406        -999.25         143.27        78.2525        77.6743         0.4011         0.5946          -19.6     -0.2241764      0.9505171              1
      9424.0000       2036.436        -999.25         143.75        78.0303       77.43497          0.398         0.5946       -19.6001     -0.2220268       0.945425              1
      9424.5000        2057.03        -999.25         144.25        77.7172       77.09895         0.3963         0.5937       -19.5045     -0.1241798      0.9382756              1
      9425.0000       2070.891        -999.25          144.6        77.4444        76.8058         0.3963         0.5919       -19.4501    -0.06753349      0.9320383              1
      9425.5000       2080.396        -999.25         144.45        76.8485       76.16892         0.3963         0.5919       -19.4172    -0.03238487      0.9184877              1
      9426.0000        2097.93        -999.25       144.1909        76.1515       75.42449         0.3963         0.5919       -19.5761     -0.1890373      0.9026487              1
      9426.5000        2118.02        -999.25         143.94        75.1717       74.37921         0.3963         0.5919         -20.74      -1.350689      0.8804088      0.9936239
      9427.0000       2145.743        -999.25         144.03        73.5657       72.66776         0.3956         0.5935         -22.93      -3.538443       0.843995      0.9538465
      9427.5000       2167.525        -999.25         144.45        72.4059       71.43099         0.3926         0.5946          -25.6      -6.206196      0.8176807      0.9053419
      9428.0000       2181.027        -999.25       144.8619        71.2929       70.24401         0.3892         0.5946         -23.68      -4.283947      0.7924258      0.9402919
      9428.5000       2193.936        -999.25       145.4956         70.404       69.29543         0.3844         0.5946         -21.87      -2.471701      0.7722433      0.9732418
      9429.0000       2208.957        -999.25       146.0492        72.0707       71.06558         0.3783         0.5948       -20.3455      -0.944952       0.809906              1
      9429.5000       2217.669        -999.25       146.6595        73.4747       72.55626         0.3705         0.5973         -19.53     -0.1272049      0.8416225              1
      9430.0000       2227.775        -999.25       147.3279         73.719       72.81321         0.3651         0.5973          -19.5    -0.09495735      0.8470896              1
      9430.5000       2227.409        -999.25        147.719        73.4242       72.49665         0.3647         0.5973         -19.76     -0.3527088      0.8403543              1
      9431.0000        2226.85        -999.25       147.4826        71.0101       69.92552         0.3662         0.5973         -19.95     -0.5404625      0.7856494              1
      9431.5000       2217.167        -999.25       147.1971        70.4141       69.28854         0.3688         0.5984       -19.0546      0.3571873      0.7720967              1
      9432.0000       2186.593        -999.25       146.6011        70.9091       69.81219          0.375         0.6049         -18.08       1.334034      0.7832382              1
      9432.5000       2150.135        -999.25         146.05         70.899       69.79851         0.3863         0.6148          -17.6        1.81628      0.7829469              1
      9433.0000        2104.95        -999.25          145.8        70.1019       68.94759         0.3961         0.6333         -17.61       1.808529      0.7648423              1
