#------------------------------------------------------------------------------
# Created by    : vladimir.rabinovich
# Created on    : 09/19/2023 17:22:33
#------------------------------------------------------------------------------
~Version Information Section
VERS.           2.0     :   CWLS log ASCII Standard - VERSION 2.0
WRAP.           NO      :   One line per depth step
~Well Information Section
#MNEM       .UNIT                                         VALUE :DESCRIPTION
#------------------------------------------------------------------------------
STRT        .FT                                            2877 :START DEPTH
STOP        .FT                                            8775 :STOP DEPTH
STEP        .FT                                             0.5 :STEP      
NULL        .                                           -999.25 :NULL      
COMP        .                                       APACHE CORP :COMPANY   
WELL        .                                  HIGH ISLAND 10-L :WELL      
FLD         .                                           WILDCAT :FIELD     
LOC         .                                                   :LOCATION  
CNTY        .                           HIGH ISLAND LARGE BLOCK :LOCATION  
STAT        .                                             TEXAS :STATE     
CTRY        .                                     UNITED STATES :COUNTRY   
SRVC        .                                                   :SERVICE COMPANY
DATE        .                             9/13/2023 11:19:15 AM :LOG DATE  
API         .                                    42708303590000 :API NUMBER
UWI         .                                    42708303590000 :UNIQUE WELL ID
XCOORD      .                                  1323081.96300683 :SURFACE X 
YCOORD      .                                  10736101.4448574 :SURFACE Y 
LAT         .                                        29.5789626 :LATITUDE  
LON         .                                       -93.9986282 :LONGITUDE 
ELEV        .FT                                             100 :ELEVATION VALUE
ELEV_TYPE   .                                                KB :ELEVATION REFERENCE TYPE
~Curve Information Section
#MNEM       .UNIT                                      API CODE :CURVE DESCRIPTION
#------------------------------------------------------------------------------
DEPT        .FT                                                 :DEPTH     
CNCSS       .%                                                  :          
DCAL        .IN                                                 :          
GRR         .GAPI                                               :          
ILD         .OHMM                                               :          
ILM         .OHMM                                               :          
PORZSS      .%                                                  :          
RFOC        .OHMM                                               :          
SP          .MV                                                 :          
SP_NORM     .MV                                                 :SP Normalized
TENR        .LB                                                 :          
VSH_SP      .V/V                                                :Volume of Shale from SP
ZCOR        .G/CM3                                              :          
~A        DEPTH          CNCSS           DCAL            GRR            ILD            ILM         PORZSS           RFOC             SP        SP_NORM           TENR         VSH_SP           ZCOR
# ...
      3758.5000        31.4851         1.2463         36.074          0.285         0.2903        34.6337         0.7392       -62.5787      -55.60196       1261.733      0.1753545        -0.0223
      3759.0000        32.3762         1.2169         35.335         0.2837         0.2957        34.2772         0.7566       -62.1809      -55.20415       1241.238      0.1814745        -0.0342
      3759.5000         34.099         1.2668        36.8259         0.2904         0.3027        33.9208         0.7637        -61.189      -54.21225       1240.743      0.1967346        -0.0401
      3760.0000        35.5842         1.3959        39.2066         0.2972         0.3097        33.8614         0.7329          -59.8      -52.82325       1230.248      0.2181038          -0.04
      3760.5000        37.6634          1.505         39.505         0.3055         0.3169        34.3366         0.6967            -57      -50.02325           1240      0.2611807         -0.024
      3761.0000        39.1485         1.5545         39.505          0.314         0.3257        34.6337         0.6743          -54.8      -47.82325           1220      0.2950269          -0.01
      3761.5000        39.9802         1.5347        38.9109         0.3183         0.3287        34.4554         0.6588          -54.4      -47.42326           1230      0.3011807         -0.006
      3762.0000        39.7426         1.4554        38.4653         0.3097         0.3242        34.2772            0.7          -56.8      -49.82325           1240      0.2642576         -0.002
      3762.5000        38.5545         1.2376        37.4257         0.2905         0.3055        34.5743         0.7675       -61.1881      -54.21135           1250      0.1967484         -0.006
      3763.0000        38.3168           0.94        34.0099         0.2711         0.2787        35.5248         0.8447       -66.1386      -59.16186           1240      0.1205868         -0.018
      3763.5000        39.2079           0.69        31.0396         0.2507         0.2625        36.5941         0.8838        -70.099      -63.12225           1210     0.05965764         -0.044
      3764.0000        39.9208           0.52          29.25         0.2383         0.2484        37.7228         0.8879       -72.8713      -65.89455           1200     0.01700686         -0.064
      3764.5000        41.4653           0.46          28.05         0.2265         0.2405        38.4356         0.8759       -74.0594      -67.08266           1200              0         -0.064
      3765.0000        41.2871           0.46          27.75         0.2133         0.2339        38.4356         0.8563       -74.4554      -67.47865           1190              0          -0.06
      3765.5000        39.0297           0.47          27.45         0.2028         0.2275        38.3168         0.8258       -73.8614      -66.88465           1190    0.001774597         -0.056
      3766.0000        36.4158           0.51          27.45         0.1928         0.2234        38.3762         0.8036       -73.6634      -66.68665           1190    0.004820721         -0.052
      3766.5000        34.9901           0.53           29.4         0.1892         0.2234        38.6139         0.7782       -72.8713      -65.89455           1190     0.01700686         -0.054
      3767.0000        35.5842           0.56        31.3366         0.1892         0.2255        38.6139         0.7432       -71.8812      -64.90446           1190     0.03223912         -0.056
      3767.5000        35.2277           0.64        32.5248         0.1928         0.2286        38.7327         0.7296        -70.495      -63.51826           1190     0.05356527         -0.054
      3768.0000        34.9307           0.67        31.1881         0.1963          0.235        38.7327         0.7466       -67.5248      -60.54806           1190     0.09926065         -0.052
      3768.5000        35.4059            0.7           29.7         0.2213         0.2416        38.4356         0.7398       -62.5743      -55.59755           1190      0.1754223          -0.05
      3769.0000        37.5446           0.68           29.4         0.2461         0.2686         37.901         0.6903          -57.2      -50.22326           1190      0.2581038         -0.044
      3769.5000        38.3762           0.67        30.4455         0.2749         0.3041        36.4752         0.6496          -49.6      -42.62325           1190      0.3750269          -0.03
      3770.0000         38.198           0.62        32.8218         0.3055         0.3425        34.0396         0.6775            -43      -36.02325           1190      0.4765653         -0.012
      3770.5000        37.7228           0.59        41.4356         0.3552          0.391        30.8911         0.7711          -38.4      -31.42326           1190      0.5473345         -0.006
      3771.0000        37.2475           0.59             51         0.4111         0.4422          28.68         0.8334          -35.2      -28.22326           1180      0.5965652              0
      3771.5000        36.4752           0.62           55.8         0.4758          0.498          27.06         0.8683          -31.4      -24.42326           1180      0.6550269          0.006
      3772.0000        36.5347           0.66          56.25         0.5507         0.5608          25.02         0.9049          -26.2      -19.22326           1180      0.7350268          0.008
      3772.5000        38.3762            0.8          56.25         0.5844         0.6147          22.02         0.9606          -20.2      -13.22326           1190      0.8273345          0.002
      3773.0000        40.1584           0.82           56.7         0.5819         0.5953          20.34         0.9305       -16.2376      -9.260857           1190      0.8882945         -0.002
      3773.5000        41.9406           0.83        60.5941         0.5715         0.5847          21.06            0.8       -13.6634      -6.686656           1190      0.9278976         -0.006
      3774.0000           43.2           0.84        65.7921         0.5588         0.5613          23.22         0.7229       -14.8515      -7.874755           1190      0.9096192         -0.006
      3774.5000          42.06           0.87        72.1782         0.5563         0.5538          25.32         0.7364       -18.0198      -11.04306           1190      0.8608761          0.002
      3775.0000        38.4356           0.87        73.3663         0.5514         0.5539          26.82         0.8339          -20.8      -13.82326           1200      0.8181038          0.008
      3775.5000        36.7723           0.87        70.9901         0.5515         0.5617          27.42         0.9273            -22      -15.02326           1190      0.7996422          0.006
      3776.0000        37.4257           0.89        68.9109         0.5593         0.5774          27.36         0.9534          -20.2      -13.22326           1190      0.8273345         -0.002
      3776.5000        40.6931           0.89        68.9109         0.5645         0.5882          28.92         0.8498       -16.6337      -9.656956           1190      0.8822007         -0.002
      3777.0000          44.28           0.89        72.4752         0.5803         0.5991        32.5545         0.7963       -14.2574      -7.280655           1180      0.9187592              0
      3777.5000          45.48           0.89           75.6         0.5884         0.6103        35.8812         0.7746       -16.4356      -9.458857           1190      0.8852484          0.006
      3778.0000          44.58           0.93           78.9         0.5547         0.5967        37.2475         0.8227            -25      -18.02326           1200      0.7534884          0.018
      3778.5000          43.32           0.97        73.3663         0.5158         0.5448        36.6535         0.8867            -35      -28.02326           1200      0.5996422          0.028
