#------------------------------------------------------------------------------
# Created by    : vladimir.rabinovich
# Created on    : 09/19/2023 17:21:35
#------------------------------------------------------------------------------
~Version Information Section
VERS.           2.0     :   CWLS log ASCII Standard - VERSION 2.0
WRAP.           NO      :   One line per depth step
~Well Information Section
#MNEM       .UNIT                                         VALUE :DESCRIPTION
#------------------------------------------------------------------------------
STRT        .FT                                            3376 :START DEPTH
STOP        .FT                                            7813 :STOP DEPTH
STEP        .FT                                             0.5 :STEP      
NULL        .                                           -999.25 :NULL      
COMP        .                                MARINER ENERGY INC :COMPANY   
WELL        .                               OCS G27491 ST00BP00 :WELL      
FLD         .                                           WILDCAT :FIELD     
LOC         .                                                   :LOCATION  
CNTY        .                             GALVESTON LARGE BLOCK :LOCATION  
STAT        .                                             TEXAS :STATE     
CTRY        .                                     UNITED STATES :COUNTRY   
SRVC        .                                                   :SERVICE COMPANY
DATE        .                             9/13/2023 11:19:33 AM :LOG DATE  
API         .                                    42706404580000 :API NUMBER
UWI         .                                    42706404580000 :UNIQUE WELL ID
XCOORD      .                                  1038987.60828679 :SURFACE X 
YCOORD      .                                  10490484.8642062 :SURFACE Y 
LAT         .                                         28.893877 :LATITUDE  
LON         .                                         -94.87996 :LONGITUDE 
ELEV        .FT                                             110 :ELEVATION VALUE
ELEV_TYPE   .                                                KB :ELEVATION REFERENCE TYPE
~Curve Information Section
#MNEM       .UNIT                                      API CODE :CURVE DESCRIPTION
#------------------------------------------------------------------------------
DEPT        .FT                                                 :DEPTH     
CALI        .IN                                                 :          
DPSS        .%                                                  :          
DRHO        .G/CM3                                              :          
GR          .GAPI                                               :          
GR_NORM     .GAPI                                               :GammaRay Normalized
M2R1        .OHMM                                               :          
M2R2        .OHMM                                               :          
M2R3        .OHMM                                               :          
M2R6        .OHMM                                               :          
M2R9        .OHMM                                               :          
M2RX        .OHMM                                               :          
NPSS        .%                                                  :Neutron Porosity Sandstone
SP          .MV                                                 :          
SP_NORM     .MV                                                 :SP Normalized
TENS        .LB                                                 :          
VSH_GR      .V/V                                                :Volume of Shale from GR
VSH_SP      .V/V                                                :Volume of Shale from SP
~A        DEPTH           CALI           DPSS           DRHO             GR        GR_NORM           M2R1           M2R2           M2R3           M2R6           M2R9           M2RX           NPSS             SP        SP_NORM           TENS         VSH_GR         VSH_SP
# ...
      6646.0000        10.6182        24.4384          0.028           73.4        70.3103         0.6569         0.5092         0.4514         0.4229         0.4075            0.4        31.6434          -70.8      -26.48862             40      0.7938361      0.5585229
      6646.5000        10.6202        26.1588          0.012           70.6       66.69765          0.651         0.4908         0.4349         0.4229         0.4075            0.4        31.6478            -70      -25.68862             40      0.7169714      0.5718563
      6647.0000        10.6222        29.1037          0.012           67.6       62.82696         0.5946         0.4514         0.4113         0.3887         0.3776         0.3705        32.8599            -72      -27.68862             40      0.6346162       0.538523
      6647.5000        10.6642        30.5707           0.02           63.8       57.92408         0.5092         0.4113          0.374           0.36         0.3497         0.3366        33.7076            -78      -33.68862             40      0.5302995       0.438523
      6648.0000        10.6662        30.8172          0.024           61.6       55.08557         0.4685         0.3776         0.3366         0.3302         0.3208         0.3147        32.6252          -83.6      -39.28862             40      0.4699057      0.3451897
      6648.5000        10.6682         30.702          0.032           62.6        56.3758         0.4431         0.3464         0.3302         0.3088         0.3117            0.3        32.2673          -87.6      -43.28862             40      0.4973575       0.278523
      6649.0000        10.6702        30.2261          0.024           64.6       58.95626         0.4349         0.3464         0.3239         0.3058         0.3088         0.2946        34.1957          -88.4      -44.08862             80      0.5522609      0.2651896
      6649.5000        10.6322         29.869          0.016           69.4       65.14938         0.4431         0.3497         0.3239         0.3117         0.3088         0.2946        34.6781          -86.4      -42.08862            120      0.6840295      0.2985229
      6650.0000        10.6342        29.6302          0.016           69.4       65.14938         0.4599         0.3565          0.327         0.3208         0.3117         0.2973        34.0792          -82.8      -38.48862            120      0.6840295      0.3585229
      6650.5000         10.635         28.898         0.0199           69.4       65.14938         0.4817         0.3776         0.3464         0.3431         0.3334         0.3178        32.9982          -80.4      -36.08862             80      0.6840295      0.3985229
      6651.0000         10.635        27.7959         0.0237             70       65.92352         0.5092         0.4037         0.3669         0.3634         0.3531         0.3431        31.9169          -79.2      -34.88862             40      0.7005003       0.418523
      6651.5000         10.635        26.5714         0.0275             71       67.21375         0.5527         0.4309         0.3924         0.3887         0.3776         0.3669        31.3166          -78.4      -34.08862             40       0.727952      0.4318563
      6652.0000         10.635        25.7143         0.0273           70.6       66.69765         0.5785         0.4556         0.4152         0.4113            0.4         0.3849         30.837          -77.2      -32.88862             40      0.7169714      0.4518563
      6652.5000         10.635        27.3061         0.0151           67.6       62.82696         0.5785         0.4472         0.4037         0.4113            0.4         0.3813        31.7918          -76.8      -32.48862             40      0.6346162      0.4585229
      6653.0000         10.675        29.3878         0.0069           64.2       58.44017         0.5139         0.4113         0.3849         0.3849          0.374         0.3565        33.1026          -78.4      -34.08862             40      0.5412802      0.4318563
      6653.5000         10.675        31.1921         0.0147             63        56.8919         0.4599         0.3776         0.3669           0.36         0.3497         0.3398        33.0995          -81.2      -36.88862             40      0.5083382      0.3851897
      6654.0000         10.675        29.2653         0.0225           67.4       62.56892         0.4514         0.3962         0.3634         0.3565         0.3464         0.3398        33.0965          -83.2      -38.88862             40      0.6291259      0.3518564
      6654.5000         10.715        24.9796         0.0263           73.4        70.3103         0.5139         0.4599         0.4431         0.4152         0.4037         0.3887        34.0452          -80.4      -36.08862             40      0.7938361      0.3985229
      6655.0000         10.795          21.84         0.0301           79.2       77.79364         0.6222         0.5378         0.5428            0.5         0.4862         0.4642        35.3487            -66      -21.68862             40      0.9530562       0.638523
      6655.5000         10.875           20.4         0.0339           80.8       79.85802         0.6874         0.5946         0.5527         0.5477         0.5329         0.5186        36.5265       -58.3848      -14.07342             40      0.9969791       0.765443
      6656.0000         10.995          21.84         0.0337           78.8       77.27756         0.6937         0.6055         0.5629         0.5527         0.5378         0.5186        37.3478       -53.1424       -8.83102             40      0.9420757      0.8528163
      6656.5000         11.115        25.9592         0.0055           72.6       69.27812          0.669         0.5838         0.5378         0.5329         0.5186         0.5046        36.7533       -56.3732      -12.06182             40       0.771875      0.7989696
      6657.0000         11.075        29.5102        -0.0107           67.6       62.82696         0.5946         0.5329         0.4954         0.4817         0.4685         0.4599        36.1564          -66.4      -22.08862             40      0.6346162      0.6318563
      6657.5000         10.955        31.5376        -0.0069           62.4       56.11776         0.5281         0.4729         0.4472         0.4309          0.419         0.4113        36.6256            -76      -31.68862             40      0.4918672      0.4718563
      6658.0000         10.875        30.2363         0.0249           59.4       52.24706         0.4817         0.4269         0.4075         0.3924         0.3813          0.374        37.8105            -82      -37.68862             40       0.409512      0.3718563
      6658.5000         10.835        28.1633         0.0247             61       54.31143         0.4642         0.4152         0.3849         0.3776         0.3669           0.36        37.4505          -79.2      -34.88862             40      0.4534346       0.418523
      6659.0000         10.835         26.449         0.0285           65.4       59.98845         0.5046          0.439         0.4037         0.3962         0.3849         0.3776         36.492          -71.6      -27.28862             40      0.5742223      0.5451897
      6659.5000         10.755        25.5918         0.0283           65.6       60.24649         0.5477         0.4556         0.4229         0.4113            0.4         0.3924        32.9452          -69.2      -24.88862             40      0.5797126      0.5851897
      6660.0000         10.675         25.102         0.0281           61.4       54.82753         0.5578         0.4431         0.4037         0.4037         0.3924         0.3849        29.7551          -71.2      -26.88862             40      0.4644155      0.5518563
      6660.5000         10.595        24.4898          0.004           56.8       48.89246         0.5092         0.4037          0.374          0.374         0.3634         0.3565        26.5714          -76.8      -32.48862         39.976      0.3381374      0.4585229
