#------------------------------------------------------------------------------
# Created by    : vladimir.rabinovich
# Created on    : 09/19/2023 17:22:28
#------------------------------------------------------------------------------
~Version Information Section
VERS.           2.0     :   CWLS log ASCII Standard - VERSION 2.0
WRAP.           NO      :   One line per depth step
~Well Information Section
#MNEM       .UNIT                                         VALUE :DESCRIPTION
#------------------------------------------------------------------------------
STRT        .FT                                            2981 :START DEPTH
STOP        .FT                                           10477 :STOP DEPTH
STEP        .FT                                             0.5 :STEP      
NULL        .                                           -999.25 :NULL      
COMP        .                          SEAGULL ENERGY E & P INC :COMPANY   
WELL        .                               OCS G13783 ST00BP00 :WELL      
FLD         .                                           WILDCAT :FIELD     
LOC         .                                                   :LOCATION  
CNTY        .                             GALVESTON LARGE BLOCK :LOCATION  
STAT        .                                             TEXAS :STATE     
CTRY        .                                     UNITED STATES :COUNTRY   
SRVC        .                                                   :SERVICE COMPANY
DATE        .                             9/13/2023 11:19:39 AM :LOG DATE  
API         .                                    42706403890000 :API NUMBER
UWI         .                                    42706403890000 :UNIQUE WELL ID
XCOORD      .                                  1047250.65699841 :SURFACE X 
YCOORD      .                                  10470150.2239286 :SURFACE Y 
LAT         .                                         28.838318 :LATITUDE  
LON         .                                         -94.85315 :LONGITUDE 
ELEV        .FT                                              94 :ELEVATION VALUE
ELEV_TYPE   .                                                KB :ELEVATION REFERENCE TYPE
~Curve Information Section
#MNEM       .UNIT                                      API CODE :CURVE DESCRIPTION
#------------------------------------------------------------------------------
DEPT        .FT                                                 :DEPTH     
CILD        .MMHO                                               :          
CNC         .%                                                  :          
DT24        .US/F                                               :          
GR          .GAPI                                               :          
GR_NORM     .GAPI                                               :GammaRay Normalized
PORZ        .%                                                  :          
RFOC        .OHMM                                               :          
RILD        .OHMM                                               :          
RILM        .OHMM                                               :          
RWAZ        .OHMM                                               :          
SP          .MV                                                 :          
SP_NORM     .MV                                                 :SP Normalized
TEN         .LBF                                                :          
VSH_GR      .V/V                                                :Volume of Shale from GR
VSH_SP      .V/V                                                :Volume of Shale from SP
ZCOR        .G/C3                                               :          
ZDEN        .G/C3                                               :          
~A        DEPTH           CILD            CNC           DT24             GR        GR_NORM           PORZ           RFOC           RILD           RILM           RWAZ             SP        SP_NORM            TEN         VSH_GR         VSH_SP           ZCOR           ZDEN
# ...
     10421.0000       1430.332        -999.25       108.3059        -999.25        -999.25         14.979           0.84          0.667          0.638          0.018          6.546       7.743605      -683.6133        -999.25              1          0.018          2.403
     10421.5000       1464.654        -999.25        111.043        -999.25        -999.25         14.928          0.828           0.69          0.661          0.019          4.605       5.802605      -702.0186        -999.25              1          0.015          2.404
     10422.0000       1495.689        -999.25       111.3269        -999.25        -999.25         14.837          0.858          0.706          0.686          0.019          4.909       6.106605      -679.6514        -999.25              1          0.015          2.405
     10422.5000       1531.207        -999.25        109.325        -999.25        -999.25         14.855          0.953          0.703          0.701          0.019           6.13       7.327605      -660.2061        -999.25              1           0.02          2.405
     10423.0000       1568.119        -999.25       106.5879        -999.25        -999.25         15.122          1.077          0.704          0.706           0.02          6.539       7.736605      -672.7041        -999.25              1          0.015          2.401
     10423.5000        1592.08        -999.25        102.693        -999.25        -999.25         15.429          1.119          0.701          0.706           0.02          7.393       8.590605      -703.4434        -999.25              1          0.005          2.395
     10424.0000       1615.443        -999.25          99.61        -999.25        -999.25         15.481          1.077          0.659          0.697          0.019          8.994       10.19161      -722.9443        -999.25              1          0.009          2.395
     10424.5000       1637.086        -999.25        -999.25        -999.25        -999.25         15.305          1.042          0.602          0.672          0.017          9.738       10.93561      -725.9521        -999.25              1          0.025          2.398
     10425.0000       1656.813        -999.25        -999.25        -999.25        -999.25         15.253          1.036          0.571          0.646          0.016          9.266        10.4636      -728.4941        -999.25              1          0.029          2.398
     10425.5000       1626.303        -999.25        -999.25        -999.25        -999.25        -999.25          1.031          0.563           0.65          0.016          8.734       9.931605       -733.583        -999.25              1        -999.25        -999.25
     10426.0000       1593.076        -999.25        -999.25        -999.25        -999.25        -999.25          1.004          0.561           0.69          0.016          8.619       9.816606      -729.2764        -999.25              1        -999.25        -999.25
     10426.5000         1559.9        -999.25        -999.25        -999.25        -999.25        -999.25          0.978           0.56          0.708          0.016          8.661       9.858605      -720.0527        -999.25              1        -999.25        -999.25
     10427.0000       1526.674        -999.25        -999.25        -999.25        -999.25        -999.25          0.982          0.561          0.661          0.016          8.728       9.925605      -729.7979        -999.25              1        -999.25        -999.25
     10427.5000        1492.75        -999.25        -999.25        -999.25        -999.25        -999.25          1.019          0.561            0.6          0.015          8.702       9.899605      -761.8398        -999.25              1        -999.25        -999.25
     10428.0000       1458.777        -999.25        -999.25        -999.25        -999.25        -999.25          1.067          0.561           0.57          0.014          8.533       9.730605      -791.0156        -999.25              1        -999.25        -999.25
     10428.5000       1405.973        -999.25        -999.25        -999.25        -999.25        -999.25          1.104          0.561          0.564        -999.25          8.296       9.493605      -800.7129        -999.25              1        -999.25        -999.25
     10429.0000       1351.775        -999.25        -999.25        -999.25        -999.25        -999.25          1.121          0.562          0.564        -999.25          8.151       9.348605      -807.4639        -999.25              1        -999.25        -999.25
     10429.5000       1323.643        -999.25        -999.25        -999.25        -999.25        -999.25          1.122          0.562          0.563        -999.25          8.228       9.425605      -837.0234        -999.25              1        -999.25        -999.25
     10430.0000       1313.793        -999.25        -999.25        -999.25        -999.25        -999.25            1.1          0.563          0.563        -999.25          8.387       9.584605      -903.3496        -999.25              1        -999.25        -999.25
     10430.5000       1309.773        -999.25        -999.25        -999.25        -999.25        -999.25          1.046          0.565          0.563        -999.25          8.306       9.503605      -997.8252        -999.25              1        -999.25        -999.25
     10431.0000       1307.525        -999.25        -999.25        -999.25        -999.25        -999.25          0.995          0.568          0.564        -999.25          8.009       9.206605      -1098.682        -999.25              1        -999.25        -999.25
     10431.5000       1305.277        -999.25        -999.25        -999.25        -999.25        -999.25          0.979           0.57          0.565        -999.25          7.672       8.869605      -1211.156        -999.25              1        -999.25        -999.25
     10432.0000       1303.936        -999.25        -999.25        -999.25        -999.25        -999.25           0.97          0.571          0.566        -999.25          7.499       8.696605      -1379.145        -999.25              1        -999.25        -999.25
     10432.5000       1307.479        -999.25        -999.25        -999.25        -999.25        -999.25          0.925          0.572          0.566        -999.25          7.646       8.843605      -1624.953        -999.25              1        -999.25        -999.25
     10433.0000       1311.016        -999.25        -999.25        -999.25        -999.25        -999.25           0.88          0.573          0.567        -999.25           7.88       9.077605      -1802.135        -999.25              1        -999.25        -999.25
     10433.5000       1328.637        -999.25        -999.25        -999.25        -999.25        -999.25          0.869          0.573          0.567        -999.25          7.493       8.690605      -1633.137        -999.25              1        -999.25        -999.25
     10434.0000       1346.021        -999.25        -999.25        -999.25        -999.25        -999.25          0.879          0.572          0.567        -999.25          5.964       7.161605      -925.2939        -999.25              1        -999.25        -999.25
     10434.5000       1362.063        -999.25        -999.25        -999.25        -999.25        -999.25          0.884          0.572          0.567        -999.25          3.982       5.179605       149.6018        -999.25              1        -999.25        -999.25
     10435.0000       1378.104        -999.25        -999.25        -999.25        -999.25        -999.25          0.882          0.571          0.567        -999.25          2.485       3.682605       1066.926        -999.25              1        -999.25        -999.25
     10435.5000       1389.561        -999.25        -999.25        -999.25        -999.25        -999.25          0.881           0.57          0.568        -999.25          1.542       2.739605        1465.68        -999.25              1        -999.25        -999.25
