#------------------------------------------------------------------------------
# Created by    : vladimir.rabinovich
# Created on    : 09/19/2023 17:22:40
#------------------------------------------------------------------------------
~Version Information Section
VERS.           2.0     :   CWLS log ASCII Standard - VERSION 2.0
WRAP.           NO      :   One line per depth step
~Well Information Section
#MNEM       .UNIT                                         VALUE :DESCRIPTION
#------------------------------------------------------------------------------
STRT        .FT                                            3744 :START DEPTH
STOP        .FT                                            9989 :STOP DEPTH
STEP        .FT                                             0.5 :STEP      
NULL        .                                           -999.25 :NULL      
COMP        .                          SEAGULL ENERGY E & P INC :COMPANY   
WELL        .                               OCS G07243 ST00BP00 :WELL      
FLD         .                                           WILDCAT :FIELD     
LOC         .                                                   :LOCATION  
CNTY        .                             GALVESTON LARGE BLOCK :LOCATION  
STAT        .                                             TEXAS :STATE     
CTRY        .                                     UNITED STATES :COUNTRY   
SRVC        .                                                   :SERVICE COMPANY
DATE        .                             9/13/2023 11:19:34 AM :LOG DATE  
API         .                                    42706403030000 :API NUMBER
UWI         .                                    42706403030000 :UNIQUE WELL ID
XCOORD      .                                   1005609.3052046 :SURFACE X 
YCOORD      .                                  10500547.7567395 :SURFACE Y 
LAT         .                                          28.92005 :LATITUDE  
LON         .                                        -94.984771 :LONGITUDE 
ELEV        .FT                                              96 :ELEVATION VALUE
ELEV_TYPE   .                                                KB :ELEVATION REFERENCE TYPE
~Curve Information Section
#MNEM       .UNIT                                      API CODE :CURVE DESCRIPTION
#------------------------------------------------------------------------------
DEPT        .FT                                                 :DEPTH     
DCAL        .IN                                                 :          
DPHI        .%                                                  :          
GR          .GAPI                                               :          
GR_NORM     .GAPI                                               :GammaRay Normalized
ILD         .OHMM                                               :          
ILM         .OHMM                                               :          
NPHI        .%                                                  :          
SFL         .OHMM                                               :          
SP          .MV                                                 :          
SP_NORM     .MV                                                 :SP Normalized
VSH_GR      .V/V                                                :Volume of Shale from GR
VSH_SP      .V/V                                                :Volume of Shale from SP
~A        DEPTH           DCAL           DPHI             GR        GR_NORM            ILD            ILM           NPHI            SFL             SP        SP_NORM         VSH_GR         VSH_SP
# ...
      6696.0000        -0.2204        24.0093        72.3552       89.64969         0.5669         0.5825        38.8204         0.6904       -40.1354      -6.688455              1      0.9191645
      6696.5000        -0.1048        23.5677        72.0248       89.21386         0.5667         0.5823        39.0485         0.6341       -40.1337      -6.690834              1      0.9191235
      6697.0000        -0.0059        23.5737        70.8881       87.71906         0.5665         0.5829        39.3512         0.5906       -40.1319      -6.693082              1      0.9190848
      6697.5000         0.0374        24.1608        68.8196       85.00047          0.564         0.5842        39.5787         0.5795       -40.1302      -6.695456              1      0.9190438
      6698.0000         0.0531        24.7794        67.3781       83.10535         0.5618          0.578        39.8102         0.5997       -40.1284      -6.697704              1      0.9190051
      6698.5000         0.0487        24.2473        67.0675       82.69553         0.5598         0.5681        40.4462         0.6154       -40.1267      -6.700015              1      0.9189653
      6699.0000         0.0353        23.2983        69.6107       86.03381         0.5578         0.5606        40.9937          0.622       -40.0985      -6.661568              1      0.9196281
      6699.5000         0.0316        22.2676        72.4677       89.78422         0.5558         0.5562        41.2857         0.6166       -40.0353      -6.578575              1      0.9210591
      6700.0000          0.031        22.2414        74.8567       92.91997         0.5523         0.5546        41.9332         0.5939       -39.9858      -6.513022              1      0.9221893
      6700.5000          0.046        22.9254        76.6859        95.3205         0.5495         0.5558        42.8751         0.5789       -40.0527      -6.595612              1      0.9207653
      6701.0000         0.0799        23.7125         78.142       97.23101         0.5481         0.5577        44.0899         0.5883        -40.176      -6.749979              1      0.9181038
      6701.5000         0.1327        23.3681        77.9238       96.94254         0.5483          0.561        43.5971         0.6113       -40.3105       -6.91861              1      0.9151964
      6702.0000         0.1819        23.0573        75.0933       93.22317         0.5499         0.5658        42.6696         0.6389       -40.3985      -7.028053              1      0.9133095
      6702.5000         0.1927        22.6191        70.5149       87.20814         0.5544         0.5728        43.6956         0.6639       -40.4709      -7.117648              1      0.9117647
      6703.0000         0.1913        21.2226        69.3022       85.61353         0.5605         0.5844         44.873         0.6785       -40.5279      -7.187634              1       0.910558
      6703.5000         0.1957        20.7663        70.1101       86.67271         0.5722         0.5984        44.9548         0.6854       -40.5565      -7.221478              1      0.9099745
      6704.0000         0.2248        22.3699        71.5096       88.50889         0.5887         0.6164        43.7828         0.6964       -40.5891      -7.260416              1      0.9093032
      6704.5000         0.2609        23.7062        72.2231       89.44408          0.609         0.6357        42.3895         0.7165       -40.5879      -7.256328              1      0.9093736
      6705.0000         0.2982        24.1781        72.7561       90.14223         0.6333         0.6614        40.9167         0.7445        -40.517      -7.163538              1      0.9109735
      6705.5000         0.3282        23.2729        73.3474       90.91693         0.6642         0.6981        40.0173         0.7694       -40.3835      -6.991076              1       0.913947
      6706.0000         0.3514        22.2893        74.0576        91.8478         0.6978         0.7345        40.6152         0.7707       -40.2894      -6.868758              1      0.9160559
      6706.5000         0.2896          22.27        73.7594       91.45426         0.7336         0.7674        41.1187         0.7663       -40.2565      -6.824329              1      0.9168219
      6707.0000         0.2283        21.4051        72.3362       89.58318         0.7729         0.7934        40.6073         0.7886       -40.2352      -6.794664              1      0.9173334
      6707.5000           0.21        20.4307        70.9918        87.8156         0.8014         0.8108        39.9464         0.8268       -40.2217      -6.774929              1      0.9176736
      6708.0000         0.2464        20.1498        69.9681       86.46923         0.8182         0.8219        39.2139         0.8674       -40.2272      -6.779371              1      0.9175971
      6708.5000         0.3011        21.7003        69.9478       86.44067         0.8263         0.8298        38.6498         0.8905       -40.2327      -6.783818              1      0.9175204
      6709.0000         0.3363        23.4999        70.9485       87.75308         0.8284         0.8338        38.9069         0.8555       -40.2382      -6.788266              1      0.9174437
      6709.5000         0.3488        25.0694        72.8934       90.30556         0.8315         0.8334        40.9977         0.8193       -40.2436      -6.792582              1      0.9173693
      6710.0000          0.371        26.5437        74.6294       92.58369         0.8338         0.8313        43.4162         0.7947        -40.292      -6.851624              1      0.9163513
      6710.5000         0.3862        24.6631         75.682       93.96424         0.8303         0.8238        45.1888         0.7792       -40.3387      -6.908506              1      0.9153706
      6711.0000         0.3978        22.9055        76.0515       94.44765         0.8256          0.818        45.5102          0.783       -40.3441      -6.912827              1      0.9152961
      6711.5000         0.4215        22.6278        76.7517       95.36539         0.8241         0.8131        45.0024         0.7949       -40.3674      -6.939923              1      0.9148289
      6712.0000         0.4832        24.0172        78.3865       97.51059         0.8205           0.81        45.4681         0.8099       -40.3921      -6.968806              1      0.9143309
      6712.5000         0.5607        25.3391         79.403       98.84374          0.816          0.807        46.1489         0.8028       -40.4026      -6.979614              1      0.9141446
      6713.0000         0.6208        25.1114        79.3379       98.75636         0.8076         0.8031        45.6538         0.7856        -40.398      -6.971205              1      0.9142896
      6713.5000         0.5892        24.2108        78.7538       97.98733         0.8016         0.7993        44.6485         0.7759       -40.3581      -6.917867              1      0.9152092
      6714.0000         0.5511        23.4796         78.257       97.33295         0.7973         0.7959        43.8557         0.7757        -40.326      -6.874458              1      0.9159576
      6714.5000         0.5726        23.8323        77.9935       96.98499          0.794         0.7925        43.9889         0.7777       -40.3071      -6.847847              1      0.9164164
      6715.0000          0.713        24.1073        78.3408       97.43925         0.7912         0.7882        44.0558         0.7858       -40.2615      -6.787256              1      0.9174611
      6715.5000         0.8626        24.3846        78.8989       98.17035         0.7881          0.783        44.0066         0.7936       -40.2358      -6.751993              1      0.9180691
      6716.0000         0.9737        25.0884        77.5586       96.40815         0.7854         0.7779        44.1942         0.7872       -40.2087      -6.714944              1      0.9187078
