#------------------------------------------------------------------------------
# Created by    : vladimir.rabinovich
# Created on    : 09/19/2023 17:20:40
#------------------------------------------------------------------------------
~Version Information Section
VERS.           2.0     :   CWLS log ASCII Standard - VERSION 2.0
WRAP.           NO      :   One line per depth step
~Well Information Section
#MNEM       .UNIT                                         VALUE :DESCRIPTION
#------------------------------------------------------------------------------
STRT        .FT                                             400 :START DEPTH
STOP        .FT                                           11002 :STOP DEPTH
STEP        .FT                                             0.5 :STEP      
NULL        .                                           -999.25 :NULL      
COMP        .                            STANOLIND OIL & GAS CO :COMPANY   
WELL        .                                     ST TR 00245-L :WELL      
FLD         .                              GALVESTON BLOCK 0245 :FIELD     
LOC         .                                                   :LOCATION  
CNTY        .                             GALVESTON LARGE BLOCK :LOCATION  
STAT        .                                             TEXAS :STATE     
CTRY        .                                     UNITED STATES :COUNTRY   
SRVC        .                                                   :SERVICE COMPANY
DATE        .                             9/13/2023 11:19:42 AM :LOG DATE  
API         .                                    42706000160000 :API NUMBER
UWI         .                                    42706000160000 :UNIQUE WELL ID
XCOORD      .                                  1024804.26554262 :SURFACE X 
YCOORD      .                                  10549089.4715911 :SURFACE Y 
LAT         .                                        29.0543948 :LATITUDE  
LON         .                                       -94.9272588 :LONGITUDE 
ELEV        .FT                                              11 :ELEVATION VALUE
ELEV_TYPE   .                                                KB :ELEVATION REFERENCE TYPE
~Curve Information Section
#MNEM       .UNIT                                      API CODE :CURVE DESCRIPTION
#------------------------------------------------------------------------------
DEPT        .FT                                                 :DEPTH     
ASN         .OHMM                                               :          
LAT         .OHMM                                               :          
LN          .OHMM                                               :          
SP          .MV                                                 :          
SP_NORM     .MV                                                 :SP Normalized
VSH_SP      .V/V                                                :Volume of Shale from SP
~A        DEPTH            ASN            LAT             LN             SP        SP_NORM         VSH_SP
# ...
      6746.0000         1.0289         0.3957         0.0123       -136.252      -85.03249              0
      6746.5000         1.0769         0.3966         0.0131      -136.5156      -85.29608              0
      6747.0000         1.1281         0.3954         0.0139      -136.2473      -85.02779              0
      6747.5000         1.2034         0.3942         0.0147      -135.3491      -84.12959     0.01048683
      6748.0000         1.2844         0.3877         0.0155      -134.4497      -83.23019     0.02132296
      6748.5000         1.3654         0.3683         0.0163      -132.3523      -81.13278     0.04659299
      6749.0000         1.4463         0.3488         0.0171      -129.0337      -77.81419     0.08657598
      6749.5000         1.5273         0.3687         0.0179      -120.5465      -69.32699      0.1888315
      6750.0000         1.6082         0.4193         0.0187      -114.2189      -62.99939      0.2650676
      6750.5000         1.7059         0.4914         0.0195       -115.681      -64.46149       0.247452
      6751.0000         1.8461          0.475         0.0203      -118.9551      -67.73559       0.208005
      6751.5000         1.8963         0.4564         0.0211      -124.9238      -73.70428       0.136093
      6752.0000         1.9316         0.4323         0.0219      -130.4602      -79.24069     0.06938925
      6752.5000         1.9575         0.4071         0.0227      -133.3599      -82.14038     0.03445324
      6753.0000          1.961         0.3997         0.0235      -135.1028      -83.88329     0.01345439
      6753.5000          1.913         0.4057         0.0243      -136.4446      -85.22508              0
      6754.0000         1.8565         0.4116         0.0251      -137.4214      -86.20189              0
      6754.5000         1.7077         0.4176         0.0259      -138.1072      -86.88768              0
      6755.0000         1.4569         0.4236         0.0267      -138.7529      -87.53339              0
      6755.5000         1.2627         0.4333         0.0275      -139.3264      -88.10689              0
      6756.0000         1.0267         0.4454         0.0283      -139.8936      -88.67409              0
      6756.5000         0.9402         0.4364         0.0291      -140.2798      -89.06029              0
      6757.0000         0.8763          0.428         0.0299      -140.6665      -89.44699              0
      6757.5000         0.8086         0.4229         0.0307      -141.1494      -89.92989              0
      6758.0000         0.9049         0.4114         0.0314      -141.8481      -90.62859              0
      6758.5000         0.9409         0.3919         0.0322      -142.5469      -91.32739              0
      6759.0000         0.9776         0.3904          0.033      -143.0579      -91.83839              0
      6759.5000         1.0177         0.3912         0.0338      -143.5688      -92.34929              0
      6760.0000         1.0957          0.392         0.0346        -143.96      -92.74049              0
      6760.5000         1.1143         0.3881         0.0354      -144.2939      -93.07439              0
      6761.0000         1.0747         0.3737         0.0362      -144.6272      -93.40768              0
      6761.5000         1.0228         0.3574          0.037      -144.7905      -93.57098              0
      6762.0000         0.9704           0.33         0.0378      -144.9426      -93.72308              0
      6762.5000         0.9117         0.3162         0.0386      -145.1824      -93.96289              0
      6763.0000         0.8654         0.3124         0.0394       -145.447      -94.22749              0
      6763.5000         0.8346         0.3314         0.0402      -145.7805      -94.56099              0
      6764.0000         0.8112         0.3555          0.041      -144.4661      -93.24658              0
      6764.5000         0.8568         0.3807         0.0418      -140.2268      -89.00729              0
      6765.0000         0.9113         0.4092         0.0426      -135.2832      -84.06369     0.01128084
      6765.5000         0.9451          0.443         0.0434       -123.308      -72.08849      0.1555604
      6766.0000         0.9716         0.4767         0.0442      -121.7813      -70.56179      0.1739543
      6766.5000         0.9853         0.4742          0.045      -121.8503      -70.63079       0.173123
      6767.0000         0.9794         0.4392         0.0458      -123.4796      -72.26009      0.1534929
      6767.5000         0.9635         0.4053         0.0466      -130.2417      -79.02219     0.07202185
      6768.0000         0.9457         0.3755         0.0474      -133.1995      -81.97998     0.03638578
      6768.5000         0.9286         0.3389         0.0478      -133.9617      -82.74219     0.02720256
      6769.0000         0.9109         0.3003         0.0438      -134.8464      -83.62689     0.01654347
      6769.5000         0.8924         0.2792         0.0398      -135.8171      -84.59758    0.004848434
      6770.0000         0.8728         0.2828         0.0358      -136.4695      -85.24998              0
      6770.5000         0.8527         0.2864         0.0319      -136.8149      -85.59538              0
      6771.0000          0.834          0.292         0.0295      -136.8665      -85.64699              0
      6771.5000         0.8168         0.3073          0.036      -136.8262      -85.60669              0
      6772.0000         0.8065         0.3227         0.0424      -136.6682      -85.44868              0
      6772.5000          0.836         0.3364         0.0488      -136.3303      -85.11079              0
      6773.0000          0.881         0.3412         0.0523      -135.9771      -84.75758    0.002920679
      6773.5000         0.9138          0.346         0.0512      -135.5999      -84.38039    0.007465225
      6774.0000         0.9407         0.3418         0.0501       -134.365      -83.14549     0.02234346
      6774.5000         0.9552          0.335          0.049      -132.5686      -81.34909     0.04398686
      6775.0000         0.9687         0.3281         0.0478      -130.2595      -79.03999     0.07180731
      6775.5000         0.9787         0.3215         0.0438      -127.7567      -76.53719      0.1019616
      6776.0000         0.9874         0.3275         0.0398       -124.848      -73.62849      0.1370062
      6776.5000         0.9907          0.334         0.0359      -121.4603      -70.24078      0.1778219
      6777.0000         0.9812         0.3602         0.0319       -76.2109      -24.99139      0.7229953
      6777.5000         0.9678         0.3919         0.0283       -55.2067      -3.987186       0.976058
      6778.0000         0.9525         0.4448         0.0272       -51.4534     -0.2338867              1
      6778.5000         0.9346         0.5545         0.0261       -49.6313       1.588211              1
      6779.0000         0.9155         0.6106          0.025       -48.6713       2.548214              1
      6779.5000         0.8939         0.6226         0.0239       -48.1731       3.046413              1
      6780.0000         0.8656         0.6266         0.0214       -47.7753       3.444214              1
      6780.5000         0.8349         0.6292         0.0185       -47.6641       3.555412              1
      6781.0000         0.8106         0.6115         0.0156       -47.6588       3.560715              1
      6781.5000         0.7938         0.5938         0.0127       -48.8055       2.414013              1
      6782.0000         0.7821         0.5916          0.006       -52.5098      -1.290287              1
      6782.5000         0.8028         0.5713              0       -62.9362      -11.71669      0.8829315
      6783.0000          1.299          0.551              0       -67.4963      -16.27679      0.8279905
      6783.5000         1.2806         0.5307              0       -69.9525      -18.73299      0.7983978
