#------------------------------------------------------------------------------
# Created by    : vladimir.rabinovich
# Created on    : 09/19/2023 17:22:42
#------------------------------------------------------------------------------
~Version Information Section
VERS.           2.0     :   CWLS log ASCII Standard - VERSION 2.0
WRAP.           NO      :   One line per depth step
~Well Information Section
#MNEM       .UNIT                                         VALUE :DESCRIPTION
#------------------------------------------------------------------------------
STRT        .FT                                              96 :START DEPTH
STOP        .FT                                            7107 :STOP DEPTH
STEP        .FT                                             0.5 :STEP      
NULL        .                                           -999.25 :NULL      
COMP        .                                  XTO OFFSHORE INC :COMPANY   
WELL        .                               OCS G23162 ST00BP00 :WELL      
FLD         .                                 BRAZOS BLOCK 0398 :FIELD     
LOC         .                                                   :LOCATION  
CNTY        .                                BRAZOS LARGE BLOCK :LOCATION  
STAT        .                                             TEXAS :STATE     
CTRY        .                                     UNITED STATES :COUNTRY   
SRVC        .                                                   :SERVICE COMPANY
DATE        .                             9/13/2023 11:18:28 AM :LOG DATE  
API         .                                    42704403370000 :API NUMBER
UWI         .                                    42704403370000 :UNIQUE WELL ID
XCOORD      .                                  864551.184430364 :SURFACE X 
YCOORD      .                                  10381025.1526549 :SURFACE Y 
LAT         .                                        28.5842785 :LATITUDE  
LON         .                                       -95.4179199 :LONGITUDE 
ELEV        .FT                                             100 :ELEVATION VALUE
ELEV_TYPE   .                                                KB :ELEVATION REFERENCE TYPE
~Curve Information Section
#MNEM       .UNIT                                      API CODE :CURVE DESCRIPTION
#------------------------------------------------------------------------------
DEPT        .FT                                                 :DEPTH     
DCAL        .IN                                                 :          
DPHI        .FRAC                                               :          
DT          .US/F                                               :          
GR          .GAPI                                               :          
GR_NORM     .GAPI                                               :GammaRay Normalized
HT01        .OHMM                                               :          
HT02        .OHMM                                               :          
HT03        .OHMM                                               :          
HT06        .OHMM                                               :          
HT09        .OHMM                                               :          
HT12        .OHMM                                               :          
NPHI        .FRAC                                               :          
RWA         .OHMM                                               :          
SP          .MV                                                 :          
TENS        .LB                                                 :          
VSH_GR      .V/V                                                :Volume of Shale from GR
~A        DEPTH           DCAL           DPHI             DT             GR        GR_NORM           HT01           HT02           HT03           HT06           HT09           HT12           NPHI            RWA             SP           TENS         VSH_GR
# ...
      2432.0000        -999.25        -999.25        -999.25        84.2941        78.6237         0.5578         0.6124         0.6209          0.648         0.6534         0.6554        -999.25        -999.25        113.517       1651.052      0.9707169
      2432.5000        -999.25        -999.25        -999.25        84.1771       78.48942         0.5629          0.619         0.6277         0.6545           0.66         0.6623        -999.25        -999.25       114.1557       1652.298        0.96786
      2433.0000        -999.25        -999.25        -999.25        85.3341        79.7707         0.5739         0.6328          0.642         0.6689         0.6744         0.6771        -999.25        -999.25       114.8949       1652.921      0.9951212
      2433.5000        -999.25        -999.25        -999.25         80.784       74.71188         0.5907         0.6538          0.664         0.6914          0.697            0.7        -999.25        -999.25       115.2379       1654.479      0.8874867
      2434.0000        -999.25        -999.25        -999.25        76.2989        69.7253          0.609         0.6768         0.6883         0.7165         0.7221         0.7256        -999.25        -999.25        115.167       1658.842      0.7813894
      2434.5000        -999.25        -999.25        -999.25         78.457       72.12005         0.6209         0.6923         0.7052         0.7338         0.7395         0.7433        -999.25        -999.25       114.8654       1657.595      0.8323414
      2435.0000        -999.25        -999.25        -999.25         81.408       75.39578         0.6201          0.692         0.7059         0.7346         0.7401         0.7441        -999.25        -999.25       114.6939       1656.037      0.9020379
      2435.5000        -999.25        -999.25        -999.25         81.746       75.76821         0.6078         0.6774         0.6917         0.7199         0.7253         0.7293        -999.25        -999.25        114.617       1651.363      0.9099619
      2436.0000        -999.25        -999.25        -999.25         79.718       73.51173         0.5924          0.659         0.6735         0.7011         0.7062         0.7103        -999.25        -999.25       114.5697       1650.429      0.8619518
      2436.5000        -999.25        -999.25        -999.25        76.3639       69.78181         0.5832         0.6483         0.6627         0.6899          0.695          0.699        -999.25        -999.25       114.2799       1652.921      0.7825916
      2437.0000        -999.25        -999.25        -999.25        73.5948        66.7019         0.5836         0.6493         0.6637         0.6911         0.6962         0.7002        -999.25        -999.25       113.9428       1653.233      0.7170616
      2437.5000        -999.25        -999.25        -999.25        73.3478        66.4243         0.5915         0.6597         0.6741          0.702         0.7072         0.7112        -999.25        -999.25       113.9073       1656.349      0.7111554
      2438.0000        -999.25        -999.25        -999.25        73.4778        66.5656         0.6029         0.6744         0.6892         0.7175         0.7228         0.7268        -999.25        -999.25       114.0256       1657.907      0.7141616
      2438.5000        -999.25        -999.25        -999.25        74.4659       67.66035         0.6149         0.6899         0.7053          0.734         0.7395         0.7434        -999.25        -999.25       114.3923       1659.776      0.7374544
      2439.0000        -999.25        -999.25        -999.25        74.5439       67.74387         0.6277         0.7064         0.7226         0.7516         0.7573         0.7611        -999.25        -999.25       114.9127       1661.646      0.7392313
      2439.5000        -999.25        -999.25        -999.25        72.0738       64.99618         0.6429         0.7259         0.7433         0.7728         0.7786         0.7822        -999.25        -999.25       115.4094       1659.776      0.6807697
      2440.0000        -999.25        -999.25        -999.25        68.7457       61.29515         0.6612         0.7496         0.7686         0.7988         0.8048         0.8082        -999.25        -999.25       115.6992       1659.465      0.6020244
      2440.5000        -999.25        -999.25        -999.25        70.3838       63.11211         0.6813         0.7756         0.7965         0.8277         0.8338          0.837        -999.25        -999.25       115.5218       1654.791      0.6406833
      2441.0000        -999.25        -999.25        -999.25        75.6229        68.9302         0.6994         0.7994         0.8221         0.8545         0.8608         0.8636        -999.25        -999.25       115.2025       1648.248      0.7644723
      2441.5000        -999.25        -999.25        -999.25        76.8319       70.27039         0.7128         0.8169         0.8414         0.8751         0.8816          0.884        -999.25        -999.25       114.9304       1647.001      0.7929871
      2442.0000        -999.25        -999.25        -999.25        76.4289       69.81947         0.7202         0.8267         0.8525         0.8876         0.8942         0.8962        -999.25        -999.25       114.9363       1643.262       0.783393
      2442.5000        -999.25        -999.25        -999.25         78.093       71.66533         0.7224         0.8297         0.8564         0.8928         0.8995         0.9011        -999.25        -999.25       115.1138        1644.82      0.8226666
      2443.0000        -999.25        -999.25        -999.25          79.38       73.09219         0.7209         0.8278         0.8549         0.8927         0.8995         0.9008        -999.25        -999.25       115.5277       1644.509      0.8530253
      2443.5000        -999.25        -999.25        -999.25        77.3129       70.79227         0.7159         0.8212         0.8483         0.8874         0.8945         0.8954        -999.25        -999.25       115.8116       1643.262      0.8040908
      2444.0000        -999.25        -999.25        -999.25         78.015       71.56923         0.7085         0.8116         0.8384         0.8786         0.8859         0.8865        -999.25        -999.25       115.7702       1646.378      0.8206219
      2444.5000        -999.25        -999.25        -999.25         80.758       74.61388         0.7005         0.8013         0.8275         0.8687         0.8762         0.8767        -999.25        -999.25       115.6223       1647.313      0.8854016
      2445.0000        -999.25        -999.25        -999.25         80.186       73.97517         0.6922         0.7906          0.816          0.858         0.8658         0.8661        -999.25        -999.25       115.5455       1649.182      0.8718122
      2445.5000        -999.25        -999.25        -999.25        74.3229       67.45747         0.6822         0.7776         0.8021         0.8445         0.8525         0.8528        -999.25        -999.25       115.5632       1647.936      0.7331377
      2446.0000        -999.25        -999.25        -999.25        69.9677       62.61522         0.6699         0.7618         0.7852         0.8276         0.8358         0.8361        -999.25        -999.25       115.6756       1648.559      0.6301111
      2446.5000        -999.25        -999.25        -999.25        71.6188       64.44663         0.6576          0.746         0.7683         0.8106         0.8188         0.8192        -999.25        -999.25       115.8648       1648.559      0.6690773
      2447.0000        -999.25        -999.25        -999.25        73.2308        66.2346         0.6484         0.7342         0.7554         0.7975         0.8059         0.8063        -999.25        -999.25       116.0126       1648.559      0.7071192
      2447.5000        -999.25        -999.25        -999.25        74.9729       68.16713         0.6434         0.7279         0.7483         0.7902         0.7987         0.7993        -999.25        -999.25       116.1073       1650.117      0.7482368
