#------------------------------------------------------------------------------
# Created by    : vladimir.rabinovich
# Created on    : 09/19/2023 17:21:31
#------------------------------------------------------------------------------
~Version Information Section
VERS.           2.0     :   CWLS log ASCII Standard - VERSION 2.0
WRAP.           NO      :   One line per depth step
~Well Information Section
#MNEM       .UNIT                                         VALUE :DESCRIPTION
#------------------------------------------------------------------------------
STRT        .FT                                              40 :START DEPTH
STOP        .FT                                           13401 :STOP DEPTH
STEP        .FT                                             0.5 :STEP      
NULL        .                                           -999.25 :NULL      
COMP        .                                        TEXACO USA :COMPANY   
WELL        .                               OCS G01759 ST00BP00 :WELL      
FLD         .                                           WILDCAT :FIELD     
LOC         .                                                   :LOCATION  
CNTY        .                             GALVESTON LARGE BLOCK :LOCATION  
STAT        .                                             TEXAS :STATE     
CTRY        .                                     UNITED STATES :COUNTRY   
SRVC        .                                                   :SERVICE COMPANY
DATE        .                             9/13/2023 11:19:24 AM :LOG DATE  
API         .                                    42706001440000 :API NUMBER
UWI         .                                    42706001440000 :UNIQUE WELL ID
XCOORD      .                                   1131482.4965331 :SURFACE X 
YCOORD      .                                  10562344.6824913 :SURFACE Y 
LAT         .                                         29.095227 :LATITUDE  
LON         .                                        -94.593967 :LONGITUDE 
ELEV        .FT                                              83 :ELEVATION VALUE
ELEV_TYPE   .                                                KB :ELEVATION REFERENCE TYPE
~Curve Information Section
#MNEM       .UNIT                                      API CODE :CURVE DESCRIPTION
#------------------------------------------------------------------------------
DEPT        .FT                                                 :DEPTH     
CALI        .IN                                                 :          
DT          .US/F                                               :          
GR          .GAPI                                               :          
GR_NORM     .GAPI                                               :GammaRay Normalized
RHOB        .G/C3                                               :          
SP          .MV                                                 :          
SP_NORM     .MV                                                 :SP Normalized
VSH_GR      .V/V                                                :Volume of Shale from GR
VSH_SP      .V/V                                                :Volume of Shale from SP
~A        DEPTH           CALI             DT             GR        GR_NORM           RHOB             SP        SP_NORM         VSH_GR         VSH_SP
# ...
     10825.5000         6.8256        66.6442        69.5331        78.9348         2.5597       -38.5191      -22.09798      0.9773362      0.5580404
     10826.0000         6.8502        71.8524        71.0601       80.81729         2.5379       -36.4326      -20.00279              1      0.5999442
     10826.5000         6.8894        80.9269        60.2893       67.51731         2.5418       -32.4037      -15.96521      0.7344109      0.6806958
     10827.0000         6.8845        85.1854        54.6052       60.49721         2.5723       -28.1345      -11.68732      0.5850471      0.7662535
     10827.5000         6.8746        90.6843        62.2546       69.93822         2.5612       -23.7114      -7.255539      0.7859195      0.8548892
     10828.0000         6.8567        89.5167        64.8317       73.11713         2.5375       -24.2547      -7.790155       0.853556      0.8441969
     10828.5000         6.8616        84.0131        69.4631       78.83222         2.5111       -26.0191      -9.545872      0.9751537      0.8090826
     10829.0000         6.8944        79.2893        65.0002       73.31976         2.5379       -27.8328      -11.35089      0.8578673      0.7729823
     10829.5000         6.8923        76.9104        61.4309       68.91054         2.5702       -27.5479       -11.0573       0.764054       0.778854
     10830.0000         6.9397         76.191        65.0485       73.37401         2.5699       -25.6441      -9.144817      0.8590214      0.8171036
     10830.5000         6.8668        78.9163        68.6178       77.77786          2.532       -23.3346      -6.826633      0.9527205      0.8634673
     10831.0000         6.8894        79.2554        67.5846        76.4996         2.5152       -23.9757      -7.459049      0.9255235       0.850819
     10831.5000         6.9344        76.7942        65.4386       73.84754         2.5201       -23.5744      -7.049065      0.8690966      0.8590187
     10832.0000         6.9605        75.6241        65.5012       73.92212         2.5214       -22.6273      -6.093281      0.8706834      0.8781344
     10832.5000         6.9465         77.298        66.3827       75.00771         2.5175       -21.5697      -5.026997      0.8937809      0.8994601
     10833.0000         6.9366        82.4045        67.4666       76.34315         2.5104       -21.7306      -5.179211      0.9221948      0.8964158
     10833.5000         6.9698        88.9354        66.5369        75.1927         2.4979       -21.9482      -5.388126      0.8977169      0.8922375
     10834.0000         7.0094        88.8434        64.1235       72.21049         2.4839       -21.9776      -5.408842      0.8342658      0.8918232
     10834.5000         7.0217          89.26        58.7382       65.55928         2.4974       -20.8424      -4.264957      0.6927506      0.9147009
     10835.0000         7.0303        92.4915        53.4106        58.9793         2.5045       -20.6705      -4.084373      0.5527511      0.9183125
     10835.5000         6.9851        96.0574        46.4164       50.34179         2.5066       -21.5864      -4.991589      0.3689741      0.9001682
     10836.0000         6.9294        98.6857        36.4934       38.08848         2.5093       -22.9758      -6.372305      0.1082656      0.8725539
     10836.5000         6.9224        98.5452        31.2863       31.65726         2.5047       -24.6056      -7.993422              0      0.8401316
     10837.0000         6.8991        96.7841         32.423       33.05791         2.4871       -31.9422      -15.32134    0.001232066      0.6935732
     10837.5000         6.8789        92.0554        34.4125       35.51138         2.4726       -42.0961      -25.46655     0.05343352       0.490669
     10838.0000         6.8521        87.0265        35.4553        36.7961         2.4606       -50.3268      -33.68857     0.08076802      0.3262286
     10838.5000         6.8316         78.984         36.161       37.66464         2.4601       -56.0384      -39.39148     0.09924763      0.2121704
     10839.0000         6.8314        73.1605        38.2661       40.26084         2.4701       -58.3076        -41.652      0.1544859      0.1669601
     10839.5000         6.8101         71.701        41.0214       43.65975         2.4783       -59.3677      -42.70341      0.2268032      0.1459317
     10840.0000         6.8092        71.8052         45.559       49.25903         2.4855       -60.0681      -43.39513      0.3459367      0.1320974
     10840.5000         6.8033        73.0442        48.9067        53.3893         2.4775       -59.2259      -42.54424      0.4338149      0.1491151
     10841.0000         6.7906        76.2854        45.5878       49.28919         2.4722       -57.5359      -40.84556      0.3465786      0.1830888
     10841.5000         6.7882        78.3735        44.1235       47.47872          2.478       -55.6537      -38.95468      0.3080579      0.2209065
     10842.0000         6.7705        77.0413        43.0782       46.18553         2.4897       -53.5192      -36.81149      0.2805432      0.2637701
     10842.5000         6.7752        74.5995        40.9587       43.56618         2.4806       -51.3533      -34.63691      0.2248123      0.3072619
     10843.0000         6.8041         74.895        39.9592       42.32954         2.4827       -53.9662      -37.24113      0.1985008      0.2551775
     10843.5000         6.7209        73.1799        44.0464       47.37276         2.5006       -57.4422      -40.70844      0.3058034      0.1858312
     10844.0000         6.6971        75.9996        48.1794       52.47254         2.4984        -58.374      -41.63155      0.4143094      0.1673689
     10844.5000         6.7675         88.853        53.5648       59.11848         2.5043        -57.637      -40.88587      0.5557125      0.1822826
     10845.0000         6.7925       100.9579        64.3356       72.41309         2.5081       -55.2067      -38.44688      0.8385763      0.2310623
     10845.5000         6.8066       102.2617        69.7401        79.0826         2.4924       -51.8364       -35.0679      0.9804809       0.298642
     10846.0000         6.8358       102.2437        74.1333       84.50362         2.4762        -47.548      -30.77082              1      0.3845837
     10846.5000         6.8932         102.17        76.6272        87.5798         2.4898       -41.8076      -25.02173              1      0.4995654
     10847.0000         6.9605         102.17        75.6964       86.42798         2.5153       -35.8941      -19.09955              1       0.618009
     10847.5000         7.0529       102.2308         74.598       85.06924         2.5087       -29.9229      -13.11966              1      0.7376068
     10848.0000         7.1613       102.8243         72.139       82.03074         2.4753       -25.7811      -8.969179              1      0.8206164
     10848.5000         7.0895       103.0242        68.6274       77.69275         2.4586       -24.7667      -7.946096      0.9509096       0.841078
     10849.0000         7.0633       102.4114         68.967        78.1093         2.4667       -23.9926      -7.163311      0.9597723      0.8567338
     10849.5000          7.045       101.7161        69.8582       79.20686         2.4788       -23.3532      -6.515226      0.9831247      0.8696955
     10850.0000         7.1081        100.718        69.9003       79.25613         2.4908       -22.1626      -5.315941      0.9841729      0.8936812
     10850.5000         7.1539       101.5514        70.7277       80.27493         2.4932       -22.0653      -5.209957              1      0.8958008
     10851.0000         7.1405       100.3063        72.5918       82.57359         2.4813       -21.9251      -5.061073              1      0.8987786
     10851.5000          7.148       102.0214        71.5995       81.34583         2.4729       -22.1229      -5.250189              1      0.8949962
