#------------------------------------------------------------------------------
# Created by    : vladimir.rabinovich
# Created on    : 09/19/2023 17:20:24
#------------------------------------------------------------------------------
~Version Information Section
VERS.           2.0     :   CWLS log ASCII Standard - VERSION 2.0
WRAP.           NO      :   One line per depth step
~Well Information Section
#MNEM       .UNIT                                         VALUE :DESCRIPTION
#------------------------------------------------------------------------------
STRT        .FT                                            2124 :START DEPTH
STOP        .FT                                            8264 :STOP DEPTH
STEP        .FT                                             0.5 :STEP      
NULL        .                                           -999.25 :NULL      
COMP        .                               SUPERIOR OIL CO THE :COMPANY   
WELL        .                                     ST TR 00009-L :WELL      
FLD         .                                           WILDCAT :FIELD     
LOC         .                                                   :LOCATION  
CNTY        .                           HIGH ISLAND LARGE BLOCK :LOCATION  
STAT        .                                             TEXAS :STATE     
CTRY        .                                     UNITED STATES :COUNTRY   
SRVC        .                                                   :SERVICE COMPANY
DATE        .                             9/13/2023 11:19:15 AM :LOG DATE  
API         .                                    42708300270000 :API NUMBER
UWI         .                                    42708300270000 :UNIQUE WELL ID
XCOORD      .                                  1318170.30554107 :SURFACE X 
YCOORD      .                                  10738395.6931535 :SURFACE Y 
LAT         .                                        29.5851559 :LATITUDE  
LON         .                                       -94.0141459 :LONGITUDE 
ELEV        .FT                                              72 :ELEVATION VALUE
ELEV_TYPE   .                                                KB :ELEVATION REFERENCE TYPE
~Curve Information Section
#MNEM       .UNIT                                      API CODE :CURVE DESCRIPTION
#------------------------------------------------------------------------------
DEPT        .FT                                                 :DEPTH     
ASN         .OHMM                                               :          
CILD        .MMHO                                               :          
ILD         .OHMM                                               :          
SN          .OHMM                                               :          
SP          .MV                                                 :          
SP_NORM     .MV                                                 :SP Normalized
VSH_SP      .V/V                                                :Volume of Shale from SP
~A        DEPTH            ASN           CILD            ILD             SN             SP        SP_NORM         VSH_SP
# ...
      5373.5000         0.6344       1786.441         0.6523         0.6764       -53.8039      -7.751122      0.9087687
      5374.0000         0.6059       1922.777         0.6232         0.6509       -52.3632      -6.319965      0.9281086
      5374.5000         0.5771       2163.098         0.5833         0.6142       -52.1647      -6.131008       0.930662
      5375.0000         0.5471       2371.953         0.5138         0.5745       -54.8761      -8.851952      0.8938925
      5375.5000         0.5206       2814.875         0.4421         0.5412       -61.4876        -15.473       0.804419
      5376.0000          0.505       3669.109         0.3795         0.5352       -73.0168      -27.01174        0.64849
      5376.5000         0.5237       3964.387         0.3275         0.5588       -84.6769      -38.68139       0.490792
      5377.0000         0.5738       4597.414          0.288          0.593      -103.6646      -57.67863      0.2340726
      5377.5000         0.6164       4777.266         0.2662         0.6292      -110.1578      -64.18137      0.1461976
      5378.0000         0.6357       5202.977         0.2649         0.6615      -117.3901      -71.42322      0.0483349
      5378.5000         0.6383       5328.109         0.2739         0.6518      -119.1466      -73.18926     0.02446943
      5379.0000          0.617       5300.406         0.2936         0.6245      -119.2358      -73.28801       0.023135
      5379.5000         0.5943       5129.156         0.3166         0.5941       -116.405      -70.46675     0.06126012
      5380.0000         0.5696       4678.836         0.3435          0.564      -111.6154       -65.6867      0.1258554
      5380.5000          0.544       4199.906         0.3789         0.5378      -107.3635      -61.44434      0.1831845
      5381.0000         0.5019       3710.121         0.4172         0.5057      -101.8652      -55.95558       0.257357
      5381.5000         0.4475       3500.262         0.4385         0.4779       -90.0646      -44.16453      0.4166956
      5382.0000         0.4121       3148.668           0.45         0.4594       -79.4902      -33.59967      0.5594639
      5382.5000         0.4299       3076.996         0.4618         0.4588       -75.5725      -29.69152      0.6122767
      5383.0000         0.4646       3099.953         0.4449         0.4667       -82.6967      -36.82526      0.5158748
      5383.5000         0.4797       3281.402         0.4149         0.4789       -89.1749        -43.313      0.4282027
      5384.0000         0.4822       3537.672         0.3919         0.5054       -96.7942      -50.94185      0.3251101
      5384.5000         0.4888       3984.938          0.369         0.5232      -109.4342      -63.59139      0.1541704
      5385.0000           0.51       4243.117         0.3461         0.5629      -115.6763      -69.84304     0.06968864
      5385.5000         0.5757       4461.977         0.3309         0.6289      -119.4984      -73.67468     0.01790969
      5386.0000         0.6359        4647.93          0.318         0.6848      -121.3441      -75.52993              0
      5386.5000         0.6509        4793.57          0.312         0.6575      -122.4875      -76.68288              0
      5387.0000         0.6163       4905.547         0.3011         0.6284      -122.7106      -76.91551              0
      5387.5000         0.5814       4924.563         0.2924         0.6184      -121.5679      -75.78236              0
      5388.0000          0.561       4853.086         0.2875         0.6142      -120.3202       -74.5442    0.006159396
      5388.5000          0.565       4736.852         0.2931          0.584      -119.3514      -73.58495     0.01912236
      5389.0000         0.5495       4606.219          0.302         0.5581      -119.3998       -73.6429     0.01833921
      5389.5000         0.5065       4456.977         0.3113         0.5281      -118.7131      -72.96573     0.02749015
      5390.0000         0.4839       4305.938         0.3234         0.5155      -116.6664      -70.92857     0.05501927
      5390.5000         0.4778       4199.203         0.3421         0.5105      -113.4147      -67.68643       0.098832
      5391.0000         0.4685       4131.734          0.354         0.5128      -108.8512      -63.13247      0.1603721
      5391.5000         0.4693       4096.477         0.3613         0.5596      -105.7277      -60.01851      0.2024525
      5392.0000         0.5291       4055.793         0.3509         0.6364      -105.9513      -60.25166      0.1993019
      5392.5000         0.6669       4052.219         0.3439         0.6954      -114.7013       -69.0112     0.08092973
      5393.0000         0.7061       4129.484         0.3411         0.7191      -118.3048      -72.62425      0.0321047
      5393.5000         0.6981       4333.344         0.3342         0.6888      -119.5807       -73.9097      0.0147338
      5394.0000         0.6712       4540.797         0.3289         0.6561      -120.1477      -74.48624    0.006942749
      5394.5000         0.6413       4654.828         0.3288         0.6302      -119.9451      -74.29318    0.009551589
      5395.0000         0.6123       4737.148         0.3247         0.6131      -119.2654      -73.62303     0.01860768
      5395.5000         0.5849       4771.109         0.3184         0.6009      -118.6215      -72.98866     0.02718023
      5396.0000         0.5572       4805.023         0.3112          0.589      -118.8994      -73.27611     0.02329584
      5396.5000         0.5269       4879.688         0.2955         0.5695      -119.2606      -73.64685      0.0182858
      5397.0000         0.5039       4939.305          0.281         0.5431       -119.371       -73.7668     0.01666487
      5397.5000         0.4876       4986.648         0.2684         0.5107      -118.7031      -73.10844     0.02556157
      5398.0000         0.4763       5020.656         0.2731         0.4819       -118.214      -72.62889     0.03204202
      5398.5000         0.4642       4936.703         0.2834         0.4687       -117.968      -72.39244     0.03523729
      5399.0000          0.457       4833.375         0.3024         0.4611      -116.9705      -71.40448     0.04858811
      5399.5000         0.4452        4656.43         0.3313           0.45      -114.6158      -69.05933     0.08027937
      5400.0000         0.4411       4373.953         0.3575         0.4472      -109.4644      -63.91747      0.1497639
      5400.5000         0.4481       4192.805         0.3792         0.4345      -105.4813      -59.94391      0.2034606
      5401.0000          0.436       4011.055         0.3789         0.4109      -100.6289      -55.10106      0.2689047
      5401.5000         0.4096        -999.25         0.3602         0.3928       -93.3992       -47.8809      0.3664744
      5402.0000         0.3809        -999.25         0.3444         0.3922       -89.2905      -43.78174      0.4218684
      5402.5000         0.3916       4001.055         0.3197         0.4137       -87.2953      -41.79609      0.4487015
      5403.0000         0.4218       4248.922         0.2892         0.4435       -95.4321      -49.94243      0.3386158
      5403.5000          0.466       4546.797         0.2682         0.4896      -106.1372      -60.65707      0.1938233
      5404.0000         0.5045        4838.18         0.2587         0.5294      -110.8263      -65.35572      0.1303281
      5404.5000         0.4962       4926.156         0.2669          0.503       -112.799      -67.33797       0.103541
      5405.0000          0.452       4724.445         0.2846         0.4611      -112.8115      -67.36001      0.1032431
      5405.5000           0.42       4586.414         0.3222          0.439      -110.1931      -64.75115      0.1384979
      5406.0000         0.4085       4259.523         0.3622         0.4312      -105.8206       -60.3882      0.1974568
      5406.5000         0.4093       3979.191         0.4099         0.4344       -97.0706      -51.64774       0.315571
