#------------------------------------------------------------------------------
# Created by    : vladimir.rabinovich
# Created on    : 09/19/2023 17:20:11
#------------------------------------------------------------------------------
~Version Information Section
VERS.           2.0     :   CWLS log ASCII Standard - VERSION 2.0
WRAP.           NO      :   One line per depth step
~Well Information Section
#MNEM       .UNIT                                         VALUE :DESCRIPTION
#------------------------------------------------------------------------------
STRT        .FT                                             984 :START DEPTH
STOP        .FT                                            6595 :STOP DEPTH
STEP        .FT                                             0.5 :STEP      
NULL        .                                           -999.25 :NULL      
COMP        .                   MCMORAN OFFSHORE EXPLORATION CO :COMPANY   
WELL        .                               OCS G03106 ST00BP00 :WELL      
FLD         .                                           WILDCAT :FIELD     
LOC         .                                                   :LOCATION  
CNTY        .                      MATAGORDA ISLAND LARGE BLOCK :LOCATION  
STAT        .                                             TEXAS :STATE     
CTRY        .                                     UNITED STATES :COUNTRY   
SRVC        .                                                   :SERVICE COMPANY
DATE        .                             9/13/2023 11:12:09 AM :LOG DATE  
API         .                                    42703400570000 :API NUMBER
UWI         .                                    42703400570000 :UNIQUE WELL ID
XCOORD      .                                  467986.403229072 :SURFACE X 
YCOORD      .                                  10153243.7887249 :SURFACE Y 
LAT         .                                         27.931172 :LATITUDE  
LON         .                                        -96.630795 :LONGITUDE 
ELEV        .FT                                              95 :ELEVATION VALUE
ELEV_TYPE   .                                                KB :ELEVATION REFERENCE TYPE
~Curve Information Section
#MNEM       .UNIT                                      API CODE :CURVE DESCRIPTION
#------------------------------------------------------------------------------
DEPT        .FT                                                 :DEPTH     
ASFL        .OHMM                                               :          
CILD        .MMHO                                               :          
DT          .US/F                                               :          
GR          .GAPI                                               :          
GR_NORM     .GAPI                                               :GammaRay Normalized
ILD         .OHMM                                               :          
SFL         .OHMM                                               :          
SP          .MV                                                 :          
SP_NORM     .MV                                                 :SP Normalized
VSH_GR      .V/V                                                :Volume of Shale from GR
VSH_SP      .V/V                                                :Volume of Shale from SP
~A        DEPTH           ASFL           CILD             DT             GR        GR_NORM            ILD            SFL             SP        SP_NORM         VSH_GR         VSH_SP
# ...
      2109.0000         0.5014        1755.23       186.7715        49.1387        75.8912         0.5636         0.4966        -999.25        -999.25      0.9125786        -999.25
      2109.5000         0.5002       1750.127       186.3728        48.7922       75.25179         0.5667          0.498        -999.25        -999.25      0.8989742        -999.25
      2110.0000         0.4989       1748.033       185.5154        48.2289       74.21231         0.5699         0.5037        -999.25        -999.25      0.8768577        -999.25
      2110.5000         0.4983       1749.838       184.4624        47.4219       72.72314         0.5719         0.5082        -999.25        -999.25      0.8451731        -999.25
      2111.0000         0.5005       1753.945       183.3435        46.6111       71.22691         0.5737         0.5098        -999.25        -999.25      0.8133384        -999.25
      2111.5000         0.5027       1752.613       182.8447        45.7781        69.6899         0.5755         0.5077        -999.25        -999.25      0.7806363        -999.25
      2112.0000         0.5049       1751.025       182.5933        45.2699       68.75195         0.5762         0.5049        -999.25        -999.25      0.7606798        -999.25
      2112.5000          0.507       1741.973       182.5222        44.9899       68.23524         0.5769         0.5016        -999.25        -999.25      0.7496861        -999.25
      2113.0000          0.509       1732.916       182.6211        45.9726       70.04865         0.5776         0.5014        -999.25        -999.25      0.7882692        -999.25
      2113.5000         0.5095       1727.637       182.8674        47.3359       72.56459         0.5783          0.502        -999.25        -999.25      0.8417998        -999.25
      2114.0000         0.5099       1723.043       183.1541        47.9136       73.63048         0.5789         0.5058        -999.25        -999.25      0.8644782        -999.25
      2114.5000         0.5103       1722.896       183.6741        48.1879       74.13665         0.5796         0.5105        -999.25        -999.25      0.8752479        -999.25
      2115.0000         0.5109       1726.516       184.1938        48.4622       74.64284         0.5802         0.5179        -999.25        -999.25      0.8860178        -999.25
      2115.5000         0.5118       1730.135       183.9502        48.7365       75.14901         0.5788         0.5217        -999.25        -999.25      0.8967875        -999.25
      2116.0000         0.5126       1741.258       183.2993        49.6858       76.90097         0.5765         0.5173        -999.25        -999.25      0.9340632        -999.25
      2116.5000         0.5135       1752.695       182.8953        50.5001       78.40366         0.5743         0.5064        -999.25        -999.25      0.9660352        -999.25
      2117.0000         0.5143       1764.539       182.9631        51.1344       79.57396         0.5715         0.5008        -999.25        -999.25      0.9909353        -999.25
      2117.5000         0.5145       1777.525       182.8091        51.7473       80.70494         0.5673         0.4976        -999.25        -999.25              1        -999.25
      2118.0000         0.5143       1790.518       182.1892        52.3424       81.80331         0.5631         0.4998        -999.25        -999.25              1        -999.25
      2118.5000         0.5142        1794.65       180.8474        52.5379       82.16391         0.5593          0.502        -999.25        -999.25              1        -999.25
      2119.0000          0.514       1795.836       179.4062        52.0864       81.33072         0.5574         0.5034        -999.25        -999.25              1        -999.25
      2119.5000         0.5139       1786.373       178.0134        51.6348       80.49738         0.5558         0.5059        -999.25        -999.25              1        -999.25
      2120.0000          0.514       1775.158       176.4766        51.1834       79.66438         0.5589         0.5086        -999.25        -999.25      0.9928592        -999.25
      2120.5000         0.5141       1759.557       175.2412        50.5743       78.54039         0.5626         0.5096        -999.25        -999.25      0.9689445        -999.25
      2121.0000         0.5142         1743.9       174.6501        49.8042       77.11926         0.5678         0.5104        -999.25        -999.25      0.9387077        -999.25
      2121.5000         0.5143        1723.09       174.6135        49.2425       76.08292         0.5735         0.5108        -999.25        -999.25       0.916658        -999.25
      2122.0000         0.5144        1702.76       175.2603        49.0429       75.71459         0.5805          0.512        -999.25        -999.25      0.9088211        -999.25
      2122.5000         0.5146       1686.779       175.8259         49.813       77.13554         0.5876         0.5145        -999.25        -999.25       0.939054        -999.25
      2123.0000         0.5147       1670.791       175.8386        50.5829       78.55627         0.5939         0.5198        -999.25        -999.25      0.9692823        -999.25
      2123.5000         0.5156       1658.889        175.144        51.2761       79.83562         0.5997         0.5265        -999.25        -999.25      0.9965025        -999.25
      2124.0000          0.518       1647.504       174.1602        50.8215       78.99656          0.604         0.5368        -999.25        -999.25      0.9786502        -999.25
      2124.5000         0.5204       1641.707       173.2776        50.1442        77.7467         0.6034         0.5411        -999.25        -999.25      0.9520574        -999.25
      2125.0000         0.5228       1635.924       172.7441        49.3595       76.29866         0.6032         0.5399        -999.25        -999.25      0.9212481        -999.25
      2125.5000         0.5251       1631.188       172.5549        48.5295       74.76703         0.6067          0.534        -999.25        -999.25      0.8886602        -999.25
      2126.0000         0.5275       1626.451       173.3098        49.5457       76.64226         0.6103         0.5298        -999.25        -999.25      0.9285586        -999.25
      2126.5000         0.5299       1616.869       174.6072        50.6287       78.64096          0.617         0.5272        -999.25        -999.25      0.9710843        -999.25
      2127.0000         0.5324       1605.967       176.1296        51.1477       79.59852         0.6253         0.5293        -999.25        -999.25      0.9914578        -999.25
      2127.5000         0.5348       1583.867       177.5833          51.41       80.08254         0.6352         0.5315        -999.25        -999.25              1        -999.25
      2128.0000         0.5373       1559.801       178.9304        50.7303       78.82825         0.6538         0.5337        -999.25        -999.25      0.9750691        -999.25
      2128.5000         0.5398       1530.867        180.248        49.9755       77.43538         0.6727         0.5393        -999.25        -999.25      0.9454336        -999.25
      2129.0000         0.5423       1506.699       181.2993        49.1812       75.96964         0.6804          0.552        -999.25        -999.25      0.9142477        -999.25
      2129.5000         0.5439       1488.568       182.2205        48.3867       74.50352         0.6883         0.5682        -999.25        -999.25      0.8830537        -999.25
      2130.0000         0.5449       1481.238       181.0764        47.4701       72.81225         0.6808         0.5855        -999.25        -999.25      0.8470691        -999.25
      2130.5000         0.5459       1491.291        180.072        46.4583       70.94494         0.6678         0.5867        -999.25        -999.25      0.8073391        -999.25
      2131.0000          0.547       1511.246       179.8013        45.6255       69.40816         0.6528         0.5675        -999.25        -999.25      0.7746416        -999.25
