#------------------------------------------------------------------------------
# Created by    : vladimir.rabinovich
# Created on    : 09/19/2023 17:22:53
#------------------------------------------------------------------------------
~Version Information Section
VERS.           2.0     :   CWLS log ASCII Standard - VERSION 2.0
WRAP.           NO      :   One line per depth step
~Well Information Section
#MNEM       .UNIT                                         VALUE :DESCRIPTION
#------------------------------------------------------------------------------
STRT        .FT                                             394 :START DEPTH
STOP        .FT                                            7700 :STOP DEPTH
STEP        .FT                                             0.5 :STEP      
NULL        .                                           -999.25 :NULL      
COMP        .                                   MARATHON OIL CO :COMPANY   
WELL        .                                     ST TR 00248-L :WELL      
FLD         .                                           WILDCAT :FIELD     
LOC         .                                                   :LOCATION  
CNTY        .                             GALVESTON LARGE BLOCK :LOCATION  
STAT        .                                             TEXAS :STATE     
CTRY        .                                     UNITED STATES :COUNTRY   
SRVC        .                                                   :SERVICE COMPANY
DATE        .                             9/13/2023 11:19:42 AM :LOG DATE  
API         .                                    42706000210000 :API NUMBER
UWI         .                                    42706000210000 :UNIQUE WELL ID
XCOORD      .                                  969160.596945075 :SURFACE X 
YCOORD      .                                  10521676.5956168 :SURFACE Y 
LAT         .                                        28.9764138 :LATITUDE  
LON         .                                       -95.0998408 :LONGITUDE 
ELEV        .FT                                              10 :ELEVATION VALUE
ELEV_TYPE   .                                                KB :ELEVATION REFERENCE TYPE
~Curve Information Section
#MNEM       .UNIT                                      API CODE :CURVE DESCRIPTION
#------------------------------------------------------------------------------
DEPT        .FT                                                 :DEPTH     
LAT         .OHMM                                               :          
LN          .OHMM                                               :          
SN          .OHMM                                               :          
SP          .MV                                                 :          
SP_NORM     .MV                                                 :SP Normalized
VSH_SP      .V/V                                                :Volume of Shale from SP
~A        DEPTH            LAT             LN             SN             SP        SP_NORM         VSH_SP
# ...
       888.0000         1.7487         1.3232          1.483       -90.8923      -4.424591      0.8682849
       888.5000         1.7135         1.3226         1.4793       -89.8627      -3.400833      0.9076602
       889.0000         1.6783          1.322         1.4756       -88.8704      -2.414368      0.9456012
       889.5000          1.643         1.3213         1.4748       -89.5922      -3.142006      0.9176152
       890.0000         1.6078         1.3207         1.4825        -90.314      -3.869644      0.8896291
       890.5000         1.5726         1.3201         1.4902       -91.0359      -4.597382      0.8616391
       891.0000         1.5374         1.3194         1.4978       -91.0515       -4.61882      0.8608146
       891.5000         1.5021         1.3188         1.5055       -90.9449      -4.518059      0.8646901
       892.0000         1.4672         1.3182         1.5131       -90.8383      -4.417297      0.8685655
       892.5000         1.4546         1.3175         1.5208        -90.332       -3.91684      0.8878139
       893.0000          1.442         1.3169         1.5284       -89.4767      -3.067375      0.9204856
       893.5000         1.4293         1.3163         1.5361       -88.6211      -2.217613      0.9531687
       894.0000         1.4167         1.3156         1.5437       -87.7657       -1.36805      0.9858443
       894.5000         1.4041          1.315         1.5514       -86.9104     -0.5185852              1
       895.0000         1.3914         1.3316          1.559       -86.0549      0.3310699              1
       895.5000         1.3788         1.3503         1.5667       -86.9336     -0.5534668              1
       896.0000         1.3662         1.3691         1.5743       -88.3763      -2.001999      0.9614616
       896.5000         1.3536         1.3878          1.582       -89.8187      -3.450241      0.9057599
       897.0000         1.3409         1.4066         1.5897       -90.2297      -3.867081      0.8897277
       897.5000         1.3283         1.4254         1.5973       -90.2864      -3.929619      0.8873224
       898.0000         1.3157         1.4441         1.6138       -90.3429      -3.991959      0.8849247
       898.5000          1.303         1.4629         1.6334       -90.3995       -4.05439      0.8825235
       899.0000         1.3022         1.4816         1.6529       -90.0653      -3.726036      0.8951524
       899.5000         1.3061         1.5004         1.6725       -89.6505       -3.31707      0.9108819
       900.0000           1.31         1.5191         1.6921       -89.2357      -2.908112      0.9266111
       900.5000         1.3139         1.5379         1.7116       -88.8209      -2.499146      0.9423406
       901.0000         1.3178         1.5566         1.7312       -88.4061      -2.090187      0.9580697
       901.5000         1.3217         1.5754         1.7507       -87.9913      -1.681229      0.9737989
       902.0000         1.3256         1.5933         1.7703       -87.5765      -1.272263      0.9895284
       902.5000         1.3295         1.6108         1.7898       -87.1617     -0.8632965              1
       903.0000         1.3334         1.6282         1.8094       -86.7552     -0.4626465              1
       903.5000         1.3373         1.6457          1.829       -86.8564     -0.5696793              1
       904.0000         1.3412         1.6632         1.8485       -86.9576     -0.6767197              1
       904.5000         1.3451         1.6807         1.8685        -87.059     -0.7839508              1
       905.0000          1.349         1.6982         1.8896       -87.1602     -0.8909988              1
       905.5000         1.3529         1.7157         1.9106       -87.2614     -0.9980316              1
       906.0000         1.3568         1.7332         1.9317       -88.0375      -1.779968      0.9700012
       906.5000         1.3607         1.7507         1.9527       -88.8961      -2.644409      0.9367535
       907.0000         1.3683         1.7682         1.9738       -89.7549      -3.509048      0.9034981
       907.5000         1.3763         1.7857         1.9948       -90.6135      -4.373489      0.8702504
       908.0000         1.3843         1.8032         2.0159       -91.4722      -5.238022      0.8369992
       908.5000         1.3923         1.8206         2.0369       -92.3312      -6.102859      0.8037362
       909.0000         1.4003         1.8244          2.058        -93.214      -6.991501      0.7695577
       909.5000         1.4083         1.8181          2.079       -94.0968      -7.880142      0.7353792
       910.0000         1.4163         1.8118         2.0942       -94.9799      -8.769073      0.7011895
       910.5000         1.4243         1.8055         2.1016       -95.8627      -9.657715       0.667011
       911.0000         1.4323         1.7992         2.1091       -96.0872      -9.888046       0.658152
       911.5000         1.4403         1.7929         2.1166       -95.8479      -9.654594       0.667131
       912.0000         1.4484         1.7866          2.124       -95.6088      -9.421333      0.6761026
       912.5000         1.4564         1.7802         2.1315       -95.3695      -9.187866      0.6850821
       913.0000           1.47         1.7739          2.139       -95.1302      -8.954407      0.6940613
       913.5000         1.4947         1.7676         2.1465        -94.891      -8.721046      0.7030367
       914.0000         1.5194         1.7613         2.1539       -94.5487      -8.384583      0.7159776
       914.5000         1.5441          1.755         2.1614       -93.2705      -7.112221      0.7649146
       915.0000         1.5687         1.7487         2.1689       -91.9923      -5.839859      0.8138516
       915.5000         1.5934         1.7424         2.1724       -90.7142      -4.567604      0.8627844
       916.0000         1.6181         1.7361         2.1422        -89.436      -3.295235      0.9117218
       916.5000         1.6428         1.7298          2.112       -88.1577      -2.022774      0.9606625
       917.0000         1.6674         1.7122         2.0818       -89.8838      -3.754707      0.8940497
       917.5000         1.6921         1.6938         2.0516       -91.3267      -5.203453      0.8383287
       918.0000         1.7168         1.6753         2.0214       -92.4648      -6.347389      0.7943312
       918.5000         1.7415         1.6568         1.9912       -92.5486      -6.437027      0.7908836
       919.0000          1.765         1.6384          1.961       -91.8488      -5.743065      0.8175744
       919.5000          1.773         1.6199         1.9309       -91.1488      -5.048912      0.8442726
       920.0000         1.7811         1.6014         1.9007        -90.449      -4.354942      0.8709638
       920.5000         1.7891         1.5829         1.8705        -89.749      -3.660782      0.8976622
       921.0000         1.7972         1.5645         1.8403       -89.0492       -2.96682      0.9243531
       921.5000         1.8052          1.546         1.8101       -88.5101      -2.433563       0.944863
       922.0000         1.8132         1.5275         1.7799       -88.2321        -2.1614      0.9553308
       922.5000         1.8213         1.5091         1.7497        -87.954      -1.889137      0.9658024
       923.0000         1.8293         1.4906         1.7195       -87.6758      -1.616768      0.9762782
       923.5000         1.8374         1.4721         1.6893       -87.3977      -1.344513      0.9867495
       924.0000         1.8454         1.4537         1.6704       -87.1195      -1.072151      0.9972249
       924.5000         1.8534         1.4352         1.6525       -86.8414     -0.7998886              1
       925.0000         1.8615         1.4167         1.6347       -86.5634     -0.5277252              1
       925.5000         1.8695         1.4005         1.6169       -86.3418     -0.3119659              1
