#------------------------------------------------------------------------------
# Created by    : vladimir.rabinovich
# Created on    : 09/19/2023 17:20:18
#------------------------------------------------------------------------------
~Version Information Section
VERS.           2.0     :   CWLS log ASCII Standard - VERSION 2.0
WRAP.           NO      :   One line per depth step
~Well Information Section
#MNEM       .UNIT                                         VALUE :DESCRIPTION
#------------------------------------------------------------------------------
STRT        .FT                                             780 :START DEPTH
STOP        .FT                                            9803 :STOP DEPTH
STEP        .FT                                             0.5 :STEP      
NULL        .                                           -999.25 :NULL      
COMP        .                                  SAMEDAN OIL CORP :COMPANY   
WELL        .                               OCS G04076 ST00BP00 :WELL      
FLD         .                            HIGH ISLAND BLOCK 0105 :FIELD     
LOC         .                                                   :LOCATION  
CNTY        .                           HIGH ISLAND LARGE BLOCK :LOCATION  
STAT        .                                             TEXAS :STATE     
CTRY        .                                     UNITED STATES :COUNTRY   
SRVC        .                                                   :SERVICE COMPANY
DATE        .                             9/13/2023 11:19:59 AM :LOG DATE  
API         .                                    42708401630000 :API NUMBER
UWI         .                                    42708401630000 :UNIQUE WELL ID
XCOORD      .                                  1167393.84075462 :SURFACE X 
YCOORD      .                                  10652000.2522841 :SURFACE Y 
LAT         .                                        29.3430877 :LATITUDE  
LON         .                                       -94.4850788 :LONGITUDE 
ELEV        .FT                                              87 :ELEVATION VALUE
ELEV_TYPE   .                                                KB :ELEVATION REFERENCE TYPE
~Curve Information Section
#MNEM       .UNIT                                      API CODE :CURVE DESCRIPTION
#------------------------------------------------------------------------------
DEPT        .FT                                                 :DEPTH     
ASFL        .OHMM                                               :          
CILD        .MMHO                                               :          
DT          .US/F                                               :          
GR          .GAPI                                               :          
GR_1        .GAPI                                               :          
GR_NORM     .GAPI                                               :GammaRay Normalized
ILD         .OHMM                                               :          
SP          .MV                                                 :          
SP_NORM     .MV                                                 :SP Normalized
VSH_GR      .V/V                                                :Volume of Shale from GR
VSH_SP      .V/V                                                :Volume of Shale from SP
~A        DEPTH           ASFL           CILD             DT             GR           GR_1        GR_NORM            ILD             SP        SP_NORM         VSH_GR         VSH_SP
# ...
      1410.0000         1.1409       684.8437        -999.25        -999.25        61.5944       77.42133         1.4191      -138.2969     -0.2323914      0.9451348      0.7441304
      1410.5000         1.1455       680.7783        -999.25        -999.25        64.8951       81.39567         1.4175      -138.3821     -0.3175812              1       0.772527
      1411.0000         1.1413        687.335        -999.25        -999.25         63.498       79.71398         1.4058      -138.7673     -0.7027893      0.9939145      0.9009297
      1411.5000          1.136       693.6465        -999.25        -999.25         60.992        76.6972         1.3941      -139.1455      -1.080978      0.9297276              1
      1412.0000         1.1302       699.7559        -999.25        -999.25        58.9445       74.23244         1.3823       -139.479       -1.41449      0.8772861              1
      1412.5000         1.1187       703.3662        -999.25        -999.25        59.9109       75.39634         1.3706       -139.813      -1.748489      0.9020498              1
      1413.0000         1.1072       706.9766        -999.25        -999.25         61.759       77.62177         1.3649      -140.1467      -2.082184      0.9493994              1
      1413.5000         1.0962       711.2891        -999.25        -999.25        63.6078       79.84805          1.361      -140.4805      -2.415985      0.9967671              1
      1414.0000         1.0966       715.4766        -999.25        -999.25         65.031       81.56191          1.357      -140.7517       -2.68718              1              1
      1414.5000         1.0969       717.6133        -999.25        -999.25        65.9268       82.64082         1.3531      -140.9944      -2.929886              1              1
      1415.0000          1.095         719.75        -999.25        -999.25        66.8225       83.71959         1.3492      -141.2371      -3.172592              1              1
      1415.5000         1.0928       722.2051        -999.25        -999.25        63.4633       79.67559         1.3452      -141.2917      -3.227188      0.9930977              1
      1416.0000         1.0906       727.1494        -999.25        -999.25         60.878       76.56333         1.3306      -141.1248      -3.064133      0.9268794              1
      1416.5000         1.0883         733.21        -999.25        -999.25        57.7977       72.85511         1.3136      -140.9578      -2.908203      0.8479811              1
      1417.0000         1.0757       740.3027        -999.25        -999.25        57.0165       71.91496         1.2967      -140.7908      -2.752289      0.8279778              1
      1417.5000         1.0582       749.4395        -999.25        -999.25        56.2352       70.97466         1.2797      -140.6235      -2.596069      0.8079715              1
      1418.0000         1.0358       760.4121        -999.25        -999.25        55.3884       69.95552         1.2557      -140.3303       -2.31395      0.7862877              1
      1418.5000         1.0105       776.2393        -999.25        -999.25        53.0568       67.14871         1.2083       -139.772      -1.766724      0.7265683              1
      1419.0000         0.9871       801.3975        -999.25        -999.25        49.7867       63.21197          1.161      -139.2139      -1.219696      0.6428079              1
      1419.5000         0.9652       831.0742        -999.25        -999.25        49.0793       62.36067         1.1316      -138.7078     -0.7246704      0.6246951      0.9082235
      1420.0000         0.9435       856.7451        -999.25        -999.25        49.7297        63.1441         1.1141      -138.2146     -0.2425537      0.6413639      0.7475179
      1420.5000         0.9223       874.2822        -999.25        -999.25        50.1179       63.61186         1.0965      -137.8374      0.1235657      0.6513161      0.6254781
      1421.0000         0.9059       890.5098        -999.25        -999.25        50.3359       63.87471          1.079       -137.519      0.4308929      0.6569086      0.5230357
      1421.5000          0.898       899.4033        -999.25        -999.25         50.554       64.13767          1.068      -137.3655      0.5733185      0.6625037      0.4755605
      1422.0000         0.8943        904.998        -999.25        -999.25        50.7719        64.4004         1.0612      -137.3025      0.6252289      0.6680936       0.458257
      1422.5000         0.8906       910.4697        -999.25        -999.25        50.8008       64.43557         1.0544      -137.2859      0.6307526      0.6688419      0.4564158
      1423.0000         0.8869       915.9404        -999.25        -999.25        50.7998       64.43474         1.0476       -137.269      0.6365814      0.6688242      0.4544729
      1423.5000         0.8801       927.2236        -999.25        -999.25        50.7195       64.33845         1.0409      -137.2524      0.6421051      0.6667755      0.4526316
      1424.0000         0.8686       941.1221        -999.25        -999.25        50.5518       64.13692         1.0339      -137.2358      0.6476288      0.6624876      0.4507904
      1424.5000          0.851       952.4336        -999.25        -999.25        50.3842        63.9355         1.0268       -137.314      0.5583496      0.6582021      0.4805501
      1425.0000         0.8326       963.4131        -999.25        -999.25        49.8538       63.29729         1.0196      -137.4258      0.4354706      0.6446232      0.5215098
      1425.5000         0.8211        969.207        -999.25        -999.25        49.1368       62.43441         1.0125      -137.5376      0.3125916      0.6262642      0.5624695
      1426.0000         0.8096       974.3242        -999.25        -999.25        48.1234       61.21469         1.0055      -137.7068       0.132309      0.6003125      0.6225637
      1426.5000         0.8122       979.4434        -999.25        -999.25         47.354       60.28872         1.0002      -137.8801    -0.05206299      0.5806111       0.684021
      1427.0000         0.8164       982.8682        -999.25        -999.25        46.7807       59.59887         0.9949      -138.0535      -0.236557      0.5659334       0.745519
      1427.5000         0.8206       984.5938        -999.25        -999.25        46.0391       58.70638         0.9896      -138.1792     -0.3733368      0.5469441      0.7911122
      1428.0000         0.8248       986.3184        -999.25        -999.25        44.5472       56.91055         0.9844      -138.2014     -0.4066162       0.508735      0.8022054
      1428.5000         0.8291       981.1533        -999.25        -999.25        41.9598       53.79576         0.9791      -138.0742     -0.2904968      0.4424631       0.763499
      1429.0000         0.8333       973.2666        -999.25        -999.25        40.2604       51.75011         0.9756      -137.8093    -0.03666687      0.3989386       0.678889
      1429.5000         0.8291       965.3818        -999.25        -999.25        38.1718       49.23587         0.9723      -137.5447      0.2168579      0.3454441      0.5943807
      1430.0000         0.8249       973.5215        -999.25        -999.25        36.4227       47.13038          0.969      -137.2798      0.4706726      0.3006464      0.5097758
      1430.5000         0.8142       979.4883        -999.25        -999.25        34.8572       45.24594         0.9657      -136.9395      0.7998962       0.260552      0.4000346
      1431.0000         0.7938       981.4941        -999.25        -999.25        33.3679       43.45325         0.9625      -136.5977       1.130615      0.2224095      0.2897949
      1431.5000         0.7875       987.1367        -999.25        -999.25        31.9938       41.79925         0.9592      -136.2937       1.423538       0.187218      0.1921539
      1432.0000          0.782       995.5254        -999.25        -999.25        31.2363       40.88761         0.9559      -136.1104       1.595764      0.1678215      0.1347453
