#------------------------------------------------------------------------------
# Created by    : vladimir.rabinovich
# Created on    : 09/19/2023 17:20:23
#------------------------------------------------------------------------------
~Version Information Section
VERS.           2.0     :   CWLS log ASCII Standard - VERSION 2.0
WRAP.           NO      :   One line per depth step
~Well Information Section
#MNEM       .UNIT                                         VALUE :DESCRIPTION
#------------------------------------------------------------------------------
STRT        .FT                                            3532 :START DEPTH
STOP        .FT                                           13690 :STOP DEPTH
STEP        .FT                                             0.5 :STEP      
NULL        .                                           -999.25 :NULL      
COMP        .                              VASTAR RESOURCES INC :COMPANY   
WELL        .                                     ST TR 00023-L :WELL      
FLD         .                          HIGH ISLAND BLOCK 0024-L :FIELD     
LOC         .                                                   :LOCATION  
CNTY        .                           HIGH ISLAND LARGE BLOCK :LOCATION  
STAT        .                                             TEXAS :STATE     
CTRY        .                                     UNITED STATES :COUNTRY   
SRVC        .                                                   :SERVICE COMPANY
DATE        .                             9/13/2023 11:19:15 AM :LOG DATE  
API         .                                    42708300330000 :API NUMBER
UWI         .                                    42708300330000 :UNIQUE WELL ID
XCOORD      .                                  1290562.53578251 :SURFACE X 
YCOORD      .                                  10712997.1214806 :SURFACE Y 
LAT         .                                        29.5146054 :LATITUDE  
LON         .                                       -94.1002609 :LONGITUDE 
ELEV        .FT                                              79 :ELEVATION VALUE
ELEV_TYPE   .                                                KB :ELEVATION REFERENCE TYPE
~Curve Information Section
#MNEM       .UNIT                                      API CODE :CURVE DESCRIPTION
#------------------------------------------------------------------------------
DEPT        .FT                                                 :DEPTH     
ASN         .OHMM                                               :          
CILD        .MMHO                                               :          
ILD         .OHMM                                               :          
SP          .MV                                                 :          
SP_NORM     .MV                                                 :SP Normalized
VSH_SP      .V/V                                                :Volume of Shale from SP
~A        DEPTH            ASN           CILD            ILD             SP        SP_NORM         VSH_SP
      3532.0000         2.0204       2048.574         0.3858      -131.1553      -26.75279      0.6372846
      3532.5000          2.021       2086.914         0.3863      -128.7419      -24.33939      0.6712763
      3533.0000         2.0266       2137.117         0.3863      -126.7114      -22.30889      0.6998748
      3533.5000         2.0334       2272.965         0.3863      -124.9332      -20.53069      0.7249199
      3534.0000         2.0403       2356.348         0.3863      -123.6353      -19.23279      0.7432002
      3534.5000         2.1316        2439.73         0.3863      -122.2222      -17.81969       0.763103
      3535.0000          2.444       2523.164         0.3863      -121.6086      -17.20609      0.7717453
      3535.5000         2.5984       2606.547         0.3819      -122.6655      -18.26299      0.7568594
      3536.0000         2.7351       2689.934         0.3758      -123.7219      -19.31939      0.7419804
      3536.5000         2.8816       2773.367         0.3697      -124.7341      -20.33159      0.7277241
      3537.0000         2.9366        2856.75         0.3635      -125.7089      -21.30639      0.7139945
      3537.5000         2.7087       3070.418         0.3574      -126.3994      -21.99689      0.7042692
      3538.0000         2.3943       3144.051         0.3469       -126.606      -22.20349      0.7013593
      3538.5000         2.1694       3217.285         0.3312      -126.8759      -22.47339      0.6975579
      3539.0000         1.8657       3184.426         0.3156      -127.5862      -23.18369      0.6875537
      3539.5000         1.4932       2969.813         0.2999      -129.1292      -24.72668      0.6658214
      3540.0000         1.1206       2981.824         0.2804      -131.1416      -26.73909      0.6374776
      3540.5000         0.8794       3259.473         0.2579      -134.7117      -30.30919      0.5871945
      3541.0000         0.7004       3744.289         0.2576      -140.7515      -36.34898       0.502127
      3541.5000         0.6765       3921.727         0.2785      -142.6106      -38.20808      0.4759425
      3542.0000         0.6957       4033.238         0.2995      -140.8843      -36.48178      0.5002566
      3542.5000         0.8269       4088.676         0.3205        -137.75      -33.34749      0.5444016
      3543.0000         0.8783       4128.805         0.3421      -134.6157       -30.2132      0.5885465
      3543.5000         0.9104       3262.848         0.3638      -131.4614      -27.05888      0.6329735
      3544.0000         0.9413       3138.863         0.3854      -128.2996      -23.89709      0.6775057
      3544.5000         0.9654       3019.547         0.4071      -122.4775      -18.07499      0.7595072
      3545.0000         0.9891       2900.328         0.4287      -118.3818      -13.97929      0.8171932
      3545.5000         1.0088       2781.008         0.4504      -117.0347      -12.63219      0.8361664
      3546.0000         1.0278       2661.691         0.4669      -116.1354      -11.73289      0.8488325
      3546.5000         1.0468       2542.473         0.4832      -111.6665      -7.263985      0.9117749
      3547.0000          1.067       2423.156         0.4995       -103.431      0.9511566              1
      3547.5000         1.0908       2223.531         0.5157      -101.5469       2.677345              1
      3548.0000         1.1147       2060.348         0.5296      -102.1921       1.874229              1
      3548.5000         1.1385         2040.1          0.542      -103.6255      0.2829132              1
      3549.0000         1.1639       2023.807         0.5461       -105.059      -1.308487      0.9956551
      3549.5000         1.2095       1970.906          0.526      -106.4923      -2.899704      0.9732436
      3550.0000         1.2522       1912.125         0.5059      -108.0641      -4.629417      0.9488814
      3550.5000         1.2899       1845.441         0.4857      -109.7408      -6.464027      0.9230419
      3551.0000         1.3245       2010.223         0.4656      -111.4176      -8.298737      0.8972009
      3551.5000         1.3548       1970.945         0.4455      -113.0114      -10.05045      0.8725289
      3552.0000         1.3753       1985.766         0.4413      -114.4448      -11.64176       0.850116
      3552.5000         1.3504       2000.578         0.4386      -115.8391      -13.19398      0.8282539
      3553.0000         1.3194       2015.398          0.436      -116.8024      -14.31518      0.8124623
      3553.5000         1.2842       2075.996         0.4364      -117.1328      -14.80349      0.8055847
      3554.0000         1.2489           2126          0.444       -113.241       -11.0696      0.8581746
      3554.5000         1.2152       2201.246         0.4517      -109.4063      -7.392822      0.9099603
      3555.0000          1.183       2244.523         0.4594       -105.942      -4.086426      0.9565292
      3555.5000         1.1528        2258.98         0.4671      -100.1346       1.563065              1
      3556.0000         1.1249       2236.445         0.4748      -101.0629      0.4768524              1
      3556.5000         1.1169       2213.914         0.4824      -101.9912     -0.6093674              1
      3557.0000         1.1265       2191.395         0.4901      -103.3231      -2.099167      0.9845188
      3557.5000          1.136       2171.066         0.4771      -104.8313      -3.765282      0.9610524
      3558.0000         1.1456        2157.07         0.4628      -106.3394      -5.431297      0.9375874
      3558.5000         1.1552       2143.074         0.4485      -107.8474      -7.097206      0.9141238
      3559.0000         1.1423       2129.078         0.4342      -109.1389      -8.546616      0.8937097
      3559.5000         1.1201       2135.457         0.4199       -110.387      -9.952629      0.8739066
      3560.0000         1.0968       2178.465         0.4057      -111.6343      -11.35784      0.8541149
      3560.5000         1.0736        2247.75         0.3914      -113.5405      -13.42195       0.825043
      3561.0000         1.0596       2339.621         0.3771      -115.3639      -15.40326      0.7971372
      3561.5000         1.0472        2405.98         0.3628      -116.3069      -16.50417      0.7816314
      3562.0000         1.0348        2472.34         0.3485      -117.2504      -17.60558      0.7661185
      3562.5000         1.0251       2535.969         0.3396      -118.1938       -18.7069       0.750607
      3563.0000          1.016       2593.891         0.3416      -119.1373       -19.8083      0.7350943
      3563.5000          1.007           2654         0.3435      -119.7805      -20.60942       0.723811
      3564.0000         0.9912       2742.742         0.3478      -120.3121      -21.29893      0.7140995
      3564.5000         0.9714       2895.887         0.3567      -120.7305      -21.87524      0.7059825
      3565.0000          0.938       2936.285         0.3657       -121.084      -22.38665      0.6987796
      3565.5000         0.8956       2970.359         0.3746       -120.817      -22.27757       0.700316
      3566.0000         0.8634        2902.41         0.3836        -120.54      -22.15848      0.7019933
      3566.5000         0.8329       2690.105         0.3925      -119.7074      -21.48379      0.7114959
      3567.0000         0.8117       2632.012         0.4037      -118.7566       -20.6909      0.7226635
      3567.5000         0.7911       2573.941         0.4165      -117.8053      -19.89751       0.733838
      3568.0000         0.7862       2498.199         0.4294      -116.7539      -19.00402      0.7464222
      3568.5000         0.8063       2346.621         0.4422       -115.434      -17.84203      0.7627882
      3569.0000         0.8207       2222.887         0.4551      -114.1149      -16.68084      0.7791431
      3569.5000         0.8352       2151.164         0.4679      -112.7238      -15.44765      0.7965119
