#------------------------------------------------------------------------------
# Created by    : vladimir.rabinovich
# Created on    : 09/19/2023 17:19:44
#------------------------------------------------------------------------------
~Version Information Section
VERS.           2.0     :   CWLS log ASCII Standard - VERSION 2.0
WRAP.           NO      :   One line per depth step
~Well Information Section
#MNEM       .UNIT                                         VALUE :DESCRIPTION
#------------------------------------------------------------------------------
STRT        .FT                                             490 :START DEPTH
STOP        .FT                                           13420 :STOP DEPTH
STEP        .FT                                             0.5 :STEP      
NULL        .                                           -999.25 :NULL      
COMP        .                                 MESA PETROLEUM CO :COMPANY   
WELL        .                                     ST TR 00012-L :WELL      
FLD         .                                           WILDCAT :FIELD     
LOC         .                                                   :LOCATION  
CNTY        .                           HIGH ISLAND LARGE BLOCK :LOCATION  
STAT        .                                             TEXAS :STATE     
CTRY        .                                     UNITED STATES :COUNTRY   
SRVC        .                                                   :SERVICE COMPANY
DATE        .                             9/13/2023 11:19:15 AM :LOG DATE  
API         .                                    42708302120000 :API NUMBER
UWI         .                                    42708302120000 :UNIQUE WELL ID
XCOORD      .                                  1361115.25412243 :SURFACE X 
YCOORD      .                                  10723579.9964947 :SURFACE Y 
LAT         .                                        29.5453665 :LATITUDE  
LON         .                                       -93.8786547 :LONGITUDE 
ELEV        .FT                                              80 :ELEVATION VALUE
ELEV_TYPE   .                                                KB :ELEVATION REFERENCE TYPE
~Curve Information Section
#MNEM       .UNIT                                      API CODE :CURVE DESCRIPTION
#------------------------------------------------------------------------------
DEPT        .FT                                                 :DEPTH     
ASFL        .OHMM                                               :          
CILD        .MMHO                                               :          
GR          .GAPI                                               :          
GR_NORM     .GAPI                                               :GammaRay Normalized
ILD         .OHMM                                               :          
SP          .MV                                                 :          
SP_NORM     .MV                                                 :SP Normalized
VSH_GR      .V/V                                                :Volume of Shale from GR
~A        DEPTH           ASFL           CILD             GR        GR_NORM            ILD             SP        SP_NORM         VSH_GR
# ...
      3056.5000         0.4248       3968.645        50.7357       44.10278         0.6203      -147.9429      -11.39647      0.2362293
      3057.0000         0.4328       3822.102         51.601       45.02185         0.6254      -147.5376      -10.99702      0.2557841
      3057.5000         0.4419       3730.594        52.7641       46.25772         0.6328      -147.0559      -10.52118      0.2820792
      3058.0000         0.4513       3594.703        54.1676       47.74934         0.6402      -146.6826      -10.15375      0.3138157
      3058.5000         0.4613       3299.449         56.289       50.00469         0.6476      -146.6294       -10.1064      0.3618019
      3059.0000         0.4724       3168.355        57.0322       50.79385         0.6533      -146.6978      -10.18066      0.3785926
      3059.5000         0.4825       2347.699        57.9679       51.78781         0.6589      -146.7744      -10.26312      0.3997407
      3060.0000         0.4836       2286.223        58.9202       52.79943         0.6641      -147.2795      -10.77408      0.4212644
      3060.5000         0.4787        2264.16        60.0024       53.94924         0.6643      -147.7849      -11.28534      0.4457285
      3061.0000         0.4656       2269.715        61.1127       55.12894         0.6645        -148.29       -11.7963      0.4708286
      3061.5000         0.4524       2316.352        59.5272       53.44077         0.6618        -149.05      -12.56216        0.43491
      3062.0000         0.4427       2807.113        55.9785        49.6641          0.657      -150.4949      -14.01292      0.3545553
      3062.5000         0.4331       2961.211        52.3296       45.78082         0.6514      -151.1431      -14.66698      0.2719324
      3063.0000         0.4258       3099.121         49.826       43.11595         0.6435      -151.7744      -15.30414      0.2152329
      3063.5000         0.4191       3419.227         48.962       42.19534         0.6356      -152.1526       -15.6882      0.1956455
      3064.0000         0.4125       3695.191        47.4658       40.60217         0.6296      -152.5051      -16.04655      0.1617483
      3064.5000         0.4058       3787.211        46.2921       39.35208         0.6275      -152.7532      -16.30052      0.1351506
      3065.0000         0.3983       3852.484        45.3583       38.35722         0.6209      -152.8555      -16.40868      0.1139833
      3065.5000         0.3907       3928.441        44.1865       37.10915         0.6108      -152.8733      -16.43234     0.08742872
      3066.0000         0.3854       3993.496        43.7501       36.64342         0.5967      -152.7068       -16.2717     0.07751968
      3066.5000         0.3815       3984.871        44.0839       36.99707         0.5766      -152.4995      -16.07025     0.08504405
      3067.0000         0.3786       3957.254        44.6423       37.58965         0.5297      -152.2598      -15.83641     0.09765203
      3067.5000         0.3786       3881.766        45.5671       38.57201          0.535      -152.0833      -15.66577      0.1185533
      3068.0000         0.3787       3820.402        46.7612       39.84086         0.5403      -151.9307      -15.51903      0.1455503
      3068.5000         0.3787       3771.883        47.9354       41.08854         0.5456      -151.8569       -15.4511      0.1720967
      3069.0000         0.3787       3716.301        48.5674       41.75942         0.5514      -151.7747      -15.37476      0.1863706
      3069.5000         0.3788       3662.563        48.3442        41.5205         0.5571      -151.6812      -15.28711      0.1812872
      3070.0000          0.381        3613.75        47.8406       40.98329         0.5562      -151.5876      -15.19937      0.1698573
      3070.5000         0.3842       3571.773        46.9836       40.07012         0.5544      -151.4216      -15.03923      0.1504281
      3071.0000         0.3875       3546.629        45.5709       38.56578         0.5618      -151.2292      -14.85269      0.1184209
      3071.5000         0.3908       3614.684        44.7625       37.70432         0.5698      -150.9609      -14.59026      0.1000919
      3072.0000         0.3945       3738.199        43.5654       36.42934         0.5778      -150.5698        -14.205     0.07296469
      3072.5000         0.3989       3795.098        43.7576       36.63234         0.5858      -150.2275      -13.86856     0.07728382
      3073.0000         0.4007       3761.313        47.0084       40.08918         0.5929       -149.896      -13.54294      0.1508335
      3073.5000         0.3985        3697.75        49.1158       42.32962         0.5999      -149.4968       -13.1496      0.1985026
      3074.0000         0.4055        3553.27        52.9205       46.37571          0.605      -148.8696      -12.52826      0.2845896
      3074.5000         0.4116       3299.941        55.5384       49.15924         0.6089      -147.3928      -11.05733      0.3438137
      3075.0000           0.42        2998.98        57.1953       50.92044         0.6118      -146.6475      -10.31789      0.3812859
      3075.5000         0.4304       2940.328        58.8436       52.67248         0.6134      -146.2305      -9.906738      0.4185634
      3076.0000         0.4403       2900.609        60.7286       54.67633         0.6151       -145.949      -9.631104      0.4611986
      3076.5000         0.4469       2802.391        60.6973       54.64157         0.6144      -145.9316      -9.619553      0.4604589
      3077.0000         0.4418       2662.191        60.4394       54.36574          0.613      -146.2292      -9.923019      0.4545902
      3077.5000         0.4341       2573.664        59.3083       53.16098         0.6112      -146.5352      -10.23488       0.428957
      3078.0000         0.4248       2965.762        55.8066        49.4343          0.608      -146.9592      -10.66473      0.3496659
      3078.5000         0.4156        3041.84        51.9434       45.32304         0.6048       -147.364      -11.07539      0.2621924
      3079.0000         0.4133       3101.852        50.1171       43.37871         0.6016      -147.7598      -11.47705      0.2208236
      3079.5000         0.4148       3166.094        49.5497       42.77362         0.6011      -148.0488      -11.77191      0.2079495
      3080.0000         0.4231       3219.953        50.2215       43.48684         0.6012      -148.3267      -12.05568      0.2231242
      3080.5000         0.4358       3238.012        51.5076       44.85355         0.6014      -148.4094      -12.14423      0.2522033
      3081.0000          0.447        3224.32        53.7177       47.20327          0.602      -148.4871       -12.2278      0.3021972
      3081.5000         0.4491       3194.707        55.7256       49.33786         0.6036       -148.573      -12.31955       0.347614
      3082.0000         0.4437       3161.898         56.924       50.61128         0.6052       -148.864      -12.61641      0.3747081
      3082.5000         0.4384       3110.781        56.0032       49.63025         0.6085      -149.2678      -13.02608      0.3538351
      3083.0000         0.4326        3167.57        49.6301       42.84889         0.6145       -149.761      -13.52513      0.2095508
      3083.5000         0.4253       3255.605        47.6456       40.73625         0.6206      -150.2551      -14.02509       0.164601
      3084.0000          0.418       3339.754        46.1815       39.17723         0.6243       -150.759      -14.53485      0.1314304
      3084.5000         0.4118       3528.813        44.7891       37.69449          0.627      -151.2893      -15.07101     0.09988274
      3085.0000         0.4071       3607.254        43.4198       36.23632         0.6298      -151.7798      -15.56737      0.0688578
      3085.5000         0.4031        3687.66        42.5798       35.34124         0.6344      -152.2375      -16.03093     0.04981354
