#------------------------------------------------------------------------------
# Created by    : vladimir.rabinovich
# Created on    : 09/19/2023 17:22:32
#------------------------------------------------------------------------------
~Version Information Section
VERS.           2.0     :   CWLS log ASCII Standard - VERSION 2.0
WRAP.           NO      :   One line per depth step
~Well Information Section
#MNEM       .UNIT                                         VALUE :DESCRIPTION
#------------------------------------------------------------------------------
STRT        .FT                                          2841.5 :START DEPTH
STOP        .FT                                          6769.5 :STOP DEPTH
STEP        .FT                                             0.5 :STEP      
NULL        .                                           -999.25 :NULL      
COMP        .                      SPINNAKER EXPLORATION CO LLC :COMPANY   
WELL        .                               OCS G18941 ST00BP00 :WELL      
FLD         .                            HIGH ISLAND BLOCK 0235 :FIELD     
LOC         .                                                   :LOCATION  
CNTY        .                           HIGH ISLAND LARGE BLOCK :LOCATION  
STAT        .                                             TEXAS :STATE     
CTRY        .                                     UNITED STATES :COUNTRY   
SRVC        .                                                   :SERVICE COMPANY
DATE        .                             9/13/2023 11:20:02 AM :LOG DATE  
API         .                                    42708405540000 :API NUMBER
UWI         .                                    42708405540000 :UNIQUE WELL ID
XCOORD      .                                  1178439.61066162 :SURFACE X 
YCOORD      .                                  10526520.2311607 :SURFACE Y 
LAT         .                                         28.998365 :LATITUDE  
LON         .                                        -94.445565 :LONGITUDE 
ELEV        .FT                                              98 :ELEVATION VALUE
ELEV_TYPE   .                                                KB :ELEVATION REFERENCE TYPE
~Curve Information Section
#MNEM       .UNIT                                      API CODE :CURVE DESCRIPTION
#------------------------------------------------------------------------------
DEPT        .FT                                                 :DEPTH     
CNCF        .%                                                  :          
DCAL        .IN                                                 :          
DT24        .US/F                                               :          
GR          .GAPI                                               :          
GR_NORM     .GAPI                                               :GammaRay Normalized
M2R1        .OHMM                                               :          
M2R2        .OHMM                                               :          
M2R3        .OHMM                                               :          
M2R6        .OHMM                                               :          
M2R9        .OHMM                                               :          
M2RX        .OHMM                                               :          
PORZ        .%                                                  :          
RWAZ        .OHMM                                               :          
SPCH        .MV                                                 :          
TEN         .LB/F                                               :          
VSH_GR      .V/V                                                :Volume of Shale from GR
ZCOR        .G/CC                                               :          
~A        DEPTH           CNCF           DCAL           DT24             GR        GR_NORM           M2R1           M2R2           M2R3           M2R6           M2R9           M2RX           PORZ           RWAZ           SPCH            TEN         VSH_GR           ZCOR
# ...
      5436.5000         45.249          0.444        128.831        114.475       74.85266          0.734          0.742          0.737          0.729          0.728          0.733         23.204          0.051         -0.756        -10.067      0.8904821          0.041
      5437.0000         45.495          0.458        128.625        113.248         73.619          0.744          0.753          0.747           0.74          0.738          0.743         23.341          0.052          -0.72        -16.103       0.864234          0.031
      5437.5000         47.747           0.48        129.073        112.243       72.60732          0.741          0.751          0.745          0.738          0.736          0.741         23.634          0.054          -0.46        -28.766       0.842709          0.026
      5438.0000         50.701            0.5        129.224        112.461       72.81866          0.727          0.737          0.732          0.725          0.723          0.729         23.909          0.054         -0.188        -25.548      0.8472055           0.03
      5438.5000         52.012          0.516        128.971         114.16       74.51099          0.714          0.724           0.72          0.713          0.711          0.717         24.034          0.054          0.077         -0.026      0.8832126          0.038
      5439.0000         50.577          0.545        129.102        116.014       76.35832          0.712          0.722          0.718          0.711          0.709          0.715          24.14          0.054          0.109         14.695      0.9225175           0.04
      5439.5000         48.451          0.638        129.271        117.439       77.77666          0.719          0.727          0.724          0.717          0.714          0.721         24.297          0.056         -0.227          8.033      0.9526948          0.039
      5440.0000         47.964          0.797         129.49        118.283       78.61398          0.722          0.729          0.726          0.719          0.717          0.724         24.403          0.056         -0.461         -0.233      0.9705103          0.046
      5440.5000         48.958          0.902        130.257        117.977       78.30132          0.716          0.721          0.718          0.712           0.71          0.717         24.473          0.056          -0.24          2.793      0.9638578          0.056
      5441.0000         48.287          0.848        130.706        117.476       77.79365          0.707          0.711          0.708          0.703          0.701          0.708         24.587          0.056          0.216          6.105      0.9530563          0.062
      5441.5000           46.5          0.703        130.608        118.316       78.62698          0.701          0.705          0.703          0.698          0.695          0.703         24.654          0.056          0.709         -5.085      0.9707869          0.064
      5442.0000         46.553          0.584        130.418        119.443       79.74731          0.701          0.707          0.704          0.699          0.697          0.706          24.51          0.055          1.342        -17.437      0.9946237          0.064
      5442.5000         47.502          0.515        129.244        118.999       79.29665          0.712          0.718          0.715          0.711          0.708          0.718         24.119          0.054          1.965        -14.866       0.985035          0.064
      5443.0000         46.428           0.48         127.85        117.299       77.58998          0.736          0.742          0.738          0.734          0.731          0.742         23.624          0.054          2.346        -14.765       0.948723          0.063
      5443.5000         44.304          0.471         126.55        115.364       75.64831           0.77          0.776           0.77          0.767          0.763          0.775         23.354          0.055          2.605        -24.965      0.9074108          0.058
      5444.0000         43.614          0.472        124.746        114.064       74.34164          0.805          0.809          0.802          0.799          0.795          0.808         23.485          0.058          2.841        -27.037      0.8796095          0.058
      5444.5000         44.322          0.473        123.432        113.991       74.26197          0.835          0.837          0.828          0.826          0.822          0.836          23.78          0.061          2.889        -18.108      0.8779142          0.076
      5445.0000         45.431          0.471        122.242        115.124       75.38831          0.865          0.865          0.856          0.854          0.849          0.864         23.964          0.065          2.657         -9.125      0.9018788          0.101
      5445.5000         45.081          0.469        120.586         115.88       76.13763           0.91          0.908          0.898          0.896          0.891          0.907         23.892          0.067          2.187         -3.377       0.917822          0.119
      5446.0000         42.706          0.467        117.752        116.327       76.57797          0.969          0.964          0.953          0.951          0.945          0.964         23.417          0.069          1.604         -2.339      0.9271909          0.116
      5446.5000         40.277          0.467         114.57        118.151        78.3953          1.024          1.016          1.005          1.002          0.996          1.016         22.652          0.067          1.106         -2.925      0.9658575          0.095
      5447.0000         38.904          0.472        113.637          120.8       81.03764           1.05          1.041          1.031          1.027          1.021          1.041         22.056          0.065          0.676         -2.448              1          0.077
      5447.5000         38.658          0.494        113.758        121.858       82.08897          1.034          1.027          1.018          1.014          1.008          1.028         21.811          0.063          0.273         -8.738              1           0.08
      5448.0000         39.189          0.543         114.87        120.364       80.58829          1.002          0.998          0.991          0.986          0.981          0.999         21.728           0.06           0.16        -20.724              1           0.09
      5448.5000         39.305          0.576        116.182         118.23       78.44763          0.995          0.994          0.988          0.982          0.978          0.995         21.712           0.06          0.331        -25.808      0.9669709          0.095
      5449.0000         38.565          0.523        114.648        117.724       77.93496          1.018          1.022          1.017           1.01          1.007          1.023         21.882          0.063          0.477        -19.997       0.956063          0.096
      5449.5000         38.184          0.409        112.585        119.382        79.5863          1.051          1.061          1.057          1.049          1.047          1.063         22.389          0.069          0.493        -10.333      0.9911978            0.1
      5450.0000         39.371           0.34        112.963        120.651       80.84863          1.068          1.086          1.085          1.075          1.075           1.09         23.204          0.076          0.287         -4.199              1          0.104
      5450.5000         41.954          0.366        115.533        120.887       81.07796           1.04          1.066          1.067          1.058          1.059          1.072         24.074          0.081          0.101         -7.644              1          0.106
      5451.0000         44.113          0.444        119.508        121.998       82.18229          0.955          0.984          0.988           0.98          0.981          0.992         24.609          0.079          0.299        -13.289              1           0.11
