#------------------------------------------------------------------------------
# Created by    : vladimir.rabinovich
# Created on    : 09/19/2023 17:20:25
#------------------------------------------------------------------------------
~Version Information Section
VERS.           2.0     :   CWLS log ASCII Standard - VERSION 2.0
WRAP.           NO      :   One line per depth step
~Well Information Section
#MNEM       .UNIT                                         VALUE :DESCRIPTION
#------------------------------------------------------------------------------
STRT        .FT                                             396 :START DEPTH
STOP        .FT                                           11006 :STOP DEPTH
STEP        .FT                                             0.5 :STEP      
NULL        .                                           -999.25 :NULL      
COMP        .                                 CALIFORNIA CO THE :COMPANY   
WELL        .                                OCS 00507 ST00BP00 :WELL      
FLD         .                            HIGH ISLAND BLOCK 0052 :FIELD     
LOC         .                                                   :LOCATION  
CNTY        .                           HIGH ISLAND LARGE BLOCK :LOCATION  
STAT        .                                             TEXAS :STATE     
CTRY        .                                     UNITED STATES :COUNTRY   
SRVC        .                                                   :SERVICE COMPANY
DATE        .                             9/13/2023 11:19:15 AM :LOG DATE  
API         .                                    42708000170000 :API NUMBER
UWI         .                                    42708000170000 :UNIQUE WELL ID
XCOORD      .                                  1293108.02889945 :SURFACE X 
YCOORD      .                                   10685731.628563 :SURFACE Y 
LAT         .                                         29.439677 :LATITUDE  
LON         .                                        -94.091453 :LONGITUDE 
ELEV        .FT                                              70 :ELEVATION VALUE
ELEV_TYPE   .                                                KB :ELEVATION REFERENCE TYPE
~Curve Information Section
#MNEM       .UNIT                                      API CODE :CURVE DESCRIPTION
#------------------------------------------------------------------------------
DEPT        .FT                                                 :DEPTH     
ASN         .OHMM                                               :          
CILD        .MMHO                                               :          
ILM         .OHMM                                               :          
SP          .MV                                                 :          
SP_NORM     .MV                                                 :SP Normalized
VSH_SP      .V/V                                                :Volume of Shale from SP
~A        DEPTH            ASN           CILD            ILM             SP        SP_NORM         VSH_SP
# ...
      7426.0000          0.266       2785.199         0.3346       -92.4907       -50.9115      0.1566983
      7426.5000         0.2616       2993.285         0.3306       -93.5293       -51.9556      0.1386965
      7427.0000         0.2573       3115.316         0.3266        -93.915       -52.3469        0.13195
      7427.5000          0.253       3174.844         0.3229       -94.1578       -52.5952       0.127669
      7428.0000         0.2491       3246.625         0.3204       -94.4005       -52.8434      0.1233897
      7428.5000         0.2461       3327.426          0.318       -94.6434       -53.0918      0.1191069
      7429.0000         0.2431       3379.457         0.3155       -94.8497       -53.3036      0.1154552
      7429.5000         0.2401        3389.82         0.3131       -94.4305       -52.8899      0.1225879
      7430.0000         0.2371       3380.453         0.3106       -94.0112       -52.4762      0.1297207
      7430.5000         0.2341       3370.855         0.3082       -93.5916       -52.0621      0.1368604
      7431.0000         0.2311        3361.27         0.3067       -93.1722       -51.6482      0.1439965
      7431.5000         0.2281       3351.684         0.3054       -92.7531       -51.2346      0.1511276
      7432.0000         0.2258       3344.551          0.304       -92.2288       -50.7158      0.1600724
      7432.5000         0.2267       3337.668         0.3027       -91.5675         -50.06      0.1713793
      7433.0000         0.2276       3330.785         0.3014       -90.9063       -49.4043      0.1826845
      7433.5000         0.2285       3323.891         0.3001        -90.245       -48.7486      0.1939896
      7434.0000         0.2294       3287.508         0.2988       -89.5837       -48.0928      0.2052965
      7434.5000         0.2304       3216.773         0.2974       -89.8076       -48.3222      0.2013414
      7435.0000         0.2313       3140.965         0.2961        -90.267       -48.7871      0.1933258
      7435.5000         0.2322       3060.516         0.2947       -91.3673       -49.8929      0.1742604
      7436.0000         0.2331       2969.648         0.2934       -92.8724       -51.4035      0.1482155
      7436.5000         0.2349       2869.324          0.292       -94.3777       -52.9144      0.1221655
      7437.0000         0.2379       2675.688         0.2907       -95.5527       -54.0949      0.1018121
      7437.5000         0.2409       2583.156         0.2887        -96.587       -55.1347     0.08388447
      7438.0000         0.2439       2543.809         0.2867       -97.6202       -56.1734     0.06597584
      7438.5000          0.247       2520.914         0.2847       -97.5492       -56.1079      0.0671052
      7439.0000           0.25       2504.098         0.2827       -97.4297       -55.9939     0.06907068
      7439.5000          0.253       2509.711         0.2807       -97.3102       -55.8799     0.07103617
      7440.0000          0.256       2573.879         0.2786       -97.1907        -55.766     0.07300002
      7440.5000         0.2591       2648.637         0.2766       -97.0712        -55.652     0.07496551
      7441.0000         0.2621       2752.723         0.2746       -96.7769       -55.3632      0.0799448
      7441.5000         0.2624       2864.512         0.2735       -96.1744       -54.7662     0.09023792
      7442.0000         0.2621       2953.715         0.2723        -95.572       -54.1693      0.1005293
      7442.5000         0.2618       3032.766         0.2712       -94.9696       -53.5724      0.1108207
      7443.0000         0.2615       3106.121           0.27       -94.3678       -52.9761      0.1211017
      7443.5000         0.2612       3168.145         0.2689       -93.7654       -52.3793      0.1313914
      7444.0000         0.2623       3200.184         0.2677       -93.1112       -51.7306      0.1425759
      7444.5000         0.2675       3205.613         0.2666       -92.0527       -50.6776       0.160731
      7445.0000         0.2728       3158.297         0.2669       -90.9954       -49.6258      0.1788655
      7445.5000         0.2781       3110.938         0.2718       -89.9369       -48.5728      0.1970207
      7446.0000         0.2833       3057.715         0.2767       -88.8795       -47.5209      0.2151569
      7446.5000          0.291       2975.949         0.2816        -87.821        -46.468      0.2333104
      7447.0000         0.3063       2894.188         0.2865       -86.5811       -45.2336      0.2545931
      7447.5000         0.3216       2805.684         0.2914       -85.0978       -43.7558      0.2800725
      7448.0000          0.337       2719.457         0.2963       -83.6124       -42.2759      0.3055879
      7448.5000         0.3523       2660.719         0.3012       -82.1293       -40.7983      0.3310638
      7449.0000         0.3693       2601.891         0.3061       -80.4348       -39.1093      0.3601845
      7449.5000         0.3985       2520.039         0.3108       -81.0796       -39.7596      0.3489724
      7450.0000         0.4277       2445.719         0.3154       -82.9545       -41.6401        0.31655
      7450.5000         0.4569       2429.391         0.3201       -86.1057       -44.7968      0.2621242
      7451.0000         0.4785       2492.816         0.3247        -89.257       -47.9536      0.2076965
      7451.5000         0.4689       2563.984         0.3294       -91.3882       -50.0903      0.1708569
      7452.0000         0.4336       2591.035          0.334       -92.5555       -51.2631      0.1506362
      7452.5000         0.4123       2539.738         0.3387       -93.7241       -52.4372      0.1303931
      7453.0000         0.3982       2490.406         0.3357       -94.8915       -53.6102       0.110169
      7453.5000         0.3841       2449.656          0.332       -95.0719       -53.7961      0.1069638
      7454.0000         0.3736       2408.906         0.3283       -95.2483        -53.978      0.1038276
      7454.5000         0.3694       2365.836         0.3246       -95.4246       -54.1598      0.1006931
      7455.0000         0.3652       2317.516         0.3209        -95.601       -54.3417     0.09755687
      7455.5000         0.3611       2306.574         0.3172        -95.759       -54.5052     0.09473794
      7456.0000         0.3569       2355.813         0.3135       -95.2893        -54.041      0.1027414
      7456.5000         0.3528       2416.566         0.3098       -94.8195       -53.5768      0.1107448
      7457.0000         0.3486       2511.285         0.3061        -94.349       -53.1118       0.118762
      7457.5000         0.3444        2545.82         0.3024       -93.8793       -52.6476      0.1267655
      7458.0000         0.3403        2513.91         0.2983       -93.4098       -52.1836      0.1347655
      7458.5000         0.3355       2482.004         0.2941        -93.349       -52.1283       0.135719
      7459.0000         0.3301       2450.094         0.2899       -93.2882        -52.073      0.1366724
      7459.5000         0.3247       2414.555         0.2858       -93.2273       -52.0177      0.1376259
      7460.0000         0.3193       2377.613         0.2816       -93.1665       -51.9624      0.1385793
      7460.5000         0.3144       2395.996         0.2774       -93.0004       -51.8018      0.1413483
      7461.0000         0.3099       2466.203         0.2732       -92.8098       -51.6167      0.1445397
      7461.5000         0.3088       2617.559         0.2691       -92.6189       -51.4313      0.1477362
      7462.0000         0.3077       2720.156         0.2649       -92.4282       -51.2461      0.1509293
      7462.5000         0.3067       2874.824         0.2607       -92.2373       -51.0607      0.1541259
      7463.0000         0.3056        2878.18         0.2565       -91.4366       -50.2656      0.1678345
      7463.5000         0.3063       2881.527         0.2523       -90.4882       -49.3227      0.1840914
