#------------------------------------------------------------------------------
# Created by    : vladimir.rabinovich
# Created on    : 09/19/2023 17:21:24
#------------------------------------------------------------------------------
~Version Information Section
VERS.           2.0     :   CWLS log ASCII Standard - VERSION 2.0
WRAP.           NO      :   One line per depth step
~Well Information Section
#MNEM       .UNIT                                         VALUE :DESCRIPTION
#------------------------------------------------------------------------------
STRT        .FT                                             682 :START DEPTH
STOP        .FT                                            8542 :STOP DEPTH
STEP        .FT                                             0.5 :STEP      
NULL        .                                           -999.25 :NULL      
COMP        .                       CORPUS CHRISTI OIL & GAS CO :COMPANY   
WELL        .                               OCS G08551 ST00BP00 :WELL      
FLD         .                                           WILDCAT :FIELD     
LOC         .                                                   :LOCATION  
CNTY        .                             GALVESTON LARGE BLOCK :LOCATION  
STAT        .                                             TEXAS :STATE     
CTRY        .                                     UNITED STATES :COUNTRY   
SRVC        .                                                   :SERVICE COMPANY
DATE        .                             9/13/2023 11:19:36 AM :LOG DATE  
API         .                                    42706401950000 :API NUMBER
UWI         .                                    42706401950000 :UNIQUE WELL ID
XCOORD      .                                   976199.22633255 :SURFACE X 
YCOORD      .                                  10415950.2633902 :SURFACE Y 
LAT         .                                         28.686063 :LATITUDE  
LON         .                                        -95.072067 :LONGITUDE 
ELEV        .FT                                              81 :ELEVATION VALUE
ELEV_TYPE   .                                                KB :ELEVATION REFERENCE TYPE
~Curve Information Section
#MNEM       .UNIT                                      API CODE :CURVE DESCRIPTION
#------------------------------------------------------------------------------
DEPT        .FT                                                 :DEPTH     
CALI        .IN                                                 :          
DPHI        .%                                                  :          
DRHO        .G/C3                                               :          
DT          .US/F                                               :          
GR          .GAPI                                               :          
GR_1        .GAPI                                               :          
GR_NORM     .GAPI                                               :GammaRay Normalized
ILD         .OHMM                                               :          
ILM         .OHMM                                               :          
NPHI        .%                                                  :          
SFL         .OHMM                                               :          
SP_NORM     .MV                                                 :SP Normalized
SPS         .MV                                                 :          
VSH_GR      .V/V                                                :Volume of Shale from GR
VSH_SP      .V/V                                                :Volume of Shale from SP
~A        DEPTH           CALI           DPHI           DRHO             DT             GR           GR_1        GR_NORM            ILD            ILM           NPHI            SFL        SP_NORM            SPS         VSH_GR         VSH_SP
# ...
      4745.0000        -999.25        -999.25        -999.25       127.9963        61.0759        -999.25       73.58626         0.4559         0.5308        -999.25         0.5766      -20.35528        -88.821      0.8635374      0.6719444
      4745.5000        -999.25        -999.25        -999.25       127.0527        58.2834        -999.25       70.09563         0.4306         0.5057        -999.25         0.5986       -22.1253       -90.5881      0.7892687      0.6419441
      4746.0000        -999.25        -999.25        -999.25        126.863        54.7819        -999.25       65.71875         0.4075         0.4845        -999.25         0.5748      -23.48492       -91.9448      0.6961436      0.6188996
      4746.5000        -999.25        -999.25        -999.25       126.2377        51.1624        -999.25       61.19437         0.3918         0.4686        -999.25         0.5362      -25.73934       -94.1963      0.5998803      0.5806891
      4747.0000        -999.25        -999.25        -999.25       124.9515        48.0248        -999.25       57.27237         0.3786         0.4592        -999.25         0.5534      -28.08417       -96.5382      0.5164335      0.5409463
      4747.5000        -999.25        -999.25        -999.25        123.443        47.2743        -999.25       56.33425         0.3699         0.4539        -999.25         0.6537       -29.9244       -98.3755      0.4964733      0.5097559
      4748.0000        -999.25        -999.25        -999.25       122.7168        52.3697        -999.25        62.7035         0.3662         0.4509        -999.25         0.7474      -30.65712       -99.1053      0.6319894       0.497337
      4748.5000        -999.25        -999.25        -999.25       123.4686        60.5676        -999.25       72.95088         0.3693         0.4489        -999.25         0.7261      -29.39694       -97.8422      0.8500187      0.5186959
      4749.0000        -999.25        -999.25        -999.25       124.1715        64.4933        -999.25         77.858         0.3786         0.4501        -999.25         0.6296      -27.70426       -96.1466      0.9544256      0.5473854
      4749.5000        -999.25        -999.25        -999.25       124.7974        65.0204        -999.25       78.51688         0.3932         0.4578        -999.25          0.571      -25.99908       -94.4385      0.9684442      0.5762867
      4750.0000        -999.25        -999.25        -999.25       124.4221        62.8693        -999.25         75.828         0.4099         0.4694        -999.25          0.542      -24.19231       -92.6288      0.9112341        0.60691
      4750.5000        -999.25        -999.25        -999.25       123.2062        60.5575        -999.25       72.93825         0.4286          0.488        -999.25         0.5578      -22.55363       -90.9872      0.8497499      0.6346841
      4751.0000        -999.25        -999.25        -999.25       121.8641        58.2759        -999.25       70.08625         0.4497         0.5079        -999.25         0.6034      -20.60126       -89.0319      0.7890692      0.6677753
      4751.5000        -999.25        -999.25        -999.25       121.4751        57.0196        -999.25       68.51587         0.4738         0.5281        -999.25         0.6477      -18.28358       -86.7113      0.7556568      0.7070579
      4752.0000        -999.25        -999.25        -999.25       122.6937        57.1664        -999.25       68.69938         0.5007         0.5496        -999.25         0.6945       -16.0588       -84.4836      0.7595612      0.7447661
      4752.5000        -999.25        -999.25        -999.25       124.1709         58.535        -999.25       70.41012         0.5263         0.5718        -999.25         0.7274      -13.79143       -82.2133      0.7959599      0.7831962
      4753.0000        -999.25        -999.25        -999.25        125.417        59.6288        -999.25       71.77737         0.5496         0.5865        -999.25         0.7033      -12.09315       -80.5121      0.8250505      0.8119805
      4753.5000        -999.25        -999.25        -999.25       124.7874        60.1209        -999.25        72.3925          0.569         0.6029        -999.25         0.6638      -11.30347       -79.7195      0.8381383      0.8253649
      4754.0000        -999.25        -999.25        -999.25       122.9355        59.8572        -999.25       72.06287         0.5832         0.6196        -999.25         0.6234        -12.116       -80.5291       0.831125      0.8115933
      4754.5000        -999.25        -999.25        -999.25       120.6012        58.9285        -999.25       70.90201         0.5893         0.6272        -999.25         0.6206      -13.65002       -82.0602      0.8064257      0.7855928
      4755.0000        -999.25        -999.25        -999.25       118.2944        57.7889        -999.25        69.4775         0.5935         0.6291        -999.25         0.6784      -14.94305       -83.3503       0.776117      0.7636772
      4755.5000        -999.25        -999.25        -999.25       118.5438        56.2741        -999.25         67.584         0.5973         0.6347        -999.25         0.7117      -15.97066        -84.375      0.7358298      0.7462599
      4756.0000        -999.25        -999.25        -999.25       119.8907        54.9595        -999.25       65.94075         0.6058         0.6401        -999.25         0.7384      -16.63068       -85.0321       0.700867      0.7350731
      4756.5000        -999.25        -999.25        -999.25       121.3342        56.7748        -999.25       68.20988         0.6166         0.6413        -999.25         0.7695      -16.70671       -85.1052      0.7491463      0.7337846
      4757.0000        -999.25        -999.25        -999.25       120.7954        59.6414        -999.25       71.79312         0.6356         0.6514        -999.25         0.7503      -16.32744        -84.723      0.8253856      0.7402129
      4757.5000        -999.25        -999.25        -999.25       117.7118        61.0821        -999.25       73.59399         0.6626         0.6705        -999.25         0.7115      -15.94156       -84.3342       0.863702      0.7467532
      4758.0000        -999.25        -999.25        -999.25        112.542        58.5947        -999.25       70.48476         0.6928         0.6925        -999.25         0.7067      -15.99158       -84.3813       0.797548      0.7459053
      4758.5000        -999.25        -999.25        -999.25       107.9611        55.5148        -999.25       66.63487          0.716         0.7206        -999.25         0.8022      -17.55771       -85.9445      0.7156356      0.7193609
      4759.0000        -999.25        -999.25        -999.25       106.9738        52.7839        -999.25       63.22125         0.7105         0.7432        -999.25         0.9035      -19.79323       -88.1771      0.6430053      0.6814707
      4759.5000        -999.25        -999.25        -999.25       111.5145        50.2638        -999.25       60.07113         0.6805         0.7251        -999.25         0.9724      -22.20345       -90.5844      0.5759814      0.6406196
      4760.0000        -999.25        -999.25        -999.25       115.6444        48.1064        -999.25       57.37437           0.65         0.6977        -999.25         1.0355      -24.15288       -92.5309      0.5186037      0.6075783
      4760.5000        -999.25        -999.25        -999.25       119.2329        46.2213        -999.25         55.018         0.6193         0.6611        -999.25         0.9551       -25.9417       -94.3168       0.468468      0.5772592
      4761.0000        -999.25        -999.25        -999.25       121.8253        48.8832        -999.25       58.34538         0.5861         0.6199        -999.25         0.8135      -27.40672       -95.7789      0.5392633      0.5524284
      4761.5000        -999.25        -999.25        -999.25       123.1926        51.2628        -999.25       61.31987         0.5542         0.5898        -999.25         0.7044      -28.65585       -97.0251      0.6025504      0.5312569
