#------------------------------------------------------------------------------
# Created by    : vladimir.rabinovich
# Created on    : 09/19/2023 17:20:03
#------------------------------------------------------------------------------
~Version Information Section
VERS.           2.0     :   CWLS log ASCII Standard - VERSION 2.0
WRAP.           NO      :   One line per depth step
~Well Information Section
#MNEM       .UNIT                                         VALUE :DESCRIPTION
#------------------------------------------------------------------------------
STRT        .FT                                            3149 :START DEPTH
STOP        .FT                                           10186 :STOP DEPTH
STEP        .FT                                             0.5 :STEP      
NULL        .                                           -999.25 :NULL      
COMP        .                                  SAMEDAN OIL CORP :COMPANY   
WELL        .                                     ST TR 00817-L :WELL      
FLD         .                                           WILDCAT :FIELD     
LOC         .                                                   :LOCATION  
CNTY        .                        MUSTANG ISLAND LARGE BLOCK :LOCATION  
STAT        .                                             TEXAS :STATE     
CTRY        .                                     UNITED STATES :COUNTRY   
SRVC        .                                                   :SERVICE COMPANY
DATE        .                             9/13/2023 11:18:55 AM :LOG DATE  
API         .                                    42702300080000 :API NUMBER
UWI         .                                    42702300080000 :UNIQUE WELL ID
XCOORD      .                                  304914.569303086 :SURFACE X 
YCOORD      .                                  10013906.4088957 :SURFACE Y 
LAT         .                                        27.5345201 :LATITUDE  
LON         .                                       -97.1203623 :LONGITUDE 
ELEV        .FT                                              65 :ELEVATION VALUE
ELEV_TYPE   .                                                KB :ELEVATION REFERENCE TYPE
~Curve Information Section
#MNEM       .UNIT                                      API CODE :CURVE DESCRIPTION
#------------------------------------------------------------------------------
DEPT        .FT                                                 :DEPTH     
ASFL        .OHMM                                               :          
CILD        .MMHO                                               :          
DT          .US/F                                               :          
GR          .GAPI                                               :          
ILD         .OHMM                                               :          
SP          .MV                                                 :          
SP_NORM     .MV                                                 :SP Normalized
VSH_SP      .V/V                                                :Volume of Shale from SP
~A        DEPTH           ASFL           CILD             DT             GR            ILD             SP        SP_NORM         VSH_SP
# ...
      7367.5000         0.8638       1587.102       111.5739        -999.25         0.6882       -49.5177      0.7746964              1
      7368.0000         0.8577       1594.316        109.877        -999.25         0.6858       -49.5637      0.7286949              1
      7368.5000         0.8706       1592.602       109.3293        -999.25         0.6833       -49.6096      0.6827965              1
      7369.0000         0.8772       1590.775        110.554        -999.25         0.6809       -49.6556       0.636795              1
      7369.5000         0.8818       1588.947       111.7416        -999.25         0.6784       -49.5945      0.6978951              1
      7370.0000         0.8865       1587.545       112.3495        -999.25          0.676       -49.2253       1.067097              1
      7370.5000         0.8912       1586.283       111.3704        -999.25         0.6735       -48.8563       1.436096              1
      7371.0000         0.8958        1585.02        110.631        -999.25         0.6706       -48.4871       1.805298              1
      7371.5000         0.8973        1583.73       111.1891        -999.25         0.6657       -48.5621       1.730297              1
      7372.0000         0.8982       1582.389       112.0067        -999.25         0.6609       -48.7391       1.553295              1
      7372.5000         0.8976       1581.045       112.6744        -999.25          0.656       -48.9162       1.376198              1
      7373.0000         0.8971       1579.939       113.0355        -999.25         0.6511        -49.093       1.199398              1
      7373.5000         0.8966       1581.021       112.9569        -999.25         0.6463       -49.2701       1.022297              1
      7374.0000          0.896         1582.1       112.6085        -999.25         0.6414       -49.4244      0.8679962              1
      7374.5000         0.8948        1583.18       111.8192        -999.25         0.6366       -49.4649      0.8274956              1
      7375.0000         0.8922       1586.119       111.0374        -999.25         0.6305       -49.5054      0.7869949              1
      7375.5000         0.8897       1591.174       112.3014        -999.25         0.6229       -49.5458      0.7465973              1
      7376.0000         0.8898       1599.795       114.0131        -999.25         0.6154       -49.5863      0.7060966              1
      7376.5000         0.8923       1613.807       115.5349        -999.25         0.6079       -49.6268       0.665596              1
      7377.0000         0.8949       1629.508       116.9778        -999.25         0.6011       -49.6627      0.6296959              1
      7377.5000         0.8974       1646.604       118.1444        -999.25         0.5989       -49.6647       0.627697              1
      7378.0000         0.8875       1667.979       119.1266        -999.25         0.5967       -49.6667      0.6256981              1
      7378.5000         0.8764       1689.328       119.2931        -999.25         0.5945       -49.6688      0.6235962              1
      7379.0000         0.8654       1708.746       118.5933        -999.25         0.5923       -49.6708      0.6215973              1
      7379.5000         0.8554       1725.549       117.8718        -999.25         0.5901       -49.6728      0.6195984              1
      7380.0000         0.8468       1705.592       116.5942        -999.25          0.588       -49.6749      0.6174965              1
      7380.5000         0.8428       1682.604        115.382        -999.25         0.5922       -49.7475      0.5448952              1
      7381.0000         0.8421       1653.377       114.3511        -999.25         0.5971       -49.8522       0.440197              1
      7381.5000         0.8432       1601.285       113.6426        -999.25         0.6989       -50.0298      0.2625961              1
      7382.0000         0.8485       1554.574       112.9242        -999.25         0.7275       -50.0808      0.2115974              1
      7382.5000         0.8538       1520.531       111.9425        -999.25         0.7562       -50.0695      0.2228966              1
      7383.0000         0.8641       1498.691       110.6896        -999.25         0.7704       -50.0582      0.2341957              1
      7383.5000         0.8746       1476.852       109.3849        -999.25         0.7832       -50.0469      0.2454948              1
      7384.0000         0.8847       1461.162       108.3082        -999.25         0.7961       -50.0436      0.2487984              1
      7384.5000         0.8946       1447.688       108.5481        -999.25         0.8089       -50.0574      0.2349968              1
      7385.0000         0.9045       1434.225       108.6727        -999.25         0.8131       -50.0713       0.221096              1
      7385.5000         0.9156       1420.748       108.7725        -999.25         0.8141       -50.0851      0.2072983              1
      7386.0000         0.9265       1408.598       108.8088        -999.25         0.8151        -50.099      0.1933975              1
      7386.5000         0.9338        1405.77       108.6747        -999.25         0.8121       -50.1461      0.1462975              1
      7387.0000         0.9395       1402.945       108.5405        -999.25         0.8074       -50.2429      0.0494957              1
      7387.5000         0.9415       1404.309       108.3979        -999.25         0.8027       -50.3398    -0.04740524              1
      7388.0000         0.9435       1410.631       108.2554        -999.25         0.7984       -50.3821    -0.08970261              1
      7388.5000         0.9433       1422.559       108.2161        -999.25         0.7968       -50.4213     -0.1289024              1
      7389.0000         0.9418       1434.811       108.2582        -999.25         0.7951       -50.4607     -0.1683044              1
      7389.5000         0.9404       1447.053       108.3975        -999.25         0.7952       -50.4999     -0.2075043              1
      7390.0000         0.9389       1459.305       109.8079        -999.25         0.7997       -50.5392     -0.2468033              1
      7390.5000         0.9375       1470.371       110.7662        -999.25         0.8042       -50.5786     -0.2862053              1
      7391.0000         0.9337       1479.922       110.6571        -999.25         0.8076       -50.6144     -0.3220024              1
      7391.5000         0.9281       1489.471       108.9816        -999.25         0.8107       -50.6488     -0.3564034              1
      7392.0000         0.9225       1499.021       107.5011        -999.25         0.8139       -50.6832     -0.3908043              1
      7392.5000         0.9212       1501.748       106.8629        -999.25          0.817        -50.725     -0.4326019              1
      7393.0000         0.9228       1487.516       106.6792        -999.25         0.8202       -50.8207     -0.5283051              1
      7393.5000         0.9255       1473.281       106.7887        -999.25         0.8225       -50.9166     -0.6242027              1
      7394.0000         0.9304       1459.072       106.8981        -999.25         0.8203       -51.0122     -0.7198029              1
      7394.5000          0.934       1444.838       106.8418        -999.25         0.8181        -51.108     -0.8156052              1
      7395.0000          0.935       1431.424       106.7479        -999.25          0.816       -51.3856      -1.093204      0.9987405
      7395.5000         0.9264       1418.865       106.6527        -999.25         0.8137       -51.7142      -1.421803      0.9942999
      7396.0000         0.9179       1427.793       106.4874        -999.25         0.8023        -52.043      -1.750603      0.9898567
      7396.5000          0.912       1443.787       106.2797        -999.25         0.7908       -52.2853      -1.992905      0.9865824
