#------------------------------------------------------------------------------
# Created by    : vladimir.rabinovich
# Created on    : 09/19/2023 17:22:54
#------------------------------------------------------------------------------
~Version Information Section
VERS.           2.0     :   CWLS log ASCII Standard - VERSION 2.0
WRAP.           NO      :   One line per depth step
~Well Information Section
#MNEM       .UNIT                                         VALUE :DESCRIPTION
#------------------------------------------------------------------------------
STRT        .FT                                             494 :START DEPTH
STOP        .FT                                            6854 :STOP DEPTH
STEP        .FT                                             0.5 :STEP      
NULL        .                                           -999.25 :NULL      
COMP        .                          HUMBLE OIL & REFINING CO :COMPANY   
WELL        .                                     ST TR 00247-L :WELL      
FLD         .                                           WILDCAT :FIELD     
LOC         .                                                   :LOCATION  
CNTY        .                             GALVESTON LARGE BLOCK :LOCATION  
STAT        .                                             TEXAS :STATE     
CTRY        .                                     UNITED STATES :COUNTRY   
SRVC        .                                                   :SERVICE COMPANY
DATE        .                             9/13/2023 11:19:42 AM :LOG DATE  
API         .                                    42706000180000 :API NUMBER
UWI         .                                    42706000180000 :UNIQUE WELL ID
XCOORD      .                                  979775.061814126 :SURFACE X 
YCOORD      .                                  10543201.0009156 :SURFACE Y 
LAT         .                                        29.0361078 :LATITUDE  
LON         .                                       -95.0678326 :LONGITUDE 
ELEV        .FT                                              11 :ELEVATION VALUE
ELEV_TYPE   .                                                KB :ELEVATION REFERENCE TYPE
~Curve Information Section
#MNEM       .UNIT                                      API CODE :CURVE DESCRIPTION
#------------------------------------------------------------------------------
DEPT        .FT                                                 :DEPTH     
LAT         .OHMM                                               :          
LN          .OHMM                                               :          
SN          .OHMM                                               :          
SP          .MV                                                 :          
SP_NORM     .MV                                                 :SP Normalized
VSH_SP      .V/V                                                :Volume of Shale from SP
~A        DEPTH            LAT             LN             SN             SP        SP_NORM         VSH_SP
# ...
      3876.0000         0.2966          0.356         0.4206        -83.924      -22.46409      0.6646236
      3876.5000         0.3161         0.3502         0.4234        -81.707      -20.25178       0.699191
      3877.0000         0.3343         0.3445         0.4263       -80.4304      -18.97987      0.7190646
      3877.5000         0.3471         0.3387         0.4291        -72.854      -11.40816      0.8373725
      3878.0000         0.3599          0.333         0.4319       -64.2787      -2.837559      0.9712881
      3878.5000         0.3728         0.3272          0.435       -59.3422        2.09425              1
      3879.0000         0.3856         0.3268         0.4476       -57.7708       3.660957              1
      3879.5000         0.4411         0.3361         0.4602       -57.2593       4.167763              1
      3880.0000          0.501         0.3455         0.4729       -57.7433        3.67907              1
      3880.5000          0.561         0.3548         0.4855       -58.0237       3.393978              1
      3881.0000         0.6174         0.3642         0.4981       -58.2573       3.155682              1
      3881.5000         0.6705         0.3735         0.5107       -58.6707       2.737591              1
      3882.0000         0.7217         0.3828         0.5233       -59.3472         2.0564              1
      3882.5000         0.7405         0.4143          0.536       -60.0243       1.374603              1
      3883.0000         0.7593         0.4586         0.5486       -64.3552      -2.960991      0.9693595
      3883.5000         0.7825         0.5028         0.5612       -70.0286      -8.639084      0.8806393
      3884.0000         0.8348         0.5471         0.5738       -74.2825      -12.89768      0.8140988
      3884.5000          0.888          0.592         0.6584       -77.7849      -16.40477      0.7593005
      3885.0000         0.8867         0.6379         0.7442       -80.9343      -19.55886      0.7100177
      3885.5000         0.8097          0.681         0.8301       -84.4481      -23.07735      0.6550413
      3886.0000         0.7327         0.7159         0.9106       -88.3735      -27.00745      0.5936337
      3886.5000         0.6525          0.709         0.8482       -91.6984      -30.33704      0.5416087
      3887.0000         0.5712         0.6851          0.786       -94.7678      -33.41113       0.493576
      3887.5000         0.4899         0.6613         0.7237       -96.3087      -34.95673      0.4694261
      3888.0000         0.4196         0.6374         0.6981       -95.7419      -34.39462      0.4782091
      3888.5000         0.3727         0.6135         0.7576       -94.6757      -33.33311      0.4947951
      3889.0000         0.3258         0.5901         0.8172       -92.6926      -31.35471      0.5257077
      3889.5000         0.3323          0.575         0.8537       -90.1102        -28.777      0.5659844
      3890.0000         0.3692           0.56         0.8851       -87.3724      -26.04389      0.6086892
      3890.5000          0.406         0.5449         0.9165       -84.6326      -23.30879      0.6514252
      3891.0000         0.4441         0.5298         0.9389       -82.2795      -20.96038       0.688119
      3891.5000         0.4875         0.5147         0.9456       -80.7566      -19.44217       0.711841
      3892.0000         0.5308         0.5009         0.9256       -79.3344      -18.02467      0.7339896
      3892.5000         0.5742         0.4887         0.9004       -78.2528      -16.94776      0.7508162
      3893.0000         0.5712         0.4766         0.8751       -77.8069      -16.50655      0.7577101
      3893.5000         0.5525         0.4644         0.8499       -77.8397      -16.54405      0.7571242
      3894.0000         0.5338         0.4522         0.8247       -78.3175      -17.02654      0.7495853
      3894.5000          0.519         0.4419         0.7994        -78.795      -17.50873      0.7420511
      3895.0000         0.5313          0.438         0.7742       -78.8988      -17.61723      0.7403558
      3895.5000         0.5436         0.4342          0.749       -81.3168      -20.03992      0.7025012
      3896.0000          0.556         0.4304         0.7237       -90.5579      -29.28571      0.5580357
      3896.5000         0.5683         0.4265         0.6985       -96.4741       -35.2066      0.4655218
      3897.0000         0.5806         0.4209         0.6733      -100.1116       -38.8488      0.4086124
      3897.5000         0.5838         0.4149          0.648      -103.2487       -41.9906      0.3595219
      3898.0000         0.5754         0.4089         0.6228      -105.4486      -44.19519      0.3250752
      3898.5000         0.5671          0.403         0.5976      -104.9459      -43.69718      0.3328565
      3899.0000         0.5587          0.397         0.5755      -102.4973      -41.25327      0.3710426
      3899.5000         0.5504         0.3898         0.5589       -103.802      -42.56267      0.3505833
      3900.0000         0.5424         0.3819         0.5422      -107.5801      -46.34546      0.2914771
      3900.5000         0.5344         0.3741         0.5256      -114.3805      -53.15055      0.1851476
      3901.0000         0.5264         0.3662         0.5645      -121.0166      -59.79135      0.0813852
      3901.5000         0.5135         0.3583         0.6061      -123.4214      -62.20084     0.04373682
      3902.0000         0.4986         0.3505         0.6477       -125.825      -64.60913     0.00610733
      3902.5000         0.4838         0.3483          0.687      -122.2246      -61.01343     0.06229019
      3903.0000         0.4696         0.3527         0.7238      -120.2247      -59.01822     0.09346527
      3903.5000         0.4594         0.3572         0.7607      -118.2249      -57.02311      0.1246389
      3904.0000         0.4814         0.3616         0.7975      -116.3781        -55.181      0.1534218
      3904.5000         0.5156         0.3661         0.8343      -117.9572       -56.7648       0.128675
      3905.0000         0.5269         0.3705         0.8711      -119.5364      -58.34869      0.1039267
      3905.5000          0.502          0.375         0.9079      -121.6735      -60.49049     0.07046115
      3906.0000         0.4772         0.3794         0.9386      -123.8375      -62.65918     0.03657532
      3906.5000         0.4523         0.3838         0.9665      -124.5382      -63.36457     0.02555352
      3907.0000         0.4274         0.3883         0.9365      -123.0142      -61.84526     0.04929274
      3907.5000         0.4025         0.4044         0.8855       -121.489      -60.32476     0.07305068
      3908.0000         0.3776          0.421         0.8345      -119.9637      -58.80415      0.0968101
      3908.5000         0.3671         0.4377         0.7838      -118.4386      -57.28374      0.1205665
      3909.0000         0.3857         0.4543         0.7333      -116.9146      -55.76443      0.1443057
      3909.5000         0.4043          0.471         0.6828      -115.3894      -54.24393      0.1680636
      3910.0000         0.4229         0.4876         0.6323      -113.8641      -52.72332      0.1918231
      3910.5000         0.4503         0.5042         0.5819      -113.6965      -52.56042      0.1943684
      3911.0000         0.4909         0.5273         0.5314      -115.6222      -54.49081       0.164206
      3911.5000         0.5314         0.5571         0.4919      -117.5479       -56.4212      0.1340437
      3912.0000         0.5719         0.5869         0.4802      -114.6797       -53.5577      0.1787859
      3912.5000          0.603         0.6167         0.4685      -104.9369      -43.81959      0.3309439
      3913.0000         0.6332         0.6465         0.4568       -96.7891      -35.67649      0.4581799
      3913.5000         0.6634         0.6763         0.4824       -90.4723      -29.36438      0.5568066
