#------------------------------------------------------------------------------
# Created by    : vladimir.rabinovich
# Created on    : 09/19/2023 17:22:32
#------------------------------------------------------------------------------
~Version Information Section
VERS.           2.0     :   CWLS log ASCII Standard - VERSION 2.0
WRAP.           NO      :   One line per depth step
~Well Information Section
#MNEM       .UNIT                                         VALUE :DESCRIPTION
#------------------------------------------------------------------------------
STRT        .FT                                          2841.5 :START DEPTH
STOP        .FT                                          6769.5 :STOP DEPTH
STEP        .FT                                             0.5 :STEP      
NULL        .                                           -999.25 :NULL      
COMP        .                      SPINNAKER EXPLORATION CO LLC :COMPANY   
WELL        .                               OCS G18941 ST00BP00 :WELL      
FLD         .                            HIGH ISLAND BLOCK 0235 :FIELD     
LOC         .                                                   :LOCATION  
CNTY        .                           HIGH ISLAND LARGE BLOCK :LOCATION  
STAT        .                                             TEXAS :STATE     
CTRY        .                                     UNITED STATES :COUNTRY   
SRVC        .                                                   :SERVICE COMPANY
DATE        .                             9/13/2023 11:20:02 AM :LOG DATE  
API         .                                    42708405540000 :API NUMBER
UWI         .                                    42708405540000 :UNIQUE WELL ID
XCOORD      .                                  1178439.61066162 :SURFACE X 
YCOORD      .                                  10526520.2311607 :SURFACE Y 
LAT         .                                         28.998365 :LATITUDE  
LON         .                                        -94.445565 :LONGITUDE 
ELEV        .FT                                              98 :ELEVATION VALUE
ELEV_TYPE   .                                                KB :ELEVATION REFERENCE TYPE
~Curve Information Section
#MNEM       .UNIT                                      API CODE :CURVE DESCRIPTION
#------------------------------------------------------------------------------
DEPT        .FT                                                 :DEPTH     
CNCF        .%                                                  :          
DCAL        .IN                                                 :          
DT24        .US/F                                               :          
GR          .GAPI                                               :          
GR_NORM     .GAPI                                               :GammaRay Normalized
M2R1        .OHMM                                               :          
M2R2        .OHMM                                               :          
M2R3        .OHMM                                               :          
M2R6        .OHMM                                               :          
M2R9        .OHMM                                               :          
M2RX        .OHMM                                               :          
PORZ        .%                                                  :          
RWAZ        .OHMM                                               :          
SPCH        .MV                                                 :          
TEN         .LB/F                                               :          
VSH_GR      .V/V                                                :Volume of Shale from GR
ZCOR        .G/CC                                               :          
~A        DEPTH           CNCF           DCAL           DT24             GR        GR_NORM           M2R1           M2R2           M2R3           M2R6           M2R9           M2RX           PORZ           RWAZ           SPCH            TEN         VSH_GR           ZCOR
# ...
      4926.5000         56.297          4.633        140.981         97.334       61.15213          0.709          0.749          0.783          0.812           0.82          0.814         41.763          0.201          6.426         11.001      0.5989815           0.15
      4927.0000         60.116          4.807        142.723         98.075        61.8926          0.696          0.735          0.768          0.795          0.803          0.797         41.771          0.197          6.851        -10.366      0.6147362          0.176
      4927.5000         60.886          5.141        142.942         98.521       62.33807          0.686          0.726          0.758          0.784          0.791          0.786         40.662          0.183          6.928        -30.417      0.6242144          0.181
      4928.0000         58.224          5.456        144.074         99.315       63.13155          0.673          0.715          0.748          0.773           0.78          0.775         39.222          0.167          6.962        -45.775      0.6410967          0.177
      4928.5000         54.718          5.709        144.486         99.612       63.42802          0.658          0.702          0.737          0.761          0.768          0.763         39.028          0.163          6.771        -36.929      0.6474046          0.172
      4929.0000          53.93          5.763        144.466         99.437       63.25249          0.646          0.692           0.73          0.754           0.76          0.756         40.156          0.171          6.427         -5.691        0.64367          0.173
      4929.5000         56.366          5.567        144.004          99.35       63.16496          0.642           0.69          0.729          0.753          0.758          0.755         41.182          0.181          6.359        -10.385      0.6418077          0.191
      4930.0000         58.975          5.218        141.184         98.591       62.40544          0.647          0.696          0.735          0.758          0.764          0.761         40.511          0.176          6.642         -23.16      0.6256477          0.204
      4930.5000         57.901          4.803        137.925         98.153       61.96691          0.658          0.707          0.743          0.767          0.772          0.769         38.411          0.159          6.922          24.67      0.6163173          0.196
      4931.0000         54.183          4.412        139.291         98.686       62.49937          0.668          0.715          0.748          0.772          0.777          0.775         36.975          0.147          7.195         76.297      0.6276463          0.178
      4931.5000         53.729           4.29        142.692         99.438       63.25085          0.673          0.718          0.747           0.77          0.775          0.774         37.418          0.151          7.765         49.187      0.6436352          0.159
      4932.0000         57.815          4.555        143.517        100.797       64.60932          0.676          0.718          0.745          0.767          0.772          0.771         38.896          0.163          8.361        -15.849      0.6725388          0.149
      4932.5000         60.079          5.002        144.005        103.127        66.9388          0.677          0.716          0.744          0.766           0.77           0.77          40.17          0.175          8.502        -58.498       0.722102          0.163
      4933.0000         56.795          5.402          143.2        104.202       68.01328           0.67           0.71          0.739          0.761          0.765          0.765         40.276          0.175          8.394        -79.188      0.7449633          0.187
      4933.5000         53.838          5.722        141.021        102.933       66.74374          0.656          0.698          0.731          0.752          0.756          0.757         38.662          0.158          8.607        -76.528       0.717952          0.177
      4934.0000         53.264          5.916        140.469        100.973       64.78322          0.645           0.69          0.727          0.748          0.752          0.753         36.067          0.136          9.016        -62.024      0.6762387          0.142
      4934.5000         52.887          5.832        142.339         99.162       62.97169          0.645          0.694          0.734          0.755          0.759           0.76         34.258          0.123          9.321        -76.223      0.6376955          0.124
      4935.0000         51.734          5.373        142.355         97.367       61.17616          0.656          0.709           0.75          0.771          0.775          0.777         33.961          0.123          9.429        -87.575      0.5994927          0.125
      4935.5000         50.902          4.805        139.905         97.688       61.49664          0.671          0.724          0.764          0.786          0.789          0.791         34.564           0.13          9.228         -26.89      0.6063114          0.114
      4936.0000         52.131          4.543        140.639         100.15       63.95811          0.681           0.73          0.766          0.788          0.791          0.793         35.892          0.141          8.827         44.947      0.6586831          0.112
      4936.5000         54.534          4.591        138.169        102.064       65.87158          0.685          0.728          0.758           0.78          0.783          0.785         37.728          0.156          8.883         34.367      0.6993954          0.147
      4937.0000         55.067          4.631        134.669        102.149       65.95605          0.685          0.723          0.749          0.769          0.773          0.775         39.418          0.169          9.486        -26.773      0.7011927           0.18
      4937.5000         53.574          4.534        135.496        102.506       66.31252          0.686           0.72          0.743          0.763          0.767          0.768         41.397          0.186          9.862        -65.177      0.7087771          0.171
      4938.0000         52.855          4.359        136.341        103.993       67.79899          0.684          0.717          0.739          0.759          0.763          0.765         44.468          0.216          9.658        -62.551       0.740404          0.146
      4938.5000         52.532          4.177         140.81        105.011       68.81647          0.674          0.711          0.732          0.751          0.755          0.757         47.013          0.241          9.464        -41.173      0.7620525          0.152
      4939.0000         51.468          3.973        144.945        105.235       69.03994          0.662          0.701          0.723          0.742          0.746          0.748         46.294           0.23           9.58        -27.679      0.7668073          0.166
      4939.5000         51.011          3.887        145.419        105.739       69.54341          0.657          0.699          0.721           0.74          0.744          0.746         42.292          0.189          9.712        -18.874      0.7775194          0.162
      4940.0000         51.503          4.062        143.336        106.306       70.10989          0.665          0.707           0.73          0.749          0.753          0.755         38.612          0.157          9.745        -15.846      0.7895721           0.15
      4940.5000         51.853          4.417        139.935         106.72       70.52336          0.674          0.715          0.738          0.757          0.762          0.764          38.38          0.157          9.694        -39.847      0.7983694          0.145
      4941.0000         52.162          4.666        139.457        107.314       71.11684          0.673          0.711          0.734          0.752          0.757           0.76         40.414          0.175           9.51        -54.535      0.8109965          0.149
