#------------------------------------------------------------------------------
# Created by    : vladimir.rabinovich
# Created on    : 09/19/2023 17:20:39
#------------------------------------------------------------------------------
~Version Information Section
VERS.           2.0     :   CWLS log ASCII Standard - VERSION 2.0
WRAP.           NO      :   One line per depth step
~Well Information Section
#MNEM       .UNIT                                         VALUE :DESCRIPTION
#------------------------------------------------------------------------------
STRT        .FT                                             520 :START DEPTH
STOP        .FT                                           11478 :STOP DEPTH
STEP        .FT                                             0.5 :STEP      
NULL        .                                           -999.25 :NULL      
COMP        .                                      SHELL OIL CO :COMPANY   
WELL        .                                OCS 00730 ST00BP00 :WELL      
FLD         .                                           WILDCAT :FIELD     
LOC         .                                                   :LOCATION  
CNTY        .                             GALVESTON LARGE BLOCK :LOCATION  
STAT        .                                             TEXAS :STATE     
CTRY        .                                     UNITED STATES :COUNTRY   
SRVC        .                                                   :SERVICE COMPANY
DATE        .                             9/13/2023 11:19:42 AM :LOG DATE  
API         .                                    42706000260000 :API NUMBER
UWI         .                                    42706000260000 :UNIQUE WELL ID
XCOORD      .                                  961416.888637646 :SURFACE X 
YCOORD      .                                  10353223.2377546 :SURFACE Y 
LAT         .                                         28.512881 :LATITUDE  
LON         .                                        -95.114699 :LONGITUDE 
ELEV        .FT                                              72 :ELEVATION VALUE
ELEV_TYPE   .                                                KB :ELEVATION REFERENCE TYPE
~Curve Information Section
#MNEM       .UNIT                                      API CODE :CURVE DESCRIPTION
#------------------------------------------------------------------------------
DEPT        .FT                                                 :DEPTH     
ASN         .OHMM                                               :          
CILD        .MMHO                                               :          
ILD         .OHMM                                               :          
LAT         .OHMM                                               :          
LN          .OHMM                                               :          
SP          .MV                                                 :          
SP_NORM     .MV                                                 :SP Normalized
VSH_SP      .V/V                                                :Volume of Shale from SP
~A        DEPTH            ASN           CILD            ILD            LAT             LN             SP        SP_NORM         VSH_SP
# ...
      7806.5000         0.7652       1599.266         0.5877        -999.25        -999.25       -47.5182      -3.615761      0.9297495
      7807.0000         0.7671       1592.299         0.5917        -999.25        -999.25       -47.7629      -3.860462      0.9191104
      7807.5000         0.7691       1582.998         0.5946        -999.25        -999.25       -47.9175       -4.01506      0.9123887
      7808.0000          0.771       1570.889         0.5974        -999.25        -999.25       -48.0724       -4.16996      0.9056539
      7808.5000          0.773       1558.779         0.6003        -999.25        -999.25       -48.1832      -4.280762      0.9008365
      7809.0000         0.7732        1546.67         0.6032        -999.25        -999.25       -48.2186      -4.316162      0.8992973
      7809.5000         0.7734       1534.549         0.6061        -999.25        -999.25       -48.2542      -4.351761      0.8977495
      7810.0000         0.7736       1522.439          0.609        -999.25        -999.25       -48.2897       -4.38726      0.8962061
      7810.5000         0.7738       1510.328         0.6118        -999.25        -999.25       -48.3252       -4.42276      0.8946626
      7811.0000          0.774       1512.537         0.6147        -999.25        -999.25       -48.3607       -4.45826      0.8931192
      7811.5000         0.7742        1520.74         0.6176        -999.25        -999.25       -48.2265      -4.324062      0.8989538
      7812.0000         0.7744       1528.941         0.6205        -999.25        -999.25       -48.0555      -4.153061      0.9063886
      7812.5000         0.7746       1537.143         0.6234        -999.25        -999.25       -47.8849       -3.98246      0.9138061
      7813.0000         0.7748       1545.344         0.6263        -999.25        -999.25       -47.7142       -3.81176      0.9212278
      7813.5000         0.7751       1553.545         0.6291        -999.25        -999.25       -47.5435       -3.64106      0.9286495
      7814.0000         0.7753       1561.748          0.632        -999.25        -999.25       -47.3726      -3.470161      0.9360799
      7814.5000         0.7755       1569.949         0.6349        -999.25        -999.25       -47.2019      -3.299461      0.9435017
      7815.0000         0.7757       1578.139         0.6355        -999.25        -999.25       -47.3813      -3.478863      0.9357016
      7815.5000         0.7759       1585.105         0.6325        -999.25        -999.25       -47.5829      -3.680462      0.9269364
      7816.0000         0.7761       1576.758         0.6295        -999.25        -999.25       -47.7842       -3.88176      0.9181843
      7816.5000         0.7763        1568.42         0.6266        -999.25        -999.25       -47.9858      -4.083363       0.909419
      7817.0000         0.7765        1560.07         0.6236        -999.25        -999.25       -48.1874      -4.284962      0.9006538
      7817.5000         0.7772       1551.732         0.6207        -999.25        -999.25        -48.389      -4.486561      0.8918887
      7818.0000         0.7782       1543.385         0.6177        -999.25        -999.25       -48.5906       -4.68816      0.8831235
      7818.5000         0.7792       1535.047         0.6148        -999.25        -999.25        -48.613       -4.71056      0.8821496
      7819.0000         0.7802       1526.596         0.6118        -999.25        -999.25       -48.4979      -4.595459       0.887154
      7819.5000         0.7813       1516.367         0.6089        -999.25        -999.25       -48.3829      -4.480461      0.8921539
      7820.0000         0.7823       1506.137         0.6059        -999.25        -999.25       -48.2645      -4.362061      0.8973017
      7820.5000         0.7833       1503.668          0.603        -999.25        -999.25       -47.9518      -4.049362      0.9108973
      7821.0000         0.7843       1516.197            0.6        -999.25        -999.25       -47.6397      -3.737263      0.9244668
      7821.5000         0.7854       1528.703         0.5952        -999.25        -999.25        -47.327      -3.424561      0.9380626
      7822.0000         0.7864       1541.209         0.5898        -999.25        -999.25       -47.0143      -3.111862      0.9516582
      7822.5000         0.7874       1553.715         0.5845        -999.25        -999.25       -46.7065      -2.804062      0.9650408
      7823.0000         0.7884       1566.244         0.5791        -999.25        -999.25       -46.4276      -2.525162      0.9771669
      7823.5000         0.7863        1580.02         0.5737        -999.25        -999.25       -46.1486      -2.246162      0.9892973
      7824.0000         0.7837       1594.904         0.5683        -999.25        -999.25       -45.9961      -2.093662      0.9959278
      7824.5000         0.7811       1609.813         0.5629        -999.25        -999.25       -45.8802       -1.97776              1
      7825.0000         0.7766       1624.721         0.5575        -999.25        -999.25       -45.7471      -1.844662              1
      7825.5000         0.7718       1639.629         0.5521        -999.25        -999.25       -45.5514       -1.64896              1
      7826.0000          0.767       1654.537         0.5467        -999.25        -999.25       -45.3557      -1.453262              1
      7826.5000         0.7622       1669.443         0.5414        -999.25        -999.25         -45.16      -1.257561              1
      7827.0000         0.7574       1684.352          0.536        -999.25        -999.25       -45.1187      -1.216259              1
      7827.5000         0.7527       1694.979         0.5306        -999.25        -999.25       -45.4634      -1.560963              1
      7828.0000         0.7479       1682.426         0.5257        -999.25        -999.25       -45.8081      -1.905663              1
      7828.5000         0.7431       1669.875         0.5238        -999.25        -999.25       -46.1787       -2.27626      0.9879887
      7829.0000         0.7383       1657.346         0.5219        -999.25        -999.25       -46.8445      -2.942062      0.9590408
      7829.5000         0.7335       1644.795         0.5201        -999.25        -999.25       -47.5104       -3.60796      0.9300887
      7830.0000         0.7287       1632.242         0.5182        -999.25        -999.25       -48.1762      -4.273762      0.9011408
      7830.5000         0.7239       1623.021         0.5163        -999.25        -999.25        -48.842       -4.93956       0.872193
      7831.0000         0.7191       1616.281         0.5144        -999.25        -999.25       -49.5079      -5.605461      0.8432408
      7831.5000         0.7143       1609.541         0.5126        -999.25        -999.25       -49.3594      -5.456963      0.8496973
      7832.0000         0.7095       1616.994         0.5107        -999.25        -999.25       -49.0214      -5.118961       0.864393
      7832.5000         0.7047       1632.627         0.5088        -999.25        -999.25       -48.6834       -4.78096      0.8790887
      7833.0000          0.701        1648.26         0.5069        -999.25        -999.25       -48.3449      -4.442459      0.8938061
      7833.5000         0.6974       1663.893         0.5051        -999.25        -999.25       -47.9462      -4.043762      0.9111408
      7834.0000         0.6937       1679.525         0.5032        -999.25        -999.25        -47.489      -3.586559      0.9310192
      7834.5000           0.69       1695.158         0.5013        -999.25        -999.25       -47.0318       -3.12936      0.9508974
      7835.0000         0.6864       1710.791         0.4994        -999.25        -999.25       -46.5746      -2.672161      0.9707756
      7835.5000         0.6827       1728.441         0.5005        -999.25        -999.25       -46.1174      -2.214962      0.9906538
