#------------------------------------------------------------------------------
# Created by    : vladimir.rabinovich
# Created on    : 09/19/2023 17:19:40
#------------------------------------------------------------------------------
~Version Information Section
VERS.           2.0     :   CWLS log ASCII Standard - VERSION 2.0
WRAP.           NO      :   One line per depth step
~Well Information Section
#MNEM       .UNIT                                         VALUE :DESCRIPTION
#------------------------------------------------------------------------------
STRT        .FT                                            4790 :START DEPTH
STOP        .FT                                           12963 :STOP DEPTH
STEP        .FT                                             0.5 :STEP      
NULL        .                                           -999.25 :NULL      
COMP        .                         ATLANTIC RICHFIELD CO THE :COMPANY   
WELL        .                               OCS G06150 ST00BP00 :WELL      
FLD         .                                           WILDCAT :FIELD     
LOC         .                                                   :LOCATION  
CNTY        .                           HIGH ISLAND LARGE BLOCK :LOCATION  
STAT        .                                             TEXAS :STATE     
CTRY        .                                     UNITED STATES :COUNTRY   
SRVC        .                                                   :SERVICE COMPANY
DATE        .                             9/13/2023 11:19:59 AM :LOG DATE  
API         .                                    42708402440000 :API NUMBER
UWI         .                                    42708402440000 :UNIQUE WELL ID
XCOORD      .                                  1291497.32246636 :SURFACE X 
YCOORD      .                                   10652058.279547 :SURFACE Y 
LAT         .                                         29.347015 :LATITUDE  
LON         .                                        -94.095521 :LONGITUDE 
ELEV        .FT                                             105 :ELEVATION VALUE
ELEV_TYPE   .                                                KB :ELEVATION REFERENCE TYPE
~Curve Information Section
#MNEM       .UNIT                                      API CODE :CURVE DESCRIPTION
#------------------------------------------------------------------------------
DEPT        .FT                                                 :DEPTH     
ALL         .OHMM                                               :          
CILD        .MMHO                                               :          
GR          .GAPI                                               :          
GR_NORM     .GAPI                                               :GammaRay Normalized
ILD         .OHMM                                               :          
SP          .MV                                                 :          
SP_NORM     .MV                                                 :SP Normalized
VSH_GR      .V/V                                                :Volume of Shale from GR
VSH_SP      .V/V                                                :Volume of Shale from SP
~A        DEPTH            ALL           CILD             GR        GR_NORM            ILD             SP        SP_NORM         VSH_GR         VSH_SP
# ...
      9162.5000         0.8898       1047.166        62.3826       61.86481         0.9023       -48.9234      -15.34331      0.6141449      0.7639491
      9163.0000          0.866       1028.053        61.7869       61.12018         0.9034       -49.7514      -16.17211      0.5983018      0.7511984
      9163.5000         0.8423       1038.975        61.1912       60.37556         0.8184        -50.873      -17.29451      0.5824587      0.7339306
      9164.0000         0.8186       1172.818        60.5955       59.63093         0.7333       -52.0564      -18.47871      0.5666156      0.7157121
      9164.5000         0.7948       1450.234        59.9998       58.88631         0.6482       -53.2398      -19.66291      0.5507725      0.6974937
      9165.0000         0.7711       1951.449        59.4041       58.14168         0.5862       -55.6158      -22.03971      0.5349293      0.6609276
      9165.5000         0.7611       2046.072        58.8083       57.39693         0.5315       -62.5797      -29.00441      0.5190836      0.5537783
      9166.0000         0.7589       4063.098        58.2126       56.65231         0.4769       -87.6141      -54.03961      0.5032405      0.1686214
      9166.5000         0.7964       4064.645        56.3233       54.29068         0.4223       -97.2993      -63.72561      0.4529932     0.01960596
      9167.0000         0.8415       4066.191        51.2426        47.9398         0.3676         -99.74      -66.16711      0.3178682              0
      9167.5000         0.8864       4067.738        47.6437       43.44118          0.319       -101.481      -67.90891      0.2221528              0
      9168.0000         0.9314       4069.285        44.6012       39.63806         0.2744      -102.8711      -69.29981      0.1412353              0
      9168.5000         0.9793       5299.313        42.9076       37.52106         0.2299      -103.8423      -70.27181      0.0961927              0
      9169.0000          0.952       7550.414        41.2165       35.40718         0.1854      -104.6038      -71.03411     0.05121661              0
      9169.5000          0.879       7658.039         39.886       33.74406         0.1456      -105.3644      -71.79552     0.01583099              0
      9170.0000         0.8083       7754.156        38.9198       32.53631         0.1231      -105.9811      -72.41301              0              0
      9170.5000         0.7416       7956.109         38.041       31.43781          0.129        -106.51      -72.94272              0              0
      9171.0000          0.708       7641.758        37.2521       30.45168         0.1517      -106.5256      -72.95911              0              0
      9171.5000           0.68       7284.711        36.4631       29.46543         0.1745      -105.9756      -72.40991              0              0
      9172.0000         0.6519        6915.75        35.6742       28.47931         0.1973      -105.4244      -71.85951              0              0
      9172.5000         0.6397       6542.422        35.1554       27.83081           0.22      -104.8743      -71.31021              0              0
      9173.0000         0.6289       6169.883        34.9176       27.53355         0.2428      -104.3231      -70.75981              0              0
      9173.5000         0.6297       5796.555        34.6797       27.23618         0.2656      -103.8866      -70.32411              0              0
      9174.0000         0.6529       5423.227        34.4419       26.93893         0.2884      -103.5953      -70.03362              0              0
      9174.5000         0.6761       3596.484         34.204       26.64156         0.3111      -103.3036      -69.74271              0              0
      9175.0000         0.7134       3390.359        34.0707       26.47493         0.3339       -103.012      -69.45192              0              0
      9175.5000         0.7658       2702.082          34.05       26.44905         0.3504      -103.0138      -69.45451              0              0
      9176.0000         0.8184       2532.098        34.0294       26.42331         0.3668      -103.4056      -69.84712              0              0
      9176.5000         0.8633       2426.848        34.0087       26.39743         0.3831      -103.7975      -70.23982              0              0
      9177.0000         0.9023       2367.074        33.8871       26.24543         0.3995      -104.1893      -70.63242              0              0
      9177.5000         0.9404       2315.941         33.492       25.75156         0.4159      -104.5812      -71.02512              0              0
      9178.0000         0.9766       2288.887        33.0969       25.25768         0.4006      -104.9725      -71.41722              0              0
      9178.5000         1.0127       2269.723        32.7018       24.76381         0.3841      -105.3644      -71.80992              0              0
      9179.0000          1.045       2336.695        32.0519       23.95143         0.3676      -105.7563      -72.20262              0              0
      9179.5000         1.0715       2484.039        31.3615       23.08843         0.3511      -106.1482      -72.59532              0              0
      9180.0000         1.0415       2764.434        31.8009       23.63768         0.3345      -106.5391      -72.98702              0              0
      9180.5000         0.9751       3000.547        32.4224       24.41456          0.318      -106.8368      -73.28552              0              0
      9181.0000         0.8057       4109.133        32.9542       25.07931         0.3029      -107.1345      -73.58401              0              0
      9181.5000         0.6886       4150.328         33.436       25.68156         0.2942      -107.4326      -73.88292              0              0
      9182.0000         0.6463       4191.633        33.9185       26.28468         0.2855      -107.7151      -74.16623              0              0
      9182.5000         0.7051       4230.453        33.7701       26.09918         0.2768      -107.9376      -74.38953              0              0
      9183.0000         0.7638       4268.883        33.2717       25.47618         0.2682      -108.1595      -74.61223              0              0
      9183.5000         0.8225        3536.91        32.7732       24.85306         0.2595      -108.3821      -74.83563              0              0
      9184.0000         0.9252       3403.168        32.2747       24.22993         0.2508      -108.6045      -75.05882              0              0
      9184.5000         1.0128       3342.203         31.972       23.85156         0.2421       -108.827      -75.28213              0              0
      9185.0000          1.036       3400.684         31.708       23.52156         0.2334      -109.0494      -75.50533              0              0
      9185.5000         0.8928       3519.039        31.6569       23.45768          0.231       -109.272      -75.72873              0              0
      9186.0000         0.7012       4094.852        31.8858        23.7438         0.2303      -109.4944      -75.95193              0              0
      9186.5000         0.6139       4116.297        32.1147       24.02993         0.2297      -109.7168      -76.17513              0              0
      9187.0000         0.5891       4137.742        32.3289       24.29768         0.2291      -109.9119      -76.37103              0              0
      9187.5000         0.5642       4531.203        31.8649       23.71768         0.2284       -110.099      -76.55893              0              0
      9188.0000         0.5378       5404.164        31.4003       23.13693         0.2278      -110.2861      -76.74683              0              0
      9188.5000          0.553       6417.711        30.9356       22.55606         0.2271      -110.1655      -76.62703              0              0
