#------------------------------------------------------------------------------
# Created by    : vladimir.rabinovich
# Created on    : 09/19/2023 17:21:44
#------------------------------------------------------------------------------
~Version Information Section
VERS.           2.0     :   CWLS log ASCII Standard - VERSION 2.0
WRAP.           NO      :   One line per depth step
~Well Information Section
#MNEM       .UNIT                                         VALUE :DESCRIPTION
#------------------------------------------------------------------------------
STRT        .FT                                            3434 :START DEPTH
STOP        .FT                                            9802 :STOP DEPTH
STEP        .FT                                             0.5 :STEP      
NULL        .                                           -999.25 :NULL      
COMP        .                                  UMC PETROLEUM CO :COMPANY   
WELL        .                               OCS G11352 ST00BP00 :WELL      
FLD         .                            HIGH ISLAND BLOCK 0093 :FIELD     
LOC         .                                                   :LOCATION  
CNTY        .                           HIGH ISLAND LARGE BLOCK :LOCATION  
STAT        .                                             TEXAS :STATE     
CTRY        .                                     UNITED STATES :COUNTRY   
SRVC        .                                                   :SERVICE COMPANY
DATE        .                             9/13/2023 11:19:57 AM :LOG DATE  
API         .                                    42708403880000 :API NUMBER
UWI         .                                    42708403880000 :UNIQUE WELL ID
XCOORD      .                                  1243413.75648782 :SURFACE X 
YCOORD      .                                  10663707.7269925 :SURFACE Y 
LAT         .                                         29.377731 :LATITUDE  
LON         .                                        -94.246854 :LONGITUDE 
ELEV        .FT                                              85 :ELEVATION VALUE
ELEV_TYPE   .                                                KB :ELEVATION REFERENCE TYPE
~Curve Information Section
#MNEM       .UNIT                                      API CODE :CURVE DESCRIPTION
#------------------------------------------------------------------------------
DEPT        .FT                                                 :DEPTH     
CALI        .IN                                                 :          
CALI_1      .IN                                                 :          
DPHI        .%                                                  :          
DRHO        .G/C3                                               :          
DT          .US/F                                               :          
GR          .GAPI                                               :          
GR_1        .GAPI                                               :          
GR_NORM     .GAPI                                               :GammaRay Normalized
ILD         .OHMM                                               :          
ILM         .OHMM                                               :          
NPHI        .%                                                  :          
RFOC        .OHMM                                               :          
SP          .MV                                                 :          
SP_NORM     .MV                                                 :SP Normalized
VSH_GR      .V/V                                                :Volume of Shale from GR
VSH_SP      .V/V                                                :Volume of Shale from SP
~A        DEPTH           CALI         CALI_1           DPHI           DRHO             DT             GR           GR_1        GR_NORM            ILD            ILM           NPHI           RFOC             SP        SP_NORM         VSH_GR         VSH_SP
# ...
      8906.0000         9.6357        -999.25        17.9579         0.0268       118.6394        -999.25        69.3431       79.70321         0.5586         0.6279        38.8362         0.8488       -38.0611     -0.8392601      0.9936853       0.987658
      8906.5000         9.6422        -999.25        18.1459        -0.0222       119.4185        -999.25        69.5769       80.05665          0.566         0.6346        39.2548         0.8339       -37.9224     -0.7038689              1       0.989649
      8907.0000         9.6487        -999.25        19.0133         -0.045       120.1295        -999.25        70.5883        81.6251         0.5739         0.6421        38.8752         0.8197       -37.5036     -0.2883759              1      0.9957592
      8907.5000         9.6553        -999.25        19.7871        -0.0202       120.0421        -999.25        72.3132        84.3084         0.5843           0.65         38.425         0.8058       -37.0569      0.1550179              1              1
      8908.0000         9.6576        -999.25        20.0335        -0.0149       119.3685        -999.25        73.3556       85.92528         0.5942          0.658         38.128         0.8259       -36.8346       0.374012              1              1
      8908.5000          9.659        -999.25        20.0401         -0.024       118.0577        -999.25        71.6555         83.257         0.6023         0.6665        37.8808         0.8526       -36.7966      0.4087029              1              1
      8909.0000         9.6659        -999.25        19.6717        -0.0352       117.3923        -999.25        70.2012       80.97279           0.61         0.6753        37.7973          0.882       -36.7628      0.4391975              1              1
      8909.5000         9.6739        -999.25        19.1422        -0.0471        117.489        -999.25        69.5037       79.87108         0.6176          0.681        37.7515          0.889       -36.7708      0.4278908       0.997257              1
      8910.0000         9.6793        -999.25        19.2272         -0.059       117.9952        -999.25        71.2039       82.51579         0.6235         0.6819        37.5299         0.8844       -36.7845      0.4108849              1              1
      8910.5000         9.6808        -999.25        19.7309        -0.0551       118.6807        -999.25        72.8021       85.00111         0.6273         0.6806        36.9621         0.8773       -36.7773      0.4147758              1              1
      8911.0000         9.6822        -999.25        20.2298         -0.041       119.4291        -999.25        73.2513       85.69111         0.6297         0.6773        36.2573         0.8726       -36.7518      0.4369698              1              1
      8911.5000         9.6851        -999.25        20.5391        -0.0262       119.6454        -999.25        73.3357       85.81113         0.6306         0.6745        35.9239         0.8729       -36.6787      0.5067635              1              1
      8912.0000         9.6966        -999.25        20.6785        -0.0143        119.004        -999.25        73.7366       86.42567         0.6261         0.6672        35.7683         0.8736       -36.6146      0.5675545              1              1
      8912.5000         9.7082        -999.25        20.8082        -0.0024       118.2188        -999.25        74.6511       87.84271         0.6187         0.6548         35.644          0.876       -36.5603      0.6185493              1              1
      8913.0000         9.7234        -999.25        20.9275         0.0034       117.4734        -999.25         76.381       90.53381         0.6054         0.6399        35.6198         0.8739       -36.6118      0.5637398              1              1
      8913.5000         9.7399        -999.25        20.9459         0.0106        117.338        -999.25        77.9744       93.01164         0.5949         0.6261        35.7636         0.8644       -36.6923      0.4799347              1              1
      8914.0000         9.7526        -999.25         20.429         0.0144       117.7181        -999.25        79.0267         94.644         0.5834         0.6216        36.3292          0.847        -36.741      0.4279289              1              1
      8914.5000         9.7633        -999.25        19.7668         0.0114       118.1276        -999.25        79.6981       95.68118         0.5711         0.6184        36.9164         0.8325       -36.7886      0.3770218              1              1
      8915.0000         9.7556        -999.25         19.265         0.0071       118.5171        -999.25        79.4089       95.21745         0.5613         0.6149        37.0067         0.8239       -36.7548      0.4075165              1              1
      8915.5000          9.746        -999.25        19.2716         0.0018        118.838        -999.25        78.6067       93.95215         0.5525         0.6096        36.9668         0.8298       -36.6959      0.4631081              1              1
      8916.0000          9.739        -999.25        19.2908        -0.0007       118.8503        -999.25        78.2734       93.41951         0.5468         0.6043        36.9657         0.8391       -36.6016         0.5541              1              1
      8916.5000          9.733        -999.25         19.095         0.0009       118.7222        -999.25        77.5798        92.3239         0.5384         0.5976        36.9992         0.8505        -36.507      0.6453934              1              1
      8917.0000         9.7545        -999.25        18.8916         0.0029       118.5317        -999.25        74.4327       87.39468         0.5312         0.5887        37.0328         0.8549       -36.4119      0.7371864              1              1
      8917.5000         9.7941        -999.25        19.1886         0.0043       118.4733        -999.25        72.3231       84.08657         0.5258           0.58        37.2126         0.8443        -36.358      0.7877769              1              1
      8918.0000         9.8574        -999.25        19.6657         0.0052       118.5927        -999.25        73.1769       85.40878         0.5221         0.5712        37.6827          0.831       -36.3067      0.8357697              1              1
      8918.5000          9.939        -999.25        19.6762          0.004       119.1226        -999.25        75.0383       88.30534         0.5201         0.5657        38.7419         0.8229       -36.2536      0.8855667              1              1
      8919.0000        10.0014        -999.25        18.9759        -0.0071       120.1801        -999.25        75.0892       88.37302         0.5182         0.5684        39.9628         0.8199       -36.1792      0.9566612              1              1
      8919.5000        10.0294        -999.25        18.2583        -0.0332       121.3623        -999.25         74.465       87.38583         0.5165         0.5761        41.0399         0.8145       -36.0732       1.059353              1              1
      8920.0000        10.0469        -999.25        17.5377        -0.0678        122.366        -999.25        75.2133        88.5432         0.5192         0.5835        41.3838         0.8099       -35.9727       1.156548              1              1
      8920.5000        10.0697        -999.25        17.4942        -0.0901       122.9097        -999.25        75.1301       88.40131         0.5238         0.5926        40.7043         0.8113       -35.8677        1.25824              1              1
      8921.0000        10.0956        -999.25        18.7242        -0.1112       122.4634        -999.25        73.8296       86.35742          0.532         0.6028        40.0227         0.8128        -35.672        1.45063              1              1
      8921.5000        10.1109        -999.25        20.1369        -0.0948       121.8591        -999.25        72.3821       84.08385         0.5404         0.6131        39.5193          0.821       -35.3965       1.722824              1              1
