#------------------------------------------------------------------------------
# Created by    : vladimir.rabinovich
# Created on    : 09/19/2023 17:20:25
#------------------------------------------------------------------------------
~Version Information Section
VERS.           2.0     :   CWLS log ASCII Standard - VERSION 2.0
WRAP.           NO      :   One line per depth step
~Well Information Section
#MNEM       .UNIT                                         VALUE :DESCRIPTION
#------------------------------------------------------------------------------
STRT        .FT                                            2998 :START DEPTH
STOP        .FT                                           12526 :STOP DEPTH
STEP        .FT                                             0.5 :STEP      
NULL        .                                           -999.25 :NULL      
COMP        .                                 CALIFORNIA CO THE :COMPANY   
WELL        .                               OCS G01117 ST00BP00 :WELL      
FLD         .                                       HIGH ISLAND :FIELD     
LOC         .                                                   :LOCATION  
CNTY        .                           HIGH ISLAND LARGE BLOCK :LOCATION  
STAT        .                                             TEXAS :STATE     
CTRY        .                                     UNITED STATES :COUNTRY   
SRVC        .                                                   :SERVICE COMPANY
DATE        .                             9/13/2023 11:19:15 AM :LOG DATE  
API         .                                    42708000660000 :API NUMBER
UWI         .                                    42708000660000 :UNIQUE WELL ID
XCOORD      .                                  1214371.69372255 :SURFACE X 
YCOORD      .                                  10618355.5582238 :SURFACE Y 
LAT         .                                         29.252113 :LATITUDE  
LON         .                                        -94.336419 :LONGITUDE 
ELEV        .FT                                              77 :ELEVATION VALUE
ELEV_TYPE   .                                                KB :ELEVATION REFERENCE TYPE
~Curve Information Section
#MNEM       .UNIT                                      API CODE :CURVE DESCRIPTION
#------------------------------------------------------------------------------
DEPT        .FT                                                 :DEPTH     
ASN         .OHMM                                               :          
CILD        .OHMM                                               :          
ILD         .OHMM                                               :          
SP          .MV                                                 :          
SP_NORM     .MV                                                 :SP Normalized
VSH_SP      .V/V                                                :Volume of Shale from SP
~A        DEPTH            ASN           CILD            ILD             SP        SP_NORM         VSH_SP
# ...
      7444.0000         0.8399       1536.879         0.5997       -46.4473      -1.598816      0.9919079
      7444.5000         0.8389       1545.494         0.6036       -46.1941      -1.345615      0.9953295
      7445.0000         0.8379       1554.096         0.6075       -45.9406      -1.092117      0.9987552
      7445.5000         0.8369       1562.699         0.6115       -45.6874     -0.8389168              1
      7446.0000         0.8359       1571.313         0.6154       -45.4684      -0.619915              1
      7446.5000         0.8349       1579.916         0.6194       -45.3545     -0.5060158              1
      7447.0000         0.8339       1582.107         0.6233       -45.2408     -0.3923149              1
      7447.5000          0.833        1580.77         0.6273        -45.127     -0.2785149              1
      7448.0000         0.8321       1579.434         0.6312       -45.0131     -0.1646156              1
      7448.5000         0.8312       1578.098         0.6351       -44.8995    -0.05101776              1
      7449.0000         0.8302       1576.762          0.637       -44.7856     0.06288528              1
      7449.5000         0.8293       1575.375         0.6363       -44.6718      0.1766853              1
      7450.0000         0.8284       1573.002         0.6356       -44.7144      0.1340828              1
      7450.5000         0.8274       1570.625         0.6349       -44.9601     -0.1116142              1
      7451.0000         0.8265       1568.254         0.6342       -45.2062     -0.3577156              1
      7451.5000         0.8256       1558.123         0.6335       -45.4524     -0.6039162              1
      7452.0000         0.8247       1546.527         0.6329       -45.6985     -0.8500175              1
      7452.5000         0.8241       1538.814         0.6322       -45.9446      -1.096115      0.9987012
      7453.0000         0.8235        1550.52         0.6315       -46.1705      -1.322018      0.9956484
      7453.5000         0.8229       1562.467         0.6308       -46.3763      -1.527817      0.9928674
      7454.0000         0.8223       1574.781         0.6301       -46.5822      -1.733715      0.9900849
      7454.5000         0.8216       1587.094         0.6294       -46.7884      -1.939915      0.9872984
      7455.0000          0.821       1599.408         0.6292       -46.9943      -2.145817       0.984516
      7455.5000         0.8204       1611.721         0.6297       -47.2001      -2.351616      0.9817349
      7456.0000         0.8198       1624.023         0.6302       -47.1654      -2.316917      0.9822038
      7456.5000         0.8192       1629.098         0.6307       -47.1232      -2.274715      0.9827741
      7457.0000         0.8186        1632.74         0.6311       -47.0811      -2.232616       0.983343
      7457.5000          0.818       1622.709         0.6316       -47.0389      -2.190414      0.9839133
      7458.0000         0.8174       1605.797         0.6321       -46.9968      -2.148315      0.9844822
      7458.5000         0.8169       1588.883         0.6325       -46.9547      -2.106216      0.9850512
      7459.0000         0.8166       1571.971          0.633       -46.9125      -2.064014      0.9856215
      7459.5000         0.8164       1555.471         0.6335       -46.8703      -2.021816      0.9861917
      7460.0000         0.8161       1544.156         0.6339       -46.8282      -1.979717      0.9867606
      7460.5000         0.8159       1533.254         0.6344        -46.786      -1.937515      0.9873309
      7461.0000         0.8156       1541.881         0.6349       -46.7438      -1.895317      0.9879011
      7461.5000         0.8154       1550.506         0.6353       -46.7017      -1.853214      0.9884701
      7462.0000         0.8152       1554.795         0.6358       -46.6687      -1.820217       0.988916
      7462.5000         0.8149       1548.693         0.6365       -46.6758      -1.827316      0.9888201
      7463.0000         0.8147       1542.598           0.64       -46.6829      -1.834415      0.9887241
      7463.5000         0.8144       1536.502         0.6435       -46.6899      -1.841415      0.9886295
      7464.0000         0.8142       1531.213          0.647        -46.697      -1.848515      0.9885336
      7464.5000          0.814       1528.443         0.6506       -46.7041      -1.855618      0.9884376
      7465.0000         0.8137       1525.676         0.6541       -46.7112      -1.862717      0.9883417
      7465.5000         0.8158        1522.91         0.6576       -46.7183      -1.869816      0.9882457
      7466.0000         0.8181       1520.143         0.6611       -46.7253      -1.876816      0.9881511
      7466.5000         0.8205       1517.375         0.6646       -46.6768      -1.828316      0.9888065
      7467.0000         0.8229       1514.607         0.6681       -46.6154      -1.766914      0.9896363
      7467.5000         0.8252       1516.949         0.6716        -46.554      -1.705517       0.990466
      7468.0000         0.8276       1522.412         0.6751       -46.4926      -1.644115      0.9912958
      7468.5000           0.83       1527.875         0.6786       -46.4313      -1.582817      0.9921241
      7469.0000         0.8298       1533.338         0.6821       -46.3698      -1.521317      0.9929552
      7469.5000         0.8281       1539.957          0.688       -46.3084      -1.459915      0.9937849
      7470.0000         0.8264       1549.229         0.6943       -46.2471      -1.398617      0.9946133
      7470.5000         0.8247         1558.5         0.7005       -46.1857      -1.337215       0.995443
      7471.0000         0.8231       1567.773         0.7067       -46.0618      -1.213314      0.9971174
      7471.5000         0.8214       1571.617          0.713       -45.8993      -1.050816      0.9993133
      7472.0000           0.82       1567.797         0.7192       -45.7369     -0.8884163              1
      7472.5000         0.8218       1558.379         0.7255       -45.5743     -0.7258148              1
      7473.0000         0.8237       1547.586         0.7317        -45.412     -0.5635147              1
      7473.5000         0.8255       1536.795          0.738       -45.2495     -0.4010162              1
      7474.0000         0.8274        1524.82         0.7442        -45.087     -0.2385178              1
      7474.5000         0.8293        1514.09         0.7505       -44.9494     -0.1009178              1
      7475.0000         0.8312       1492.688         0.7567        -44.915    -0.06651688              1
      7475.5000         0.8331       1478.742         0.7591       -44.8806    -0.03211594              1
      7476.0000         0.8351       1482.309         0.7563       -44.8462    0.002285004              1
      7476.5000          0.837       1486.008         0.7534       -44.8118     0.03668594              1
      7477.0000         0.8389       1489.705         0.7505       -44.7774     0.07108307              1
      7477.5000         0.8409       1493.404         0.7476        -44.743       0.105484              1
      7478.0000         0.8407       1497.104         0.7447       -44.7086      0.1398849              1
      7478.5000         0.8392       1507.264         0.7418       -44.7595     0.08898544              1
      7479.0000         0.8376       1518.434          0.739       -44.8655    -0.01701736              1
      7479.5000         0.8361       1529.615         0.7361       -44.9717     -0.1232147              1
      7480.0000         0.8346       1540.785         0.7332       -45.0778     -0.2293167              1
      7480.5000          0.833       1551.857         0.7303        -45.184     -0.3355141              1
      7481.0000         0.8314       1562.893         0.7274         -45.29     -0.4415169              1
      7481.5000         0.8297        1573.93         0.7246       -45.3607     -0.5122147              1
