#------------------------------------------------------------------------------
# Created by    : vladimir.rabinovich
# Created on    : 09/19/2023 17:20:33
#------------------------------------------------------------------------------
~Version Information Section
VERS.           2.0     :   CWLS log ASCII Standard - VERSION 2.0
WRAP.           NO      :   One line per depth step
~Well Information Section
#MNEM       .UNIT                                         VALUE :DESCRIPTION
#------------------------------------------------------------------------------
STRT        .FT                                             510 :START DEPTH
STOP        .FT                                            9509 :STOP DEPTH
STEP        .FT                                             0.5 :STEP      
NULL        .                                           -999.25 :NULL      
COMP        .                       BLUE DOLPHIN EXPLORATION CO :COMPANY   
WELL        .                                OCS 00714 ST00BP00 :WELL      
FLD         .                              GALVESTON BLOCK 0288 :FIELD     
LOC         .                                                   :LOCATION  
CNTY        .                             GALVESTON LARGE BLOCK :LOCATION  
STAT        .                                             TEXAS :STATE     
CTRY        .                                     UNITED STATES :COUNTRY   
SRVC        .                                                   :SERVICE COMPANY
DATE        .                             9/13/2023 11:19:25 AM :LOG DATE  
API         .                                    42706000660000 :API NUMBER
UWI         .                                    42706000660000 :UNIQUE WELL ID
XCOORD      .                                  1093932.46617998 :SURFACE X 
YCOORD      .                                  10479390.8980397 :SURFACE Y 
LAT         .                                         28.865655 :LATITUDE  
LON         .                                       -94.7077791 :LONGITUDE 
ELEV        .FT                                              83 :ELEVATION VALUE
ELEV_TYPE   .                                                KB :ELEVATION REFERENCE TYPE
~Curve Information Section
#MNEM       .UNIT                                      API CODE :CURVE DESCRIPTION
#------------------------------------------------------------------------------
DEPT        .FT                                                 :DEPTH     
ASN         .OHMM                                               :          
CALI        .IN                                                 :          
DT          .US/F                                               :          
IL          .OHMM                                               :          
SP          .MV                                                 :          
SP_NORM     .MV                                                 :SP Normalized
VSH_SP      .V/V                                                :Volume of Shale from SP
~A        DEPTH            ASN           CALI             DT             IL             SP        SP_NORM         VSH_SP
# ...
      1113.0000         1.3021        -999.25        -999.25         1.0246       -63.5947      -5.405685      0.1485786
      1113.5000         1.2709        -999.25        -999.25          1.012       -63.3766      -5.190556      0.2023611
      1114.0000         1.2537        -999.25        -999.25          1.018       -63.6516      -5.468525      0.1328688
      1114.5000         1.2521        -999.25        -999.25         1.0239       -63.6469      -5.466797      0.1333008
      1115.0000         1.2601        -999.25        -999.25         1.0298       -63.2735      -5.096367      0.2259083
      1115.5000         1.2636        -999.25        -999.25         1.0379       -63.0467      -4.872536      0.2818661
      1116.0000         1.2507        -999.25        -999.25         1.0487       -63.0905      -4.919308      0.2701731
      1116.5000         1.2242        -999.25        -999.25         1.0476       -63.3273      -5.159077      0.2102308
      1117.0000         1.2032        -999.25        -999.25         1.0293        -63.485      -5.319748       0.170063
      1117.5000         1.1939        -999.25        -999.25         1.0196       -63.3939      -5.231617      0.1920958
      1118.0000         1.2096        -999.25        -999.25         1.0226       -62.9279      -4.768585      0.3078537
      1118.5000         1.2199        -999.25        -999.25         1.0353       -62.4298      -4.273457      0.4316359
      1119.0000         1.2186        -999.25        -999.25          1.046       -62.2329      -4.079525      0.4801188
      1119.5000         1.2267        -999.25        -999.25         1.0465       -62.5664      -4.415997      0.3960009
      1120.0000         1.2125        -999.25        -999.25         1.0486       -63.0416      -4.894165      0.2764587
      1120.5000         1.1857        -999.25        -999.25         1.0523       -63.0994      -4.954937      0.2612658
      1121.0000         1.1707        -999.25        -999.25         1.0388       -63.3005      -5.159004      0.2102489
      1121.5000         1.1904        -999.25        -999.25         1.0328       -63.4586      -5.320076       0.169981
      1122.0000         1.2285        -999.25        -999.25          1.038       -63.6403      -5.504745      0.1238136
      1122.5000         1.2506        -999.25        -999.25         1.0533       -63.6445      -5.511917      0.1220207
      1123.0000         1.2698        -999.25        -999.25         1.0683       -63.3339      -5.204288      0.1989279
      1123.5000         1.2697        -999.25        -999.25         1.0572       -62.8192      -4.692554      0.3268614
      1124.0000         1.2562        -999.25        -999.25         1.0542       -62.1722      -4.048527      0.4878683
      1124.5000         1.2581        -999.25        -999.25         1.0649       -61.7676      -3.646896      0.5882759
      1125.0000         1.2852        -999.25        -999.25         1.0914       -61.7533      -3.635567      0.5911083
      1125.5000         1.3227        -999.25        -999.25         1.1253       -61.6149      -3.500134      0.6249666
      1126.0000         1.3584        -999.25        -999.25         1.1642       -61.2706      -3.158806      0.7102985
      1126.5000         1.3955        -999.25        -999.25         1.1973       -60.6533      -2.544479      0.8638802
      1127.0000         1.4172        -999.25        -999.25         1.2293       -60.0121      -1.906246              1
      1127.5000         1.4316        -999.25        -999.25         1.2581        -59.468      -1.365116              1
      1128.0000         1.4474        -999.25        -999.25         1.2851       -59.1749      -1.074986              1
      1128.5000         1.4601        -999.25        -999.25            1.3        -58.705     -0.6080589              1
      1129.0000         1.4532        -999.25        -999.25         1.2987       -58.0724     0.02157593              1
      1129.5000         1.4277        -999.25        -999.25          1.285       -57.4843      0.6067047              1
      1130.0000         1.4096        -999.25        -999.25         1.2626       -57.0648       1.023232              1
      1130.5000         1.4016        -999.25        -999.25         1.2275       -57.0554       1.029663              1
      1131.0000          1.396        -999.25        -999.25         1.1614       -57.3431      0.7389908              1
      1131.5000         1.3704        -999.25        -999.25          1.121       -57.5781      0.5010262              1
      1132.0000         1.3271        -999.25        -999.25         1.0995       -57.5757      0.5004539              1
      1132.5000         1.2826        -999.25        -999.25         1.0783       -57.2135       0.859684              1
      1133.0000         1.2408        -999.25        -999.25         1.0672       -56.6554       1.414814              1
      1133.5000         1.2026        -999.25        -999.25         1.0648       -56.6694       1.397846              1
      1134.0000         1.1959        -999.25        -999.25         1.0735       -57.1587      0.9055748              1
      1134.5000         1.1974        -999.25        -999.25         1.0883       -57.2646      0.7967033              1
      1135.0000         1.2233        -999.25        -999.25         1.1078       -57.2737      0.7846336              1
      1135.5000         1.2704        -999.25        -999.25         1.1324       -57.6891      0.3662643              1
      1136.0000         1.3378        -999.25        -999.25         1.1605       -58.3693      -0.316906              1
      1136.5000         1.4084        -999.25        -999.25         1.1905       -58.5656     -0.5161781              1
      1137.0000         1.4751        -999.25        -999.25         1.2222       -58.7813     -0.7348442              1
      1137.5000          1.488        -999.25        -999.25         1.2561       -58.9469     -0.9034157              1
      1138.0000         1.4856        -999.25        -999.25         1.2752       -58.6827      -0.642189              1
      1138.5000         1.4796        -999.25        -999.25         1.2898       -58.3502     -0.3126564              1
      1139.0000          1.469        -999.25        -999.25         1.2915       -58.1629     -0.1283264              1
      1139.5000         1.4513        -999.25        -999.25         1.2898       -58.2264     -0.1947937              1
      1140.0000         1.4299        -999.25        -999.25           1.29       -58.3515     -0.3228683              1
      1140.5000         1.4179        -999.25        -999.25          1.287       -58.2094     -0.1837349              1
      1141.0000         1.4221        -999.25        -999.25         1.2784       -58.0454    -0.02270508              1
      1141.5000         1.4458        -999.25        -999.25         1.2761       -58.2404     -0.2206764              1
      1142.0000           1.48        -999.25        -999.25         1.2763       -59.0716      -1.054848              1
      1142.5000         1.5163        -999.25        -999.25         1.2755       -59.8267      -1.812916              1
      1143.0000         1.5583        -999.25        -999.25         1.2735       -60.0499      -2.039085      0.9902287
      1143.5000         1.5928        -999.25        -999.25         1.2768       -59.6725      -1.664658              1
      1144.0000         1.5798        -999.25        -999.25         1.2563       -58.4991     -0.4942245              1
      1144.5000         1.5167        -999.25        -999.25         1.2378       -58.2371     -0.2351952              1
      1145.0000         1.4323        -999.25        -999.25         1.2405       -57.9135     0.08543396              1
      1145.5000         1.3657        -999.25        -999.25         1.2497       -57.9136     0.08236313              1
      1146.0000         1.3291        -999.25        -999.25         1.2622       -58.0036    -0.01060867              1
