#------------------------------------------------------------------------------
# Created by    : vladimir.rabinovich
# Created on    : 09/19/2023 17:22:34
#------------------------------------------------------------------------------
~Version Information Section
VERS.           2.0     :   CWLS log ASCII Standard - VERSION 2.0
WRAP.           NO      :   One line per depth step
~Well Information Section
#MNEM       .UNIT                                         VALUE :DESCRIPTION
#------------------------------------------------------------------------------
STRT        .FT                                            2432 :START DEPTH
STOP        .FT                                            8088 :STOP DEPTH
STEP        .FT                                             0.5 :STEP      
NULL        .                                           -999.25 :NULL      
COMP        .                                  XTO OFFSHORE INC :COMPANY   
WELL        .                               OCS G23162 ST00BP00 :WELL      
FLD         .                                 BRAZOS BLOCK 0398 :FIELD     
LOC         .                                                   :LOCATION  
CNTY        .                                BRAZOS LARGE BLOCK :LOCATION  
STAT        .                                             TEXAS :STATE     
CTRY        .                                     UNITED STATES :COUNTRY   
SRVC        .                                                   :SERVICE COMPANY
DATE        .                             9/13/2023 11:09:58 AM :LOG DATE  
API         .                                    42704403400000 :API NUMBER
UWI         .                                    42704403400000 :UNIQUE WELL ID
XCOORD      .                                  869002.191083907 :SURFACE X 
YCOORD      .                                  10369331.9113669 :SURFACE Y 
LAT         .                                        28.5523806 :LATITUDE  
LON         .                                       -95.4033279 :LONGITUDE 
ELEV        .FT                                             100 :ELEVATION VALUE
ELEV_TYPE   .                                                KB :ELEVATION REFERENCE TYPE
~Curve Information Section
#MNEM       .UNIT                                      API CODE :CURVE DESCRIPTION
#------------------------------------------------------------------------------
DEPT        .FT                                                 :DEPTH     
CO12        .MMHO                                               :          
DCAL        .IN                                                 :          
DPHI        .FRAC                                               :          
DRHO        .G/CC                                               :          
GR          .GAPI                                               :          
GR_NORM     .GAPI                                               :GammaRay Normalized
HO01        .OHMM                                               :          
HO02        .OHMM                                               :          
HO03        .OHMM                                               :          
HO06        .OHMM                                               :          
HO09        .OHMM                                               :          
HO12        .OHMM                                               :          
NPHI        .FRAC                                               :          
RWA         .OHMM                                               :          
SP          .MV                                                 :          
SP_NORM     .MV                                                 :SP Normalized
TENS        .LB/F                                               :          
VSH_GR      .V/V                                                :Volume of Shale from GR
VSH_SP      .V/V                                                :Volume of Shale from SP
~A        DEPTH           CO12           DCAL           DPHI           DRHO             GR        GR_NORM           HO01           HO02           HO03           HO06           HO09           HO12           NPHI            RWA             SP        SP_NORM           TENS         VSH_GR         VSH_SP
# ...
      3984.5000       1515.023         1.8357         0.2676          0.006        84.4638       79.58208         0.7441         0.6701         0.6568         0.6234         0.6731         0.6696         0.3638          0.064        66.2452        0.46875       3380.112       0.991108              1
      3985.0000       1527.727         1.8818         0.2684         0.0052        86.6049       82.67194         0.6752         0.6546         0.6473          0.613         0.6588         0.6572          0.378         0.0609        67.3074       1.529213       3393.448              1              1
      3985.5000       1533.766         2.0048         0.2687         0.0065        90.7275       88.63409         0.6684         0.6473         0.6364         0.5998          0.638         0.6376         0.3832         0.0633        67.9282        2.14827       3396.387              1              1
      3986.0000        1546.93         1.7127         0.2729         0.0061         95.093       94.94835          0.678         0.6623          0.652         0.6122         0.6617         0.6616         0.3946         0.0634        68.3531       2.571442       3388.701              1              1
      3986.5000       1545.732         2.0509         0.2758         0.0065        98.4905       99.85941         0.6641         0.6633         0.6557         0.6128         0.6413         0.6406         0.4095         0.0677        68.7249       2.941498       3377.851              1              1
      3987.0000       1585.351         1.7051          0.277         0.0076        99.6581       101.5381         0.6248          0.639          0.637         0.5957         0.6416         0.6391         0.4236         0.0649         68.798       3.012856       3371.522              1              1
      3987.5000       1620.519         1.0825         0.2783         0.0065        97.1757       97.92602         0.6245         0.6227         0.6194         0.5707         0.6181         0.6134         0.4195         0.0636         67.978       2.191124       3372.426              1              1
      3988.0000       1642.071         1.0133         0.2781          0.005        92.8227       91.60237         0.6577         0.6071         0.5958         0.5734         0.6072            0.6         0.4117         0.0654        66.3248      0.5361862       3378.303              1              1
      3988.5000       1664.024          1.021         0.2813        -0.0023        90.1141       87.66236         0.6926         0.6199         0.6012         0.5792         0.6238         0.6137         0.3881          0.062        64.5721      -1.218254       3389.832              1              1
      3989.0000       1665.841         1.0517         0.2811        -0.0059        91.6024       89.80597         0.6838         0.6195         0.6011         0.5727         0.6006         0.5896         0.3751         0.0649        63.6094      -2.182682       3400.908              1      0.9916963
      3989.5000       1681.958         1.0748          0.282        -0.0075        94.7796       94.39773          0.648           0.62         0.6067         0.5689         0.6103         0.5981         0.3689         0.0628        63.8583      -1.935524       3404.525              1              1
      3990.0000       1706.652         1.1901         0.2805        -0.0038        97.2308       97.93709         0.6635         0.6003         0.5906         0.5687         0.6081         0.5961         0.3884         0.0616        65.6476     -0.1479645       3406.107              1              1
      3990.5000       1744.802         0.9518         0.2781         0.0018        97.3527       98.10003         0.6116         0.5755         0.5687         0.5362          0.575         0.5649          0.404         0.0601        67.3605       1.563202       3417.862              1              1
      3991.0000       1740.532         0.9057          0.275         0.0059        94.2823       93.63556         0.6197         0.5586         0.5496         0.5304         0.5689         0.5598          0.402         0.0582         67.812       2.012962       3437.301              1              1
      3991.5000       1710.528         0.8673         0.2729         0.0074          90.74       88.48706         0.6894         0.5844         0.5734          0.561         0.6105         0.6006         0.3823         0.0571        67.9183       2.117523       3452.672              1              1
      3992.0000       1690.876         0.9134          0.274         0.0057        88.2201       84.82059         0.6832         0.6236         0.6031         0.5667         0.6044         0.5952         0.3871         0.0577        68.7614       2.958893       3452.672              1              1
      3992.5000       1710.178          1.144         0.2755         0.0045        89.5783        86.7756         0.5992         0.5919         0.5788         0.5403         0.5873         0.5789         0.3926         0.0611        69.5283       3.724052       3446.569              1              1
      3993.0000       1692.627          0.898         0.2762         0.0058        92.5302       91.04076         0.5758         0.5784         0.5732         0.5374         0.5887         0.5805         0.4113         0.0598        69.7806       3.974617       3451.768              1              1
      3993.5000       1689.104         1.0287         0.2742         0.0089        95.1896       94.88192         0.5936          0.597         0.5975         0.5657         0.6235         0.6144         0.4056          0.058         70.076        4.26828       3459.454              1              1
      3994.0000       1713.913         0.9903         0.2718         0.0117        94.8424       94.36488         0.5514         0.5756         0.5837         0.5466         0.5905         0.5824         0.4095          0.057        70.3283       4.518845       3449.508              1              1
      3994.5000       1754.865         0.9288          0.272         0.0089        91.8681       90.03974         0.5888         0.5494         0.5464         0.5235         0.5639         0.5564         0.4202         0.0559        69.6511       3.839905       3418.765              1              1
      3995.0000       1729.378         0.8212         0.2754         0.0027        88.7105       85.44888         0.6477         0.5698          0.565         0.5407         0.5793         0.5713         0.4142         0.0592         68.144       2.331062       3388.701              1              1
      3995.5000       1689.139         0.7136         0.2791         -0.002         86.405       82.09318         0.7069         0.6204         0.6056         0.5758         0.6189         0.6096         0.4053         0.0634        66.2883      0.4736328       3379.659              1              1
      3996.0000       1653.341         0.2293         0.2809         0.0002        86.4631       82.16365         0.6705         0.6125         0.6024          0.573         0.6053         0.5965         0.4063         0.0635        64.6949      -1.121506        3383.05              1              1
      3996.5000       1623.989         0.0449         0.2793         0.0088         89.199        86.1157          0.648         0.6018         0.5991           0.58         0.6171         0.6086         0.4055         0.0641        64.7978      -1.020348       3382.372              1              1
      3997.0000        1581.86         0.5598         0.2814         0.0137        94.8571       94.30363         0.6894         0.6197         0.6231         0.6209         0.6518         0.6441         0.4048         0.0637        66.4477      0.6278229       3375.365              1              1
      3997.5000       1584.981         0.5291         0.2847         0.0129        99.2579        100.669         0.5892         0.6219         0.6311          0.602         0.6505         0.6451         0.4351         0.0706        68.0909       2.269279       3376.947              1              1
