#------------------------------------------------------------------------------
# Created by    : vladimir.rabinovich
# Created on    : 09/19/2023 17:22:51
#------------------------------------------------------------------------------
~Version Information Section
VERS.           2.0     :   CWLS log ASCII Standard - VERSION 2.0
WRAP.           NO      :   One line per depth step
~Well Information Section
#MNEM       .UNIT                                         VALUE :DESCRIPTION
#------------------------------------------------------------------------------
STRT        .FT                                            3080 :START DEPTH
STOP        .FT                                           13004 :STOP DEPTH
STEP        .FT                                             0.5 :STEP      
NULL        .                                           -999.25 :NULL      
COMP        .                                     INEXCO OIL CO :COMPANY   
WELL        .                                     ST TR 00006-L :WELL      
FLD         .                                           WILDCAT :FIELD     
LOC         .                                                   :LOCATION  
CNTY        .                           HIGH ISLAND LARGE BLOCK :LOCATION  
STAT        .                                             TEXAS :STATE     
CTRY        .                                     UNITED STATES :COUNTRY   
SRVC        .                                                   :SERVICE COMPANY
DATE        .                             9/13/2023 11:19:15 AM :LOG DATE  
API         .                                    42708302350000 :API NUMBER
UWI         .                                    42708302350000 :UNIQUE WELL ID
XCOORD      .                                  1306008.37969423 :SURFACE X 
YCOORD      .                                  10751503.0860356 :SURFACE Y 
LAT         .                                          29.62091 :LATITUDE  
LON         .                                         -94.05279 :LONGITUDE 
ELEV        .FT                                              84 :ELEVATION VALUE
ELEV_TYPE   .                                                KB :ELEVATION REFERENCE TYPE
~Curve Information Section
#MNEM       .UNIT                                      API CODE :CURVE DESCRIPTION
#------------------------------------------------------------------------------
DEPT        .FT                                                 :DEPTH     
DT          .US/F                                               :          
GR          .GAPI                                               :          
GR_NORM     .GAPI                                               :GammaRay Normalized
ILD         .OHMM                                               :          
SFL         .OHMM                                               :          
SP          .MV                                                 :          
SP_NORM     .MV                                                 :SP Normalized
VSH_GR      .V/V                                                :Volume of Shale from GR
VSH_SP      .V/V                                                :Volume of Shale from SP
~A        DEPTH             DT             GR        GR_NORM            ILD            SFL             SP        SP_NORM         VSH_GR         VSH_SP
# ...
      9678.5000        -999.25        33.6849         64.896         0.3426         0.4477       -43.0846      -3.084599      0.6786382      0.9718298
      9679.0000        -999.25        34.2294       66.03442         0.3431          0.448       -42.9438      -2.943802      0.7028601      0.9737324
      9679.5000        -999.25        35.8531       69.42917         0.3436         0.4537       -43.1265      -3.126499      0.7750887      0.9712635
      9680.0000        -999.25        37.4302       72.72647         0.3449         0.4602       -43.3218        -3.3218      0.8452441      0.9686243
      9680.5000        -999.25        37.8152       73.53146         0.3461         0.4621       -43.5382        -3.5382      0.8623716         0.9657
      9681.0000        -999.25        37.1989       72.24291         0.3473         0.4606       -43.5382        -3.5382      0.8349556         0.9657
      9681.5000        -999.25        36.6663       71.12938         0.3497         0.4614       -43.5661      -3.566101      0.8112634       0.965323
      9682.0000        -999.25        36.6865       71.17159          0.353         0.4676       -43.6597      -3.659698      0.8121616      0.9640581
      9682.5000        -999.25        36.9658       71.75557         0.3563         0.4765       -43.8177      -3.817699      0.8245866       0.961923
      9683.0000        -999.25        37.2194       72.28575         0.3597         0.4849       -43.4338        -3.4338       0.835867      0.9671108
      9683.5000        -999.25        37.4921        72.8559         0.3634         0.4987       -42.3437        -2.3437       0.847998      0.9818419
      9684.0000        -999.25         37.856       73.61674          0.367         0.4989       -41.1623        -1.1623      0.8641859      0.9978067
      9684.5000        -999.25        38.9415       75.88625         0.3706         0.4878       -39.9933    0.006698608      0.9124735              1
      9685.0000        -999.25        41.4233       81.07508         0.3701         0.4627       -39.0159      0.9841003              1              1
      9685.5000        -999.25        42.5529        83.4368         0.3696         0.4667       -38.4859       1.514099              1              1
      9686.0000        -999.25        42.4739       83.27162          0.369         0.4653       -38.4961       1.503899              1              1
      9686.5000        -999.25         41.676       81.60342         0.3669         0.4732       -38.5224         1.4776              1              1
      9687.0000        -999.25        41.3563       80.93501         0.3641         0.4893       -38.3398       1.660198              1              1
      9687.5000        -999.25        42.4354       83.19112         0.3613         0.4895       -38.2929         1.7071              1              1
      9688.0000        -999.25        42.7646       83.87939          0.358         0.4748       -38.2294       1.770599              1              1
      9688.5000        -999.25        43.0002         84.372          0.354          0.454       -38.1777         1.8223              1              1
      9689.0000        -999.25        43.4173       85.24404         0.3501         0.4493       -38.1033       1.896702              1              1
      9689.5000        -999.25        43.2457       84.88525         0.3496         0.4497       -37.9656       2.034401              1              1
      9690.0000        -999.25        42.7261        83.7989         0.3523         0.4433       -37.9308       2.069199              1              1
      9690.5000        -999.25        41.2362        80.6839         0.3552         0.4476       -38.1435       1.856499              1              1
      9691.0000        -999.25        38.6331       75.24145         0.3602         0.4768       -38.1974       1.802601      0.8987542              1
      9691.5000        -999.25        39.7502       77.57704         0.3654         0.5176       -38.0876       1.912399      0.9484477              1
      9692.0000        -999.25        40.5854       79.32324         0.3669         0.5378       -38.0827       1.917301      0.9856009              1
      9692.5000        -999.25        41.1484       80.50033          0.367         0.5128       -38.0876       1.912399              1              1
      9693.0000        -999.25        41.1591       80.52271         0.3672         0.4759       -38.1677       1.832298              1              1
      9693.5000        -999.25        40.5589       79.26784         0.3664         0.4466       -38.1275       1.872501      0.9844221              1
      9694.0000        -999.25        39.2018       76.43048         0.3654         0.4513       -38.3764         1.6236      0.9240528              1
      9694.5000        -999.25        38.1896       74.31422         0.3644         0.4647       -38.2575         1.7425      0.8790261              1
      9695.0000        -999.25        38.0901       74.10619         0.3638         0.4795       -37.7206         2.2794      0.8745997              1
      9695.5000        -999.25        38.5345       75.03533         0.3633         0.4961       -37.2845         2.7155      0.8943688              1
      9696.0000        -999.25        39.5303       77.11729         0.3628         0.4982       -37.2446       2.755402      0.9386658              1
      9696.5000        -999.25        40.8824       79.94421         0.3643         0.4965       -37.1403       2.859699      0.9988129              1
      9697.0000        -999.25        42.3685       83.05127         0.3673         0.5017       -36.9444       3.055599              1              1
      9697.5000        -999.25        42.5574        83.4462          0.367           0.49       -36.7482       3.251801              1              1
      9698.0000        -999.25        41.2514       80.71567         0.3639         0.4639       -36.6045         3.3955              1              1
      9698.5000        -999.25        41.1882       80.58356         0.3604         0.4473       -37.0723         2.9277              1              1
      9699.0000        -999.25        41.0897       80.37759         0.3564         0.4512       -37.5066       2.493401              1              1
      9699.5000        -999.25        40.0762       78.25862         0.3525         0.4604        -37.954       2.046001      0.9629494              1
      9700.0000        -999.25        39.0906       76.19798         0.3489         0.4609       -38.2147       1.785301       0.919106              1
      9700.5000        -999.25        38.1567       74.24542         0.3453         0.4564       -38.4064       1.593601      0.8775622              1
      9701.0000        -999.25        37.7518        73.3989         0.3427          0.455       -38.8282       1.171799      0.8595511              1
      9701.5000        -999.25        37.5426       72.96149         0.3411         0.4545       -39.3288      0.6711998      0.8502444              1
      9702.0000        -999.25        38.0436       74.00896         0.3407         0.4608       -39.5679      0.4320984       0.872531              1
      9702.5000        -999.25        39.2346       76.49905         0.3435         0.4604       -39.1912      0.8087997      0.9255116              1
      9703.0000        -999.25        39.9941       78.08698         0.3459         0.4476       -38.1837       1.816299      0.9592975              1
      9703.5000        -999.25        40.4404       79.02008          0.348         0.4465       -37.4691       2.530899      0.9791507              1
      9704.0000        -999.25        40.6695       79.49908         0.3508           0.45       -36.9734         3.0266       0.989342              1
      9704.5000        -999.25        42.1612       82.61783         0.3553         0.4604       -36.5681         3.4319              1              1
