#------------------------------------------------------------------------------
# Created by    : vladimir.rabinovich
# Created on    : 09/19/2023 17:22:30
#------------------------------------------------------------------------------
~Version Information Section
VERS.           2.0     :   CWLS log ASCII Standard - VERSION 2.0
WRAP.           NO      :   One line per depth step
~Well Information Section
#MNEM       .UNIT                                         VALUE :DESCRIPTION
#------------------------------------------------------------------------------
STRT        .FT                                            1687 :START DEPTH
STOP        .FT                                            6155 :STOP DEPTH
STEP        .FT                                             0.5 :STEP      
NULL        .                                           -999.25 :NULL      
COMP        .                       AMERICAN COASTAL ENERGY INC :COMPANY   
WELL        .                                ST TR 00596-L NE/4 :WELL      
FLD         .                        SHERMAN OFFSHORE SOUTHWEST :FIELD     
LOC         .                                                   :LOCATION  
CNTY        .                      MATAGORDA ISLAND LARGE BLOCK :LOCATION  
STAT        .                                             TEXAS :STATE     
CTRY        .                                     UNITED STATES :COUNTRY   
SRVC        .                                                   :SERVICE COMPANY
DATE        .                             9/13/2023 11:12:01 AM :LOG DATE  
API         .                                    42703302820000 :API NUMBER
UWI         .                                    42703302820000 :UNIQUE WELL ID
XCOORD      .                                  484247.709270029 :SURFACE X 
YCOORD      .                                   10242127.767654 :SURFACE Y 
LAT         .                                        28.1765839 :LATITUDE  
LON         .                                       -96.5886238 :LONGITUDE 
ELEV        .FT                                              79 :ELEVATION VALUE
ELEV_TYPE   .                                                KB :ELEVATION REFERENCE TYPE
~Curve Information Section
#MNEM       .UNIT                                      API CODE :CURVE DESCRIPTION
#------------------------------------------------------------------------------
DEPT        .FT                                                 :DEPTH     
CILD        .MMHO                                               :          
DT          .US/F                                               :          
ILD         .OHMM                                               :          
SN          .OHMM                                               :          
SP          .MV                                                 :          
SP_NORM     .MV                                                 :SP Normalized
VSH_SP      .V/V                                                :Volume of Shale from SP
~A        DEPTH           CILD             DT            ILD             SN             SP        SP_NORM         VSH_SP
      1687.0000       3075.162        -999.25        -999.25        -999.25       -62.5683        -9.7381      0.8502644
      1687.5000       2644.926        -999.25        -999.25        -999.25       -64.1541       -11.3239      0.8150244
      1688.0000       2166.896        -999.25        -999.25         0.2712       -65.8389       -13.0087      0.7775844
      1688.5000       923.0388        -999.25        -999.25          0.431       -64.5431       -11.7129        0.80638
      1689.0000       127.4618        -999.25        -999.25         0.5601       -61.6576        -8.8274      0.8705022
      1689.5000       477.9756        -999.25        -999.25         0.6855       -59.3677        -6.5375      0.9213889
      1690.0000       1816.278        -999.25         0.4747         0.7654       -57.8738        -5.0436      0.9545867
      1690.5000       2103.038        -999.25         0.4925         0.7977       -56.6777        -3.8475      0.9811667
      1691.0000       1939.709        -999.25         0.5204         0.8088       -55.4816        -2.6514              1
      1691.5000        1760.42        -999.25         0.5864         0.8015       -54.4843        -1.6541              1
      1692.0000       1577.186         188.92         0.6253         0.8016       -53.2883        -0.4581              1
      1692.5000       1537.338          184.4         0.6668         0.8091       -51.0981         1.7321              1
      1693.0000       1521.387         179.88          0.673         0.8091       -51.2942          1.536              1
      1693.5000       1497.472         175.36         0.6856         0.8167       -51.3898         1.4404              1
      1694.0000       1481.522       171.9133         0.6956          0.813       -51.3861         1.4441              1
      1694.5000       1441.678       170.2189         0.7184         0.8397        -51.283         1.5472              1
      1695.0000       1401.834       169.6201         0.7351         0.8553       -51.1796         1.6506              1
      1695.5000       1354.026       169.0214         0.7662         0.8792       -51.6725         1.1577              1
      1696.0000       1298.254       167.8253         0.8059         0.8793       -52.2647         0.5655              1
      1696.5000       1250.449       165.8327         0.8361         0.8875       -53.0548        -0.2246              1
      1697.0000       1210.609       165.0349         0.8556         0.9041       -53.4483        -0.6181              1
      1697.5000       1194.665       161.4495         0.8675         0.9041       -54.0404        -1.2102              1
      1698.0000       1186.685       160.0545         0.8677         0.9001       -54.2352         -1.405              1
      1698.5000       1218.528       158.8585         0.8442         0.8919       -53.6356        -0.8054              1
      1699.0000       1258.335       159.3554         0.8138         0.8798       -53.0362         -0.206              1
      1699.5000       1314.069       160.5488          0.781         0.8679        -52.437         0.3932              1
      1700.0000        1385.73       163.3351         0.7358         0.8405       -52.3339         0.4963              1
      1700.5000       1471.597       165.3854         0.6943         0.8029       -52.9051        -0.0749              1
      1701.0000       1520.974       167.2138         0.6745          0.803       -53.6237        -0.7935              1
      1701.5000       1568.683       168.8049         0.6684         0.8179       -54.4176        -1.5874              1
      1702.0000       1584.536       170.1969         0.6533         0.8762        -55.013        -2.1828              1
      1702.5000       1592.424       170.5934         0.6385         0.8441        -56.402        -3.5718      0.9872934
      1703.0000       1592.348       170.9899         0.6299         0.8069       -57.7918        -4.9616      0.9564089
      1703.5000       1600.237       171.3864         0.6299          0.825       -58.5857        -5.7555      0.9387667
      1704.0000        1616.09       171.7825         0.6242         0.7809        -58.188        -5.3578      0.9476044
      1704.5000       1616.014       171.7812         0.6242         0.7668       -57.7903        -4.9601      0.9564422
      1705.0000       1623.903       171.9786         0.6272         0.7852       -57.4928        -4.6626      0.9630533
      1705.5000       1615.863       172.3751         0.6272         0.7925       -60.1726        -7.3424      0.9035022
      1706.0000       1615.838       172.7709          0.633          0.811       -61.8608        -9.0306      0.8659867
      1706.5000       1603.801       172.7699         0.6302         0.7854       -61.6619        -8.8317      0.8704067
      1707.0000       1583.814       172.3699          0.639         0.7571        -58.682        -5.8518      0.9366267
      1707.5000       1543.916       171.7709         0.6538         0.7469       -58.6818        -5.8516      0.9366311
      1708.0000       1504.018        171.371         0.6783         0.7743        -61.759        -8.9288      0.8682489
      1708.5000        1456.12       170.8719         0.7005          0.777       -61.7591        -8.9289      0.8682467
      1709.0000       1424.186       170.3724         0.7168         0.7966       -63.3476       -10.5174      0.8329467
      1709.5000       1408.181        169.972         0.7201          0.822       -66.7228       -13.8926      0.7579422
      1710.0000       1392.194       169.6721         0.7202         0.8034       -67.3181       -14.4879      0.7447134
      1710.5000       1423.958       169.5704         0.7203         0.7781       -66.9204       -14.0902      0.7535511
      1711.0000        1455.74       169.5686         0.7007         0.7823       -66.5227       -13.6925      0.7623889
      1711.5000       1495.487       169.7664         0.6787         0.7824       -66.5222        -13.692         0.7624
      1712.0000       1551.163       170.3617         0.6573          0.786       -66.1245       -13.2943      0.7712378
      1712.5000       1582.946       170.5591         0.6365         0.7825       -66.2238       -13.3936      0.7690311
      1713.0000       1610.797       170.9021         0.6279         0.7543       -65.3297       -12.4995         0.7889
      1713.5000       1622.653        171.153         0.6279         0.7407       -62.9459       -10.1157      0.8418733
      1714.0000       1622.577       171.3504          0.628         0.7544       -58.3766        -5.5464      0.9434133
      1714.5000       1614.537       171.3487         0.6338         0.8045       -58.9728        -6.1426      0.9301645
      1715.0000       1602.529        171.347         0.6397         0.8659       -57.7806        -4.9504      0.9566578
      1715.5000       1578.544       170.7479         0.6456         0.8502       -54.9988        -2.1686              1
      1716.0000       1558.557       169.8501         0.6516         0.8503       -53.9066        -1.1712              1
      1716.5000        1522.64       169.3511         0.6729          0.874       -54.4027        -1.8143              1
      1717.0000       1494.652       168.3538         0.6886         0.8822       -57.5793        -5.1379      0.9524911
      1717.5000       1446.787       167.2569         0.6982         0.8822       -59.4663        -7.1719      0.9072911
      1718.0000       1390.957       165.7613         0.7243         0.8735        -56.288        -4.1407      0.9746511
      1718.5000       1351.057        164.764         0.7515         0.9062       -51.6202         0.3801              1
      1719.0000       1315.138       163.1693         0.7868         0.9488       -51.4211         0.4322              1
      1719.5000       1283.202       161.5749         0.8088         0.9754       -52.4129        -0.7067              1
      1720.0000       1259.231       159.5817         0.8163         0.9799       -52.6111        -1.0519              1
