#------------------------------------------------------------------------------
# Created by    : vladimir.rabinovich
# Created on    : 09/19/2023 17:20:36
#------------------------------------------------------------------------------
~Version Information Section
VERS.           2.0     :   CWLS log ASCII Standard - VERSION 2.0
WRAP.           NO      :   One line per depth step
~Well Information Section
#MNEM       .UNIT                                         VALUE :DESCRIPTION
#------------------------------------------------------------------------------
STRT        .FT                                             504 :START DEPTH
STOP        .FT                                            9762 :STOP DEPTH
STEP        .FT                                             0.5 :STEP      
NULL        .                                           -999.25 :NULL      
COMP        .                                      SHELL OIL CO :COMPANY   
WELL        .                                OCS 00703 ST00BP00 :WELL      
FLD         .                                           WILDCAT :FIELD     
LOC         .                                                   :LOCATION  
CNTY        .                             GALVESTON LARGE BLOCK :LOCATION  
STAT        .                                             TEXAS :STATE     
CTRY        .                                     UNITED STATES :COUNTRY   
SRVC        .                                                   :SERVICE COMPANY
DATE        .                             9/13/2023 11:19:25 AM :LOG DATE  
API         .                                    42706000420000 :API NUMBER
UWI         .                                    42706000420000 :UNIQUE WELL ID
XCOORD      .                                  1132503.99790541 :SURFACE X 
YCOORD      .                                  10523078.0194322 :SURFACE Y 
LAT         .                                         28.987276 :LATITUDE  
LON         .                                        -94.589113 :LONGITUDE 
ELEV        .FT                                              83 :ELEVATION VALUE
ELEV_TYPE   .                                                KB :ELEVATION REFERENCE TYPE
~Curve Information Section
#MNEM       .UNIT                                      API CODE :CURVE DESCRIPTION
#------------------------------------------------------------------------------
DEPT        .FT                                                 :DEPTH     
ASN         .OHMM                                               :          
CILD        .MMHO                                               :          
DT          .US/F                                               :          
ILD         .OHMM                                               :          
LAT         .OHMM                                               :          
LN          .OHMM                                               :          
SP          .MV                                                 :          
SP_NORM     .MV                                                 :SP Normalized
VSH_SP      .V/V                                                :Volume of Shale from SP
~A        DEPTH            ASN           CILD             DT            ILD            LAT             LN             SP        SP_NORM         VSH_SP
# ...
      7261.5000          1.134       1187.709       108.6698         0.8846        -999.25         0.8846       -50.5709      -11.49487      0.8208514
      7262.0000         1.1639       1205.078         107.18         0.8768        -999.25         0.8768        -53.001      -13.92766      0.7749498
      7262.5000          1.192       1237.102       105.6901         0.8681        -999.25         0.8681         -54.34      -15.26934      0.7496351
      7263.0000         1.2186       1254.742       104.2003          0.851        -999.25          0.851       -55.7606      -16.69262      0.7227807
      7263.5000          1.232       1270.803       102.7105         0.8338        -999.25         0.8338       -57.3089      -18.24361      0.6935169
      7264.0000         1.2153        1291.23       100.9559         0.8166        -999.25         0.8166       -59.4219      -20.35929      0.6535983
      7264.5000         1.1988       1310.969       101.4642         0.7995        -999.25         0.7995       -61.5176      -22.45767      0.6140062
      7265.0000         1.1702       1330.705       102.5394         0.7731        -999.25         0.7731        -63.866      -24.80876      0.5696461
      7265.5000         1.1576       1392.385       103.4298          0.746        -999.25          0.746       -66.3976      -27.34304      0.5218295
      7266.0000         1.1459       1477.256       103.4953          0.719        -999.25          0.719       -69.2352      -30.18332      0.4682392
      7266.5000         1.1323       1562.225       102.8671         0.6919        -999.25         0.6919       -70.3029      -31.25371      0.4480433
      7267.0000          1.114       1647.096       102.6756         0.6639        -999.25         0.6639       -71.3694      -32.32289        0.42787
      7267.5000         1.0883        1753.48       102.5945         0.6359        -999.25         0.6359       -72.4382      -33.39437      0.4076533
      7268.0000         1.0644        1886.51        102.737         0.6078        -999.25         0.6078       -73.5059      -34.46475      0.3874575
      7268.5000         1.0473       1903.262        103.836         0.5777        -999.25         0.5777       -75.3774      -36.33894      0.3520955
      7269.0000         1.0341       1916.078        105.197         0.5476        -999.25         0.5476       -81.2434      -42.20762      0.2413656
      7269.5000         1.0248       1958.994        106.558         0.5216        -999.25         0.5216       -82.7767      -43.74361      0.2123848
      7270.0000         1.0326       1958.354       107.9191         0.5325        -999.25         0.5325       -87.7076      -48.67719      0.1192982
      7270.5000         1.0676       1937.357       109.2163         0.5754        -999.25         0.5754       -88.5269      -49.49917      0.1037892
      7271.0000         1.1061       1854.141       107.8535         0.6257        -999.25         0.6257       -87.8872      -48.86215      0.1158084
      7271.5000         1.1301        1671.57       106.5517         0.6816        -999.25         0.6816        -86.225      -47.20264      0.1471201
      7272.0000         1.1539       1489.197       105.2499         0.7538        -999.25         0.7538       -81.1914      -42.17172       0.242043
      7272.5000         1.1758       1306.627       103.9482          0.826        -999.25          0.826       -74.6764       -35.6594       0.364917
      7273.0000         1.1933       1124.254       102.6464         0.8978        -999.25         0.8978       -71.5947      -32.58039      0.4230115
      7273.5000          1.211       1082.805       101.3446         0.9679        -999.25         0.9679       -67.2498      -28.23817      0.5049402
      7274.0000          1.228       1033.438       100.0428         1.0101        -999.25         1.0101       -64.1558      -25.14685       0.563267
      7274.5000         1.2319        1015.81        98.6826         1.0322        -999.25         1.0322       -62.1022      -23.09594      0.6019635
      7275.0000         1.2357       1007.021        99.6079         1.0312        -999.25         1.0312        -59.734      -20.73042      0.6465958
      7275.5000         1.2374       1002.296       101.2984         1.0298        -999.25         1.0298       -52.6394       -13.6385      0.7804056
      7276.0000         1.2391       997.7158       101.4624         1.0284        -999.25         1.0284       -49.0054      -10.00719       0.848921
      7276.5000         1.2408       996.7441       101.3694         1.0197        -999.25         1.0197       -46.7598      -7.764267      0.8912402
      7277.0000         1.2423       995.7715       100.6026         1.0111        -999.25         1.0111       -47.0692      -8.076351      0.8853518
      7277.5000         1.2436       996.7939        99.9939         1.0025        -999.25         1.0025       -47.3785      -8.388336      0.8794653
      7278.0000          1.245       1000.313        99.0417         0.9939        -999.25         0.9939       -47.6875      -8.700016      0.8735846
      7278.5000         1.2463       1004.004         98.443         0.9841        -999.25         0.9841       -47.9968      -9.012001      0.8676981
      7279.0000         1.2444       1017.981        98.1938         0.9741        -999.25         0.9741       -48.2695      -9.287384      0.8625022
      7279.5000         1.2315       1043.725        98.4423         0.9641        -999.25         0.9641        -48.322      -9.342567       0.861461
      7280.0000         1.1926        1070.32       100.9813          0.954        -999.25          0.954       -47.8969      -8.920151      0.8694311
      7280.5000         1.1615       1094.352       103.5203          0.944        -999.25          0.944       -47.0856      -8.111534       0.884688
      7281.0000         1.1317       1110.363       106.0593         0.9334        -999.25         0.9334       -46.1913      -7.219917       0.901511
      7281.5000         1.1049       1126.078       108.5982         0.9215        -999.25         0.9215       -45.0679      -6.099201      0.9226566
      7282.0000         1.0796       1140.586       111.1372         0.9096        -999.25         0.9096       -43.9828      -5.016781      0.9430796
      7282.5000          1.057       1153.525       111.3102         0.8977        -999.25         0.8977       -43.1158      -4.152466      0.9593874
      7283.0000          1.038       1162.211       110.0576         0.8859        -999.25         0.8859       -42.6709      -3.710247      0.9677312
      7283.5000          1.033       1170.871       108.8051         0.8739        -999.25         0.8739        -42.412      -3.454029      0.9725655
      7284.0000         1.0494       1180.998       107.5525          0.862        -999.25          0.862       -42.1807      -3.225414       0.976879
      7284.5000         1.0583       1192.496          106.3         0.8515        -999.25         0.8515       -42.0236      -3.070999      0.9797925
      7285.0000         1.0672       1208.113       105.0474         0.8411        -999.25         0.8411       -41.8666      -2.916683      0.9827041
      7285.5000         1.0625       1223.605       104.4798         0.8307        -999.25         0.8307       -41.7094      -2.762165      0.9856195
      7286.0000          1.049       1238.027       106.1376         0.8202        -999.25         0.8202       -41.5534      -2.608845      0.9885123
      7286.5000         1.0209       1251.424       107.7955         0.8098        -999.25         0.8098        -41.415      -2.473133       0.991073
      7287.0000         0.9927        1265.08       109.4533         0.8057        -999.25         0.8057       -41.2766      -2.337414      0.9936337
      7287.5000         0.9714       1278.883       111.1112         0.8017        -999.25         0.8017       -41.1381      -2.201595      0.9961963
