#------------------------------------------------------------------------------
# Created by    : vladimir.rabinovich
# Created on    : 09/19/2023 17:20:31
#------------------------------------------------------------------------------
~Version Information Section
VERS.           2.0     :   CWLS log ASCII Standard - VERSION 2.0
WRAP.           NO      :   One line per depth step
~Well Information Section
#MNEM       .UNIT                                         VALUE :DESCRIPTION
#------------------------------------------------------------------------------
STRT        .FT                                            2310 :START DEPTH
STOP        .FT                                           12118 :STOP DEPTH
STEP        .FT                                             0.5 :STEP      
NULL        .                                           -999.25 :NULL      
COMP        .                                   FOREST OIL CORP :COMPANY   
WELL        .                               OCS G01793 ST00BP00 :WELL      
FLD         .                                           WILDCAT :FIELD     
LOC         .                                                   :LOCATION  
CNTY        .                             GALVESTON LARGE BLOCK :LOCATION  
STAT        .                                             TEXAS :STATE     
CTRY        .                                     UNITED STATES :COUNTRY   
SRVC        .                                                   :SERVICE COMPANY
DATE        .                             9/13/2023 11:19:24 AM :LOG DATE  
API         .                                    42706001380000 :API NUMBER
UWI         .                                    42706001380000 :UNIQUE WELL ID
XCOORD      .                                  1024149.02927821 :SURFACE X 
YCOORD      .                                  10425384.3690734 :SURFACE Y 
LAT         .                                         28.714212 :LATITUDE  
LON         .                                        -94.923031 :LONGITUDE 
ELEV        .FT                                              60 :ELEVATION VALUE
ELEV_TYPE   .                                                KB :ELEVATION REFERENCE TYPE
~Curve Information Section
#MNEM       .UNIT                                      API CODE :CURVE DESCRIPTION
#------------------------------------------------------------------------------
DEPT        .FT                                                 :DEPTH     
ASN         .OHMM                                               :          
CALI        .IN                                                 :          
CILD        .MMHO                                               :          
DT          .US/F                                               :          
ILD         .OHMM                                               :          
RHOB        .G/C3                                               :          
SP          .MV                                                 :          
SP_NORM     .MV                                                 :SP Normalized
VSH_SP      .V/V                                                :Volume of Shale from SP
~A        DEPTH            ASN           CALI           CILD             DT            ILD           RHOB             SP        SP_NORM         VSH_SP
# ...
      2972.5000         0.7759        11.6113       1266.383       175.3652         0.7854        -999.25       -59.9384      -7.655449      0.8724092
      2973.0000         0.7831        11.3338       1257.033       175.3687         0.7866        -999.25       -60.0587      -7.821028      0.8696495
      2973.5000         0.7904        11.7329       1247.678       175.3723         0.7879        -999.25       -60.1608      -7.961127      0.8673145
      2974.0000         0.7971        12.3233        1236.16       175.3757         0.7909        -999.25        -60.205      -8.020167      0.8663306
      2974.5000         0.8036        12.4704       1218.828       175.3794         0.7944        -999.25       -60.2493      -8.079336      0.8653444
      2975.0000         0.8101        12.4211       1201.494       175.3828         0.7978        -999.25       -60.2935      -8.138376      0.8643604
      2975.5000          0.814        12.3568       1184.156       175.3865         0.8013        -999.25       -60.1744      -7.968797      0.8671867
      2976.0000           0.81        12.2212       1168.668       175.3899         0.8048        -999.25       -59.9669      -7.675455      0.8720757
      2976.5000          0.806         11.892       1177.711       175.3933         0.8083        -999.25       -59.7594      -7.382113      0.8769648
      2977.0000          0.802        11.7701       1185.391       175.3933         0.8117        -999.25       -59.5519      -7.088771      0.8818538
      2977.5000          0.798        11.6781       1193.068       175.3921         0.8152        -999.25       -59.3444      -6.795429      0.8867428
      2978.0000         0.7948        11.6404        1200.75       175.3911         0.8187        -999.25       -59.1371      -6.502365      0.8916273
      2978.5000         0.7934        11.6533       1208.428       175.3899         0.8197        -999.25       -58.9366      -6.218823      0.8963529
      2979.0000         0.7921        11.7088       1216.107       175.3887         0.8201        -999.25       -58.8073      -6.034963      0.8994173
      2979.5000         0.7916        11.7532       1223.789       175.3875         0.8205        -999.25       -58.9074      -6.172259       0.897129
      2980.0000         0.7934        11.7946       1223.898       175.3862         0.8209        -999.25       -59.0076      -6.309699      0.8948383
      2980.5000         0.7952         11.836        1220.76        175.385         0.8214        -999.25       -59.0604      -6.380776      0.8936538
      2981.0000          0.797        11.8636       1218.318       175.3838         0.8218        -999.25       -59.1047       -6.43995      0.8926675
      2981.5000         0.7988        11.8636       1215.953       175.3826         0.8222        -999.25       -59.1489       -6.49899      0.8916835
      2982.0000         0.8005        11.8637        1217.59       175.3813         0.8226        -999.25       -59.1932      -6.558169      0.8906972
      2982.5000         0.8021        11.8635       1223.197       175.3801         0.8228        -999.25       -59.2374      -6.617209      0.8897132
      2983.0000         0.8018        11.8478       1229.246       175.3792         0.8222        -999.25       -59.2816      -6.676249      0.8887292
      2983.5000         0.8015         11.832       1235.689       175.3779         0.8215        -999.25       -59.3259      -6.735428      0.8877429
      2984.0000         0.8012        11.8163       1242.135       175.3755         0.8209        -999.25       -59.3182      -6.721804      0.8879699
      2984.5000         0.8008        11.8005       1248.582       175.3728         0.8203        -999.25       -59.2844       -6.67164       0.888806
      2985.0000         0.8003        11.7853       1255.027       175.3699         0.8197        -999.25       -59.2505      -6.621337      0.8896444
      2985.5000         0.7982        11.7705       1261.471       175.3672         0.8191        -999.25       -59.2167      -6.571178      0.8904803
      2986.0000         0.7961        11.7557       1267.916       175.3645         0.8185        -999.25       -59.1829      -6.521014      0.8913164
      2986.5000          0.794        11.7454       1273.402       175.3616         0.8152        -999.25        -59.149      -6.470712      0.8921548
      2987.0000         0.7921        11.7387       1278.891       175.3589         0.8119        -999.25       -59.1152      -6.420553      0.8929908
      2987.5000         0.7907         11.732       1284.379       175.3562         0.8086        -999.25       -59.0814      -6.370394      0.8938268
      2988.0000         0.7893         11.756       1289.867       175.3533         0.8053        -999.25       -59.0475      -6.320086      0.8946652
      2988.5000         0.7879        11.7997       1295.354       175.3506          0.802        -999.25       -59.0096      -6.264186      0.8955969
      2989.0000         0.7866        12.1002       1300.438       175.3479         0.7987        -999.25       -58.9242       -6.14178       0.897637
      2989.5000         0.7857        12.3038       1305.305        175.345         0.7954        -999.25       -58.8387       -6.01924      0.8996793
      2990.0000         0.7848        12.2768       1310.172        175.342         0.7921        -999.25       -58.7534      -5.896979       0.901717
      2990.5000         0.7838        12.2174       1315.039       175.3362         0.7904        -999.25       -58.6679      -5.774439      0.9037594
      2991.0000         0.7829        12.1155       1319.986       175.3306         0.7908        -999.25       -58.5825      -5.652039      0.9057993
      2991.5000          0.782        12.0113       1325.641        175.325         0.7911        -999.25       -58.4971      -5.529633      0.9078395
      2992.0000         0.7814        11.9246       1331.295       175.3193         0.7915        -999.25       -58.4062      -5.399531      0.9100078
      2992.5000         0.7817        12.0137       1336.951       175.3135         0.7919        -999.25       -58.3097      -5.261589      0.9123068
      2993.0000          0.782        12.1063       1341.375       175.3079         0.7922        -999.25       -58.2131      -5.123508      0.9146082
      2993.5000         0.7822        12.2044       1337.129       175.3022         0.7926        -999.25       -58.1166      -4.985567      0.9169073
      2994.0000         0.7825        12.2242        1319.84       175.2966          0.793        -999.25         -58.02      -4.847486      0.9192086
      2994.5000         0.7828        12.0846       1304.568       175.2913         0.7934        -999.25       -57.9076       -4.68728      0.9218787
      2995.0000          0.786         11.945       1289.299       175.2876         0.7953        -999.25       -57.7785      -4.503697      0.9249384
      2995.5000         0.7903        11.8009       1274.029       175.2839         0.8018        -999.25       -57.6494      -4.320115      0.9279981
      2996.0000         0.7945         11.651       1258.766         175.28         0.8083        -999.25       -57.4716      -4.068355      0.9321941
      2996.5000         0.8046        11.5379       1243.496       175.2764         0.8148        -999.25       -57.4092      -3.978153      0.9336975
      2997.0000         0.8151         11.371       1228.121       175.2727         0.8213        -999.25       -57.4963      -4.097253      0.9317124
      2997.5000         0.8256        11.2073       1210.096        175.269         0.8278        -999.25       -57.5833      -4.216214      0.9297298
      2998.0000         0.8361          11.27       1192.072       175.2651         0.8343        -999.25       -57.6703      -4.335165      0.9277472
      2998.5000         0.8453        11.4277       1174.047       175.2593         0.8407        -999.25       -57.7573      -4.454126      0.9257646
