#------------------------------------------------------------------------------
# Created by    : vladimir.rabinovich
# Created on    : 09/19/2023 17:19:48
#------------------------------------------------------------------------------
~Version Information Section
VERS.           2.0     :   CWLS log ASCII Standard - VERSION 2.0
WRAP.           NO      :   One line per depth step
~Well Information Section
#MNEM       .UNIT                                         VALUE :DESCRIPTION
#------------------------------------------------------------------------------
STRT        .FT                                             130 :START DEPTH
STOP        .FT                                            9502 :STOP DEPTH
STEP        .FT                                             0.5 :STEP      
NULL        .                                           -999.25 :NULL      
COMP        .            MOBIL PRODUCING TEXAS & NEW MEXICO INC :COMPANY   
WELL        .                               OCS G07243 ST00BP00 :WELL      
FLD         .                                           WILDCAT :FIELD     
LOC         .                                                   :LOCATION  
CNTY        .                             GALVESTON LARGE BLOCK :LOCATION  
STAT        .                                             TEXAS :STATE     
CTRY        .                                     UNITED STATES :COUNTRY   
SRVC        .                                                   :SERVICE COMPANY
DATE        .                             9/13/2023 11:19:36 AM :LOG DATE  
API         .                                    42706401330000 :API NUMBER
UWI         .                                    42706401330000 :UNIQUE WELL ID
XCOORD      .                                  993943.906145108 :SURFACE X 
YCOORD      .                                  10496155.9223708 :SURFACE Y 
LAT         .                                         28.907432 :LATITUDE  
LON         .                                        -95.020991 :LONGITUDE 
ELEV        .FT                                              92 :ELEVATION VALUE
ELEV_TYPE   .                                                KB :ELEVATION REFERENCE TYPE
~Curve Information Section
#MNEM       .UNIT                                      API CODE :CURVE DESCRIPTION
#------------------------------------------------------------------------------
DEPT        .FT                                                 :DEPTH     
ASFL        .OHMM                                               :          
CILD        .MMHO                                               :          
DT          .US/F                                               :          
GR          .GAPI                                               :          
GR_NORM     .GAPI                                               :GammaRay Normalized
ILD         .OHMM                                               :          
SP          .MV                                                 :          
SP_NORM     .GAPI                                               :SP Normalized
VSH_GR      .V/V                                                :Volume of Shale from GR
VSH_SP      .V/V                                                :Volume of Shale from SP
~A        DEPTH           ASFL           CILD             DT             GR        GR_NORM            ILD             SP        SP_NORM         VSH_GR         VSH_SP
# ...
      6377.5000         0.9795       1355.143       114.6729        86.3644       84.65824         0.7258        89.6456       3.454851              1              1
      6378.0000         0.9769       1365.568       117.1812        85.6383        83.7008         0.7191        89.6157       3.420175              1              1
      6378.5000         0.9742       1373.578       117.3763        84.9121       82.74324         0.7125        89.5707       3.367987              1              1
      6379.0000         0.9716        1381.58       117.8571        84.6614       82.41017         0.7059        89.4912       3.275788              1              1
      6379.5000         0.9695        1389.59       117.6228         87.113       85.62621         0.7046        89.4117        3.18358              1              1
      6380.0000         0.9675       1397.598       114.7766        88.7675        87.7954         0.7033        89.3322       3.091381              1              1
      6380.5000         0.9654       1405.602       113.1421        90.3927       89.92609          0.702        89.2526       2.999067              1              1
      6381.0000         0.9634       1413.609       113.0963        90.7651       90.41138         0.7007        89.1731       2.906868              1              1
      6381.5000         0.9613        1418.33       113.0292         89.661        88.9575         0.6994        89.0936       2.814659              1              1
      6382.0000         0.9593       1422.576        113.032        88.5715       87.52278         0.6981        88.9918       2.696597              1              1
      6382.5000         0.9616       1426.816       117.1687        87.4868       86.09437         0.6968        88.8751       2.561253              1              1
      6383.0000          0.964       1423.152       116.6486         86.838       85.23846         0.6951        88.7584        2.42591              1              1
      6383.5000         0.9663       1412.168       115.7524        87.8362       86.54566         0.6934        88.6416       2.290451              1              1
      6384.0000         0.9687       1401.195       115.6449         88.819       87.83263         0.6917        88.5249       2.155107              1              1
      6384.5000         0.9711       1390.209       115.5797        89.0962       88.19291           0.69        88.4082       2.019764              1              1
      6385.0000         0.9731       1396.855       115.2335        89.3734       88.55317         0.6883        88.2914       1.884297              1              1
      6385.5000         0.9716       1404.416       115.4976        89.6506       88.91343         0.6866        88.1394       1.708012              1              1
      6386.0000         0.9701       1411.984       116.4996        89.9471       89.29904         0.6849        88.0886         1.6491              1              1
      6386.5000         0.9686       1419.582       115.9232        90.5381       90.07145         0.6832        88.2955       1.889057              1              1
      6387.0000         0.9671        1427.24       115.6501        91.1292       90.84399         0.6814        88.5024       2.129014              1              1
      6387.5000         0.9655       1434.898       117.3715        91.7196        91.6156         0.6797        88.7095       2.369201              1              1
      6388.0000         0.9627       1442.559       118.0854        92.2972       92.37041         0.6767        88.9161       2.608804              1              1
      6388.5000         0.9595       1450.211        117.799        92.7458       92.95577         0.6724        89.1422       2.871023              1              1
      6389.0000         0.9562       1457.871       116.4929        93.1951       93.54208         0.6681        89.3823       3.149487              1              1
      6389.5000         0.9597       1465.529       115.2477        92.2795       92.33575         0.6638        89.6224       3.427943              1              1
      6390.0000         0.9648       1473.189       116.1779        91.1754       90.88187         0.6595        89.8625       3.706408              1              1
      6390.5000         0.9699       1480.848       117.1128        89.9557       89.27615         0.6551        89.5016       3.287848              1              1
      6391.0000         0.9707       1488.236       117.3258        88.7346       87.66859         0.6508        88.9922       2.697065              1              1
      6391.5000         0.9651       1495.135       115.5823        87.4418       85.96687         0.6485        88.3536       1.956437              1              1
      6392.0000         0.9572       1502.039       112.2189        88.1965       86.95428         0.6467        87.7146       1.215348              1              1
      6392.5000         0.9494       1508.938         112.34        89.4017       88.53335         0.6449        86.1527     -0.5960829              1      0.9900653
      6393.0000         0.9415       1515.842       114.9546        90.9198       90.52336         0.6431         86.057     -0.7070758              1      0.9882154
      6393.5000         0.9417        1522.74       119.8772        91.7013       91.54597         0.6413        86.2251     -0.5121214              1      0.9914646
      6394.0000         0.9479       1518.904       121.1703        90.1053       89.44603         0.6461        86.3933     -0.3170432              1      0.9947159
      6394.5000         0.9538       1509.084       121.1727        88.5873       87.44855         0.6518        86.5614     -0.1220887              1      0.9979652
      6395.0000         0.9597       1499.277       117.5543        87.2665       85.71004         0.6575        86.7296     0.07298072              1              1
      6395.5000         0.9657       1489.459       116.1852        86.2512       84.37276         0.6632        86.8977      0.2679351              1              1
      6396.0000         0.9716       1479.639       114.7964        87.1545       85.55534         0.6689        87.0658      0.4628984              1              1
      6396.5000         0.9767        1469.82       113.7554        88.0565       86.73621         0.6745         87.234      0.6579679              1              1
      6397.0000         0.9788       1456.158       114.3701        88.9598       87.91877         0.6792        87.4017      0.8524621              1              1
      6397.5000         0.9809       1442.055       116.7437        89.6002       88.75603          0.679        87.5128       0.981311              1              1
      6398.0000          0.983       1428.406       119.7531        88.8667       87.78889         0.6789        87.6237        1.10993              1              1
      6398.5000         0.9851       1418.244       119.7092        88.1327       86.82108         0.6787        87.7346        1.23854              1              1
      6399.0000         0.9872       1421.582       118.7355        87.3992       85.85392         0.6786        87.8456       1.367274              1              1
      6399.5000         0.9874        1429.99       116.2396        86.8197       85.08904         0.6784        87.9567       1.496131              1              1
      6400.0000         0.9868       1438.398       114.8125        86.2725       84.36654         0.6783        88.0676       1.624741              1              1
      6400.5000         0.9861       1446.805       115.3376         85.726       83.64498         0.6781        88.2025       1.781197              1              1
      6401.0000         0.9854       1454.605       116.1951        86.1434        84.1894          0.678        88.3572       1.960613              1              1
      6401.5000         0.9848       1460.369       117.5568        86.9561       85.25298         0.6761        88.5117         2.1398              1              1
