#------------------------------------------------------------------------------
# Created by    : vladimir.rabinovich
# Created on    : 09/19/2023 17:20:39
#------------------------------------------------------------------------------
~Version Information Section
VERS.           2.0     :   CWLS log ASCII Standard - VERSION 2.0
WRAP.           NO      :   One line per depth step
~Well Information Section
#MNEM       .UNIT                                         VALUE :DESCRIPTION
#------------------------------------------------------------------------------
STRT        .FT                                             502 :START DEPTH
STOP        .FT                                           11475 :STOP DEPTH
STEP        .FT                                             0.5 :STEP      
NULL        .                                           -999.25 :NULL      
COMP        .                                      SHELL OIL CO :COMPANY   
WELL        .                                OCS 00730 ST00BP00 :WELL      
FLD         .                                           WILDCAT :FIELD     
LOC         .                                                   :LOCATION  
CNTY        .                             GALVESTON LARGE BLOCK :LOCATION  
STAT        .                                             TEXAS :STATE     
CTRY        .                                     UNITED STATES :COUNTRY   
SRVC        .                                                   :SERVICE COMPANY
DATE        .                             9/13/2023 11:19:42 AM :LOG DATE  
API         .                                    42706000250000 :API NUMBER
UWI         .                                    42706000250000 :UNIQUE WELL ID
XCOORD      .                                  958538.282477158 :SURFACE X 
YCOORD      .                                   10357465.718335 :SURFACE Y 
LAT         .                                         28.524406 :LATITUDE  
LON         .                                        -95.123893 :LONGITUDE 
ELEV        .FT                                              80 :ELEVATION VALUE
ELEV_TYPE   .                                                KB :ELEVATION REFERENCE TYPE
~Curve Information Section
#MNEM       .UNIT                                      API CODE :CURVE DESCRIPTION
#------------------------------------------------------------------------------
DEPT        .FT                                                 :DEPTH     
ASN         .OHMM                                               :          
CILD        .MMHO                                               :          
ILD         .OHMM                                               :          
LAT         .OHMM                                               :          
LN          .OHMM                                               :          
SP          .MV                                                 :          
SP_NORM     .MV                                                 :SP Normalized
VSH_SP      .V/V                                                :Volume of Shale from SP
~A        DEPTH            ASN           CILD            ILD            LAT             LN             SP        SP_NORM         VSH_SP
# ...
      5605.5000         0.7127        -999.25        -999.25         0.7564         0.4309       -47.0488      -3.146362      0.9329262
      5606.0000          0.714        -999.25        -999.25          0.773         0.4229       -47.3923      -3.489861      0.9221919
      5606.5000         0.7152        -999.25        -999.25         0.7896          0.415       -47.8243       -3.92186      0.9086919
      5607.0000         0.7162        -999.25        -999.25         0.8061          0.407       -47.4977      -3.595261      0.9188981
      5607.5000         0.7171        -999.25        -999.25           0.82         0.3991       -47.0447      -3.142262      0.9330543
      5608.0000         0.7179        -999.25        -999.25         0.8333         0.3911       -46.5912      -2.688763      0.9472262
      5608.5000         0.7187        -999.25        -999.25         0.8467         0.3832       -46.1382       -2.23576      0.9613825
      5609.0000         0.7172        -999.25        -999.25           0.86         0.3752       -45.6191       -1.71666      0.9776044
      5609.5000         0.7114        -999.25        -999.25         0.8734         0.3672       -45.0916      -1.189159      0.9940888
      5610.0000         0.7056        -999.25        -999.25         0.8868         0.3593       -44.5642     -0.6617622              1
      5610.5000         0.6998        -999.25        -999.25         0.9001         0.3509       -44.0367     -0.1342621              1
      5611.0000         0.6939        -999.25        -999.25         0.9135         0.3416       -43.5087      0.3937378              1
      5611.5000         0.6881        -999.25        -999.25         0.9269         0.3323       -42.9813      0.9211388              1
      5612.0000         0.6823        -999.25        -999.25         0.9388         0.3229       -42.4944       1.408039              1
      5612.5000         0.6773        -999.25        -999.25          0.931         0.3136       -42.2798       1.622639              1
      5613.0000         0.6738        -999.25        -999.25         0.9232         0.3043       -42.0649        1.83754              1
      5613.5000         0.6702        -999.25        -999.25         0.9155          0.295         -41.85       2.052441              1
      5614.0000         0.6666        -999.25        -999.25         0.9077         0.2857       -41.6354        2.26704              1
      5614.5000          0.663        -999.25        -999.25         0.8999         0.2764       -41.5668        2.33564              1
      5615.0000         0.6595        -999.25        -999.25         0.8922          0.267       -41.7614       2.141041              1
      5615.5000         0.6559        -999.25        -999.25         0.8844          0.272       -41.9557       1.946739              1
      5616.0000         0.6523        -999.25        -999.25         0.8676         0.2816       -42.1501       1.752338              1
      5616.5000         0.6483        -999.25        -999.25         0.8472         0.2912       -42.3446       1.557838              1
      5617.0000         0.6442        -999.25        -999.25         0.8268         0.3008       -42.5391       1.363338              1
      5617.5000           0.64        -999.25        -999.25         0.8063         0.3104       -42.7661       1.136337              1
      5618.0000         0.6359        -999.25        -999.25         0.7859           0.32       -43.1302      0.7722397              1
      5618.5000         0.6318        -999.25        -999.25         0.7655         0.3296       -43.4944      0.4080391              1
      5619.0000         0.6345        -999.25        -999.25          0.745         0.3393       -43.8585     0.04393768              1
      5619.5000         0.6411        -999.25        -999.25         0.7257         0.3489       -44.3286     -0.4261627              1
      5620.0000         0.6477        -999.25        -999.25         0.7071         0.3519       -44.9498      -1.047359        0.99852
      5620.5000         0.6558        -999.25        -999.25         0.6885         0.3545       -45.5964      -1.693962      0.9783137
      5621.0000          0.666        -999.25        -999.25         0.6699         0.3571       -47.2957      -3.393261      0.9252106
      5621.5000         0.6738        -999.25        -999.25         0.6513         0.3597       -49.1098      -5.207359        0.86852
      5622.0000         0.6717        -999.25        -999.25         0.6327         0.3622       -50.9017       -6.99926      0.8125231
      5622.5000         0.6696        -999.25        -999.25         0.6141         0.3648       -52.5481       -8.64566      0.7610731
      5623.0000         0.6674        -999.25        -999.25         0.5955         0.3674       -56.4321      -12.52966      0.6396981
      5623.5000         0.6656        -999.25        -999.25         0.5769           0.37       -58.1193      -14.21686      0.5869731
      5624.0000         0.6653        -999.25        -999.25         0.5583         0.3726       -57.6459      -13.74346      0.6017668
      5624.5000         0.6649        -999.25        -999.25         0.5397         0.3752       -57.1767      -13.27426      0.6164293
      5625.0000         0.6646        -999.25        -999.25         0.5353         0.3778       -56.7646      -12.86216      0.6293075
      5625.5000         0.6642        -999.25        -999.25         0.5332         0.3803        -56.353      -12.45056        0.64217
      5626.0000         0.6638        -999.25        -999.25         0.5311         0.3829       -55.9414      -12.03896      0.6550325
      5626.5000         0.6635        -999.25        -999.25         0.5289         0.3855       -55.5293      -11.62686      0.6679106
      5627.0000         0.6676        -999.25        -999.25         0.5268         0.3876       -55.7172      -11.81476      0.6620387
      5627.5000         0.6717        -999.25        -999.25         0.5246         0.3861       -56.1707      -12.26826      0.6478668
      5628.0000         0.6759        -999.25        -999.25         0.5225         0.3846       -55.7403      -11.83786      0.6613169
      5628.5000           0.68        -999.25        -999.25         0.5204         0.3831       -55.2151      -11.31266      0.6777294
      5629.0000         0.6841        -999.25        -999.25         0.5182         0.3816       -54.6898      -10.78736       0.694145
      5629.5000         0.6882        -999.25        -999.25         0.5161         0.3802       -54.1641      -10.26166      0.7105731
      5630.0000         0.6868        -999.25        -999.25         0.5218         0.3787       -53.6333      -9.730862      0.7271606
      5630.5000         0.6853        -999.25        -999.25         0.5308         0.3772       -53.0662      -9.163761      0.7448825
      5631.0000         0.6837        -999.25        -999.25         0.5397         0.3757        -52.499      -8.596561      0.7626075
      5631.5000         0.6822        -999.25        -999.25         0.5487         0.3742       -51.9318      -8.029362      0.7803324
      5632.0000         0.6769        -999.25        -999.25         0.5576         0.3727       -51.3646      -7.462162      0.7980574
      5632.5000         0.6706        -999.25        -999.25         0.5666         0.3713        -50.798      -6.895561      0.8157637
      5633.0000         0.6643        -999.25        -999.25         0.5755         0.3698       -50.3961       -6.49366      0.8283231
      5633.5000          0.658        -999.25        -999.25         0.5845         0.3683       -50.2016       -6.29916      0.8344012
      5634.0000         0.6517        -999.25        -999.25         0.5934         0.3668       -51.8375      -7.935062      0.7832793
      5634.5000         0.6545        -999.25        -999.25         0.6024         0.3653       -53.2659      -9.363461      0.7386419
