#------------------------------------------------------------------------------
# Created by    : vladimir.rabinovich
# Created on    : 09/19/2023 17:21:20
#------------------------------------------------------------------------------
~Version Information Section
VERS.           2.0     :   CWLS log ASCII Standard - VERSION 2.0
WRAP.           NO      :   One line per depth step
~Well Information Section
#MNEM       .UNIT                                         VALUE :DESCRIPTION
#------------------------------------------------------------------------------
STRT        .FT                                            6712 :START DEPTH
STOP        .FT                                           10254 :STOP DEPTH
STEP        .FT                                             0.5 :STEP      
NULL        .                                           -999.25 :NULL      
COMP        .                                SHELL OFFSHORE INC :COMPANY   
WELL        .                               OCS G17145 ST00BP00 :WELL      
FLD         .                                           WILDCAT :FIELD     
LOC         .                                                   :LOCATION  
CNTY        .                           HIGH ISLAND LARGE BLOCK :LOCATION  
STAT        .                                             TEXAS :STATE     
CTRY        .                                     UNITED STATES :COUNTRY   
SRVC        .                                                   :SERVICE COMPANY
DATE        .                             9/13/2023 11:19:48 AM :LOG DATE  
API         .                                    42708404610000 :API NUMBER
UWI         .                                    42708404610000 :UNIQUE WELL ID
XCOORD      .                                  1236256.25309123 :SURFACE X 
YCOORD      .                                  10648843.7308139 :SURFACE Y 
LAT         .                                         29.336637 :LATITUDE  
LON         .                                        -94.268822 :LONGITUDE 
ELEV        .FT                                             110 :ELEVATION VALUE
ELEV_TYPE   .                                                KB :ELEVATION REFERENCE TYPE
~Curve Information Section
#MNEM       .UNIT                                      API CODE :CURVE DESCRIPTION
#------------------------------------------------------------------------------
DEPT        .FT                                                 :DEPTH     
CALI        .IN                                                 :          
CPCHM       .MMHO                                               :          
CPCM        .MMHO                                               :          
DFL         .OHMM                                               :          
DPHI        .%                                                  :          
DRHO        .G/C3                                               :          
DT          .US/F                                               :          
GR          .GAPI                                               :          
GR_NORM     .GAPI                                               :GammaRay Normalized
GRAM        .GAPI                                               :          
HDCN        .MMHO                                               :          
HDRS        .OHMM                                               :          
HMRS        .OHMM                                               :          
NPHI        .%                                                  :          
PE          .G/C3                                               :          
RACHM       .OHMM                                               :          
RACM        .OHMM                                               :          
RHOB        .G/C3                                               :          
ROPS        .F/HR                                               :          
RPCHM       .OHMM                                               :          
RPCM        .OHMM                                               :          
RPTHM       .MINS                                               :          
RPTM        .MINS                                               :          
SP01        .MV                                                 :          
TENS        .LBS                                                :          
VSH_GR      .V/V                                                :Volume of Shale from GR
~A        DEPTH           CALI          CPCHM           CPCM            DFL           DPHI           DRHO             DT             GR        GR_NORM           GRAM           HDCN           HDRS           HMRS           NPHI             PE          RACHM           RACM           RHOB           ROPS          RPCHM           RPCM          RPTHM           RPTM           SP01           TENS         VSH_GR
# ...
      8862.0000         9.3354       2144.965        -999.25         0.4749         20.224        -0.2034        95.0171        36.3715        86.7028         91.788       2776.031         0.3602          0.413        36.5333        10.5587          0.457        -999.25         2.3163         52.116          0.466        -999.25        125.191        -999.25        457.439       4075.898              1
      8862.5000         8.1801        2175.25        -999.25         0.5361        19.3423        -0.1439       106.2422        34.8267       89.58968        93.8409       2773.441         0.3606         0.4262        29.7245         9.3776          0.452        -999.25         2.3308           31.3           0.46        -999.25        125.483        -999.25       451.4927       4086.711              1
      8863.0000         8.2615       2233.984        -999.25         1.0783         16.885        -0.0821       117.4594        33.5629       90.61485        94.5699       2607.531         0.3835         0.4568        22.5338         8.6033          0.452        -999.25         2.3714           31.3          0.448        -999.25       125.8337        -999.25       449.6563        4081.34              1
      8863.5000         8.4405        2224.25        -999.25           2.53        14.5726        -0.0529        104.839        32.6266       89.69516        93.9159       2343.688         0.4267         0.5027        18.1392         9.0395          0.458        -999.25         2.4095         38.944           0.45        -999.25       126.0088        -999.25       450.8076       4079.418              1
      8864.0000         8.4974       2143.242        -999.25         2.6628         12.969        -0.0554        91.4594        32.8607       88.50983         93.073       2207.063         0.4531         0.5301        18.3535            9.1          0.472        -999.25          2.436         38.944          0.467        -999.25       126.3993        -999.25       451.9424       4077.113              1
      8864.5000         8.3347        2076.43        -999.25         2.4755        14.5835        -0.0663        87.3578        36.8864       86.34419         91.533       2338.898         0.4276         0.4996        23.3572         9.3522          0.488        -999.25         2.4094         38.147          0.482        -999.25       126.3273        -999.25       450.9072       4085.277              1
      8865.0000         8.2289       2017.512        -999.25         1.0539        19.8924        -0.0858        83.5531        39.5546       85.92921        91.2379       2704.922         0.3697         0.4331        30.8582        10.2023           0.49        -999.25         2.3218         38.147          0.496        -999.25       124.2681        -999.25       448.0635       4108.102              1
      8865.5000         8.2778         2081.5        -999.25         0.4819        24.5616        -0.1077        84.5093         39.929       85.00531        90.5809       3111.773         0.3214         0.3758         34.278        11.4458          0.494        -999.25         2.2447         36.133           0.48        -999.25       120.9382        -999.25       444.1099       4115.109              1
      8866.0000         8.2127       1989.479        -999.25         0.5059        26.7214        -0.1203        97.1296        39.6013       85.47359        90.9139       3429.992         0.2915         0.3395        34.1379        12.4162          0.505        -999.25         2.2091         36.133          0.503        -999.25       128.8003        -999.25       439.8564       4109.781              1
      8866.5000         8.1151        1990.74        -999.25         0.5476        28.0186        -0.1151       116.6421        37.8694        83.5639        89.5559       3653.281         0.2737         0.3171        33.6266        12.5149          0.498        -999.25         2.1877         33.597          0.502        -999.25       129.8284        -999.25       436.7764       4088.984              1
      8867.0000         8.1476       2109.531        -999.25         0.5377        28.0737        -0.1187       117.8953        36.4651       83.37968        89.4249       3755.434         0.2663         0.3041        33.4542        12.6626          0.491        -999.25         2.1868         33.597          0.474        -999.25       130.1824        -999.25       435.3628       4069.992              1
      8867.5000         8.1964       2182.551        -999.25         0.5482        28.0567        -0.1225       110.0015        36.1842       82.81015        89.0199       3736.844         0.2676         0.2993        34.2796        12.9746          0.489        -999.25         2.1871         38.944          0.458        -999.25       130.5649        -999.25       435.0376       4055.258              1
      8868.0000         8.2452       2074.223        -999.25         0.5929        28.2639        -0.1159       110.3344        36.1842       83.10561          89.23       3677.504         0.2719         0.3009        34.6603        12.3968          0.487        -999.25         2.1836         38.944          0.482        -999.25          130.8        -999.25       435.6133       4045.332              1
      8868.5000         8.2127       2080.816        -999.25         0.6278        28.5523        -0.1009       110.4562        36.5587       85.57498         90.986       3628.168         0.2756         0.3059        34.8369        11.4797          0.489        -999.25         2.1789           31.3          0.481        -999.25       131.1523        -999.25        436.416       4037.906              1
      8869.0000         8.1395       2147.777        -999.25         0.6559        28.9966         -0.093       110.7188        39.0396        88.0625        92.7549       3560.973         0.2808         0.3139        35.6627        10.7466          0.487        -999.25         2.1716           31.3          0.466        -999.25       124.8037        -999.25       437.9883       4048.238              1
      8869.5000         8.1395       2106.824        -999.25         0.6707        29.8367        -0.1044       117.2531        41.2397       87.75748         92.538       3460.059          0.289         0.3249        35.8594        10.9665           0.49        -999.25         2.1577         39.085          0.475        -999.25       109.6349        -999.25       442.0293       4081.457              1
      8870.0000         8.2452        2056.91        -999.25         0.6787        30.0672        -0.1292       126.9609        43.9079       86.96983        91.9779       3311.402          0.302         0.3394        35.6201        10.7676            0.5        -999.25         2.1539         39.085          0.486        -999.25       110.2089        -999.25       450.0181       4127.031              1
      8870.5000         8.3998       2034.355        -999.25         0.6549        29.2176        -0.1763       131.1484        45.9207       86.74766        91.8199       3079.242         0.3248         0.3619        38.2733        10.7941          0.513        -999.25         2.1679        53.6949          0.492        -999.25       110.7773        -999.25       459.8354       4173.875              1
      8871.0000         8.7333       1913.563        -999.25         0.5638        26.9174        -0.2397       119.2124        46.4356       85.78156        91.1329       2757.914         0.3626         0.3959        43.0046        11.5004           0.53        -999.25         2.2059        53.6949          0.523        -999.25       111.3467        -999.25       469.9238       4190.375              1
      8871.5000         9.2865       1878.227        -999.25         0.4652        25.7083         -0.322       110.3452        43.8611       82.88329        89.0719       2458.605         0.4067          0.431        46.0722        13.1895          0.543        -999.25         2.2258         49.488          0.532        -999.25       111.7388        -999.25       479.0454       4197.258              1
