#------------------------------------------------------------------------------
# Created by    : vladimir.rabinovich
# Created on    : 09/19/2023 17:19:48
#------------------------------------------------------------------------------
~Version Information Section
VERS.           2.0     :   CWLS log ASCII Standard - VERSION 2.0
WRAP.           NO      :   One line per depth step
~Well Information Section
#MNEM       .UNIT                                         VALUE :DESCRIPTION
#------------------------------------------------------------------------------
STRT        .FT                                             960 :START DEPTH
STOP        .FT                                            9172 :STOP DEPTH
STEP        .FT                                             0.5 :STEP      
NULL        .                                           -999.25 :NULL      
COMP        .                                ODECO OIL & GAS CO :COMPANY   
WELL        .                               OCS G06101 ST00BP00 :WELL      
FLD         .                                           WILDCAT :FIELD     
LOC         .                                                   :LOCATION  
CNTY        .                             GALVESTON LARGE BLOCK :LOCATION  
STAT        .                                             TEXAS :STATE     
CTRY        .                                     UNITED STATES :COUNTRY   
SRVC        .                                                   :SERVICE COMPANY
DATE        .                             9/13/2023 11:19:27 AM :LOG DATE  
API         .                                    42706401070000 :API NUMBER
UWI         .                                    42706401070000 :UNIQUE WELL ID
XCOORD      .                                  1041316.87817256 :SURFACE X 
YCOORD      .                                  10447909.9182991 :SURFACE Y 
LAT         .                                         28.776905 :LATITUDE  
LON         .                                        -94.870587 :LONGITUDE 
ELEV        .FT                                              92 :ELEVATION VALUE
ELEV_TYPE   .                                                KB :ELEVATION REFERENCE TYPE
~Curve Information Section
#MNEM       .UNIT                                      API CODE :CURVE DESCRIPTION
#------------------------------------------------------------------------------
DEPT        .FT                                                 :DEPTH     
ASFL        .OHMM                                               :          
GR          .GAPI                                               :          
GR_NORM     .GAPI                                               :GammaRay Normalized
ILD         .OHMM                                               :          
SP          .MV                                                 :          
SP_NORM     .MV                                                 :SP Normalized
VSH_GR      .V/V                                                :Volume of Shale from GR
VSH_SP      .V/V                                                :Volume of Shale from SP
~A        DEPTH           ASFL             GR        GR_NORM            ILD             SP        SP_NORM         VSH_GR         VSH_SP
# ...
      1491.0000         0.8683        63.5173       73.09904         0.9634       -74.7008      -4.928123       0.853171      0.9178646
      1491.5000         0.8576         64.703       74.83989         0.9544       -74.6975        -4.9254      0.8902104        0.91791
      1492.0000         0.8641        66.7709       77.87732         0.9418        -74.653      -4.864987      0.9548366      0.9189169
      1492.5000         0.8706        70.2032       82.92005         0.9293       -74.6084      -4.804425              1      0.9199262
      1493.0000          0.875         74.123       88.67927         0.9167        -74.564      -4.744162              1      0.9209306
      1493.5000          0.875        75.5142       90.72213         0.9042       -74.5194       -4.68361              1      0.9219398
      1494.0000         0.8713        76.9049       92.76428         0.8916       -74.4749      -4.623198              1      0.9229467
      1494.5000         0.8604        77.9462       94.29289         0.8827       -74.4303      -4.562646              1      0.9239559
      1495.0000         0.8496        78.8126       95.56445         0.8797       -74.3859      -4.502383              1      0.9249603
      1495.5000         0.8387         78.478       95.07088         0.8768       -74.3413      -4.441821              1      0.9259697
      1496.0000         0.8279         77.679       93.89478         0.8738       -74.3197      -4.413474              1      0.9264421
      1496.5000         0.8184        76.8799       92.71851         0.8709       -74.3214      -4.417746              1      0.9263709
      1497.0000         0.8151        76.0808       91.54225          0.868       -74.3231      -4.422008              1      0.9262999
      1497.5000         0.8174        75.2816       90.36584          0.865       -74.3248       -4.42628              1      0.9262286
      1498.0000         0.8378        74.4825       89.18958         0.8647       -74.3265      -4.430542              1      0.9261577
      1498.5000         0.8581        73.9961        88.4729         0.8676       -74.3284      -4.435092              1      0.9260818
      1499.0000         0.8712        73.6481       87.95964         0.8706       -74.3301      -4.439364              1      0.9260106
      1499.5000         0.8788        73.3003       87.44666         0.8736       -74.3318      -4.443637              1      0.9259394
      1500.0000         0.8864        72.9524       86.93354         0.8765       -74.3335      -4.447909              1      0.9258682
      1500.5000          0.894        72.6045       86.42042         0.8795       -74.3352      -4.452171              1      0.9257972
      1501.0000         0.9016        72.2566        85.9073         0.8824       -74.3369      -4.456433              1      0.9257261
      1501.5000         0.9092        71.9087       85.39417         0.8854       -74.3386      -4.460706              1      0.9256549
      1502.0000         0.9177        71.5608       84.88105         0.8884       -74.3405      -4.465256              1      0.9255791
      1502.5000         0.9273         71.213       84.36807         0.8902       -74.3422      -4.469528              1      0.9255078
      1503.0000         0.9092        70.8855       83.88494         0.8887       -74.3439      -4.473801              1      0.9254367
      1503.5000         0.8848        70.5636       83.41003         0.8873       -74.3516      -4.486458              1      0.9252257
      1504.0000         0.8673        70.2418       82.93526         0.8859       -74.4015      -4.558203              1      0.9240299
      1504.5000         0.8541        69.9198       82.46021         0.8844       -74.4513       -4.62982              1      0.9228363
      1505.0000         0.8409         69.683       82.11037          0.883       -74.5012      -4.701566              1      0.9216406
      1505.5000         0.8277        69.4572       81.77671         0.8815        -74.551      -4.773183              1      0.9204469
      1506.0000         0.8228        69.1318       81.29665         0.8801        -74.601      -4.845067              1      0.9192489
      1506.5000         0.8192        68.6833       80.63567         0.8792       -74.6508      -4.916673              1      0.9180555
      1507.0000         0.8157         68.235       79.97499         0.8809       -74.7007      -4.988419      0.9994679      0.9168597
      1507.5000          0.817        67.7865       79.31402         0.8827       -74.7505      -5.060036      0.9854047       0.915666
      1508.0000         0.8239        68.1305        79.8178         0.8844       -74.8004      -5.131781      0.9961234      0.9144703
      1508.5000         0.8457        68.7034       80.65799         0.8862       -74.8372      -5.185187              1      0.9135802
      1509.0000         0.8675        69.2762       81.49805         0.8879       -74.8529      -5.209059              1      0.9131823
      1509.5000         0.8918         69.849        82.3381         0.8897       -74.8688      -5.233199              1        0.91278
      1510.0000         0.9292        70.4218       83.17815         0.8914       -74.8845      -5.257071              1      0.9123821
      1510.5000         0.9631        70.0624       82.64814         0.8932       -74.9004      -5.281221              1      0.9119797
      1511.0000         0.9475        68.6951       80.63677         0.8952       -74.9161      -5.305093              1      0.9115818
      1511.5000         0.9294        67.1375       78.34572         0.9018        -74.913      -5.302648      0.9648025      0.9116225
      1512.0000         0.9109        56.0399       62.03352         0.9084       -74.9059      -5.294583      0.6177346      0.9117569
      1512.5000         0.8921         55.777       61.64532         0.9149       -74.8988       -5.28654      0.6094748       0.911891
      1513.0000         0.8732        55.5142       61.25726         0.9215       -74.8917      -5.278487      0.6012183      0.9120252
      1513.5000         0.8562        55.2514       60.86922         0.9281       -74.9189      -5.318456      0.5929621      0.9113591
      1514.0000         0.8464        54.9886       60.48117         0.9347       -74.9952      -5.427168      0.5847058      0.9095472
      1514.5000         0.8399        54.7256       60.09283         0.9413       -75.0715      -5.535881      0.5764433      0.9077353
      1515.0000         0.8463        54.4628       59.70478         0.9378       -75.1478      -5.644572      0.5681868      0.9059238
      1515.5000         0.8528        59.3595       66.89977         0.9326       -75.2024      -5.722908      0.7212718      0.9046182
      1516.0000         0.8593         60.807       69.02539         0.9273       -75.1803      -5.693855      0.7664977      0.9051024
      1516.5000         0.8655        62.2545       71.15102         0.9221       -75.1582      -5.664813      0.8117238      0.9055864
      1517.0000         0.8704        63.5313       73.02574         0.9168       -75.1361       -5.63576      0.8516115      0.9060706
      1517.5000         0.8754        64.1672       73.95853         0.9116       -75.0804      -5.559657      0.8714582       0.907339
      1518.0000         0.8803        64.8035       74.89191         0.9063       -75.0229      -5.481055      0.8913173      0.9086491
      1518.5000         0.8853        65.4396       75.82501         0.9019       -74.9656      -5.402719      0.9111705      0.9099547
      1519.0000         0.8902        65.7053       76.21371         0.8989       -74.9081      -5.324106      0.9194407      0.9112649
      1519.5000         0.8952        65.8279       76.39211         0.8959       -74.8507      -5.245642      0.9232364      0.9125726
      1520.0000         0.9001        65.9506       76.57064         0.8929       -74.7933      -5.167168      0.9270349      0.9138805
