#------------------------------------------------------------------------------
# Created by    : vladimir.rabinovich
# Created on    : 09/19/2023 17:22:26
#------------------------------------------------------------------------------
~Version Information Section
VERS.           2.0     :   CWLS log ASCII Standard - VERSION 2.0
WRAP.           NO      :   One line per depth step
~Well Information Section
#MNEM       .UNIT                                         VALUE :DESCRIPTION
#------------------------------------------------------------------------------
STRT        .FT                                            3450 :START DEPTH
STOP        .FT                                            9344 :STOP DEPTH
STEP        .FT                                             0.5 :STEP      
NULL        .                                           -999.25 :NULL      
COMP        .                                  W&T OFFSHORE INC :COMPANY   
WELL        .                               OCS G04565 ST00BP00 :WELL      
FLD         .                              GALVESTON BLOCK 0303 :FIELD     
LOC         .                                                   :LOCATION  
CNTY        .                             GALVESTON LARGE BLOCK :LOCATION  
STAT        .                                             TEXAS :STATE     
CTRY        .                                     UNITED STATES :COUNTRY   
SRVC        .                                                   :SERVICE COMPANY
DATE        .                             9/13/2023 11:19:39 AM :LOG DATE  
API         .                                    42706403900000 :API NUMBER
UWI         .                                    42706403900000 :UNIQUE WELL ID
XCOORD      .                                  983096.827540607 :SURFACE X 
YCOORD      .                                  10485968.3003259 :SURFACE Y 
LAT         .                                        28.8789082 :LATITUDE  
LON         .                                       -95.0543314 :LONGITUDE 
ELEV        .FT                                              90 :ELEVATION VALUE
ELEV_TYPE   .                                                KB :ELEVATION REFERENCE TYPE
~Curve Information Section
#MNEM       .UNIT                                      API CODE :CURVE DESCRIPTION
#------------------------------------------------------------------------------
DEPT        .FT                                                 :DEPTH     
CDER        .MMHO                                               :          
DCAL        .IN                                                 :          
DPHI        .DEC                                                :          
DRHO        .G/CC                                               :          
DTLN        .US/F                                               :          
GR          .GAPI                                               :          
GR_NORM     .GAPI                                               :GammaRay Normalized
IDER        .OHMM                                               :          
IMER        .OHMM                                               :          
NPOR        .DEC                                                :          
RWA         .OHMM                                               :          
SFLA        .OHMM                                               :          
SP          .MV                                                 :          
SP_NORM     .MV                                                 :SP Normalized
TENS        .LB                                                 :          
VSH_GR      .V/V                                                :Volume of Shale from GR
VSH_SP      .V/V                                                :Volume of Shale from SP
~A        DEPTH           CDER           DCAL           DPHI           DRHO           DTLN             GR        GR_NORM           IDER           IMER           NPOR            RWA           SFLA             SP        SP_NORM           TENS         VSH_GR         VSH_SP
# ...
      8550.0000       1637.197          2.074          0.214          0.009        -999.25         87.327       93.78796          0.611          0.629          0.396          0.081          0.716         -2.302      -3.872868           1780              1      0.9446733
      8550.5000       1630.258          1.935          0.212          0.008        -999.25           86.7       93.04672          0.613          0.636          0.387          0.077          0.717         -2.109      -3.687351           1780              1      0.9473236
      8551.0000       1628.134           1.92          0.209          0.007        -999.25           86.7       93.04459          0.614          0.647          0.384          0.073          0.721         -1.666      -3.251833       1817.951              1      0.9535452
      8551.5000       1628.399          1.965          0.208          0.004        -999.25         87.016       93.41493          0.614          0.655          0.383          0.072          0.724         -1.197      -2.790317       1832.059              1      0.9601383
      8552.0000       1629.461           2.03           0.21          0.002        -999.25         87.619       94.12359          0.614          0.656          0.377          0.073          0.732         -0.925      -2.525799           1820              1      0.9639171
      8552.5000       1624.432          2.035          0.215          0.001        -999.25          88.04       94.61769          0.616          0.655          0.373          0.081           0.75         -0.775      -2.383282           1820              1      0.9659531
      8553.0000       1592.864           2.02          0.224          0.001        -999.25         87.502       93.98138          0.628          0.656          0.391          0.093          0.788           -0.6      -2.215765           1820              1      0.9683462
      8553.5000       1535.862          2.095          0.233          0.002        -999.25         85.362       91.45671          0.651          0.664          0.422          0.106          0.837         -0.375      -1.998248           1808              1      0.9714536
      8554.0000       1474.491          2.264           0.23          0.004        -999.25           81.7       87.13799          0.678          0.692           0.43          0.104          0.887           -0.3      -1.930731       1837.863              1      0.9724181
      8554.5000       1381.788          2.388          0.222          0.007        -999.25         76.678       81.21616          0.724          0.737          0.413          0.094          0.935           -0.3      -1.938213       1832.059              1      0.9723113
      8555.0000       1314.406            2.4           0.21          0.008        -999.25         72.137       75.86132          0.761          0.783          0.384          0.085          0.986           -0.3      -1.945696           1820       0.911943      0.9722043
      8555.5000       1268.875          2.396          0.198          0.008        -999.25         69.124        72.3076          0.788          0.821          0.354          0.076          1.025         -0.343      -1.996179       1827.902       0.836332      0.9714832
      8556.0000       1243.626          2.361          0.186          0.005        -999.25          68.56       71.64064          0.804          0.841          0.326          0.068          1.025         -0.399      -2.059662           1820      0.8221413      0.9705763
      8556.5000       1232.286          2.272          0.176          0.003        -999.25         69.082       72.25381          0.812          0.848          0.326          0.065          1.008           -0.4      -2.068145           1800      0.8351874      0.9704551
      8557.0000       1237.624          2.242          0.168          0.003        -999.25         71.051       74.57263          0.808          0.843          0.336          0.068          0.971           -0.4      -2.075627           1800      0.8845241      0.9703482
      8557.5000       1252.505          2.238           0.17          0.004        -999.25         74.633       78.79277          0.798          0.828          0.343          0.071           0.93           -0.3       -1.98311       1791.961      0.9743143      0.9716699
      8558.0000       1282.545          2.222          0.176          0.005        -999.25         77.976       82.73118           0.78          0.809          0.351          0.073          0.873           -0.3      -1.990593       1798.049              1       0.971563
      8558.5000       1328.374          2.078          0.179          0.007        -999.25         79.353       84.35218          0.753          0.784          0.361          0.075          0.817         -0.299      -1.997076       1827.902              1      0.9714704
      8559.0000       1373.815            1.9          0.181          0.007        -999.25         79.024       83.96223          0.728           0.75          0.371          0.077          0.778         -0.199      -1.904559       1837.863              1       0.972792
      8559.5000       1415.829          1.825          0.188          0.006        -999.25         78.705       83.58407          0.706          0.723          0.374          0.079          0.769           0.15      -1.563041       1832.059              1      0.9776708
      8560.0000       1449.906          1.875          0.194          0.004        -999.25         78.684       83.55717           0.69          0.707          0.377           0.08          0.782            0.4      -1.320524       1819.998              1      0.9811354
      8560.5000       1460.494          1.925          0.199          0.003        -999.25         77.888       82.61674          0.685          0.703          0.378          0.081          0.802          0.625      -1.103007       1837.094              1      0.9842427
      8561.0000       1443.835          1.975          0.203          0.002        -999.25         76.399       80.85944          0.693           0.71          0.376          0.081          0.818           0.55       -1.18549       1795.938              1      0.9830644
      8561.5000       1417.635          2.025          0.204              0        -999.25         75.858        80.2196          0.705          0.722          0.369           0.08          0.833          0.675      -1.067973       1819.109              1      0.9847432
      8562.0000       1390.047           2.04          0.201         -0.001        -999.25         76.748       81.26654          0.719          0.735          0.364          0.077          0.853            1.1     -0.6504555       1826.213              1      0.9907078
      8562.5000       1367.989          2.035          0.197         -0.002        -999.25         78.118       82.87929          0.731          0.748          0.355          0.075          0.868           0.85     -0.9079384       1828.283              1      0.9870294
      8563.0000       1359.065          1.955          0.192         -0.002        -999.25         79.405       84.39419          0.736          0.759          0.345          0.072          0.854            0.6      -1.165421       1828.283              1      0.9833511
      8563.5000       1362.212          1.805          0.189         -0.002        -999.25         80.821       86.06116          0.734          0.766          0.339          0.071          0.838            0.5      -1.272904       1828.283              1      0.9818156
      8564.0000       1381.215          1.745          0.188         -0.001        -999.25          81.24       86.55291          0.724          0.754          0.343          0.067          0.832            0.4      -1.380387       1828.283              1      0.9802802
      8564.5000       1387.155           1.72          0.185              0        -999.25          80.79       86.02034          0.721          0.744          0.342          0.062          0.845            0.3       -1.48787       1828.283              1      0.9787447
