#------------------------------------------------------------------------------
# Created by    : vladimir.rabinovich
# Created on    : 09/19/2023 17:20:01
#------------------------------------------------------------------------------
~Version Information Section
VERS.           2.0     :   CWLS log ASCII Standard - VERSION 2.0
WRAP.           NO      :   One line per depth step
~Well Information Section
#MNEM       .UNIT                                         VALUE :DESCRIPTION
#------------------------------------------------------------------------------
STRT        .FT                                            3496 :START DEPTH
STOP        .FT                                           13495 :STOP DEPTH
STEP        .FT                                             0.5 :STEP      
NULL        .                                           -999.25 :NULL      
COMP        .                      TEXAS EASTERN EXPLORATION CO :COMPANY   
WELL        .                                ST TR 00798-L NE/4 :WELL      
FLD         .                                           WILDCAT :FIELD     
LOC         .                                                   :LOCATION  
CNTY        .                        MUSTANG ISLAND LARGE BLOCK :LOCATION  
STAT        .                                             TEXAS :STATE     
CTRY        .                                     UNITED STATES :COUNTRY   
SRVC        .                                                   :SERVICE COMPANY
DATE        .                             9/13/2023 11:18:55 AM :LOG DATE  
API         .                                    42702302040000 :API NUMBER
UWI         .                                    42702302040000 :UNIQUE WELL ID
XCOORD      .                                  329124.923046376 :SURFACE X 
YCOORD      .                                  10022065.1107101 :SURFACE Y 
LAT         .                                        27.5591082 :LATITUDE  
LON         .                                       -97.0466418 :LONGITUDE 
ELEV        .FT                                              82 :ELEVATION VALUE
ELEV_TYPE   .                                                KB :ELEVATION REFERENCE TYPE
~Curve Information Section
#MNEM       .UNIT                                      API CODE :CURVE DESCRIPTION
#------------------------------------------------------------------------------
DEPT        .FT                                                 :DEPTH     
ASFL        .OHMM                                               :          
CILD        .MMHO                                               :          
GR          .GAPI                                               :          
GR_NORM     .GAPI                                               :GammaRay Normalized
ILD         .OHMM                                               :          
SFL         .OHMM                                               :          
SP          .MV                                                 :          
SP_NORM     .MV                                                 :SP Normalized
VSH_GR      .V/V                                                :Volume of Shale from GR
VSH_SP      .V/V                                                :Volume of Shale from SP
~A        DEPTH           ASFL           CILD             GR        GR_NORM            ILD            SFL             SP        SP_NORM         VSH_GR         VSH_SP
# ...
      6166.5000         0.8429        2657.91        49.2582       43.36977         0.3966         0.8888      -111.2451      -67.97025      0.2206333     0.02941673
      6167.0000         0.7791       2839.676        50.5831       45.17217         0.3891         0.8259      -108.9785      -65.70364      0.2589823     0.06226603
      6167.5000         0.7309       2928.125        51.2375       46.06096         0.3824         0.7629      -106.2417      -62.96685      0.2778926      0.1019298
      6168.0000         0.7958       2988.766        51.8683       46.91759         0.3787         0.8015      -103.5026      -60.22775      0.2961189      0.1416268
      6168.5000         0.8607       3052.035        52.4788       47.74657         0.3778         0.8476      -100.7657      -57.49085      0.3137567      0.1812921
      6169.0000         0.9257       3064.449        53.2665       48.81699         0.3983         0.8937       -98.0265      -54.75164      0.3365316      0.2209907
      6169.5000         0.9906       2973.766        54.3558       50.29836         0.4305         0.9371       -95.0988      -51.82395      0.3680503      0.2634211
      6170.0000         1.0555       2792.598        55.5009       51.85576         0.4713         0.9724       -90.7964      -47.52155      0.4011864      0.3257746
      6170.5000         1.0151       2611.426        56.7117        53.5027         0.5036          0.999       -84.3353      -41.06044      0.4362278      0.4194139
      6171.0000         0.9597       2430.258        57.8952       55.11243         0.5343         0.9599       -77.8694      -34.59455      0.4704773      0.5131225
      6171.5000         0.9042        2249.09        58.8033        56.3469         0.5696         0.9053       -70.4655      -27.19065      0.4967427      0.6204254
      6172.0000         0.8487       2067.918         59.766       57.65578         0.6053         0.8405       -59.0818      -15.80695       0.524591      0.7854066
      6172.5000         0.7933        1886.75        60.9111       59.21319         0.6382         0.7798       -50.2562      -6.981346      0.5577274      0.9133138
      6173.0000         0.7378        1705.58        62.0301       60.73503         0.6688         0.7244        -49.069      -5.794147       0.590107      0.9305196
      6173.5000         0.6948        1524.41        63.1851       62.30593         0.6987         0.6904       -48.6534      -5.378548      0.6235304      0.9365428
      6174.0000         0.6844       1401.047        65.1328       64.95694         0.7265         0.7015        -47.824      -4.549149      0.6799349       0.948563
      6174.5000         0.6933       1337.578        67.7455       68.51406         0.7543         0.7125       -47.1411      -3.866249      0.7556183      0.9584602
      6175.0000         0.7083        1309.32        70.0679       71.67562          0.779         0.7344       -46.5977      -3.322845      0.8228856      0.9663356
      6175.5000         0.7596       1291.008        71.1237       73.11134         0.8014         0.7595       -46.1105      -2.835648      0.8534328      0.9733964
      6176.0000         0.8236       1277.264        70.9797       72.91226         0.8197         0.7846       -45.9041      -2.629246      0.8491971      0.9763877
      6176.5000         0.8521       1262.898        70.0393       71.62801         0.8328         0.8098       -45.8569      -2.582047      0.8218727      0.9770718
      6177.0000         0.8731       1247.453        68.7777       69.90613         0.8359         0.8325       -45.8931      -2.618248      0.7852368      0.9765471
      6177.5000         0.8865       1253.449        67.6611        68.3818         0.8142         0.8531       -46.9451      -3.670246      0.7528042      0.9613008
      6178.0000          0.895       1350.689         66.392       66.64967         0.7725         0.8418       -50.5465      -7.271648      0.7159503      0.9091066
      6178.5000         0.8652        1447.83        65.4491       65.36201         0.7308         0.8019       -54.7596      -11.48475      0.6885533      0.8480471
      6179.0000         0.8227       1544.971        63.8389       63.16512         0.6585          0.742       -58.9726      -15.69775       0.641811      0.7869892
      6179.5000         0.7838       1642.111        62.2695        61.0238         0.5718         0.6817       -63.1857      -19.91085      0.5962511      0.7259297
      6180.0000         0.7221       2176.383        57.7017       54.79695         0.4356         0.6265       -71.2793      -28.00444      0.4637648      0.6086313
      6180.5000         0.6688       2775.512          55.95       52.40725          0.378         0.5887        -79.507      -36.23215      0.4129203      0.4893891
      6181.0000         0.6294       3374.645        54.3285       50.19495         0.3673         0.5758       -87.7345      -44.45964        0.36585      0.3701501
      6181.5000         0.5803       3177.188        52.4937       47.69201         0.3612         0.5889       -95.9622      -52.68734       0.312596      0.2509081
      6182.0000           0.58       2799.352        45.2089       37.76304         0.3523         0.6094      -104.1898      -60.91494      0.1013413      0.1316675
      6182.5000         0.7734       2421.516        43.4199       35.32251          0.683         0.6299       -99.6592      -56.38435     0.04941518      0.1973283
      6183.0000         0.9666       2043.684        44.6627       37.01305         1.0426         0.7964       -92.9252      -49.65035     0.08538397      0.2949225
      6183.5000           1.16        1665.85        45.0466       37.53327         1.3735         1.0623       -86.1962      -42.92134     0.09645251      0.3924443
      6184.0000         1.3534       1288.016        45.2746       37.84105         1.5584         1.3285       -79.4673      -36.19245      0.1030011      0.4899645
      6184.5000         1.5468       910.1816        45.4356       38.05755          1.656         1.5945       -72.7383      -29.46344      0.1076075      0.5874863
      6185.0000         1.7402       530.3604        45.7699       38.51019         1.7097         1.8323       -66.0093      -22.73445       0.117238       0.685008
      6185.5000          1.842       494.6533        46.1117       38.97302          1.683         1.9871       -59.2753      -16.00045      0.1270856      0.7826023
      6186.0000         1.7049       572.1768        46.8539       39.98146         1.5931         1.9427       -55.0524      -11.77755      0.1485417      0.8438037
      6186.5000          1.568       678.8525        47.8389       41.32072          1.388         1.7115       -53.8093      -10.53445      0.1770366      0.8618196
      6187.0000         1.4309       785.5283        48.9319       42.80713         1.2454         1.4804       -52.6481      -9.373249      0.2086623      0.8786486
      6187.5000          1.294       892.2031         50.397       44.80056         1.1118         1.2493        -51.209      -7.934147      0.2510757      0.8995051
      6188.0000         1.1571       998.9785        52.5532       47.73566         1.0268         1.1364       -49.9758      -6.700947      0.3135248      0.9173776
      6188.5000           1.02       1105.654        54.2578       50.05544         0.9595         1.0776       -50.6458      -7.370949      0.3628816      0.9076674
      6189.0000         0.9545        1212.18         55.878        52.2602         0.9102          1.025       -53.2808      -10.00595      0.4097914       0.869479
      6189.5000         0.9329       1251.762        57.5478       54.53255          0.859         0.9929       -55.9158      -12.64095      0.4581394      0.8312907
      6190.0000         0.9325       1292.436        59.2698       56.87603         0.8076         1.0196       -58.6501      -15.37525      0.5080007      0.7916631
      6190.5000         0.9732        1318.75        60.2101       58.15438         0.7809         1.0464       -69.6542      -26.37934      0.5351996      0.6321834
