#------------------------------------------------------------------------------
# Created by    : vladimir.rabinovich
# Created on    : 09/19/2023 17:22:15
#------------------------------------------------------------------------------
~Version Information Section
VERS.           2.0     :   CWLS log ASCII Standard - VERSION 2.0
WRAP.           NO      :   One line per depth step
~Well Information Section
#MNEM       .UNIT                                         VALUE :DESCRIPTION
#------------------------------------------------------------------------------
STRT        .FT                                             712 :START DEPTH
STOP        .FT                                            8940 :STOP DEPTH
STEP        .FT                                             0.5 :STEP      
NULL        .                                           -999.25 :NULL      
COMP        .                                      SHELL OIL CO :COMPANY   
WELL        .                               OCS G03086 ST00BP00 :WELL      
FLD         .                                           WILDCAT :FIELD     
LOC         .                                                   :LOCATION  
CNTY        .                      MATAGORDA ISLAND LARGE BLOCK :LOCATION  
STAT        .                                             TEXAS :STATE     
CTRY        .                                     UNITED STATES :COUNTRY   
SRVC        .                                                   :SERVICE COMPANY
DATE        .                             9/13/2023 11:19:05 AM :LOG DATE  
API         .                                    42703400050000 :API NUMBER
UWI         .                                    42703400050000 :UNIQUE WELL ID
XCOORD      .                                  597395.628989583 :SURFACE X 
YCOORD      .                                    10217429.66268 :SURFACE Y 
LAT         .                                         28.117488 :LATITUDE  
LON         .                                        -96.235866 :LONGITUDE 
ELEV        .FT                                              93 :ELEVATION VALUE
ELEV_TYPE   .                                                KB :ELEVATION REFERENCE TYPE
~Curve Information Section
#MNEM       .UNIT                                      API CODE :CURVE DESCRIPTION
#------------------------------------------------------------------------------
DEPT        .FT                                                 :DEPTH     
CALI        .IN                                                 :          
DRHO        .G/C3                                               :          
DT          .US/F                                               :          
GR          .GAPI                                               :          
GR_1        .GAPI                                               :          
GR_NORM     .GAPI                                               :GammaRay Normalized
ILD         .OHMM                                               :          
NPHI        .%                                                  :          
RHOB        .G/C3                                               :          
SFL         .OHMM                                               :          
SP          .MV                                                 :          
SP_NORM     .MV                                                 :SP Normalized
VSH_GR      .V/V                                                :Volume of Shale from GR
VSH_SP      .V/V                                                :Volume of Shale from SP
~A        DEPTH           CALI           DRHO             DT             GR           GR_1        GR_NORM            ILD           NPHI           RHOB            SFL             SP        SP_NORM         VSH_GR         VSH_SP
# ...
      1828.0000        19.6645         0.0025       177.5081        30.5732        28.7694        41.9247         0.3862        -999.25        -999.25          0.285       -82.2402      -6.791092      0.1898873     0.04178162
      1828.5000         19.659         0.0019        185.313        30.4644        30.2342       44.04837         0.3803        -999.25        -999.25         0.2923       -81.9164      -6.467293      0.2350716      0.1065414
      1829.0000        19.6602         0.0082       189.8225        30.3174        30.3842       44.26617         0.3726        -999.25        -999.25         0.2961       -81.5233      -6.074196      0.2397057      0.1851608
      1829.5000        19.6684         0.0159       187.9675        30.6576         30.141       43.91402         0.3672        -999.25        -999.25         0.2969       -81.0553      -5.606194      0.2322131      0.2787613
      1830.0000         19.671         0.0125       183.7263        31.0038        29.8099       43.43444          0.373        -999.25         1.5835         0.2875       -81.1941      -5.744995      0.2220095       0.251001
      1830.5000         19.669        -0.0095       180.4043        31.1852        29.4382       42.89602          0.384        -999.25         1.7344         0.2765       -81.3241      -5.874992      0.2105536      0.2250015
      1831.0000        19.6696        -0.0034        179.106        31.8196        29.0937       42.39702         0.3934        -999.25         1.7025          0.277       -81.5845      -6.135399      0.1999366      0.1729202
      1831.5000         19.665        -0.0021       181.3752        32.9504        29.5153       43.00852          0.398        -999.25         1.6201         0.2843       -81.7006      -6.251495      0.2129473      0.1497009
      1832.0000        19.6657        -0.0066       177.4023        34.2979        30.6737       44.68806         0.4033        -999.25        -999.25         0.3094       -81.7407      -6.291595      0.2486821      0.1416809
      1832.5000        19.6717        -0.0034       173.4021        37.0294         32.597       47.47634         0.4172        -999.25        -999.25         0.3333       -81.7164      -6.267296      0.3080073      0.1465408
      1833.0000        19.6756         0.0033       169.6736        40.5864        35.7704       52.07671         0.4369        -999.25        -999.25         0.3687       -81.5199      -6.070793      0.4058875      0.1858414
      1833.5000        19.6742         0.0056       168.0303        44.0626        39.3584       57.27808         0.4588        -999.25        -999.25         0.4183       -80.9904      -5.541298      0.5165548      0.2917404
      1834.0000        19.5947        -0.0007       169.8821        47.6818        43.2993       62.99097         0.4813        -999.25        -999.25         0.4768       -80.2892      -4.840096      0.6381058      0.4319809
      1834.5000        18.9746        -0.0181       169.7839        50.4233        45.8065       66.62566         0.5155        -999.25         1.6699         0.5012        -79.313      -3.863899      0.7154395      0.6272202
      1835.0000        15.7879        -0.0152       167.9644        53.5894        46.5539       67.70942         0.5428        -999.25         1.7299         0.4996       -78.6686      -3.219498      0.7384983      0.7561005
      1835.5000         13.619        -0.0049       164.9661        55.6394        46.8049       68.07362         0.5507        -999.25         1.8273         0.4914       -78.2155      -2.766396      0.7462473      0.8467209
      1836.0000        13.4656        -0.0033       162.3657        56.6014        47.0119       68.37406         0.5452        -999.25         1.9519         0.4963       -78.2426      -2.793495      0.7526396       0.841301
      1836.5000        13.4098         0.0016       160.9485        56.8284        47.4642       69.03006         0.5323        -999.25         1.9768         0.5114       -78.1636      -2.714493       0.766597      0.8571014
      1837.0000        13.3887         0.0061        160.511        57.1578        48.2803        70.2134         0.4958        -999.25         1.9842          0.491       -77.7418      -2.292694      0.7917745      0.9414612
      1837.5000        13.7966         0.0135       161.9739        57.8745        48.5289       70.57413         0.4558        -999.25          1.973         0.4303       -77.5636      -2.114494      0.7994497      0.9771011
      1838.0000        14.5201         0.0284       161.9055        59.2734        47.4482       69.00797         0.4174        -999.25         1.9642         0.3792       -77.9718      -2.522697       0.766127      0.8954605
      1838.5000        14.2418         0.0201       159.4072        58.1014        44.3839       64.56649         0.4026        -999.25         1.9385         0.3765       -78.6387      -3.189598      0.6716275      0.7620804
      1839.0000        13.6185         0.0114       156.4426        55.5566        40.8157        59.3946          0.395        -999.25         1.9317         0.3821       -79.2294      -3.780296      0.5615873      0.6439407
      1839.5000        13.7455         0.0031       154.4534        49.8979         37.921       55.19895         0.4049        -999.25         1.9107         0.3666       -79.6716      -4.222496      0.4723181      0.5555008
      1840.0000        14.0357          0.019       157.9839        43.5185        35.8187       52.15194         0.4333        -999.25         1.8433         0.3489       -79.8422      -4.393097       0.407488      0.5213806
      1840.5000        14.8078         0.0413       160.3237        40.0128        33.2403       48.41479         0.4693        -999.25         1.8052         0.3412       -79.7373      -4.288193      0.3279743      0.5423614
      1841.0000        17.3187         0.0254       162.8953        37.4745        32.3558       47.13304         0.4937        -999.25         1.7003         0.3452       -79.5342      -4.085098       0.300703      0.5829803
      1841.5000        17.9092         0.0082       162.0642        37.6538        32.6492       47.55872         0.5158        -999.25        -999.25         0.3707       -79.4729      -4.023796      0.3097599      0.5952408
      1842.0000        18.7986         0.0073        153.408        39.5773        33.0495       48.13934         0.5345        -999.25        -999.25         0.4578       -79.5554      -4.106293      0.3221136      0.5787414
      1842.5000        18.8087         0.0042       143.5623        41.4876         33.058       48.15203         0.5575        -999.25        -999.25         0.5187       -79.9078      -4.458694      0.3223836      0.5082611
      1843.0000        17.1469          0.002       132.3684        41.2242        32.5782       47.45692         0.5723        -999.25          1.777         0.4959       -80.2699      -4.820793      0.3075941      0.4358414
      1843.5000        14.8582         0.0019       128.3618        39.8609        31.9446       46.53886         0.5783        -999.25         1.8965         0.4553       -80.4923      -5.043198      0.2880608      0.3913605
      1844.0000        15.3897         0.0366       132.7546        37.7609        31.1212       45.34566         0.5659        -999.25         1.9997         0.3799       -80.9633      -5.514198      0.2626736      0.2971603
      1844.5000        16.3606         0.0014       139.6101        36.1249        28.6382       41.74681         0.5232        -999.25         1.9563         0.3248       -81.4623      -6.013199      0.1861024      0.1973602
      1845.0000        17.0621         0.0141       143.6658         35.788        27.4326        39.9996         0.4831        -999.25         1.9002         0.3125       -81.4263      -5.977196      0.1489277      0.2045608
      1845.5000        18.0703         0.0651       146.8657        35.3364        27.0446       39.43755         0.4391        -999.25         1.8666         0.3145       -81.1707      -5.721596      0.1369691      0.2556809
