#------------------------------------------------------------------------------
# Created by    : vladimir.rabinovich
# Created on    : 09/19/2023 17:20:03
#------------------------------------------------------------------------------
~Version Information Section
VERS.           2.0     :   CWLS log ASCII Standard - VERSION 2.0
WRAP.           NO      :   One line per depth step
~Well Information Section
#MNEM       .UNIT                                         VALUE :DESCRIPTION
#------------------------------------------------------------------------------
STRT        .FT                                            3149 :START DEPTH
STOP        .FT                                           10186 :STOP DEPTH
STEP        .FT                                             0.5 :STEP      
NULL        .                                           -999.25 :NULL      
COMP        .                                  SAMEDAN OIL CORP :COMPANY   
WELL        .                                     ST TR 00817-L :WELL      
FLD         .                                           WILDCAT :FIELD     
LOC         .                                                   :LOCATION  
CNTY        .                        MUSTANG ISLAND LARGE BLOCK :LOCATION  
STAT        .                                             TEXAS :STATE     
CTRY        .                                     UNITED STATES :COUNTRY   
SRVC        .                                                   :SERVICE COMPANY
DATE        .                             9/13/2023 11:18:55 AM :LOG DATE  
API         .                                    42702300080000 :API NUMBER
UWI         .                                    42702300080000 :UNIQUE WELL ID
XCOORD      .                                  304914.569303086 :SURFACE X 
YCOORD      .                                  10013906.4088957 :SURFACE Y 
LAT         .                                        27.5345201 :LATITUDE  
LON         .                                       -97.1203623 :LONGITUDE 
ELEV        .FT                                              65 :ELEVATION VALUE
ELEV_TYPE   .                                                KB :ELEVATION REFERENCE TYPE
~Curve Information Section
#MNEM       .UNIT                                      API CODE :CURVE DESCRIPTION
#------------------------------------------------------------------------------
DEPT        .FT                                                 :DEPTH     
ASFL        .OHMM                                               :          
CILD        .MMHO                                               :          
DT          .US/F                                               :          
GR          .GAPI                                               :          
ILD         .OHMM                                               :          
SP          .MV                                                 :          
SP_NORM     .MV                                                 :SP Normalized
VSH_SP      .V/V                                                :Volume of Shale from SP
~A        DEPTH           ASFL           CILD             DT             GR            ILD             SP        SP_NORM         VSH_SP
# ...
      4093.0000         0.7039        1588.01        146.907        -999.25         0.7426        -45.371        8.62162              1
      4093.5000         0.6943       1605.555       146.5898        -999.25         0.7399       -45.5643       8.425556              1
      4094.0000         0.6873       1619.705       146.2244        -999.25         0.7372       -45.7985       8.188595              1
      4094.5000         0.6809        1629.15       146.3271        -999.25         0.7345       -45.8588       8.125538              1
      4095.0000         0.6745        1635.35       146.4534        -999.25         0.7345       -45.2051       8.776474              1
      4095.5000         0.6705       1632.939       145.9004        -999.25         0.7349       -44.9417       9.037113              1
      4096.0000         0.6667       1630.527         144.29        -999.25         0.7357       -44.8533       9.122753              1
      4096.5000         0.6723       1628.117       143.1082        -999.25         0.7388       -44.8304       9.142895              1
      4097.0000          0.678       1622.678       142.5823        -999.25          0.742       -44.9149        9.05563              1
      4097.5000         0.6831        1617.23       142.8867        -999.25         0.7451       -45.3157       8.652069              1
      4098.0000         0.6881       1611.396       143.3628        -999.25          0.748       -45.7164       8.248611              1
      4098.5000         0.6915       1602.574       143.8389        -999.25          0.751       -46.1326       7.829651              1
      4099.0000         0.6949       1593.752       144.1873        -999.25          0.755       -46.5771       7.382389              1
      4099.5000         0.6983       1581.703       144.2173        -999.25         0.7657       -47.0218       6.934929              1
      4100.0000         0.7038       1567.713       139.6631        -999.25         0.7764       -47.4663       6.487667              1
      4100.5000         0.7204       1543.568       135.1721        -999.25         0.7907       -52.0179       1.933308              1
      4101.0000         0.7459       1502.219       128.3796        -999.25         0.8091        -53.511      0.4374466              1
      4101.5000         0.7764       1456.592       119.3529        -999.25         0.8341       -54.3265     -0.3808136              1
      4102.0000          0.818       1430.957       112.8992        -999.25         0.8712       -54.8597     -0.9167747              1
      4102.5000         0.8574       1405.125       110.2091        -999.25         0.9004       -52.6505       1.289665              1
      4103.0000         0.8796       1378.781       113.6664        -999.25         0.9053       -51.6367       2.300705              1
      4103.5000         0.8965       1353.523       116.8036        -999.25         0.9102        -50.754       3.180641              1
      4104.0000         0.9046       1333.766       119.0354        -999.25         0.8987        -50.287       3.644882              1
      4104.5000         0.9104       1317.709       118.0415        -999.25         0.8858       -49.8205       4.108624              1
      4105.0000         0.9144       1312.248        116.095        -999.25         0.8634       -49.3567        4.56966              1
      4105.5000         0.9181       1306.789       114.1545        -999.25         0.8381       -48.9835       4.940098              1
      4106.0000         0.9218       1327.582       112.3861        -999.25         0.8128       -49.7914        4.12944              1
      4106.5000         0.9309       1350.152       111.0509        -999.25         0.7916       -54.5802     -0.6621208              1
      4107.0000         0.9507       1372.709       109.8379        -999.25         0.7715       -56.9673      -3.051983      0.9715002
      4107.5000         0.9794       1418.641       108.8005        -999.25         0.7559       -59.4742      -5.561642      0.9366438
      4108.0000         1.0154       1477.658       112.7024        -999.25         0.7464       -64.6404      -10.73061      0.8648527
      4108.5000         1.0765       1522.746       120.3892        -999.25         0.7368       -67.5594      -13.65237      0.8242727
      4109.0000         1.0981       1573.041       126.6361        -999.25          0.727       -69.3138      -15.40952      0.7998678
      4109.5000         1.0458       1629.395       134.8408        -999.25          0.716       -67.5775      -13.67598      0.8239447
      4110.0000         0.9286       1673.408       138.5698        -999.25          0.705       -65.1305      -11.23175      0.8578924
      4110.5000         0.8441       1699.898       138.7039        -999.25          0.694       -59.7682      -5.872204      0.9323305
      4111.0000         0.7674       1711.746       138.0784        -999.25          0.683       -51.0472       2.846035              1
      4111.5000         0.7222       1723.506        137.396        -999.25         0.6753       -50.6116       3.278873              1
      4112.0000         0.7409       1732.732       136.4026        -999.25         0.6728       -50.4609       3.426811              1
      4112.5000         0.7182       1741.951       135.2139        -999.25         0.6704       -50.3021       3.582851              1
      4113.0000         0.7124        1751.17       133.4436        -999.25         0.6679       -50.1304       3.751789              1
      4113.5000         0.7098       1758.811       132.2654        -999.25         0.6654       -49.9587       3.920731              1
      4114.0000          0.708        1764.85       131.8867        -999.25         0.6657       -49.7869       4.089771              1
      4114.5000         0.7066       1770.889       133.5283        -999.25         0.6721       -49.6153        4.25861              1
      4115.0000         0.7053       1771.869       136.5371        -999.25         0.6784       -49.4436       4.427547              1
      4115.5000         0.7036       1747.834       138.2646        -999.25         0.6848       -49.2314        4.63699              1
      4116.0000         0.6991       1717.422       136.9294        -999.25         0.6912       -49.0136       4.852028              1
      4116.5000         0.6946        1475.58       133.7351        -999.25         0.6975       -48.9646       4.898266              1
      4117.0000         0.6902       1273.525       127.3684        -999.25         0.7107        -48.984       4.876106              1
      4117.5000         0.6846       1142.928       118.5808        -999.25         0.7401        -49.021       4.836346              1
      4118.0000         0.7207       1081.148       106.0618        -999.25         0.7853       -49.1643       4.690285              1
      4118.5000         0.8251       1034.764        97.1023        -999.25         0.8424       -49.7271       4.124725              1
      4119.0000         0.9595       990.0918        94.3685        -999.25         0.8995       -50.6256       3.223465              1
      4119.5000         1.0939       951.8213        94.6279        -999.25         0.9757        -52.322       1.524303              1
      4120.0000         1.1903       913.5508        99.9742        -999.25         1.0547       -54.8851      -1.041561      0.9994228
      4120.5000         1.2304       884.4209       105.7928        -999.25         1.0825       -57.8241      -3.983318       0.958565
      4121.0000         1.2593       892.7295        111.741        -999.25         1.0752       -58.6727      -4.834679      0.9467406
      4121.5000         1.2761        908.541        121.256        -999.25          1.068       -57.2586       -3.42334      0.9663425
      4122.0000         1.2498       942.9502       129.5156        -999.25          1.057       -55.8245      -1.992001      0.9862222
