#------------------------------------------------------------------------------
# Created by    : vladimir.rabinovich
# Created on    : 09/19/2023 17:22:18
#------------------------------------------------------------------------------
~Version Information Section
VERS.           2.0     :   CWLS log ASCII Standard - VERSION 2.0
WRAP.           NO      :   One line per depth step
~Well Information Section
#MNEM       .UNIT                                         VALUE :DESCRIPTION
#------------------------------------------------------------------------------
STRT        .FT                                            4012 :START DEPTH
STOP        .FT                                            9352 :STOP DEPTH
STEP        .FT                                             0.5 :STEP      
NULL        .                                           -999.25 :NULL      
COMP        .                                   KERR-MCGEE CORP :COMPANY   
WELL        .                                ST TR 00007-L SE/4 :WELL      
FLD         .                                           WILDCAT :FIELD     
LOC         .                                                   :LOCATION  
CNTY        .                           HIGH ISLAND LARGE BLOCK :LOCATION  
STAT        .                                             TEXAS :STATE     
CTRY        .                                     UNITED STATES :COUNTRY   
SRVC        .                                                   :SERVICE COMPANY
DATE        .                             9/13/2023 11:19:15 AM :LOG DATE  
API         .                                    42708302700000 :API NUMBER
UWI         .                                    42708302700000 :UNIQUE WELL ID
XCOORD      .                                   1285759.2062487 :SURFACE X 
YCOORD      .                                  10728779.4927599 :SURFACE Y 
LAT         .                                        29.5578886 :LATITUDE  
LON         .                                       -94.1158411 :LONGITUDE 
ELEV        .FT                                             125 :ELEVATION VALUE
ELEV_TYPE   .                                                KB :ELEVATION REFERENCE TYPE
~Curve Information Section
#MNEM       .UNIT                                      API CODE :CURVE DESCRIPTION
#------------------------------------------------------------------------------
DEPT        .FT                                                 :DEPTH     
CALI        .IN                                                 :          
CILD        .MMHO                                               :          
DPHI        .%                                                  :          
ILD         .OHMM                                               :          
ILM         .OHMM                                               :          
SFL         .OHMM                                               :          
SP          .MV                                                 :          
SP_NORM     .MV                                                 :SP Normalized
VSH_SP      .V/V                                                :Volume of Shale from SP
~A        DEPTH           CALI           CILD           DPHI            ILD            ILM            SFL             SP        SP_NORM         VSH_SP
# ...
      5072.0000        16.3694       3310.027        24.4902         0.3003         0.3608         0.6588      -118.8104       -52.1437        0.25509
      5072.5000         16.295       3115.898        22.0463         0.3161         0.3748         0.6639      -118.0317        -51.365      0.2662143
      5073.0000         16.132       2865.125        20.2275          0.333          0.392         0.7015      -116.9758       -50.3091      0.2812985
      5073.5000        15.9226       2694.602        19.7694         0.3503         0.4111         0.7721      -115.9199       -49.2532      0.2963828
      5074.0000        15.6822       2552.789        19.9992         0.3681         0.4264          0.812      -114.7726       -48.1059      0.3127729
      5074.5000          15.42       2427.945        21.0778         0.3846         0.4385          0.826      -113.4994       -46.8327      0.3309614
      5075.0000        15.2608       2355.121        22.1564         0.3998         0.4507         0.8028      -112.4314       -45.7647      0.3462186
      5075.5000        15.6802       2270.844        22.9299         0.4122         0.4626         0.7707      -111.3596       -44.6929        0.36153
      5076.0000        15.9522        2186.66        23.6517         0.4211         0.4648         0.7094       -110.095       -43.4283      0.3795957
      5076.5000        15.9675       2127.215         24.263         0.4288         0.4591         0.6568      -108.4337        -41.767      0.4033286
      5077.0000        15.9827       2090.262        24.6812         0.4323         0.4506         0.6373      -106.9604       -40.2937      0.4243757
      5077.5000        15.9402       2169.156        24.7928         0.4272          0.437         0.6681      -105.3564       -38.6897        0.44729
      5078.0000        15.6922       2375.379        24.8172         0.3996         0.4028         0.7039      -105.4303       -38.7636      0.4462343
      5078.5000        15.3812       2630.875        24.3513         0.3683         0.3622         0.7327      -107.4913       -40.8246      0.4167914
      5079.0000        15.2838       2891.875        23.7389          0.335         0.3265         0.7451      -110.7749       -44.1082      0.3698829
      5079.5000        15.5203       3514.973        22.9255            0.3         0.2935         0.7472      -116.4949       -49.8282      0.2881685
      5080.0000        15.9822       4343.227        22.3298          0.268         0.2597         0.7408      -121.2139       -54.5472      0.2207543
      5080.5000        15.9956       4516.211        -999.25         0.2433         0.2441         0.7231      -124.5902       -57.9235      0.1725214
      5081.0000         15.991       4485.234        -999.25         0.2297         0.2401         0.7017      -124.9528       -58.2861      0.1673415
      5081.5000        15.9249       4153.234        -999.25         0.2175         0.2422         0.6792      -123.3672       -56.7005      0.1899928
      5082.0000        15.7274        3644.98        22.4322         0.2171         0.2476          0.659      -121.5471       -54.8804      0.2159943
      5082.5000        15.3477       3362.543        22.9522         0.2191          0.259         0.6432      -119.7076       -53.0409      0.2422728
      5083.0000        15.2499       3044.109        25.1336         0.2275         0.2733          0.632      -117.2371       -50.5704      0.2775657
      5083.5000        15.2809       2891.285        26.4931         0.2478         0.2918         0.6248      -115.2938       -48.6271      0.3053271
      5084.0000        15.2449       2852.613        27.4497         0.2824         0.3408         0.6258      -114.6157        -47.949      0.3150143
      5084.5000        14.8731       2985.105         27.558         0.3059         0.3671         0.6313      -114.5681       -47.9014      0.3156943
      5085.0000        14.2584        3261.25         27.337         0.3021         0.3518         0.6369      -117.1797        -50.513      0.2783857
      5085.5000        13.7326           3466        28.1383         0.2731         0.3351         0.6465      -118.8092       -52.1425      0.2551071
      5086.0000        13.3595       3749.227        29.6079         0.2501         0.3167         0.6563      -121.1577        -54.491      0.2215571
      5086.5000        13.6325        4019.75         29.822         0.2353         0.2928         0.6606      -122.7373       -56.0706      0.1989914
      5087.0000        14.0109       4178.805        29.6245         0.2274         0.2735         0.6534      -124.0238       -57.3571      0.1806128
      5087.5000        14.3529       4341.461          29.17         0.2228         0.2602         0.6165      -124.5048       -57.8381      0.1737414
      5088.0000        14.6299       4402.961        29.1552         0.2203         0.2521         0.6017      -124.6195       -57.9528      0.1721029
      5088.5000        14.7062       4306.453         29.335         0.2196         0.2658          0.593      -125.3538       -58.6871      0.1616129
      5089.0000        14.4925       4163.656        28.2517         0.2247          0.273         0.5932      -125.4923       -58.8256      0.1596343
      5089.5000        14.1915       3888.379        26.5873         0.2395         0.2828         0.6074      -124.5402       -57.8735      0.1732357
      5090.0000        13.9179       3516.152        25.2161         0.2632         0.2945         0.6342      -123.5692       -56.9025      0.1871071
      5090.5000        13.7465       3187.297        24.4914         0.2855         0.3072         0.6374       -122.166       -55.4993      0.2071529
      5091.0000        13.8103       2975.664        24.0812          0.311         0.3287         0.6277      -119.8761       -53.2094      0.2398657
      5091.5000        14.0438       2791.762        23.8584         0.3416         0.3588         0.5876      -115.5135       -48.8468      0.3021885
      5092.0000        14.3385       2514.238        23.4136         0.3734          0.384         0.5599      -105.9387        -39.272      0.4389714
      5092.5000        14.4736       2310.277        22.7151         0.4031         0.4008         0.5362       -99.0786       -32.4119      0.5369729
      5093.0000        14.5455       2203.871        21.6745         0.4261         0.4147         0.5258       -82.2996       -15.6329      0.7766728
      5093.5000        14.5681       2173.645         22.243         0.4438         0.4267         0.5293       -80.6761       -14.0094      0.7998657
      5094.0000        14.5907       2236.422        23.3168         0.4374         0.4315         0.5328       -81.1656       -14.4989      0.7928728
      5094.5000        14.6296       2373.219        23.8503         0.4127         0.4229         0.5465       -85.0021       -18.3354      0.7380657
      5095.0000        14.6735       2678.668        24.0557         0.3863         0.4062         0.5632       -91.6864       -25.0197      0.6425757
      5095.5000        14.7474       2945.965        24.1976         0.3573         0.3803         0.5861       -97.1696       -30.5029      0.5642443
      5096.0000         14.841       3215.617        24.6475         0.3237         0.3541         0.6115      -107.3839       -40.7172      0.4183257
      5096.5000        15.0246       3580.863        25.6145         0.2811         0.3221         0.6263      -113.2089       -46.5422      0.3351115
      5097.0000        15.2823       3845.402         29.349         0.2544         0.3075         0.6415      -118.4576       -51.7909        0.26013
      5097.5000        15.5975        3967.25        31.4891         0.2425         0.2936         0.6467      -121.6045       -54.9378      0.2151743
      5098.0000        15.8436       4078.641        33.0901         0.2355         0.2802         0.6484      -122.8441       -56.1774      0.1974657
