#------------------------------------------------------------------------------
# Created by    : vladimir.rabinovich
# Created on    : 09/19/2023 17:20:25
#------------------------------------------------------------------------------
~Version Information Section
VERS.           2.0     :   CWLS log ASCII Standard - VERSION 2.0
WRAP.           NO      :   One line per depth step
~Well Information Section
#MNEM       .UNIT                                         VALUE :DESCRIPTION
#------------------------------------------------------------------------------
STRT        .FT                                            2998 :START DEPTH
STOP        .FT                                           12526 :STOP DEPTH
STEP        .FT                                             0.5 :STEP      
NULL        .                                           -999.25 :NULL      
COMP        .                                 CALIFORNIA CO THE :COMPANY   
WELL        .                               OCS G01117 ST00BP00 :WELL      
FLD         .                                       HIGH ISLAND :FIELD     
LOC         .                                                   :LOCATION  
CNTY        .                           HIGH ISLAND LARGE BLOCK :LOCATION  
STAT        .                                             TEXAS :STATE     
CTRY        .                                     UNITED STATES :COUNTRY   
SRVC        .                                                   :SERVICE COMPANY
DATE        .                             9/13/2023 11:19:15 AM :LOG DATE  
API         .                                    42708000660000 :API NUMBER
UWI         .                                    42708000660000 :UNIQUE WELL ID
XCOORD      .                                  1214371.69372255 :SURFACE X 
YCOORD      .                                  10618355.5582238 :SURFACE Y 
LAT         .                                         29.252113 :LATITUDE  
LON         .                                        -94.336419 :LONGITUDE 
ELEV        .FT                                              77 :ELEVATION VALUE
ELEV_TYPE   .                                                KB :ELEVATION REFERENCE TYPE
~Curve Information Section
#MNEM       .UNIT                                      API CODE :CURVE DESCRIPTION
#------------------------------------------------------------------------------
DEPT        .FT                                                 :DEPTH     
ASN         .OHMM                                               :          
CILD        .OHMM                                               :          
ILD         .OHMM                                               :          
SP          .MV                                                 :          
SP_NORM     .MV                                                 :SP Normalized
VSH_SP      .V/V                                                :Volume of Shale from SP
~A        DEPTH            ASN           CILD            ILD             SP        SP_NORM         VSH_SP
# ...
     12498.0000         0.5665       3116.754         0.3699       -41.9726      -1.972599      0.9848031
     12498.5000         0.5597       3064.234         0.3704       -41.9042      -1.904202      0.9858719
     12499.0000         0.5529       3012.984         0.3709       -41.8358        -1.8358      0.9869406
     12499.5000         0.5461       2969.113         0.3714       -41.7675      -1.767502      0.9880078
     12500.0000         0.5403       2985.281         0.3719       -41.6991        -1.6991      0.9890766
     12500.5000         0.5406       2881.781         0.3724       -41.6883      -1.688301      0.9892453
     12501.0000         0.5409       2713.246         0.3729       -41.7245      -1.724499      0.9886797
     12501.5000         0.5412       2590.078         0.3735       -41.7606      -1.760601      0.9881156
     12502.0000         0.5438       2553.137          0.374       -41.7968      -1.796799        0.98755
     12502.5000         0.5497       2591.941         0.3742       -41.8329      -1.832901      0.9869859
     12503.0000         0.5556       2630.742         0.3745        -41.869      -1.868999      0.9864219
     12503.5000         0.5532       2672.094         0.3748       -41.9052      -1.905201      0.9858562
     12504.0000         0.5486       2717.852         0.3751       -41.9413      -1.941299      0.9852922
     12504.5000         0.5443       2763.711         0.3754       -41.9774      -1.977402      0.9847281
     12505.0000         0.5432       2809.469         0.3757       -42.0136      -2.013599      0.9841625
     12505.5000         0.5422       2855.328          0.376       -42.0498      -2.049801      0.9835969
     12506.0000         0.5412       2901.773         0.3763       -42.0859      -2.085899      0.9830328
     12506.5000         0.5402       2948.219         0.3766       -42.1221      -2.122101      0.9824672
     12507.0000         0.5405       2977.762         0.3769       -42.1458      -2.145802      0.9820969
     12507.5000         0.5429        2989.52         0.3771       -42.1334        -2.1334      0.9822906
     12508.0000         0.5454       2956.254         0.3774        -42.121      -2.120998      0.9824844
     12508.5000         0.5479       2922.445         0.3777       -42.1086      -2.108601      0.9826781
     12509.0000         0.5504       2888.641          0.378       -42.0962      -2.096199      0.9828719
     12509.5000         0.5521       2854.934         0.3783       -42.0838      -2.083801      0.9830656
     12510.0000         0.5529       2835.926         0.3786       -42.0714        -2.0714      0.9832594
     12510.5000         0.5536       2835.777         0.3789        -42.059      -2.058998      0.9834532
     12511.0000         0.5543       2852.777         0.3793       -42.0466        -2.0466      0.9836469
     12511.5000          0.555       2869.781         0.3801       -42.0342      -2.034199      0.9838406
     12512.0000         0.5557       2886.828         0.3808       -42.0218      -2.021801      0.9840344
     12512.5000         0.5565       2894.809         0.3815       -42.0094      -2.009399      0.9842281
     12513.0000         0.5572       2895.645         0.3822        -41.997      -1.997002      0.9844218
     12513.5000         0.5578       2896.477         0.3829       -42.0104      -2.010399      0.9842125
     12514.0000         0.5568       2897.309         0.3837       -42.0756        -2.0756      0.9831938
     12514.5000         0.5559       2898.145         0.3844       -42.1407      -2.140701      0.9821765
     12515.0000          0.555       2898.977         0.3851       -42.2057        -2.2057      0.9811609
     12515.5000         0.5549       2899.813         0.3858       -42.2709      -2.270901      0.9801422
     12516.0000         0.5553       2900.645         0.3865       -42.3361      -2.336102      0.9791234
     12516.5000         0.5557        2901.48         0.3873       -42.4011        -2.4011      0.9781078
     12517.0000         0.5561       2902.313          0.388       -42.4662      -2.466202      0.9770906
     12517.5000         0.5565        2906.77         0.3887       -42.5313        -2.5313      0.9760734
     12518.0000         0.5569       2915.246         0.3894       -42.5964      -2.596401      0.9750562
     12518.5000         0.5573       2923.695         0.3901       -42.6616      -2.661598      0.9740375
     12519.0000         0.5586       2932.172         0.3909       -42.7192        -2.7192      0.9731375
     12519.5000          0.561       2940.625         0.3916       -42.7695      -2.769501      0.9723516
     12520.0000         0.5634       2948.449         0.3936       -42.8198      -2.819801      0.9715656
     12520.5000         0.5658       2952.699         0.3975       -42.8701      -2.870098      0.9707797
     12521.0000         0.5681       2956.949         0.4014       -42.9205      -2.920502      0.9699922
     12521.5000         0.5705       2961.199         0.4052       -42.9708      -2.970798      0.9692063
     12522.0000         0.5729       2965.438         0.4091       -43.0211      -3.021099      0.9684203
     12522.5000         0.5753       2969.688          0.413       -43.0715      -3.071499      0.9676328
     12523.0000         0.5792       2971.066         0.4168       -43.1219      -3.121899      0.9668453
     12523.5000         0.5838       2971.281         0.4207       -43.1722      -3.172199      0.9660594
     12524.0000         0.5884       2971.492         0.4245       -43.2225        -3.2225      0.9652734
     12524.5000         0.5931       2971.703         0.4284       -43.2473      -3.247299       0.964886
     12525.0000         0.5946       2971.914         0.4323       -43.2432      -3.243198        0.96495
     12525.5000         0.5946       2972.125         0.4361       -43.2391      -3.239101       0.965014
     12526.0000         0.5945       2972.336         0.4383        -43.235      -3.235001      0.9650781
