#------------------------------------------------------------------------------
# Created by    : vladimir.rabinovich
# Created on    : 09/19/2023 17:20:38
#------------------------------------------------------------------------------
~Version Information Section
VERS.           2.0     :   CWLS log ASCII Standard - VERSION 2.0
WRAP.           NO      :   One line per depth step
~Well Information Section
#MNEM       .UNIT                                         VALUE :DESCRIPTION
#------------------------------------------------------------------------------
STRT        .FT                                             495 :START DEPTH
STOP        .FT                                            8683 :STOP DEPTH
STEP        .FT                                             0.5 :STEP      
NULL        .                                           -999.25 :NULL      
COMP        .                                      SHELL OIL CO :COMPANY   
WELL        .                                OCS 00706 ST00BP00 :WELL      
FLD         .                                           WILDCAT :FIELD     
LOC         .                                                   :LOCATION  
CNTY        .                             GALVESTON LARGE BLOCK :LOCATION  
STAT        .                                             TEXAS :STATE     
CTRY        .                                     UNITED STATES :COUNTRY   
SRVC        .                                                   :SERVICE COMPANY
DATE        .                             9/13/2023 11:19:25 AM :LOG DATE  
API         .                                    42706000290000 :API NUMBER
UWI         .                                    42706000290000 :UNIQUE WELL ID
XCOORD      .                                  1097630.70361638 :SURFACE X 
YCOORD      .                                  10500448.3193905 :SURFACE Y 
LAT         .                                          28.92371 :LATITUDE  
LON         .                                        -94.697168 :LONGITUDE 
ELEV        .FT                                              92 :ELEVATION VALUE
ELEV_TYPE   .                                                KB :ELEVATION REFERENCE TYPE
~Curve Information Section
#MNEM       .UNIT                                      API CODE :CURVE DESCRIPTION
#------------------------------------------------------------------------------
DEPT        .FT                                                 :DEPTH     
ASN         .OHMM                                               :          
CILD        .MMHO                                               :          
ILD         .OHMM                                               :          
SP          .MV                                                 :          
SP_NORM     .MV                                                 :SP Normalized
VSH_SP      .V/V                                                :Volume of Shale from SP
~A        DEPTH            ASN           CILD            ILD             SP        SP_NORM         VSH_SP
# ...
      2129.0000         0.9587       1221.094         0.8521       -35.7521      0.8459625              1
      2129.5000         0.9643        1230.57         0.8593        -35.998      0.5991669              1
      2130.0000         0.9723       1240.043         0.8619       -36.2439      0.3523712              1
      2130.5000         0.9803       1249.516         0.8645       -36.4897      0.1056747              1
      2131.0000         0.9631       1250.887         0.8671       -36.7357     -0.1412239              1
      2131.5000         0.9406       1251.844         0.8678       -36.9816     -0.3880234              1
      2132.0000         0.9539       1252.803         0.8654       -37.2841     -0.6914177              1
      2132.5000         0.9672       1265.471         0.8631       -37.5978      -1.006016              1
      2133.0000         0.9803       1278.512         0.8608       -37.9116      -1.320713              1
      2133.5000         0.9888       1296.891         0.8585       -38.2253      -1.635311              1
      2134.0000         0.9973       1315.828         0.8562       -38.5392      -1.950108              1
      2134.5000           0.99       1321.893         0.8539       -38.2967      -1.708504              1
      2135.0000         0.9827       1326.998         0.8516       -37.9452      -1.357906              1
      2135.5000         0.9755       1320.305         0.8494       -37.5936      -1.007202              1
      2136.0000         0.9686       1314.457         0.8471       -37.2421     -0.6565971              1
      2136.5000         0.9617       1308.613         0.8448       -36.9253     -0.3399353              1
      2137.0000         0.9548       1302.766         0.8426       -36.7095     -0.1241341              1
      2137.5000         0.9627       1297.018         0.8402       -36.4937     0.09166718              1
      2138.0000         0.9716       1292.594         0.8376       -36.2778      0.3075638              1
      2138.5000         0.9819       1288.168          0.835        -36.062       0.523365              1
      2139.0000           0.97       1283.742         0.8324       -35.8461      0.7392654              1
      2139.5000         0.9581       1279.316         0.8298       -36.0435      0.5418663              1
      2140.0000         0.9462       1276.359         0.8272       -36.2703      0.3150635              1
      2140.5000         0.9343       1275.049          0.822       -36.8159     -0.2305336              1
      2141.0000         0.9253       1295.346         0.8137       -37.8217      -1.236336              1
      2141.5000         0.9212       1327.541         0.8055       -38.8274      -2.242035              1
      2142.0000         0.9188       1408.822         0.7972       -39.8163      -3.230934      0.9822358
      2142.5000         0.9164       1445.494          0.786       -40.7774      -4.192036      0.9083049
      2143.0000          0.914        1471.41          0.772       -41.7388      -5.153435      0.8343512
      2143.5000         0.9117       1492.285         0.7579       -42.1647      -5.579334      0.8015897
      2144.0000         0.9051       1527.775         0.7438       -42.4471      -5.861736      0.7798665
      2144.5000         0.8983       1587.691         0.7301       -42.3529      -5.767536      0.7871126
      2145.0000         0.8885       1605.773         0.7184       -42.1894      -5.604034      0.7996897
      2145.5000         0.8691        1621.59         0.7067       -41.8911      -5.305737      0.8226357
      2146.0000          0.858       1645.924          0.695        -41.593      -5.007633      0.8455667
      2146.5000         0.8469       1681.748         0.6832       -41.2946      -4.709236      0.8685203
      2147.0000         0.8357       1763.063         0.6715       -40.9478      -4.362434      0.8951973
      2147.5000         0.8243       1834.689           0.66       -40.6863      -4.100933      0.9153128
      2148.0000          0.813       1859.309         0.6486        -40.934      -4.348633       0.896259
      2148.5000         0.8054       1883.916         0.6372       -41.1817      -4.596336      0.8772049
      2149.0000          0.801       1908.537         0.6389       -41.4294      -4.844036      0.8581511
      2149.5000         0.7967       1907.236         0.6563       -41.6771      -5.091736      0.8390973
      2150.0000         0.8191       1891.813         0.6736       -41.9247      -5.339336      0.8200511
      2150.5000         0.8315       1874.449         0.6909       -42.1724      -5.587036      0.8009972
      2151.0000         0.8438       1857.092         0.7106       -41.9365      -5.351135      0.8191434
      2151.5000         0.8562        1839.73         0.7334       -41.3495      -4.764133      0.8642974
      2152.0000         0.8665       1755.365         0.7563        -40.957      -4.371635      0.8944896
      2152.5000         0.8733       1474.533         0.7791       -40.5645      -3.979134       0.924682
      2153.0000           0.88       1347.994         0.8019       -40.1718      -3.586433      0.9548897
      2153.5000         0.8868       1301.174         0.8181       -39.7792      -3.193836      0.9850895
      2154.0000         0.8935       1272.959          0.834       -39.3867      -2.801334              1
      2154.5000         0.8971       1265.316         0.8499       -39.0604      -2.475033              1
      2155.0000         0.8991       1257.717         0.8658       -38.7736      -2.188236              1
      2155.5000         0.9011       1261.928         0.8795       -38.4868      -1.901436              1
      2156.0000         0.9031       1266.137         0.8784       -38.1999      -1.614536              1
      2156.5000         0.9095       1269.396         0.8772        -37.913      -1.327633              1
      2157.0000         0.9167       1272.451         0.8761       -37.7906      -1.205235              1
      2157.5000         0.9242         1275.5         0.8719       -37.6907      -1.105335              1
      2158.0000         0.9257       1278.416         0.8617       -37.5908      -1.005436              1
      2158.5000         0.9217       1281.332         0.8516       -37.6276      -1.042236              1
      2159.0000         0.9166       1304.736         0.8414       -37.8333      -1.247936              1
      2159.5000         0.9108       1331.369         0.8313        -38.039      -1.453636              1
      2160.0000          0.905       1361.102         0.8211       -38.2397      -1.654335              1
      2160.5000         0.8992       1393.506         0.8159       -38.4094      -1.824036              1
      2161.0000         0.8934       1433.365         0.8107        -38.579      -1.993633              1
      2161.5000         0.8876       1449.975         0.8056       -38.6902      -2.104836              1
      2162.0000         0.8818       1455.324         0.8015       -38.7618      -2.176434              1
      2162.5000          0.876       1459.936          0.799       -38.8335      -2.248135              1
      2163.0000         0.8705        1462.65         0.7964       -38.9052      -2.319836              1
      2163.5000         0.8651       1465.365         0.7939       -38.9768      -2.391434              1
      2164.0000         0.8596       1468.082         0.7914       -39.2696      -2.684235              1
      2164.5000         0.8541         1471.6         0.7828       -39.8271      -3.241734      0.9814051
      2165.0000          0.848       1481.531         0.7731       -40.3848      -3.799435      0.9385051
      2165.5000         0.8401       1491.467         0.7633       -41.1187      -4.533333      0.8820513
      2166.0000         0.8321       1501.398         0.7454       -42.0564      -5.471035      0.8099204
      2166.5000         0.8242       1558.629         0.7263       -42.8392      -6.253834      0.7497051
