#------------------------------------------------------------------------------
# Created by    : vladimir.rabinovich
# Created on    : 09/19/2023 17:22:51
#------------------------------------------------------------------------------
~Version Information Section
VERS.           2.0     :   CWLS log ASCII Standard - VERSION 2.0
WRAP.           NO      :   One line per depth step
~Well Information Section
#MNEM       .UNIT                                         VALUE :DESCRIPTION
#------------------------------------------------------------------------------
STRT        .FT                                            3080 :START DEPTH
STOP        .FT                                           13004 :STOP DEPTH
STEP        .FT                                             0.5 :STEP      
NULL        .                                           -999.25 :NULL      
COMP        .                                     INEXCO OIL CO :COMPANY   
WELL        .                                     ST TR 00006-L :WELL      
FLD         .                                           WILDCAT :FIELD     
LOC         .                                                   :LOCATION  
CNTY        .                           HIGH ISLAND LARGE BLOCK :LOCATION  
STAT        .                                             TEXAS :STATE     
CTRY        .                                     UNITED STATES :COUNTRY   
SRVC        .                                                   :SERVICE COMPANY
DATE        .                             9/13/2023 11:19:15 AM :LOG DATE  
API         .                                    42708302350000 :API NUMBER
UWI         .                                    42708302350000 :UNIQUE WELL ID
XCOORD      .                                  1306008.37969423 :SURFACE X 
YCOORD      .                                  10751503.0860356 :SURFACE Y 
LAT         .                                          29.62091 :LATITUDE  
LON         .                                         -94.05279 :LONGITUDE 
ELEV        .FT                                              84 :ELEVATION VALUE
ELEV_TYPE   .                                                KB :ELEVATION REFERENCE TYPE
~Curve Information Section
#MNEM       .UNIT                                      API CODE :CURVE DESCRIPTION
#------------------------------------------------------------------------------
DEPT        .FT                                                 :DEPTH     
DT          .US/F                                               :          
GR          .GAPI                                               :          
GR_NORM     .GAPI                                               :GammaRay Normalized
ILD         .OHMM                                               :          
SFL         .OHMM                                               :          
SP          .MV                                                 :          
SP_NORM     .MV                                                 :SP Normalized
VSH_GR      .V/V                                                :Volume of Shale from GR
VSH_SP      .V/V                                                :Volume of Shale from SP
~A        DEPTH             DT             GR        GR_NORM            ILD            SFL             SP        SP_NORM         VSH_GR         VSH_SP
# ...
      6392.5000       121.4673        31.1045        34.8341         0.2483         0.6729      -129.8784      -83.23317     0.03902338              0
      6393.0000       119.1713        32.8755       39.28695         0.2477         0.6755       -129.658      -83.00928       0.133765              0
      6393.5000       115.2072        33.6505       41.23267         0.2469         0.6732      -129.3401       -82.6879      0.1751633    0.003806137
      6394.0000       113.1071        34.2421       42.71672         0.2459         0.6679      -128.9219       -82.2662      0.2067387    0.008948722
      6394.5000       116.0537         34.188        42.5754         0.2441         0.6624      -128.5325      -81.87332      0.2037319     0.01373998
      6395.0000       118.3925        33.3239       40.39517          0.242         0.6576      -128.3633      -81.70062      0.1573441     0.01584607
      6395.5000          117.1        32.4378       38.15957         0.2407         0.6532      -128.5288      -81.86263      0.1097781     0.01387033
      6396.0000       115.8326        32.2269       37.62357         0.2396         0.6502      -128.7407      -82.07106     0.09837382     0.01132853
      6396.5000       114.9008        32.0767       37.24037         0.2388         0.6456      -128.8967      -82.22356     0.09022059    0.009468823
      6397.0000         114.75        31.7105       36.31345         0.2386         0.6389      -129.0383      -82.36168     0.07049894    0.007784402
      6397.5000       115.4559        30.7691       33.93862         0.2384         0.6362      -129.2175      -82.53738     0.01997067    0.005641658
      6398.0000       116.1995        29.3636       30.39557         0.2374         0.6356      -129.4624       -82.7788              0    0.002697549
      6398.5000       115.5551        28.7495       28.84464         0.2364         0.6382      -129.7073      -83.02022              0              0
      6399.0000       114.5603        29.5684       30.90086         0.2354         0.6421      -129.9636      -83.27302              0              0
      6399.5000       115.0439        30.5104       33.26695         0.2368         0.6461      -130.2209      -83.52684    0.005679841              0
      6400.0000       118.0659        31.8845       36.72073         0.2384         0.6487      -130.2522      -83.55464     0.07916439              0
      6400.5000       118.5614        32.2173       37.55333         0.2417         0.6427      -129.9321      -83.23106     0.09687943              0
      6401.0000       118.2744        32.5665       38.42722         0.2462         0.6296      -129.2153      -82.51077      0.1154728    0.005966187
      6401.5000        115.795        34.7947       44.03094         0.2511         0.6105      -128.0151      -81.30709      0.2347008     0.02064523
      6402.0000       113.3649        35.9691       46.98202         0.2554         0.5927      -126.5881      -79.87659      0.2974898     0.03809031
      6402.5000       114.7474        36.3358       53.33823         0.2584         0.5844      -126.1001       -79.3851      0.4327284     0.04408413
      6403.0000       116.2698        35.5433       51.67705         0.2604         0.5849      -126.0621      -79.34363       0.397384      0.0445899
      6403.5000       116.7969        34.0386       48.52685          0.261         0.5907      -126.3403      -79.61833      0.3303585     0.04123985
      6404.0000       116.6284        32.3894       45.07453         0.2571            0.6      -126.7152      -79.98975      0.2569048     0.03671042
      6404.5000       116.2911        31.5002       43.21118         0.2527         0.6102      -127.0634      -80.33446      0.2172592     0.03250662
      6405.0000       116.8168        31.2682       42.72187         0.2482         0.6221       -127.444      -80.71157      0.2068483     0.02790767
      6405.5000       117.4033         31.327       42.84056         0.2429          0.633      -127.8386      -81.10268      0.2093736     0.02313809
      6406.0000        117.495        31.3994       42.98767         0.2382         0.6412      -128.2883      -81.54889      0.2125037     0.01769647
      6406.5000       116.9945        30.7026       41.52657         0.2347         0.6408      -128.7297      -81.98682      0.1814165      0.0123559
      6407.0000       115.8352        30.1983       40.46796         0.2319         0.6338      -129.1531      -82.40672      0.1588928    0.007235085
      6407.5000       114.8787        29.9289       39.90047         0.2324           0.63      -129.6001      -82.85023      0.1468184    0.001826496
      6408.0000       115.6191        29.8039       39.63486         0.2329         0.6204      -130.0547      -83.30135      0.1411673              0
      6408.5000       116.7559        29.7261       39.46796         0.2341          0.613      -130.3608      -83.60394      0.1376163              0
      6409.0000        117.978         29.434       38.85298         0.2354         0.6102      -130.6655      -83.90517      0.1245315              0
      6409.5000       119.2164        28.6452       37.19956         0.2368         0.6134       -130.811      -84.04718      0.0893523              0
      6410.0000       119.8768        27.6429       35.09974          0.239         0.6192      -130.9397      -84.17239     0.04467538              0
      6410.5000       118.7316        27.1656       34.09758         0.2415         0.6278      -130.9487       -84.1779     0.02335276              0
      6411.0000       116.5763        26.9919       33.73016          0.244          0.632       -130.873      -84.09871      0.0155354              0
      6411.5000       114.7965        26.8314       33.39035         0.2461         0.6267      -130.6621      -83.88432    0.008305245              0
      6412.0000       114.1936        26.9068       33.54373          0.248         0.6165      -130.3594      -83.57814     0.01156876              0
      6412.5000       115.4785        26.5319       32.75566           0.25         0.6079      -130.1604      -83.37565              0              0
      6413.0000        117.458        25.8022       31.22578         0.2518         0.6096      -130.1541      -83.36586              0              0
      6413.5000       118.9828        25.3541       30.28466         0.2535         0.6183      -129.9744      -83.18267              0              0
      6414.0000       119.8761        25.1245       29.80038         0.2554         0.6301      -129.7556      -82.96039              0   0.0004830709
      6414.5000       119.1008        25.5974       30.78485         0.2576         0.6392      -129.5403      -82.74159              0    0.003151312
      6415.0000       116.6718        26.0017       31.62587         0.2593         0.6418      -129.5879      -82.78572              0    0.002613161
      6415.5000       115.1556        25.9196       31.44997          0.259         0.6387      -130.0999      -83.29422              0              0
      6416.0000       113.8494        25.6715         30.927         0.2586         0.6336      -130.3108      -83.50164              0              0
      6416.5000       113.0242        25.4897       30.54267         0.2582         0.6262      -130.3867      -83.57405              0              0
      6417.0000       113.5643        25.3884       30.32661         0.2579         0.6127      -130.4351      -83.61896              0              0
      6417.5000       115.6593        25.1302       29.78253         0.2575         0.6046      -130.4724      -83.65277              0              0
      6418.0000       117.8549        24.8625       29.21858         0.2571         0.5997      -130.4814      -83.65828              0              0
      6418.5000       119.4727        24.9204       29.33539         0.2583         0.5992       -130.624      -83.79739              0              0
