#------------------------------------------------------------------------------
# Created by    : vladimir.rabinovich
# Created on    : 09/19/2023 17:20:34
#------------------------------------------------------------------------------
~Version Information Section
VERS.           2.0     :   CWLS log ASCII Standard - VERSION 2.0
WRAP.           NO      :   One line per depth step
~Well Information Section
#MNEM       .UNIT                                         VALUE :DESCRIPTION
#------------------------------------------------------------------------------
STRT        .FT                                             500 :START DEPTH
STOP        .FT                                            9234 :STOP DEPTH
STEP        .FT                                             0.5 :STEP      
NULL        .                                           -999.25 :NULL      
COMP        .                                      SHELL OIL CO :COMPANY   
WELL        .                                OCS 00713 ST00BP00 :WELL      
FLD         .                                           WILDCAT :FIELD     
LOC         .                                                   :LOCATION  
CNTY        .                             GALVESTON LARGE BLOCK :LOCATION  
STAT        .                                             TEXAS :STATE     
CTRY        .                                     UNITED STATES :COUNTRY   
SRVC        .                                                   :SERVICE COMPANY
DATE        .                             9/13/2023 11:19:25 AM :LOG DATE  
API         .                                    42706000510000 :API NUMBER
UWI         .                                    42706000510000 :UNIQUE WELL ID
XCOORD      .                                  1104646.85179908 :SURFACE X 
YCOORD      .                                   10481381.387581 :SURFACE Y 
LAT         .                                         28.871549 :LATITUDE  
LON         .                                        -94.674396 :LONGITUDE 
ELEV        .FT                                              82 :ELEVATION VALUE
ELEV_TYPE   .                                                KB :ELEVATION REFERENCE TYPE
~Curve Information Section
#MNEM       .UNIT                                      API CODE :CURVE DESCRIPTION
#------------------------------------------------------------------------------
DEPT        .FT                                                 :DEPTH     
ASN         .OHMM                                               :          
ASN_1       .OHMM                                               :          
GR_NORM     .                                                   :GammaRay Normalized
ILD         .OHMM                                               :          
LAT         .OHMM                                               :          
LN          .OHMM                                               :          
SP          .MV                                                 :          
SP_1        .MV                                                 :          
SP_NORM     .MV                                                 :SP Normalized
VSH_SP      .V/V                                                :Volume of Shale from SP
~A        DEPTH            ASN          ASN_1        GR_NORM            ILD            LAT             LN             SP           SP_1        SP_NORM         VSH_SP
# ...
      3979.0000         0.9433        -999.25        -999.25         0.8382        -999.25        -999.25       -73.5718        -999.25      -1.103127              1
      3979.5000         0.9615        -999.25        -999.25         0.8583        -999.25        -999.25       -73.6371        -999.25      -1.171295              1
      3980.0000         0.9792        -999.25        -999.25         0.8751        -999.25        -999.25       -74.0073        -999.25      -1.544357              1
      3980.5000         0.9954        -999.25        -999.25         0.8797        -999.25        -999.25       -74.5972        -999.25      -2.137115       0.995103
      3981.0000         0.9943        -999.25        -999.25          0.881        -999.25        -999.25       -74.8771        -999.25      -2.419884      0.9850041
      3981.5000         0.9734        -999.25        -999.25         0.8811        -999.25        -999.25       -74.9185        -999.25      -2.464149      0.9834232
      3982.0000         0.9579        -999.25        -999.25         0.8772        -999.25        -999.25       -74.6477        -999.25      -2.196205      0.9929927
      3982.5000         0.9482        -999.25        -999.25         0.8733        -999.25        -999.25       -74.6057        -999.25      -2.157066      0.9943905
      3983.0000         0.9427        -999.25        -999.25         0.8697        -999.25        -999.25       -74.7697        -999.25      -2.323936      0.9884309
      3983.5000         0.9422        -999.25        -999.25         0.8664        -999.25        -999.25       -74.9438        -999.25        -2.5009      0.9821107
      3984.0000         0.9411        -999.25        -999.25         0.8625        -999.25        -999.25       -75.0461        -999.25      -2.606056      0.9783551
      3984.5000         0.9394        -999.25        -999.25         0.8544        -999.25        -999.25       -75.0447        -999.25      -2.607521      0.9783028
      3985.0000         0.9314        -999.25        -999.25         0.8483        -999.25        -999.25       -74.9492        -999.25      -2.514893       0.981611
      3985.5000         0.9197        -999.25        -999.25         0.8463        -999.25        -999.25       -74.7332        -999.25       -2.30175      0.9892232
      3986.0000         0.9057        -999.25        -999.25         0.8451        -999.25        -999.25       -74.3743        -999.25      -1.945709              1
      3986.5000         0.8929        -999.25        -999.25         0.8449        -999.25        -999.25       -74.0256        -999.25      -1.599869              1
      3987.0000         0.8821        -999.25        -999.25         0.8426        -999.25        -999.25       -73.8292        -999.25      -1.406342              1
      3987.5000         0.8782        -999.25        -999.25         0.8356        -999.25        -999.25       -73.8688        -999.25      -1.448799              1
      3988.0000         0.8795        -999.25        -999.25         0.8289        -999.25        -999.25       -74.5754        -999.25      -2.158264      0.9943477
      3988.5000         0.8814        -999.25        -999.25         0.8236        -999.25        -999.25       -75.3556        -999.25       -2.94133      0.9663811
      3989.0000         0.8826        -999.25        -999.25         0.8173        -999.25        -999.25       -75.4674        -999.25      -3.055992       0.962286
      3989.5000         0.8802        -999.25        -999.25         0.8065        -999.25        -999.25       -75.5565        -999.25      -3.147957      0.9590015
      3990.0000         0.8784        -999.25        -999.25         0.7994        -999.25        -999.25       -75.4182        -999.25      -3.012512      0.9638389
      3990.5000         0.8784        -999.25        -999.25         0.7935        -999.25        -999.25       -74.5637        -999.25      -2.160881      0.9942542
      3991.0000         0.8833        -999.25        -999.25         0.7915        -999.25        -999.25       -73.8329        -999.25      -1.432945              1
      3991.5000         0.8932        -999.25        -999.25         0.7925        -999.25        -999.25       -73.2745        -999.25     -0.8774033              1
      3992.0000         0.9063        -999.25        -999.25         0.8048        -999.25        -999.25       -72.9384        -999.25     -0.5441666              1
      3992.5000          0.922        -999.25        -999.25         0.8244        -999.25        -999.25       -72.6978        -999.25     -0.3064346              1
      3993.0000         0.9425        -999.25        -999.25         0.8526        -999.25        -999.25       -72.7906        -999.25     -0.4020996              1
      3993.5000         0.9666        -999.25        -999.25         0.8768        -999.25        -999.25       -72.9666        -999.25     -0.5809555              1
      3994.0000         0.9947        -999.25        -999.25          0.898        -999.25        -999.25       -73.3273        -999.25      -0.944519              1
      3994.5000         1.0209        -999.25        -999.25         0.9192        -999.25        -999.25       -73.4066        -999.25      -1.026688              1
      3995.0000         1.0403        -999.25        -999.25         0.9351        -999.25        -999.25       -73.4421        -999.25      -1.065048              1
      3995.5000         1.0461        -999.25        -999.25         0.9501        -999.25        -999.25       -73.4318        -999.25       -1.05761              1
      3996.0000         1.0468        -999.25        -999.25         0.9587        -999.25        -999.25       -73.2385        -999.25     -0.8671799              1
      3996.5000          1.045        -999.25        -999.25           0.96        -999.25        -999.25       -73.0734        -999.25     -0.7049408              1
      3997.0000         1.0418        -999.25        -999.25         0.9613        -999.25        -999.25       -73.4366        -999.25      -1.070999              1
      3997.5000         1.0353        -999.25        -999.25         0.9563        -999.25        -999.25        -73.694        -999.25      -1.331261              1
      3998.0000         1.0291        -999.25        -999.25         0.9507        -999.25        -999.25       -73.6838        -999.25      -1.323929              1
      3998.5000         1.0242        -999.25        -999.25         0.9441        -999.25        -999.25       -73.6448        -999.25      -1.287788              1
      3999.0000         1.0199        -999.25        -999.25         0.9354        -999.25        -999.25       -73.6012        -999.25      -1.247047              1
      3999.5000         1.0148        -999.25        -999.25         0.9267        -999.25        -999.25       -73.5223        -999.25      -1.171013              1
      4000.0000         1.0072        -999.25        -999.25         0.9174        -999.25        -999.25       -73.4178        -999.25      -1.069382              1
      4000.5000         0.9997        -999.25        -999.25         0.9079        -999.25        -999.25       -72.8352        -999.25     -0.4896393              1
      4001.0000         0.9811        -999.25        -999.25         0.8987        -999.25        -999.25       -72.4952        -999.25      -0.152504              1
      4001.5000         0.9618        -999.25        -999.25         0.8894        -999.25        -999.25       -73.0745        -999.25     -0.7346649              1
      4002.0000         0.9412        -999.25        -999.25         0.8758        -999.25        -999.25       -73.8607        -999.25      -1.523735              1
      4002.5000         0.9242        -999.25        -999.25         0.8616        -999.25        -999.25       -74.3174        -999.25      -1.983292              1
      4003.0000         0.9126        -999.25        -999.25         0.8483        -999.25        -999.25       -74.5895        -999.25      -2.258255      0.9907766
