#------------------------------------------------------------------------------
# Created by    : vladimir.rabinovich
# Created on    : 09/19/2023 17:21:24
#------------------------------------------------------------------------------
~Version Information Section
VERS.           2.0     :   CWLS log ASCII Standard - VERSION 2.0
WRAP.           NO      :   One line per depth step
~Well Information Section
#MNEM       .UNIT                                         VALUE :DESCRIPTION
#------------------------------------------------------------------------------
STRT        .FT                                            4234 :START DEPTH
STOP        .FT                                            7516 :STOP DEPTH
STEP        .FT                                             0.5 :STEP      
NULL        .                                           -999.25 :NULL      
COMP        .                          SEAGULL ENERGY E & P INC :COMPANY   
WELL        .                               OCS G11311 ST00BP00 :WELL      
FLD         .                                           WILDCAT :FIELD     
LOC         .                                                   :LOCATION  
CNTY        .                             GALVESTON LARGE BLOCK :LOCATION  
STAT        .                                             TEXAS :STATE     
CTRY        .                                     UNITED STATES :COUNTRY   
SRVC        .                                                   :SERVICE COMPANY
DATE        .                             9/13/2023 11:19:54 AM :LOG DATE  
API         .                                    42706403550000 :API NUMBER
UWI         .                                    42706403550000 :UNIQUE WELL ID
XCOORD      .                                  972569.007613557 :SURFACE X 
YCOORD      .                                  10477919.1442114 :SURFACE Y 
LAT         .                                         28.856272 :LATITUDE  
LON         .                                        -95.086774 :LONGITUDE 
ELEV        .FT                                              94 :ELEVATION VALUE
ELEV_TYPE   .                                                KB :ELEVATION REFERENCE TYPE
~Curve Information Section
#MNEM       .UNIT                                      API CODE :CURVE DESCRIPTION
#------------------------------------------------------------------------------
DEPT        .FT                                                 :DEPTH     
CALI        .IN                                                 :          
DPHI        .%                                                  :          
DRHO        .G/C3                                               :          
DTLN        .US/F                                               :          
GR          .GAPI                                               :          
GR_NORM     .GAPI                                               :GammaRay Normalized
IDPH        .OHMM                                               :          
IMPH        .OHMM                                               :          
NPHI        .%                                                  :          
SFLU        .OHMM                                               :          
SP          .MV                                                 :          
SP_NORM     .MV                                                 :SP Normalized
VSH_GR      .V/V                                                :Volume of Shale from GR
VSH_SP      .V/V                                                :Volume of Shale from SP
~A        DEPTH           CALI           DPHI           DRHO           DTLN             GR        GR_NORM           IDPH           IMPH           NPHI           SFLU             SP        SP_NORM         VSH_GR         VSH_SP
# ...
      7258.0000        10.0786         20.762        -0.0058       117.5197        89.9985       80.32547         0.7522         0.7724        46.6074         0.8073       -53.6044      -10.32286              1      0.8525305
      7258.5000        10.0228        21.4001        -0.0064       117.7056        88.7374       79.04837         0.7496         0.7719        46.8782         0.7824       -53.5995      -10.27046      0.9797525      0.8532792
      7259.0000         9.8985        21.6887        -0.0048       117.5663        87.1738       77.46938         0.7488         0.7772        48.0444         0.7801       -53.2554       -9.87886      0.9461571      0.8588734
      7259.5000         9.8551         21.459        -0.0022       117.0156        85.9711       76.25058          0.748         0.7764        48.4557         0.7869        -52.826      -9.401958      0.9202251      0.8656863
      7260.0000         9.9315        21.3857        -0.0009       116.7986        86.5662       76.82603         0.7468          0.758        45.9389         0.7984       -52.6069      -9.135353      0.9324687       0.869495
      7260.5000         9.9505        21.7574        -0.0019       116.9224        87.5685       77.80787         0.7433         0.7529        44.5187         0.7969       -52.2676      -8.748554      0.9533589      0.8750207
      7261.0000         9.9071        22.0533        -0.0035       117.2046        87.9801       78.20017         0.7401         0.7535        44.2363         0.7812         -51.86      -8.293453      0.9617058      0.8815221
      7261.5000         9.9089        22.1638        -0.0062        117.519         87.358       77.56081         0.7376         0.7576        45.2108         0.7756       -51.3264      -7.712353      0.9481024      0.8898236
      7262.0000         9.9695        22.4376        -0.0103       117.7471        85.7981       75.98553         0.7403         0.7616        45.5887         0.7743       -50.6731      -7.011551      0.9145857       0.899835
      7262.5000        10.0153        22.7031        -0.0135        117.696        83.3124       73.48625         0.7441         0.7655        46.0587         0.7757       -50.1149      -6.405849      0.8614096      0.9084879
      7263.0000        10.0096        22.4556        -0.0143        117.162        81.2802       71.43958          0.749         0.7742        46.4059         0.7789       -49.6189      -5.862347      0.8178635      0.9162522
      7263.5000         9.9482        22.0436        -0.0142       116.1333        80.6211       70.76331         0.7555         0.7857        46.1232         0.8066       -49.0513      -5.247246      0.8034746      0.9250394
      7264.0000         9.9079        21.8288        -0.0136       115.2347        84.1443       74.26107         0.7642         0.7947        46.7531         0.8365       -48.4997      -4.648144      0.8778951      0.9335979
      7264.5000         9.8799        21.9307        -0.0136       114.5826         90.429       80.51488         0.7743         0.8059        47.1171         0.8405       -48.4418      -4.542744              1      0.9351037
      7265.0000         9.9478         21.687        -0.0141       114.0251        94.1826       84.24258         0.7923         0.8207        45.5314         0.8344       -49.1671      -5.220543              1      0.9254208
      7265.5000        10.0325        21.2406        -0.0147       113.5898        94.4072       84.44826         0.8111         0.8347         43.509         0.8423       -49.8834      -5.889339              1      0.9158666
      7266.0000        10.1147        20.5777        -0.0148       113.2435        93.6727       83.69672          0.822         0.8462        42.9048         0.8585       -49.9664      -5.924839              1      0.9153594
      7266.5000        10.0499        20.0373         -0.015       112.7063        91.0253       81.03606         0.8159         0.8526        42.9841         0.8767       -49.9658       -5.87674              1      0.9160466
      7267.0000          9.955        19.9155        -0.0152       112.4496        87.7277        77.7265         0.8129         0.8504        42.6427         0.8983       -50.3857      -6.249138      0.9516277      0.9107266
      7267.5000          9.982        20.1627        -0.0154       112.6304        86.1877       76.17106         0.8141         0.8457        42.4175         0.9137       -50.1347      -5.950638      0.9185331      0.9149909
      7268.0000        10.1249        20.3766        -0.0156       113.0952        89.1509       79.10993         0.8097         0.8379        43.0386         0.8818       -49.1962      -4.964638      0.9810624      0.9290766
      7268.5000        10.2693        20.7541        -0.0153       113.5026        91.3185       81.25477         0.8044         0.8295        44.8663         0.8467       -48.7634      -4.484333              1      0.9359381
      7269.0000        10.3316         21.062         -0.015       113.8258        91.4669       81.38439         0.7996         0.8177        44.9824         0.8225       -48.8071       -4.48053              1      0.9359924
      7269.5000        10.3073        21.1649        -0.0154       114.1497        90.8129       80.71321         0.7902          0.805        43.2438         0.8114       -49.0428      -4.668732              1      0.9333038
      7270.0000        10.2527        21.1901        -0.0154        114.562        90.3186       80.20141         0.7801         0.7929        43.2123          0.811       -49.2803       -4.85873              1      0.9305896
      7270.5000        10.2118        21.3513        -0.0147       115.0701        89.0833       78.95007         0.7726         0.7826        44.3614         0.8001       -49.4018      -4.932728       0.977661      0.9295325
      7271.0000        10.1664        21.5237         -0.013       115.6427        86.5023       76.35567         0.7639         0.7754        46.5651         0.7935       -49.3111      -4.794525      0.9224612      0.9315068
      7271.5000        10.1415        21.6756        -0.0115       116.2284        85.4486       75.28558         0.7532          0.771        45.7082         0.8097       -48.9844      -4.420326      0.8996933      0.9368525
      7272.0000        10.1585        21.7315        -0.0102       116.7428         87.026       76.84139         0.7411         0.7712        45.2138         0.8301       -48.5821      -3.970524      0.9327956      0.9432783
      7272.5000        10.2293        21.7201        -0.0096       117.1982        90.7196        80.5092         0.7341         0.7606        46.3194          0.799       -48.2484      -3.589325              1      0.9487239
      7273.0000        10.2133        21.6123         -0.009       117.5869        91.7457        81.5148         0.7303         0.7533        46.7559         0.7641       -48.0168      -3.310223              1      0.9527111
      7273.5000        10.1115        21.5529        -0.0082       117.9498        90.8448        80.5972         0.7336         0.7588        46.4887         0.7585       -47.7039      -2.949821              1      0.9578597
      7274.0000         9.9922        21.7155        -0.0077         117.87        89.1979       78.93507         0.7371         0.7639         46.631         0.7666       -47.4672      -2.665619       0.977342      0.9619197
      7274.5000         9.9384        22.0391        -0.0082       117.8928        89.1096       78.82846         0.7404         0.7624         47.195         0.7607       -47.8154      -2.966316      0.9750736      0.9576241
      7275.0000         9.9209        22.2501        -0.0081       118.0726        90.3964       80.09425         0.7361         0.7459        47.6351         0.7467       -48.1868      -3.290215              1      0.9529969
      7275.5000         9.9408        22.4157        -0.0091       117.8278        92.3434       82.01891         0.7292           0.74        47.3441         0.7416       -48.4044      -3.460316              1      0.9505669
