#------------------------------------------------------------------------------
# Created by    : vladimir.rabinovich
# Created on    : 09/19/2023 17:22:47
#------------------------------------------------------------------------------
~Version Information Section
VERS.           2.0     :   CWLS log ASCII Standard - VERSION 2.0
WRAP.           NO      :   One line per depth step
~Well Information Section
#MNEM       .UNIT                                         VALUE :DESCRIPTION
#------------------------------------------------------------------------------
STRT        .FT                                            4658 :START DEPTH
STOP        .FT                                           10852 :STOP DEPTH
STEP        .FT                                             0.5 :STEP      
NULL        .                                           -999.25 :NULL      
COMP        .                             WALTER OIL & GAS CORP :COMPANY   
WELL        .                               OCS G04721 ST00BP00 :WELL      
FLD         .                              GALVESTON BLOCK 0350 :FIELD     
LOC         .                                                   :LOCATION  
CNTY        .                             GALVESTON LARGE BLOCK :LOCATION  
STAT        .                                             TEXAS :STATE     
CTRY        .                                     UNITED STATES :COUNTRY   
SRVC        .                                                   :SERVICE COMPANY
DATE        .                             9/13/2023 11:19:36 AM :LOG DATE  
API         .                                    42706401870000 :API NUMBER
UWI         .                                    42706401870000 :UNIQUE WELL ID
XCOORD      .                                  1032064.33467067 :SURFACE X 
YCOORD      .                                   10428906.138822 :SURFACE Y 
LAT         .                                        28.7242451 :LATITUDE  
LON         .                                       -94.8985179 :LONGITUDE 
ELEV        .FT                                              92 :ELEVATION VALUE
ELEV_TYPE   .                                                KB :ELEVATION REFERENCE TYPE
~Curve Information Section
#MNEM       .UNIT                                      API CODE :CURVE DESCRIPTION
#------------------------------------------------------------------------------
DEPT        .FT                                                 :DEPTH     
DT          .US/F                                               :          
GR          .GAPI                                               :          
GR_1        .GAPI                                               :          
GR_NORM     .GAPI                                               :GammaRay Normalized
ILD         .OHMM                                               :          
ILM         .OHMM                                               :          
NPHI        .%                                                  :          
RFOC        .OHMM                                               :          
RHOB        .G/C3                                               :          
SP          .MV                                                 :          
SP_NORM     .MV                                                 :SP Normalized
VSH_GR      .V/V                                                :Volume of Shale from GR
VSH_SP      .V/V                                                :Volume of Shale from SP
~A        DEPTH             DT             GR           GR_1        GR_NORM            ILD            ILM           NPHI           RFOC           RHOB             SP        SP_NORM         VSH_GR         VSH_SP
# ...
     10833.0000        99.9202        -999.25        61.7294        62.2473         0.7208         0.7178        -999.25         0.7274        -999.25        -51.978      -4.006696       0.622283      0.9383585
     10833.5000        100.051        -999.25        62.4437       63.20285         0.7179          0.715        -999.25         0.7234        -999.25       -51.9943      -4.025713      0.6426138      0.9380659
     10834.0000       100.1539        -999.25        62.6748         63.512          0.716         0.7149        -999.25         0.7209        -999.25       -51.9464      -3.969828      0.6491915      0.9389257
     10834.5000       100.2113        -999.25        62.6644       63.49809         0.7149         0.7165        -999.25         0.7179        -999.25       -51.8141      -3.815477      0.6488955      0.9413003
     10835.0000       100.1765        -999.25        62.5002       63.27842         0.7146         0.7149        -999.25         0.7138        -999.25       -51.6389      -3.611079      0.6442217       0.944445
     10835.5000        100.141        -999.25        61.7541       62.28035          0.715         0.7135        -999.25         0.7091        -999.25       -51.4477      -3.388013      0.6229861      0.9478768
     10836.0000        100.101        -999.25        60.1524       60.13768         0.7113         0.7122        -999.25         0.7072        -999.25        -50.902      -2.751363      0.5773973      0.9576713
     10836.5000       100.0624        -999.25         59.718       59.55656         0.7091         0.7109        -999.25         0.7057        -999.25       -49.5735      -1.201447      0.5650331      0.9815162
     10837.0000       100.0258        -999.25        60.1784       60.17245         0.7088          0.713        -999.25         0.7069        -999.25       -48.4514      0.1076705      0.5781373              1
     10837.5000        99.9917        -999.25        60.9953       61.26526         0.7077         0.7159        -999.25         0.7091        -999.25       -47.6951      0.9900227      0.6013885              1
     10838.0000        99.9598        -999.25        61.7065       62.21666         0.7069         0.7199        -999.25         0.7137        -999.25       -47.0438       1.749871       0.621631              1
     10838.5000         99.928        -999.25        62.0964       62.73826         0.7065         0.7246        -999.25         0.7181        -999.25       -46.2219       2.708754       0.632729              1
     10839.0000         99.881        -999.25          62.33       63.05075          0.707         0.7305        -999.25         0.7221        -999.25        -45.389       3.680471      0.6393776              1
     10839.5000        99.8333        -999.25        62.1718       62.83912         0.7068          0.737        -999.25         0.7251        -999.25       -44.3558        4.88587      0.6348749              1
     10840.0000        99.7911        -999.25        61.5922       62.06376         0.7077         0.7443        -999.25         0.7279        -999.25       -42.7616       6.745771      0.6183779              1
     10840.5000        99.7571        -999.25        61.3186       61.69776         0.7109         0.7482        -999.25          0.731        -999.25       -41.0487       8.744157      0.6105906              1
     10841.0000        99.7231        -999.25         61.476        61.9083         0.7153         0.7524        -999.25         0.7348        -999.25       -40.0353       9.926454      0.6150703              1
     10841.5000        99.6901        -999.25        61.7012       62.20958           0.72         0.7567        -999.25         0.7384        -999.25       -39.7437       10.26666      0.6214803              1
     10842.0000        99.6569        -999.25        61.2474        61.6025         0.7252           0.76        -999.25         0.7424        -999.25       -39.6425       10.38472      0.6085638              1
     10842.5000         99.637        -999.25        59.8212        59.6946         0.7312         0.7641        -999.25         0.7472        -999.25       -39.6951       10.32336      0.5679703              1
     10843.0000        99.6206        -999.25        59.2787       58.96888         0.7339          0.771        -999.25         0.7521        -999.25       -39.8598       10.13121      0.5525295              1
     10843.5000        99.6464        -999.25        59.1917        58.8525         0.7339         0.7789        -999.25         0.7583        -999.25        -40.107       9.842807      0.5500531              1
     10844.0000        99.6787        -999.25        59.1241       58.76207         0.7309         0.7812        -999.25         0.7667        -999.25       -40.3566       9.551602      0.5481291              1
     10844.5000        99.6982        -999.25        59.0836       58.70789         0.7267         0.7816        -999.25         0.7749        -999.25       -40.6374       9.224003      0.5469764              1
     10845.0000        99.6993        -999.25        59.1193       58.75565         0.7242         0.7791        -999.25         0.7805        -999.25       -40.7203        9.12729      0.5479925              1
     10845.5000         99.694        -999.25        59.1801       58.83698         0.7238         0.7767        -999.25         0.7846        -999.25       -40.7937       9.041654      0.5497229              1
     10846.0000        99.6554        -999.25        59.2487       58.92875         0.7238         0.7763        -999.25          0.785        -999.25       -40.7712       9.067906      0.5516755              1
     10846.5000        99.7831        -999.25        59.2917       58.98628         0.7244         0.7769        -999.25         0.7826        -999.25       -40.6854       9.168007      0.5528995              1
     10847.0000        99.8221        -999.25        59.2402       58.91738         0.7256         0.7775        -999.25           0.78        -999.25       -40.4941        9.39119      0.5514336              1
     10847.5000        99.8186        -999.25        59.1743       58.82922         0.7237         0.7781        -999.25         0.7895        -999.25       -40.3267        9.58649      0.5495579              1
     10848.0000        99.7736        -999.25         59.163        58.8141         0.7169           0.78        -999.25         0.8382        -999.25        -40.215       9.716805      0.5492361              1
     10848.5000        99.6849        -999.25        59.1575       58.80675          0.711         0.7851        -999.25          1.029        -999.25        -40.142       9.801973      0.5490797              1
     10849.0000        99.6259        -999.25        59.2175         58.887         0.7066         0.7913        -999.25         1.1883        -999.25       -40.0637       9.893319      0.5507873              1
     10849.5000        99.6761        -999.25        59.2941       58.98948          0.705         0.7953        -999.25         1.2154        -999.25        -39.976       9.995636      0.5529675              1
     10850.0000        99.7277        -999.25        59.3941       59.12326         0.7039         0.7981        -999.25         1.1501        -999.25       -39.8893       10.09679       0.555814              1
     10850.5000        99.7743        -999.25        59.4424       59.18787         0.7032         0.7981        -999.25          0.975        -999.25       -39.8394         10.155      0.5571886              1
     10851.0000        99.8076        -999.25        59.3899       59.11764         0.7027         0.7973        -999.25         0.8016        -999.25       -39.8685       10.12105      0.5556945              1
     10851.5000        99.8198        -999.25        59.2651       58.95069         0.7025         0.7961        -999.25         0.7983        -999.25       -40.0792       9.875237      0.5521423              1
