#------------------------------------------------------------------------------
# Created by    : vladimir.rabinovich
# Created on    : 09/19/2023 17:22:30
#------------------------------------------------------------------------------
~Version Information Section
VERS.           2.0     :   CWLS log ASCII Standard - VERSION 2.0
WRAP.           NO      :   One line per depth step
~Well Information Section
#MNEM       .UNIT                                         VALUE :DESCRIPTION
#------------------------------------------------------------------------------
STRT        .FT                                             456 :START DEPTH
STOP        .FT                                           11667 :STOP DEPTH
STEP        .FT                                             0.5 :STEP      
NULL        .                                           -999.25 :NULL      
COMP        .                              PATRICK PETROLEUM CO :COMPANY   
WELL        .                                     ST TR 00693-L :WELL      
FLD         .                                           WILDCAT :FIELD     
LOC         .                                                   :LOCATION  
CNTY        .                      MATAGORDA ISLAND LARGE BLOCK :LOCATION  
STAT        .                                             TEXAS :STATE     
CTRY        .                                     UNITED STATES :COUNTRY   
SRVC        .                                                   :SERVICE COMPANY
DATE        .                             9/13/2023 11:12:01 AM :LOG DATE  
API         .                                    42703302660000 :API NUMBER
UWI         .                                    42703302660000 :UNIQUE WELL ID
XCOORD      .                                  384413.417453263 :SURFACE X 
YCOORD      .                                  10143960.4717662 :SURFACE Y 
LAT         .                                        27.8986234 :LATITUDE  
LON         .                                       -96.8882217 :LONGITUDE 
ELEV        .FT                                              92 :ELEVATION VALUE
ELEV_TYPE   .                                                KB :ELEVATION REFERENCE TYPE
~Curve Information Section
#MNEM       .UNIT                                      API CODE :CURVE DESCRIPTION
#------------------------------------------------------------------------------
DEPT        .FT                                                 :DEPTH     
CILD        .MMHO                                               :          
DPHI        .%                                                  :          
DT          .US/F                                               :          
GR          .GAPI                                               :          
GR_NORM     .GAPI                                               :GammaRay Normalized
ILD         .OHMM                                               :          
SN          .OHMM                                               :          
SP          .MV                                                 :          
SP_NORM     .MV                                                 :SP Normalized
VSH_GR      .V/V                                                :Volume of Shale from GR
VSH_SP      .V/V                                                :Volume of Shale from SP
~A        DEPTH           CILD           DPHI             DT             GR        GR_NORM            ILD             SN             SP        SP_NORM         VSH_GR         VSH_SP
# ...
      3448.5000           2124         29.556        -999.25             43       48.18671         0.4544         0.9336       -70.0394      -42.03277      0.3231216      0.3045293
      3449.0000           2168         29.664        -999.25          42.33       47.10742         0.4517         0.9448         -70.65      -42.64119      0.3001579      0.2942171
      3449.5000         2131.2          29.76        -999.25        40.9497       44.88717         0.4605         1.0004         -71.62        -43.609      0.2529184      0.2778135
      3450.0000       2046.914          29.82        -999.25        37.4555        39.2713          0.477          1.086       -73.7436      -45.73042      0.1334319      0.2418574
      3450.5000       1961.778         29.652        -999.25         35.657       36.37926         0.4955         1.1698       -75.8797      -47.86433     0.07189925      0.2056893
      3451.0000         1878.8         29.544        -999.25        34.9241       35.19894          0.516         1.2069       -77.5377      -49.52014     0.04678588      0.1776247
      3451.5000         1759.2         29.568        -999.25        34.1147       33.89573         0.5504          1.212       -78.6399      -50.62016     0.01905815      0.1589803
      3452.0000       1630.678         29.664        -999.25        33.2523       32.50739         0.5969         1.2103       -79.5254      -51.50347              0       0.144009
      3452.5000       1527.424          29.82        -999.25           33.3       32.58096         0.6433         1.2176       -80.1999      -52.17579              0      0.1326137
      3453.0000       1489.951         29.016        -999.25          34.29       34.16818         0.6631         1.2589         -80.77       -52.7437     0.02485495      0.1229881
      3453.5000       1503.415         27.804        -999.25           34.9       35.14498         0.6622         1.3464         -81.38      -53.35152      0.0456379      0.1126862
      3454.0000       1487.454         27.408        -999.25          34.06       33.79262         0.6807         1.4529         -81.85      -53.81933     0.01686421      0.1047571
      3454.5000         1438.8         27.312        -999.25          34.17       33.96626         0.7011         1.5427         -82.49      -54.45715     0.02055878     0.09394668
      3455.0000         1382.4          27.66        -999.25          34.97       35.24828         0.7193         1.5801          -83.7      -55.66496     0.04783573      0.0734752
      3455.5000           1340         28.068        -999.25          35.55       36.17691         0.7374         1.5612         -85.33      -57.29278     0.06759376     0.04588512
      3456.0000       1374.678         28.392        -999.25        36.1818       37.18874         0.7324         1.5583          -86.4       -58.3606     0.08912212     0.02778651
      3456.5000       1439.824         28.668        -999.25          36.81       38.19478         0.6927         1.5538         -85.34       -57.2984      0.1105272     0.04578982
      3457.0000           1514         28.464        -999.25          37.42       39.17159         0.6396         1.5172         -84.42      -56.37622      0.1313104     0.06141999
      3457.5000       1579.776         28.296        -999.25          38.05       40.18053         0.6068         1.4757          -83.5      -55.45404      0.1527772     0.07705022
      3458.0000       1646.909         28.248        -999.25          38.64       41.12521         0.5897         1.4334         -83.93      -55.88185      0.1728768     0.06979913
      3458.5000       1689.024         28.056        -999.25          38.31       40.59208          0.585         1.3941          -85.9      -57.84967      0.1615336     0.03644633
      3459.0000       1693.854         27.708        -999.25          37.48       39.25578         0.5823         1.3838          -87.9      -59.84748      0.1331016    0.002585072
      3459.5000       1670.976         27.264        -999.25          36.61       37.85522         0.5922         1.3755         -89.52      -61.46529      0.1033027              0
      3460.0000       1640.594          26.76        -999.25        35.5802       36.19798         0.6019         1.3813       -89.7124      -61.65551     0.06804202              0
      3460.5000         1610.8         26.244        -999.25        34.6158       34.64579         0.6119         1.3912       -89.5349      -61.47582     0.03501681              0
      3461.0000       1593.939         25.932        -999.25        33.6878       33.15207         0.6182         1.3896       -89.0383      -60.97704    0.003235594              0
      3461.5000       1588.687         25.836        -999.25         32.765        31.6667         0.6116         1.3807       -89.6839      -61.62045              0              0
      3462.0000       1587.592         26.532        -999.25        31.7193       29.98392         0.6054         1.3583        -89.866      -61.80036              0              0
      3462.5000       1598.952         26.712        -999.25        31.1212       29.02014         0.6119         1.3441         -90.41      -62.34219              0              0
      3463.0000         1613.2         26.772        -999.25        31.4343       29.52003         0.6136         1.3441         -91.03         -62.96              0              0
      3463.5000       1630.224         26.892        -999.25        32.9752       31.99217         0.6026         1.3504         -90.93      -62.85781              0              0
      3464.0000       1674.678         26.772        -999.25        34.8081       34.93335          0.585         1.3441       -90.4636      -62.38923      0.0411351              0
      3464.5000         1723.6         26.616        -999.25        36.3912       37.47328         0.5686         1.3504         -90.54      -62.46344     0.09517613              0
      3465.0000           1744         26.448        -999.25        36.5556       37.73431          0.567         1.3273       -90.2698      -62.19105      0.1007299              0
      3465.5000         1725.6         26.256        -999.25        36.3333       37.37418         0.5764         1.3025       -89.0542      -60.97327     0.09306765              0
      3466.0000       1688.958          25.92        -999.25        36.1616       37.09531         0.5854         1.3098       -86.7071      -58.62399     0.08713426     0.02332228
      3466.5000       1636.976          25.44        -999.25        37.1717       38.71482         0.5962          1.343       -84.2883        -56.203       0.121592     0.06435601
      3467.0000         1586.8         25.212        -999.25        38.5859       40.98344         0.6065         1.4144       -82.3838      -54.29631      0.1698604     0.09667271
      3467.5000       1508.224          25.26        -999.25        40.1686       43.52272         0.6434         1.4902       -81.4242      -53.33453      0.2238876      0.1129741
      3468.0000           1416         25.404        -999.25        41.9727       46.41764         0.6898          1.557       -79.6106      -51.51875      0.2854816      0.1437501
      3468.5000       1326.976          25.56        -999.25          43.78       49.31771         0.7399         1.6066         -77.47      -49.37596      0.3471853      0.1800685
      3469.0000         1256.4         25.812        -999.25           45.6       52.23818         0.7906         1.6245         -76.14      -48.04377      0.4093229       0.202648
      3469.5000       1204.878         26.208        -999.25          47.57        55.3996          0.803         1.5615         -74.23      -46.13159      0.4765873      0.2350578
      3470.0000       1228.546         26.496        -999.25        49.6011       58.65916         0.7997         1.4243       -71.8909       -43.7903      0.5459396      0.2747407
      3470.5000         1273.2          26.58        -999.25        51.5051       61.71455         0.7708         1.2806        -69.514      -41.41122      0.6109478      0.3150641
