#------------------------------------------------------------------------------
# Created by    : vladimir.rabinovich
# Created on    : 09/19/2023 17:22:39
#------------------------------------------------------------------------------
~Version Information Section
VERS.           2.0     :   CWLS log ASCII Standard - VERSION 2.0
WRAP.           NO      :   One line per depth step
~Well Information Section
#MNEM       .UNIT                                         VALUE :DESCRIPTION
#------------------------------------------------------------------------------
STRT        .FT                                            2600 :START DEPTH
STOP        .FT                                            8208 :STOP DEPTH
STEP        .FT                                             0.5 :STEP      
NULL        .                                           -999.25 :NULL      
COMP        .                          SEAGULL ENERGY E & P INC :COMPANY   
WELL        .                               OCS G09039 ST00BP00 :WELL      
FLD         .                              GALVESTON BLOCK 0273 :FIELD     
LOC         .                                                   :LOCATION  
CNTY        .                             GALVESTON LARGE BLOCK :LOCATION  
STAT        .                                             TEXAS :STATE     
CTRY        .                                     UNITED STATES :COUNTRY   
SRVC        .                                                   :SERVICE COMPANY
DATE        .                             9/13/2023 11:19:54 AM :LOG DATE  
API         .                                    42706403220000 :API NUMBER
UWI         .                                    42706403220000 :UNIQUE WELL ID
XCOORD      .                                  1018306.80056624 :SURFACE X 
YCOORD      .                                  10490966.5196098 :SURFACE Y 
LAT         .                                         28.894284 :LATITUDE  
LON         .                                        -94.944599 :LONGITUDE 
ELEV        .FT                                             103 :ELEVATION VALUE
ELEV_TYPE   .                                                KB :ELEVATION REFERENCE TYPE
~Curve Information Section
#MNEM       .UNIT                                      API CODE :CURVE DESCRIPTION
#------------------------------------------------------------------------------
DEPT        .FT                                                 :DEPTH     
DCAL        .IN                                                 :          
DPHI        .%                                                  :          
DTL         .US/F                                               :          
GR          .GAPI                                               :          
GR_1        .GAPI                                               :          
GR_NORM     .GAPI                                               :GammaRay Normalized
ILD         .OHMM                                               :          
ILM         .OHMM                                               :          
NPHI        .%                                                  :          
SFL         .OHMM                                               :          
SP          .MV                                                 :          
SP_NORM     .MV                                                 :SP Normalized
VSH_GR      .V/V                                                :Volume of Shale from GR
VSH_SP      .V/V                                                :Volume of Shale from SP
~A        DEPTH           DCAL           DPHI            DTL             GR           GR_1        GR_NORM            ILD            ILM           NPHI            SFL             SP        SP_NORM         VSH_GR         VSH_SP
# ...
      3806.0000        -999.25        -999.25        -999.25        27.7427        -999.25       43.62967         0.3233         0.4021        -999.25         0.5132       -69.1102      -33.68177      0.2261632      0.3263647
      3806.5000        -999.25        -999.25        -999.25        27.7564        -999.25       43.64553         0.3264         0.4038        -999.25         0.5355       -68.8434      -33.39402      0.2265007      0.3321196
      3807.0000        -999.25        -999.25        -999.25        27.1659        -999.25       42.96208         0.3334          0.411        -999.25         0.5582       -68.5118       -33.0365      0.2119591      0.3392701
      3807.5000        -999.25        -999.25        -999.25        26.3682        -999.25       42.03882         0.3441         0.4231        -999.25         0.5729       -68.1731      -32.67133      0.1923153      0.3465735
      3808.0000        -999.25        -999.25        -999.25        25.4709        -999.25       41.00027         0.3617         0.4362        -999.25         0.5879       -67.5717      -32.02324      0.1702186      0.3595352
      3808.5000        -999.25        -999.25        -999.25        24.6836        -999.25       40.08905          0.376         0.4507        -999.25         0.5924       -66.9702      -31.37505      0.1508308       0.372499
      3809.0000        -999.25        -999.25        -999.25         24.129        -999.25       39.44714         0.3894          0.464        -999.25         0.5918        -66.616      -30.99318      0.1371733      0.3801364
      3809.5000        -999.25        -999.25        -999.25        24.3192        -999.25       39.66729         0.4069         0.4778        -999.25         0.5863       -66.5778      -30.95162      0.1418571      0.3809676
      3810.0000        -999.25        -999.25        -999.25        24.9561        -999.25       40.40444         0.4277         0.5062        -999.25         0.5814       -66.0677      -30.40187      0.1575412      0.3919626
      3810.5000        -999.25        -999.25        -999.25        25.4943        -999.25       41.02736         0.4566         0.5423        -999.25         0.5778       -65.5551      -29.84942      0.1707948      0.4030117
      3811.0000        -999.25        -999.25        -999.25        25.3335        -999.25       40.84125         0.4871         0.5893        -999.25           0.58       -64.7272      -28.95742      0.1668351      0.4208517
      3811.5000        -999.25        -999.25        -999.25        24.1485        -999.25       39.46972         0.5215         0.6447        -999.25         0.6107       -63.8988      -28.06487      0.1376535      0.4387026
      3812.0000        -999.25        -999.25        -999.25        22.6762        -999.25       37.76567         0.5579         0.7053        -999.25         0.6759       -62.8537      -26.93896      0.1013972      0.4612209
      3812.5000        -999.25        -999.25        -999.25        21.6747        -999.25       36.60652         0.6105         0.7716        -999.25         0.7676       -61.5539      -25.53875     0.07673442      0.4892249
      3813.0000        -999.25        -999.25        -999.25        24.1804        -999.25       39.50664         0.6683         0.8442        -999.25         0.8751       -60.2787      -24.16504      0.1384391      0.5166991
      3813.5000        -999.25        -999.25        -999.25        28.7854        -999.25        44.8365         0.7268         0.8939        -999.25         0.9977       -59.0359      -22.82622      0.2518405      0.5434756
      3814.0000        -999.25        -999.25        -999.25        33.4003        -999.25       50.17782         0.7818         0.9276        -999.25         1.1682       -57.6908      -21.37723      0.3654855      0.5724553
      3814.5000        -999.25        -999.25        -999.25        35.9532        -999.25       53.13257         0.8067           0.94        -999.25         1.2345       -56.1995       -19.7708      0.4283525      0.6045841
      3815.0000        -999.25        -999.25        -999.25        37.5206        -999.25       54.94669         0.7843         0.8897        -999.25         1.0464        -54.496      -17.93584      0.4669508      0.6412833
      3815.5000        -999.25        -999.25        -999.25        38.7847        -999.25       56.40976         0.7356         0.8008        -999.25         0.9145        -52.688      -15.98834        0.49808      0.6802332
      3816.0000        -999.25        -999.25        -999.25        41.2898        -999.25       59.30919         0.6768         0.7333        -999.25         0.7993       -51.0016       -14.1718      0.5597699      0.7165641
      3816.5000        -999.25        -999.25        -999.25        44.2081        -999.25       62.68684         0.6182         0.6835        -999.25         0.7804       -49.2085      -12.24035       0.631635       0.755193
      3817.0000        -999.25        -999.25        -999.25        44.1689        -999.25       62.64148         0.5631         0.6334        -999.25         0.7585        -47.697      -10.61216      0.6306697      0.7877569
      3817.5000        -999.25        -999.25        -999.25        42.8792        -999.25       61.14877         0.5173         0.5917        -999.25         0.6741       -47.2406      -10.12023      0.5989099      0.7975954
      3818.0000        -999.25        -999.25        -999.25        41.1425        -999.25        59.1387         0.4784         0.5443        -999.25         0.5784       -47.4564      -10.35221      0.5561425      0.7929557
      3818.5000        -999.25        -999.25        -999.25        39.6807        -999.25        57.4468         0.4465          0.485        -999.25         0.4964       -48.0192      -10.95788      0.5201447      0.7808423
      3819.0000        -999.25        -999.25        -999.25        40.1619        -999.25       58.00375         0.4379         0.4532        -999.25         0.4369       -48.8728      -11.87673      0.5319946      0.7624655
      3819.5000        -999.25        -999.25        -999.25        43.9188        -999.25       62.35201         0.4817         0.4741        -999.25         0.4625        -49.376      -12.41822      0.6245108      0.7516357
      3820.0000        -999.25        -999.25        -999.25         50.954        -999.25        70.4946         0.5274         0.5028        -999.25         0.5559       -49.0591      -12.07652      0.7977574      0.7584696
      3820.5000        -999.25        -999.25        -999.25        57.0344        -999.25        77.5321         0.5674         0.5467        -999.25         0.6332       -48.0032      -10.93897      0.9474916      0.7812205
      3821.0000        -999.25        -999.25        -999.25        59.4686        -999.25       80.34946         0.5927         0.5834        -999.25         0.6531       -46.5979      -9.425156              1      0.8114969
      3821.5000        -999.25        -999.25        -999.25        59.5505        -999.25       80.44425         0.5913         0.5827        -999.25         0.6716       -45.0551      -7.763259              1      0.8447348
      3822.0000        -999.25        -999.25        -999.25         57.799        -999.25       78.41706         0.5733         0.5736        -999.25         0.6899       -44.3334      -6.985626      0.9663205      0.8602875
      3822.5000        -999.25        -999.25        -999.25        55.5542        -999.25       75.81891         0.5503         0.5554        -999.25         0.6259        -44.275      -6.922311      0.9110406      0.8615538
      3823.0000        -999.25        -999.25        -999.25        54.2581        -999.25       74.31879          0.528         0.5343        -999.25         0.5618       -44.3204      -6.970783      0.8791231      0.8605843
      3823.5000        -999.25        -999.25        -999.25        55.0037        -999.25       75.18175         0.5062         0.5108        -999.25         0.5188       -44.3448       -6.99664       0.897484      0.8600672
