#------------------------------------------------------------------------------
# Created by    : vladimir.rabinovich
# Created on    : 09/19/2023 17:21:25
#------------------------------------------------------------------------------
~Version Information Section
VERS.           2.0     :   CWLS log ASCII Standard - VERSION 2.0
WRAP.           NO      :   One line per depth step
~Well Information Section
#MNEM       .UNIT                                         VALUE :DESCRIPTION
#------------------------------------------------------------------------------
STRT        .FT                                            3400 :START DEPTH
STOP        .FT                                            8653 :STOP DEPTH
STEP        .FT                                             0.5 :STEP      
NULL        .                                           -999.25 :NULL      
COMP        .                          KING RANCH OIL & GAS INC :COMPANY   
WELL        .                               OCS G13784 ST00BP00 :WELL      
FLD         .                                           WILDCAT :FIELD     
LOC         .                                                   :LOCATION  
CNTY        .                             GALVESTON LARGE BLOCK :LOCATION  
STAT        .                                             TEXAS :STATE     
CTRY        .                                     UNITED STATES :COUNTRY   
SRVC        .                                                   :SERVICE COMPANY
DATE        .                             9/13/2023 11:19:54 AM :LOG DATE  
API         .                                    42706403430000 :API NUMBER
UWI         .                                    42706403430000 :UNIQUE WELL ID
XCOORD      .                                   967589.17441186 :SURFACE X 
YCOORD      .                                  10424680.8833423 :SURFACE Y 
LAT         .                                         28.709654 :LATITUDE  
LON         .                                        -95.099391 :LONGITUDE 
ELEV        .FT                                             106 :ELEVATION VALUE
ELEV_TYPE   .                                                KB :ELEVATION REFERENCE TYPE
~Curve Information Section
#MNEM       .UNIT                                      API CODE :CURVE DESCRIPTION
#------------------------------------------------------------------------------
DEPT        .FT                                                 :DEPTH     
CALI        .IN                                                 :          
DPHI        .%                                                  :          
DRHO        .G/C3                                               :          
DTLN        .US/F                                               :          
GR          .GAPI                                               :          
GR_1        .GAPI                                               :          
GR_NORM     .GAPI                                               :GammaRay Normalized
ILD         .OHMM                                               :          
ILM         .OHMM                                               :          
NPHI        .%                                                  :          
SFL         .OHMM                                               :          
SP          .MV                                                 :          
SP_NORM     .MV                                                 :SP Normalized
VSH_GR      .V/V                                                :Volume of Shale from GR
VSH_SP      .V/V                                                :Volume of Shale from SP
~A        DEPTH           CALI           DPHI           DRHO           DTLN             GR           GR_1        GR_NORM            ILD            ILM           NPHI            SFL             SP        SP_NORM         VSH_GR         VSH_SP
# ...
      6545.0000        -999.25        -999.25        -999.25        105.478        -999.25        55.8514       58.81821         0.3427         0.4047        -999.25         0.7756       -81.9512      -36.24921      0.5493236      0.4094964
      6545.5000        -999.25        -999.25        -999.25       106.5635        -999.25        52.0079       54.01405         0.3421         0.3977        -999.25         0.7427       -84.9802      -39.27941      0.4471074      0.3572515
      6546.0000        -999.25        -999.25        -999.25       107.5752        -999.25        52.3868       54.48789         0.3435         0.3849        -999.25         0.5949       -87.6476      -41.94802      0.4571892      0.3112411
      6546.5000        -999.25        -999.25        -999.25       108.3539        -999.25        55.9375       58.92648         0.3482         0.3761        -999.25         0.5422       -88.5088      -42.81042      0.5516272      0.2963721
      6547.0000        -999.25        -999.25        -999.25       108.8878        -999.25         57.997       61.50108          0.354         0.3756        -999.25         0.5627       -86.7408      -41.04363      0.6064059       0.326834
      6547.5000        -999.25        -999.25        -999.25       109.3253        -999.25        57.7386       61.17828         0.3629         0.3896        -999.25         0.7071       -85.5475      -39.85154       0.599538      0.3473873
      6548.0000        -999.25        -999.25        -999.25       108.9391        -999.25         55.684       58.61025         0.3731         0.4092        -999.25          0.869        -84.236      -38.54124      0.5448989      0.3699786
      6548.5000        -999.25        -999.25        -999.25       109.1377        -999.25        53.0635       55.33484         0.3841         0.4321        -999.25         0.7871       -82.3818      -36.68825      0.4752093      0.4019268
      6549.0000        -999.25        -999.25        -999.25       110.3654        -999.25        61.7913        66.2448         0.3956         0.4542        -999.25         0.6455       -79.1978      -33.50546      0.7073362      0.4568025
      6549.5000        -999.25        -999.25        -999.25       112.1927        -999.25        68.4744       74.59889         0.4091         0.4788        -999.25          0.562        -73.002      -27.31086      0.8850828      0.5636058
      6550.0000        -999.25        -999.25        -999.25       114.3459        -999.25        72.7386       79.92936         0.4088         0.4995        -999.25         0.5569       -66.0432      -20.35326       0.998497      0.6835644
      6550.5000        -999.25        -999.25        -999.25       116.0022        -999.25        72.6624       79.83432         0.3976         0.4963        -999.25         0.5649        -61.752      -16.06327      0.9964749      0.7575298
      6551.0000        -999.25        -999.25        -999.25       117.2587        -999.25        65.4921       70.87166         0.3886          0.475        -999.25         0.5719       -62.0287      -16.34118        0.80578      0.7527382
      6551.5000        -999.25        -999.25        -999.25       117.9431        -999.25        56.8701       60.09437         0.3798         0.4466        -999.25         0.5747       -64.5177      -18.83139       0.576476      0.7098037
      6552.0000        -999.25        -999.25        -999.25       116.8015        -999.25        49.9705       51.47009         0.3741         0.4202        -999.25         0.5307       -74.1387      -28.45359      0.3929805      0.5439035
      6552.5000        -999.25        -999.25        -999.25       115.9253        -999.25        48.5433        49.6863          0.371         0.3958        -999.25         0.4168       -78.7057       -33.0218      0.3550277      0.4651414
      6553.0000        -999.25        -999.25        -999.25       116.4324        -999.25        53.6122       56.02264          0.373         0.3879        -999.25          0.323       -79.4143       -33.7316      0.4898434      0.4529034
      6553.5000        -999.25        -999.25        -999.25       116.6185        -999.25        59.0797       62.85723         0.3843         0.3996        -999.25         0.3592       -74.3109      -28.62941      0.6352602      0.5408722
      6554.0000        -999.25        -999.25        -999.25       114.8181        -999.25        63.5679        68.4677         0.3966         0.4256        -999.25         0.5179       -66.3484      -20.66811      0.7546319       0.678136
      6554.5000        -999.25        -999.25        -999.25       111.7393        -999.25        65.4244       70.78854         0.4112         0.4677        -999.25         0.6711       -61.9931      -16.31402      0.8040114      0.7532065
      6555.0000        -999.25        -999.25        -999.25       110.5652        -999.25        64.5262       69.66599         0.4261         0.5114        -999.25         0.7208       -59.3233      -13.64543      0.7801275      0.7992167
      6555.5000        -999.25        -999.25        -999.25       111.9354        -999.25        62.4163       67.02885         0.4389         0.5317        -999.25          0.676       -57.7005      -12.02383       0.724018      0.8271753
      6556.0000        -999.25        -999.25        -999.25       115.6074        -999.25        59.9852       63.99017           0.45         0.5487        -999.25         0.6089       -59.7145      -14.03904      0.6593654      0.7924303
      6556.5000        -999.25        -999.25        -999.25       119.1396        -999.25        58.9271       62.66777         0.4552         0.5438        -999.25         0.5978       -62.9478      -17.27355      0.6312292       0.736663
      6557.0000        -999.25        -999.25        -999.25       116.4193        -999.25        61.0137       65.27623         0.4479         0.5118        -999.25          0.594       -66.3434      -20.67035      0.6867283      0.6780974
      6557.5000        -999.25        -999.25        -999.25       114.7612        -999.25        63.2923       68.12469          0.426         0.4794        -999.25          0.566        -68.665      -22.99316      0.7473339      0.6380489
      6558.0000        -999.25        -999.25        -999.25       114.3584        -999.25        64.6641       69.83966         0.3963         0.4422        -999.25         0.5381       -70.0922      -24.42157      0.7838226      0.6134213
      6558.5000        -999.25        -999.25        -999.25       113.9594        -999.25         62.126       66.66725         0.3735         0.4066        -999.25         0.5531       -71.9857      -26.31628      0.7163245      0.5807539
      6559.0000        -999.25        -999.25        -999.25       113.5807        -999.25        56.1959       59.25484         0.3568         0.3815        -999.25         0.5948       -75.1082      -29.43998      0.5586135      0.5268969
      6559.5000        -999.25        -999.25        -999.25       112.7748        -999.25        51.2205       53.03581         0.3448         0.3607        -999.25         0.5539       -79.4684      -33.80138      0.4262938      0.4517003
      6560.0000        -999.25        -999.25        -999.25       110.8662        -999.25        47.4606       48.33614         0.3362         0.3486        -999.25         0.4134       -83.0093      -37.34349      0.3263009      0.3906295
      6560.5000        -999.25        -999.25        -999.25        108.141        -999.25        49.8376       51.30761         0.3383         0.3497        -999.25         0.3115       -84.0822      -38.41759      0.3895236      0.3721104
      6561.0000        -999.25        -999.25        -999.25        106.702        -999.25        52.5172       54.65732         0.3544         0.3635        -999.25         0.3301       -80.3494        -34.686      0.4607941      0.4364482
      6561.5000        -999.25        -999.25        -999.25       106.8545        -999.25        53.8312       56.30003         0.3792         0.3946        -999.25         0.5348        -74.493      -28.83081      0.4957453      0.5373999
