#------------------------------------------------------------------------------
# Created by    : vladimir.rabinovich
# Created on    : 09/19/2023 17:22:38
#------------------------------------------------------------------------------
~Version Information Section
VERS.           2.0     :   CWLS log ASCII Standard - VERSION 2.0
WRAP.           NO      :   One line per depth step
~Well Information Section
#MNEM       .UNIT                                         VALUE :DESCRIPTION
#------------------------------------------------------------------------------
STRT        .FT                                             597 :START DEPTH
STOP        .FT                                            8696 :STOP DEPTH
STEP        .FT                                             0.5 :STEP      
NULL        .                                           -999.25 :NULL      
COMP        .                MURPHY EXPLORATION & PRODUCTION CO :COMPANY   
WELL        .                               OCS G13308 ST00BP00 :WELL      
FLD         .                                           WILDCAT :FIELD     
LOC         .                                                   :LOCATION  
CNTY        .                             GALVESTON LARGE BLOCK :LOCATION  
STAT        .                                             TEXAS :STATE     
CTRY        .                                     UNITED STATES :COUNTRY   
SRVC        .                                                   :SERVICE COMPANY
DATE        .                             9/13/2023 11:19:54 AM :LOG DATE  
API         .                                    42706403460000 :API NUMBER
UWI         .                                    42706403460000 :UNIQUE WELL ID
XCOORD      .                                  1110706.35492259 :SURFACE X 
YCOORD      .                                  10520329.8149831 :SURFACE Y 
LAT         .                                         28.978895 :LATITUDE  
LON         .                                        -94.657168 :LONGITUDE 
ELEV        .FT                                              71 :ELEVATION VALUE
ELEV_TYPE   .                                                KB :ELEVATION REFERENCE TYPE
~Curve Information Section
#MNEM       .UNIT                                      API CODE :CURVE DESCRIPTION
#------------------------------------------------------------------------------
DEPT        .FT                                                 :DEPTH     
DCAL        .IN                                                 :          
DPHI        .%                                                  :          
DRHO        .G/C3                                               :          
DTLN        .US/F                                               :          
GR          .GAPI                                               :          
GR_1        .GAPI                                               :          
GR_NORM     .GAPI                                               :GammaRay Normalized
ILD         .OHMM                                               :          
ILM         .OHMM                                               :          
NPHI        .%                                                  :          
SFL         .OHMM                                               :          
SP          .MV                                                 :          
VSH_GR      .V/V                                                :Volume of Shale from GR
~A        DEPTH           DCAL           DPHI           DRHO           DTLN             GR           GR_1        GR_NORM            ILD            ILM           NPHI            SFL             SP         VSH_GR
# ...
      4397.0000        -999.25        -999.25        -999.25       133.2192        96.6022        -999.25       78.97988         0.7024         0.7048        -999.25         0.6921       -45.0768      0.9782953
      4397.5000        -999.25        -999.25        -999.25       134.4849        96.5277        -999.25       78.92287         0.7065         0.7106        -999.25         0.6932       -42.1064      0.9770823
      4398.0000        -999.25        -999.25        -999.25       135.9021        99.0664        -999.25       81.31772         0.7158          0.719        -999.25         0.6877       -40.3701              1
      4398.5000        -999.25        -999.25        -999.25       136.6367       102.9736        -999.25       84.99663         0.7264         0.7283        -999.25         0.6832       -40.1728              1
      4399.0000        -999.25        -999.25        -999.25       135.8213       105.0922        -999.25       86.99733         0.7327         0.7387        -999.25         0.6915       -38.0294              1
      4399.5000        -999.25        -999.25        -999.25       133.0852        105.868        -999.25       87.73811         0.7421         0.7507        -999.25         0.7299       -39.0972              1
      4400.0000        -999.25        -999.25        -999.25       131.6355       105.5682        -999.25        87.4697          0.754         0.7639        -999.25         0.7552       -38.8253              1
      4400.5000        -999.25        -999.25        -999.25       130.0701       103.5421        -999.25       85.58154         0.7672         0.7776        -999.25         0.7656       -37.7236              1
      4401.0000        -999.25        -999.25        -999.25       128.4214       100.6486        -999.25       82.87952         0.7809         0.7906        -999.25          0.763       -38.8407              1
      4401.5000        -999.25        -999.25        -999.25       127.6508        98.6001        -999.25       80.97037         0.7985         0.8042        -999.25         0.7623       -34.1024              1
      4402.0000        -999.25        -999.25        -999.25       130.1731        96.0621        -999.25       78.60191         0.8164         0.8202        -999.25         0.7735       -37.3853      0.9702533
      4402.5000        -999.25        -999.25        -999.25        134.231        92.5436        -999.25       75.31348          0.833         0.8372        -999.25         0.8085       -36.3304      0.9002867
      4403.0000        -999.25        -999.25        -999.25       134.9758         87.625        -999.25       70.71136         0.8493         0.8549        -999.25         0.8415       -36.2061      0.8023695
      4403.5000        -999.25        -999.25        -999.25       131.2317        84.9615        -999.25       68.22516          0.864         0.8758        -999.25         0.8593       -36.0536      0.7494715
      4404.0000        -999.25        -999.25        -999.25       125.1537        86.7122        -999.25       69.88067         0.8761         0.8899        -999.25         0.8647       -34.8578      0.7846951
      4404.5000        -999.25        -999.25        -999.25       120.8599        89.3523        -999.25       72.37068         0.8863         0.8988        -999.25         0.8555       -35.7866      0.8376741
      4405.0000        -999.25        -999.25        -999.25       119.8936        90.8491        -999.25       73.78796         0.8949         0.9054        -999.25         0.8422       -34.4493      0.8678288
      4405.5000        -999.25        -999.25        -999.25       119.6481        89.8099        -999.25       72.82578         0.8964         0.9065        -999.25         0.8369        -34.186      0.8473571
      4406.0000        -999.25        -999.25        -999.25        120.156        88.1688        -999.25       71.29887         0.8923         0.9064        -999.25         0.8482       -36.4177      0.8148695
      4406.5000        -999.25        -999.25        -999.25       120.7319        86.5793        -999.25       69.82037          0.886         0.8999        -999.25         0.8692       -37.1553       0.783412
      4407.0000        -999.25        -999.25        -999.25       120.4106        83.7769        -999.25       67.20383         0.8752         0.8834        -999.25         0.8938       -37.9131      0.7277412
      4407.5000        -999.25        -999.25        -999.25       120.1429        82.4189        -999.25       65.94254           0.86         0.8591        -999.25         0.9049       -40.3718       0.700905
      4408.0000        -999.25        -999.25        -999.25       123.6206        83.9269        -999.25       67.37033         0.8405         0.8377        -999.25          0.869       -40.7156      0.7312836
      4408.5000        -999.25        -999.25        -999.25       125.9303        89.6722        -999.25       72.77386         0.8205         0.8167        -999.25         0.7734       -40.2257      0.8462524
      4409.0000        -999.25        -999.25        -999.25       127.3304        95.0558        -999.25       77.83802         0.8037         0.8008        -999.25         0.7253       -41.2593      0.9540004
      4409.5000        -999.25        -999.25        -999.25       127.7583        96.9246        -999.25       79.60433         0.7891         0.7908        -999.25         0.7003       -40.2967      0.9915816
      4410.0000        -999.25        -999.25        -999.25       127.5392        98.4119        -999.25       81.01271         0.7809         0.7779        -999.25         0.6932       -38.9963              1
      4410.5000        -999.25        -999.25        -999.25       126.7969       100.9315        -999.25       83.38966          0.772         0.7685        -999.25         0.6999       -37.0107              1
      4411.0000        -999.25        -999.25        -999.25       126.4061       101.3615        -999.25       83.80599         0.7632          0.761        -999.25         0.7086       -29.7073              1
      4411.5000        -999.25        -999.25        -999.25       126.8198       100.9364        -999.25          83.42         0.7578         0.7557        -999.25         0.7191       -31.7059              1
      4412.0000        -999.25        -999.25        -999.25       131.7236        100.886        -999.25        83.3856         0.7512         0.7512        -999.25         0.7332       -34.0286              1
      4412.5000        -999.25        -999.25        -999.25       135.7542       102.2441        -999.25       84.67273         0.7468          0.747        -999.25         0.7412        -35.061              1
      4413.0000        -999.25        -999.25        -999.25       135.4236       102.6223        -999.25       85.04045         0.7426         0.7436        -999.25          0.732       -35.1414              1
      4413.5000        -999.25        -999.25        -999.25       131.8828       102.4222        -999.25       84.86559          0.739         0.7404        -999.25         0.7072         -31.76              1
      4414.0000        -999.25        -999.25        -999.25       130.2439       101.9897        -999.25       84.47266         0.7364         0.7375        -999.25         0.6814       -33.5783              1
      4414.5000        -999.25        -999.25        -999.25       133.7761       101.7056        -999.25       84.21898         0.7361         0.7361        -999.25         0.6799       -36.9357              1
      4415.0000        -999.25        -999.25        -999.25       143.2212       100.1466        -999.25        82.7691         0.7372         0.7358        -999.25         0.6962       -33.0739              1
      4415.5000        -999.25        -999.25        -999.25       145.4041        94.9771        -999.25       77.93158         0.7405         0.7385        -999.25         0.7174       -30.9222       0.955991
