#------------------------------------------------------------------------------
# Created by    : vladimir.rabinovich
# Created on    : 09/19/2023 17:22:39
#------------------------------------------------------------------------------
~Version Information Section
VERS.           2.0     :   CWLS log ASCII Standard - VERSION 2.0
WRAP.           NO      :   One line per depth step
~Well Information Section
#MNEM       .UNIT                                         VALUE :DESCRIPTION
#------------------------------------------------------------------------------
STRT        .FT                                            3496 :START DEPTH
STOP        .FT                                          7091.5 :STOP DEPTH
STEP        .FT                                             0.5 :STEP      
NULL        .                                           -999.25 :NULL      
COMP        .                          SEAGULL ENERGY E & P INC :COMPANY   
WELL        .                               OCS G07251 ST00BP00 :WELL      
FLD         .                              GALVESTON BLOCK 0349 :FIELD     
LOC         .                                                   :LOCATION  
CNTY        .                             GALVESTON LARGE BLOCK :LOCATION  
STAT        .                                             TEXAS :STATE     
CTRY        .                                     UNITED STATES :COUNTRY   
SRVC        .                                                   :SERVICE COMPANY
DATE        .                             9/13/2023 11:19:36 AM :LOG DATE  
API         .                                    42706402300000 :API NUMBER
UWI         .                                    42706402300000 :UNIQUE WELL ID
XCOORD      .                                  1015542.86720011 :SURFACE X 
YCOORD      .                                  10434819.2372955 :SURFACE Y 
LAT         .                                         28.739771 :LATITUDE  
LON         .                                        -94.950355 :LONGITUDE 
ELEV        .FT                                              93 :ELEVATION VALUE
ELEV_TYPE   .                                                KB :ELEVATION REFERENCE TYPE
~Curve Information Section
#MNEM       .UNIT                                      API CODE :CURVE DESCRIPTION
#------------------------------------------------------------------------------
DEPT        .FT                                                 :DEPTH     
DCAL        .IN                                                 :          
DPHI        .%                                                  :          
DRHO        .G/C3                                               :          
GR          .GAPI                                               :          
GR_NORM     .GAPI                                               :GammaRay Normalized
ILD         .OHMM                                               :          
ILM         .OHMM                                               :          
NPHI        .%                                                  :          
SGRD        .OHMM                                               :          
SP          .MV                                                 :          
SP_NORM     .MV                                                 :SP Normalized
VSH_GR      .V/V                                                :Volume of Shale from GR
VSH_SP      .V/V                                                :Volume of Shale from SP
~A        DEPTH           DCAL           DPHI           DRHO             GR        GR_NORM            ILD            ILM           NPHI           SGRD             SP        SP_NORM         VSH_GR         VSH_SP
# ...
      4465.0000         0.3973        29.7466        -0.0251        50.1067       42.49685         0.4529          0.561        41.2108         0.8121       -70.3356      -32.36702      0.2020606      0.5020458
      4465.5000         0.4046        30.0554        -0.0273        46.5128       37.66915         0.4344         0.5342        40.8999         0.8143       -74.4897      -36.52752     0.09934364      0.4380382
      4466.0000         0.4119         30.796        -0.0292        43.8868       34.14207         0.4185         0.5057         40.433         0.8217        -76.593      -38.63722     0.02429946      0.4055813
      4466.5000         0.4257        32.1467        -0.0315        43.2969       33.35101         0.4104         0.4799        39.8071         0.8026       -76.7919      -38.84251    0.007468366      0.4024229
      4467.0000         0.4335        34.0007         -0.034         43.888       34.14691         0.4047         0.4627        39.2158         0.7691       -76.4146       -38.4716     0.02440237      0.4081292
      4467.5000         0.3945        34.4061        -0.0371        45.5124       36.33131         0.4031         0.4611        38.3874         0.7437       -76.1227      -38.18611     0.07087895      0.4125214
      4468.0000         0.3381        33.6842        -0.0407        47.6633       39.22319         0.4065         0.4655        37.7259         0.7806       -75.7677       -37.8375      0.1324083      0.4178846
      4468.5000          0.292        32.5652        -0.0454        47.4857       38.98615          0.419         0.4771        37.1094         0.8083       -74.9242       -37.0004      0.1273648      0.4307631
      4469.0000         0.2977        30.4532        -0.0475        47.1993       38.60291         0.4348         0.4914        36.4569         0.8307       -73.7682       -35.8508      0.1192107      0.4484493
      4469.5000         0.3356        28.6037        -0.0464         48.176       39.91695         0.4508          0.504        35.7872          0.833       -72.6934      -34.78239      0.1471692      0.4648864
      4470.0000         0.3689         26.824        -0.0424        49.2407       41.34926         0.4554         0.5151        35.4031          0.816       -71.7338      -33.82919      0.1776438      0.4795509
      4470.5000         0.3773         25.813         -0.037        48.3604       40.16798          0.448         0.5233        35.2124         0.8345       -75.1617      -37.26348      0.1525101      0.4267157
      4471.0000         0.3452        26.1992        -0.0336        47.7202       39.30931         0.4322         0.5222        35.2864           0.87       -78.8835      -40.99168      0.1342407      0.3693588
      4471.5000         0.3193        28.3082        -0.0333        45.1248       35.82336         0.4047         0.4964        35.5509         0.9175       -81.0404      -43.15497      0.0600715      0.3360774
      4472.0000         0.3013        30.5942        -0.0336        41.4571       30.89649         0.3753         0.4661        35.5474         0.9429       -83.1438      -45.26477              0      0.3036189
      4472.5000         0.3049         32.455        -0.0339        40.2828       29.32014         0.3465         0.4404        35.5238         0.9351       -83.5376      -45.66497              0       0.297462
      4473.0000         0.3115        33.2991        -0.0338        41.5602       31.03825         0.3259           0.41        35.3015         0.9064       -83.9353      -46.06907              0      0.2912452
      4473.5000         0.3197        33.6741        -0.0337        42.7513        32.6404          0.315          0.386        34.8714          0.871       -84.3068      -46.44696              0      0.2854314
      4474.0000          0.328        33.9305        -0.0314        46.6628       37.89809         0.3081         0.3712        34.5677         0.8138       -84.5504      -46.69696      0.1042146      0.2815853
      4474.5000         0.3391        34.2407        -0.0283        47.8377       39.47847         0.3035         0.3617        34.6452         0.7527       -84.8286      -46.98155      0.1378399      0.2772069
      4475.0000         0.3496        34.5413        -0.0268        45.5599       36.41929         0.3015         0.3635        34.7607         0.7116       -84.6117      -46.77105     0.07275082      0.2804454
      4475.5000         0.3552        34.5712         -0.026        44.2588       34.67255         0.3023         0.3676        34.8059         0.7029        -84.256      -46.42174     0.03558609      0.2858194
      4476.0000         0.3554        34.2429        -0.0259        43.5435       33.71297         0.3039         0.3706        34.9099         0.7277       -84.0529      -46.22504     0.01516951      0.2888455
      4476.5000         0.3476        33.6219         -0.025        43.1727       33.21632         0.3079         0.3729        35.1755         0.7726       -84.0406      -46.21914    0.004602635      0.2889363
      4477.0000          0.332        32.6612        -0.0233        44.8121       35.42088         0.3148          0.377         35.496         0.8009       -83.9691      -46.15403     0.05150799      0.2899379
      4477.5000          0.313        32.1769        -0.0215        46.6154       37.84567         0.3225         0.3813        35.7675         0.8115       -83.7729      -45.96423      0.1030994      0.2928579
      4478.0000         0.3028        32.0305        -0.0183        45.6825        36.5937         0.3257         0.3835        36.0759         0.8052       -83.9172      -46.11493     0.07646171      0.2905396
      4478.5000         0.2974        32.5074        -0.0187        43.3553       33.46814         0.3266         0.3845        36.5031         0.7983       -84.3772      -46.58132    0.009960337      0.2833643
      4479.0000         0.2948         32.889        -0.0209        43.4761       33.63207          0.327          0.384        36.7814         0.7929       -84.5264      -46.73692     0.01344827      0.2809705
      4479.5000         0.3062        32.9407        -0.0238        42.9626       32.94366         0.3238         0.3824        36.9053         0.7879       -84.4338      -46.65071              0      0.2822967
      4480.0000         0.3249        33.0151         -0.027        40.7205       29.93245         0.3207         0.3816        36.9209         0.7917       -84.2089      -46.43221              0      0.2856583
      4480.5000          0.351        33.0408         -0.029        41.0044       30.31555         0.3175         0.3796        36.8257         0.8023       -84.1289      -46.35861              0      0.2867906
      4481.0000         0.3645        32.9539         -0.032        41.5867       31.09962         0.3164         0.3782         36.665         0.8192       -84.9314       -47.1675              0      0.2743461
      4481.5000         0.3745        33.0198        -0.0345        41.8431       31.44577         0.3159         0.3774        36.5472          0.838       -85.5024       -47.7449              0       0.265463
      4482.0000         0.3814        32.9462        -0.0352        45.1273       35.86052         0.3167          0.377        36.5886         0.8602       -85.2966       -47.5455     0.06086219      0.2685308
      4482.5000         0.3826        33.0259        -0.0359         46.222       37.33314         0.3166         0.3771        36.8338          0.885       -84.4855      -46.74079      0.0921945      0.2809109
      4483.0000         0.3864        33.4757        -0.0362        46.3928       37.56427         0.3166         0.3768        37.2512         0.8935       -83.7681      -46.02979     0.09711213      0.2918494
      4483.5000         0.3921        33.3615        -0.0355        46.3374       37.49144         0.3172         0.3773        38.0979         0.8847       -83.1571      -45.42518     0.09556247       0.301151
