#------------------------------------------------------------------------------
# Created by    : vladimir.rabinovich
# Created on    : 09/19/2023 17:20:39
#------------------------------------------------------------------------------
~Version Information Section
VERS.           2.0     :   CWLS log ASCII Standard - VERSION 2.0
WRAP.           NO      :   One line per depth step
~Well Information Section
#MNEM       .UNIT                                         VALUE :DESCRIPTION
#------------------------------------------------------------------------------
STRT        .FT                                             523 :START DEPTH
STOP        .FT                                           11863 :STOP DEPTH
STEP        .FT                                             0.5 :STEP      
NULL        .                                           -999.25 :NULL      
COMP        .                                      SHELL OIL CO :COMPANY   
WELL        .                                OCS 00727 ST00BP00 :WELL      
FLD         .                                           WILDCAT :FIELD     
LOC         .                                                   :LOCATION  
CNTY        .                             GALVESTON LARGE BLOCK :LOCATION  
STAT        .                                             TEXAS :STATE     
CTRY        .                                     UNITED STATES :COUNTRY   
SRVC        .                                                   :SERVICE COMPANY
DATE        .                             9/13/2023 11:19:42 AM :LOG DATE  
API         .                                    42706000240000 :API NUMBER
UWI         .                                    42706000240000 :UNIQUE WELL ID
XCOORD      .                                  977080.798970248 :SURFACE X 
YCOORD      .                                   10388448.113324 :SURFACE Y 
LAT         .                                         28.610486 :LATITUDE  
LON         .                                        -95.067834 :LONGITUDE 
ELEV        .FT                                              76 :ELEVATION VALUE
ELEV_TYPE   .                                                KB :ELEVATION REFERENCE TYPE
~Curve Information Section
#MNEM       .UNIT                                      API CODE :CURVE DESCRIPTION
#------------------------------------------------------------------------------
DEPT        .FT                                                 :DEPTH     
ASN         .OHMM                                               :          
ILD         .OHMM                                               :          
LN          .OHMM                                               :          
SP          .MV                                                 :          
SP_NORM     .MV                                                 :SP Normalized
VSH_SP      .V/V                                                :Volume of Shale from SP
~A        DEPTH            ASN            ILD             LN             SP        SP_NORM         VSH_SP
# ...
     11049.0000         0.7324          0.698        -999.25       -42.6959      -3.671509      0.9010552
     11049.5000         0.7397         0.7067        -999.25       -42.8765      -3.852108      0.8943664
     11050.0000         0.7471         0.7098        -999.25       -43.0571      -4.032707      0.8876775
     11050.5000         0.7544         0.7074        -999.25       -43.2376      -4.213207      0.8809924
     11051.0000         0.7618          0.705        -999.25        -43.376      -4.351608      0.8758664
     11051.5000         0.7691         0.6981        -999.25       -43.4734      -4.449009      0.8722589
     11052.0000         0.7765         0.6863        -999.25        -43.571      -4.546608      0.8686442
     11052.5000         0.7737         0.6745        -999.25       -43.3196      -4.295208      0.8779553
     11053.0000          0.764         0.6627        -999.25       -42.9099      -3.885509      0.8931293
     11053.5000         0.7531         0.6509        -999.25       -42.4965      -3.472107      0.9084405
     11054.0000         0.7421         0.6391        -999.25       -42.0836      -3.059208      0.9237331
     11054.5000         0.7312         0.6307        -999.25       -41.6696       -2.64521      0.9390663
     11055.0000         0.7202         0.6265        -999.25       -41.6844      -2.660007      0.9385182
     11055.5000         0.7103         0.6224        -999.25       -41.8475      -2.823109      0.9324775
     11056.0000         0.7044         0.6182        -999.25       -42.0103      -2.985909      0.9264478
     11056.5000         0.6985          0.614        -999.25        -42.173      -3.148609      0.9204219
     11057.0000         0.6937         0.6099        -999.25       -42.2236      -3.199207      0.9185479
     11057.5000         0.6934         0.6079        -999.25       -42.2322      -3.207809      0.9182293
     11058.0000         0.6931         0.6094        -999.25       -42.2407      -3.216309      0.9179145
     11058.5000         0.6975         0.6108        -999.25       -42.2493      -3.224907       0.917596
     11059.0000         0.7031         0.6122        -999.25       -42.0946       -3.07021      0.9233256
     11059.5000         0.7087         0.6136        -999.25       -41.9197      -2.895309      0.9298034
     11060.0000         0.7143          0.615        -999.25       -41.7445      -2.720108      0.9362923
     11060.5000         0.7199         0.6164        -999.25       -41.5693       -2.54491      0.9427811
     11061.0000         0.7233         0.6179        -999.25       -41.3944       -2.37001      0.9492589
     11061.5000         0.7244         0.6193        -999.25       -41.2192      -2.194809      0.9557478
     11062.0000         0.7256         0.6207        -999.25       -41.0408      -2.016407      0.9623553
     11062.5000         0.7267         0.6214        -999.25       -40.8599       -1.83551      0.9690552
     11063.0000         0.7279         0.6221        -999.25       -40.6791      -1.654709      0.9757515
     11063.5000         0.7263         0.6227        -999.25       -40.4616       -1.43721       0.983807
     11064.0000         0.7232         0.6234        -999.25       -40.2083       -1.18391      0.9931885
     11064.5000         0.7201          0.624        -999.25       -39.9543     -0.9299088              1
     11065.0000          0.717         0.6247        -999.25        -39.701      -0.676609              1
     11065.5000         0.7139         0.6253        -999.25       -40.0169     -0.9925079              1
     11066.0000         0.7108         0.6259        -999.25       -40.4503      -1.425907      0.9842257
     11066.5000         0.7077         0.6266        -999.25       -40.8848      -1.860409       0.968133
     11067.0000         0.7046         0.6272        -999.25       -41.2548      -2.230408      0.9544293
     11067.5000         0.7015         0.6253        -999.25       -41.4354      -2.411007      0.9477405
     11068.0000         0.6984         0.6235        -999.25        -41.616       -2.59161      0.9410515
     11068.5000         0.6964         0.6216        -999.25       -41.7965       -2.77211      0.9343663
     11069.0000         0.6944         0.6197        -999.25       -41.9774      -2.953011      0.9276662
     11069.5000         0.6923         0.6179        -999.25        -42.158       -3.13361      0.9209774
     11070.0000         0.6903          0.616        -999.25       -42.3385       -3.31411      0.9142922
     11070.5000         0.6882         0.6142        -999.25       -42.5191      -3.494709      0.9076034
     11071.0000         0.6862         0.6123        -999.25       -42.5515      -3.527107      0.9064034
     11071.5000         0.6841         0.6104        -999.25        -42.499      -3.474609      0.9083478
     11072.0000         0.6821         0.6091        -999.25       -42.4466      -3.422211      0.9102885
     11072.5000           0.68         0.6112        -999.25       -42.3942      -3.369808      0.9122293
     11073.0000         0.6832         0.6134        -999.25       -42.3417       -3.31731      0.9141737
     11073.5000         0.6867         0.6155        -999.25       -42.2893      -3.264908      0.9161145
     11074.0000         0.6901         0.6176        -999.25       -42.2368       -3.21241      0.9180589
     11074.5000         0.6936         0.6197        -999.25       -42.1912      -3.166809      0.9197478
     11075.0000         0.6971         0.6218        -999.25       -42.1588      -3.134407      0.9209479
     11075.5000         0.7049         0.6239        -999.25       -42.1265      -3.102108      0.9221442
     11076.0000         0.7177         0.6261        -999.25       -42.0941       -3.06971      0.9233441
     11076.5000         0.7306         0.6282        -999.25       -42.0617      -3.037308      0.9245442
     11077.0000         0.7434         0.6352        -999.25       -42.0293       -3.00491      0.9257441
     11077.5000         0.7562         0.6483        -999.25       -41.9969      -2.972507      0.9269442
     11078.0000          0.769         0.6614        -999.25       -41.9646      -2.940208      0.9281404
     11078.5000         0.7818         0.6745        -999.25       -41.9322       -2.90781      0.9293404
     11079.0000         0.8127         0.6876        -999.25       -41.8999      -2.875507      0.9305367
     11079.5000         0.8522         0.7008        -999.25       -41.9976      -2.973209      0.9269181
     11080.0000         0.9044         0.7139        -999.25       -42.1757       -3.15131      0.9203219
     11080.5000         0.9333          0.727        -999.25       -42.3539       -3.32951      0.9137219
     11081.0000         0.9486         0.7401        -999.25        -42.532       -3.50761      0.9071255
     11081.5000         0.9639         0.7541        -999.25       -42.7102       -3.68581      0.9005256
     11082.0000         0.9792         0.7696        -999.25       -42.8986       -3.87421      0.8935478
     11082.5000         0.9946         0.7851        -999.25       -43.1018      -4.077408      0.8860219
     11083.0000         1.0101         0.8007        -999.25       -43.3047      -4.280308      0.8785071
     11083.5000         1.0255         0.8162        -999.25       -43.5077      -4.483311      0.8709885
     11084.0000         1.0409         0.8318        -999.25       -43.7109      -4.686508      0.8634627
     11084.5000         1.0548         0.8473        -999.25       -43.9138      -4.889408      0.8559479
     11085.0000         1.0689         0.8628        -999.25       -44.1168      -5.092407      0.8484294
     11085.5000         1.0829         0.8772        -999.25         -44.32      -5.295609      0.8409034
     11086.0000         1.0969         0.8908        -999.25       -44.5229      -5.498508      0.8333886
     11086.5000         1.1109         0.9044        -999.25       -44.7496      -5.725208      0.8249923
