#------------------------------------------------------------------------------
# Created by    : vladimir.rabinovich
# Created on    : 09/19/2023 17:22:41
#------------------------------------------------------------------------------
~Version Information Section
VERS.           2.0     :   CWLS log ASCII Standard - VERSION 2.0
WRAP.           NO      :   One line per depth step
~Well Information Section
#MNEM       .UNIT                                         VALUE :DESCRIPTION
#------------------------------------------------------------------------------
STRT        .FT                                            4470 :START DEPTH
STOP        .FT                                            9513 :STOP DEPTH
STEP        .FT                                             0.5 :STEP      
NULL        .                                           -999.25 :NULL      
COMP        .                 FAIRWAYS SPEC SALES & SERVICE INC :COMPANY   
WELL        .                               OCS G11315 ST00BP00 :WELL      
FLD         .                              GALVESTON BLOCK 0319 :FIELD     
LOC         .                                                   :LOCATION  
CNTY        .                             GALVESTON LARGE BLOCK :LOCATION  
STAT        .                                             TEXAS :STATE     
CTRY        .                                     UNITED STATES :COUNTRY   
SRVC        .                                                   :SERVICE COMPANY
DATE        .                             9/13/2023 11:19:34 AM :LOG DATE  
API         .                                    42706402650000 :API NUMBER
UWI         .                                    42706402650000 :UNIQUE WELL ID
XCOORD      .                                  1065572.18570413 :SURFACE X 
YCOORD      .                                  10465680.9820926 :SURFACE Y 
LAT         .                                         28.826802 :LATITUDE  
LON         .                                        -94.795723 :LONGITUDE 
ELEV        .FT                                              86 :ELEVATION VALUE
ELEV_TYPE   .                                                KB :ELEVATION REFERENCE TYPE
~Curve Information Section
#MNEM       .UNIT                                      API CODE :CURVE DESCRIPTION
#------------------------------------------------------------------------------
DEPT        .FT                                                 :DEPTH     
DCAL        .IN                                                 :          
DPHI        .%                                                  :          
DRHO        .G/C3                                               :          
GR          .GAPI                                               :          
GR_NORM     .GAPI                                               :GammaRay Normalized
ILD         .OHMM                                               :          
ILM         .OHMM                                               :          
NPHI        .%                                                  :          
SFL         .OHMM                                               :          
SP          .MV                                                 :          
SP_NORM     .MV                                                 :SP Normalized
VSH_GR      .V/V                                                :Volume of Shale from GR
VSH_SP      .V/V                                                :Volume of Shale from SP
~A        DEPTH           DCAL           DPHI           DRHO             GR        GR_NORM            ILD            ILM           NPHI            SFL             SP        SP_NORM         VSH_GR         VSH_SP
# ...
      6541.0000         3.5588        15.7241        -0.0037        100.093       87.32608         0.9561         0.9391        40.6543         0.8515       -38.9417      -1.643471              1      0.9747158
      6541.5000         3.4868        15.6896        -0.0024       100.7963       88.00312         0.9508         0.9315        36.9003         0.8627       -38.6741      -1.376492              1      0.9788232
      6542.0000         3.3767        15.6201        -0.0009       100.6731       87.88672         0.9455         0.9241        35.8708         0.8759       -38.3305      -1.033512              1      0.9840998
      6542.5000         3.2472        15.5127         0.0005       101.1423       88.33902         0.9394         0.9168        37.7744         0.8741       -37.8781     -0.5817337              1      0.9910502
      6543.0000          3.168         15.692         0.0016        102.902        90.0302         0.9332         0.9096         39.908         0.8615       -37.5773     -0.2815552              1      0.9956684
      6543.5000         3.1092        15.9482         0.0022        106.334       93.32678         0.9224         0.9043        42.2493         0.8306       -37.3812    -0.08607483              1      0.9986758
      6544.0000         3.0978        16.3226        -0.0001       109.9153       96.76669         0.8958         0.8991        42.6951           0.81       -37.2293     0.06520462              1              1
      6544.5000         3.1533        16.7663        -0.0026       110.1027       96.94847           0.88         0.8939        41.6323         0.7958       -37.1777      0.1161842              1              1
      6545.0000         3.2373        17.2073        -0.0056       108.1107       95.03802         0.8727         0.8888        40.6773         0.8151       -37.1261      0.1671638              1              1
      6545.5000         3.3387        17.6265        -0.0085       108.6824       95.58872         0.8698         0.8837        40.6155         0.8399       -37.0184      0.2742462              1              1
      6546.0000         3.4662        17.9651        -0.0104       110.4921       97.32791         0.8686         0.8786        41.8258         0.8481       -36.8845      0.4075241              1              1
      6546.5000         3.4746        18.0733        -0.0123       112.2299       98.99805         0.8675         0.8749        43.2662         0.8425       -36.7705      0.5209007              1              1
      6547.0000         3.3441        18.2037        -0.0129       112.0623       98.83904         0.8664          0.874        44.3647         0.8283       -36.7108      0.5799828              1              1
      6547.5000         3.1066        18.3459        -0.0131        112.416       99.18045         0.8653         0.8731        44.2568         0.8141       -36.6523      0.6378593              1              1
      6548.0000         2.8821        18.4025        -0.0122       113.1954       99.93054         0.8643         0.8722        44.7073         0.8039       -36.6485      0.6410408              1              1
      6548.5000         2.7795        18.3112        -0.0109       115.8065       102.4391         0.8619         0.8703        45.6995         0.7983       -36.6447      0.6442223              1              1
      6549.0000         2.8495        18.2209        -0.0091       112.1632       98.94337         0.8577         0.8683        46.2343          0.805       -36.6385      0.6497993              1              1
      6549.5000         2.9112        18.1435        -0.0073       108.3352       95.27036         0.8534         0.8663        45.8121         0.8249       -36.5914      0.6949768              1              1
      6550.0000         2.9441        18.0893        -0.0066       106.5941       95.11197         0.8451         0.8594        44.8921         0.8422       -36.5443      0.7396851              1              1
      6550.5000         2.8864        18.4058        -0.0056       106.7933       95.32652          0.835         0.8495         44.261          0.835       -36.5146      0.7669983              1              1
      6551.0000         2.8211        18.7218        -0.0044       110.5052       99.28796         0.8185         0.8397        44.2104         0.8104       -36.5408      0.7384071              1              1
      6551.5000         2.7558        19.0323        -0.0036       112.7059       101.6375          0.798         0.8309        44.1301         0.7861        -36.567       0.709816              1              1
      6552.0000         2.7275        19.2957        -0.0028       112.0603       100.9509         0.7905         0.8224        44.1799          0.777       -36.6281      0.6463242              1              1
      6552.5000         2.7086        19.5594         -0.002       109.3173       98.02709         0.7855          0.814        45.7328         0.7528       -36.6963       0.575737              1              1
      6553.0000         2.7319        19.6517        -0.0012       105.0087       93.43333         0.7842         0.8089         47.343         0.7283       -36.8944      0.3752441              1              1
      6553.5000         2.7819        19.5976        -0.0005        100.922       89.07626         0.7829         0.8039        47.8141         0.7015        -37.116      0.1512566              1              1
      6554.0000         2.8735        19.4107         0.0003        96.3124       84.16142         0.7761         0.7996        45.6408         0.7202       -37.5336     -0.2687302              1      0.9958657
      6554.5000         3.0637        20.4822              0        92.8354       80.45471         0.7685         0.7989         40.809         0.8154       -38.5734      -1.310921              1       0.979832
      6555.0000         3.3179        22.0368        -0.0003        90.6813       78.15907         0.7593         0.7988        38.4097          0.874       -43.2138      -5.953709      0.9608313      0.9084045
      6555.5000         3.4226        21.3753        -0.0012        90.0609       77.49939         0.7496          0.806         38.593         0.8687       -44.9549      -7.697201      0.9467955      0.8815815
      6556.0000         3.2816        19.7589        -0.0038        90.0701       77.51128         0.7394         0.8129        38.8967         0.8223       -41.2155       -3.96019      0.9470486       0.939074
      6556.5000         3.1232        18.9799        -0.0056        87.4076       74.67336          0.729         0.8185        36.9479         0.8613       -40.0049      -2.751984      0.8866673      0.9576618
      6557.0000         3.1434        20.0967        -0.0069        80.3507       67.14807         0.7189         0.8117        35.1126         0.9195       -45.9148      -8.664268      0.7265547      0.8667036
      6557.5000         3.8509        21.1342        -0.0079        76.0316       62.54311         0.7095          0.802         33.907         0.9497       -54.0256      -16.77746      0.6285767      0.7418852
      6558.0000         4.8276        21.0406        -0.0087        73.4233         59.763         0.6998         0.7831        33.3118          0.927       -58.9918      -21.74605      0.5694255      0.6654454
      6558.5000          4.803        20.5413        -0.0094        74.1024       60.48945         0.6888         0.7606        33.4228         0.9206       -62.4191      -25.17574       0.584882      0.6126809
      6559.0000         3.8901        20.5695          -0.01        74.6251       61.04907         0.6777         0.7418        34.2164         0.9389       -63.1662      -25.92523      0.5967888      0.6011503
      6559.5000         3.0947        21.0612        -0.0105        74.7108       61.14256         0.6663         0.7378         35.061         0.9723       -63.4508      -26.21222      0.5987779      0.5967351
