#------------------------------------------------------------------------------
# Created by    : vladimir.rabinovich
# Created on    : 09/19/2023 17:22:17
#------------------------------------------------------------------------------
~Version Information Section
VERS.           2.0     :   CWLS log ASCII Standard - VERSION 2.0
WRAP.           NO      :   One line per depth step
~Well Information Section
#MNEM       .UNIT                                         VALUE :DESCRIPTION
#------------------------------------------------------------------------------
STRT        .FT                                            2222 :START DEPTH
STOP        .FT                                            8603 :STOP DEPTH
STEP        .FT                                             0.5 :STEP      
NULL        .                                           -999.25 :NULL      
COMP        .                                    HRUBETZ OIL CO :COMPANY   
WELL        .                                     ST TR 00028-L :WELL      
FLD         .                                           WILDCAT :FIELD     
LOC         .                                                   :LOCATION  
CNTY        .                           HIGH ISLAND LARGE BLOCK :LOCATION  
STAT        .                                             TEXAS :STATE     
CTRY        .                                     UNITED STATES :COUNTRY   
SRVC        .                                                   :SERVICE COMPANY
DATE        .                             9/13/2023 11:19:15 AM :LOG DATE  
API         .                                    42708303040000 :API NUMBER
UWI         .                                    42708303040000 :UNIQUE WELL ID
XCOORD      .                                  1211101.11829014 :SURFACE X 
YCOORD      .                                  10709910.5532953 :SURFACE Y 
LAT         .                                         29.503814 :LATITUDE  
LON         .                                       -94.3499952 :LONGITUDE 
ELEV        .FT                                              60 :ELEVATION VALUE
ELEV_TYPE   .                                                KB :ELEVATION REFERENCE TYPE
~Curve Information Section
#MNEM       .UNIT                                      API CODE :CURVE DESCRIPTION
#------------------------------------------------------------------------------
DEPT        .FT                                                 :DEPTH     
CALI        .IN                                                 :          
GR          .GAPI                                               :          
GR_NORM     .GAPI                                               :GammaRay Normalized
ILD         .OHMM                                               :          
ILM         .OHMM                                               :          
RHOB        .G/C3                                               :          
SFL         .OHMM                                               :          
SP          .MV                                                 :          
SP_NORM     .MV                                                 :SP Normalized
VSH_GR      .V/V                                                :Volume of Shale from GR
VSH_SP      .V/V                                                :Volume of Shale from SP
~A        DEPTH           CALI             GR        GR_NORM            ILD            ILM           RHOB            SFL             SP        SP_NORM         VSH_GR         VSH_SP
# ...
      5619.5000        16.2217        37.4566       36.66077         0.4789         0.6456         2.0568         1.7626      -155.7502       -83.7671     0.07788873     0.01467741
      5620.0000        16.6883        37.2986       36.42327         0.4642         0.6699         2.0126         1.6976      -155.9519       -83.9652     0.07283548     0.01231902
      5620.5000        17.0022        37.1027       36.12874         0.4527         0.6873          1.998         1.6351      -156.2998       -84.3095      0.0665689    0.008220218
      5621.0000        16.8871        36.7385       35.58091         0.4575         0.6936         2.0092         1.6067      -156.4358       -84.4419     0.05491297    0.006644022
      5621.5000        16.7032        36.0655       34.56836         0.4623         0.6999         2.0263         1.5959      -156.4131       -84.4156     0.03336935    0.006957191
      5622.0000        15.9956        35.7916       34.15645         0.4794         0.6979         2.0623         1.6118      -155.1599      -83.15879     0.02460528     0.02191916
      5622.5000        15.5652        36.0667       34.57075         0.5063         0.6829         2.1039         1.7339      -152.7949       -80.7902     0.03342024     0.05011668
      5623.0000        15.4421        36.6053       35.38161         0.5347         0.6683         2.1421         1.9168      -150.2339      -78.22559     0.05067257     0.08064779
      5623.5000        15.4246        37.1671       36.22739          0.564         0.6397         2.1326         2.0495       -149.218      -77.20609      0.0686678      0.0927847
      5624.0000        15.4934        37.7296       37.07422          0.572         0.5981         2.1015         2.0274      -150.0544      -78.03888     0.08668558     0.08287048
      5624.5000        15.7408        37.9479       37.40305         0.5459         0.5591         2.0711         1.9315      -151.7158      -79.69669      0.0936819     0.06313469
      5625.0000        16.8734        37.9631       37.42622         0.5062         0.5308         2.0425           1.84      -153.3757      -81.35298     0.09417481     0.04341689
      5625.5000        17.2603        37.9784       37.44953         0.4642          0.504         2.0127         1.7548      -154.9456      -82.91928     0.09467088     0.02477046
      5626.0000        17.7332        37.9937       37.47284         0.4189         0.4786         1.9812         1.6984      -156.1401      -84.11018     0.09516679     0.01059305
      5626.5000        17.9712        37.7738       37.14219         0.3681         0.4585         1.9356         1.6437      -157.3335      -85.29997     0.08813168              0
      5627.0000        18.2675        37.5076       36.74185         0.3075         0.4398         1.9102         1.6352      -158.5281      -86.49098     0.07961387              0
      5627.5000        18.3803        37.2413       36.34138         0.2933         0.4254          1.913         1.6487      -159.1658      -87.12508     0.07109313              0
      5628.0000        18.4086        37.1055       36.13729         0.2989          0.415         1.9898          1.674      -159.4792      -87.43487     0.06675087              0
      5628.5000        18.4542        37.0065       35.98859         0.2987          0.407         2.0333         1.6996      -159.7207      -87.67277     0.06358694              0
      5629.0000        18.5581        36.9086       35.84153         0.2984         0.4031          2.062         1.7256      -159.6572      -87.60566     0.06045816              0
      5629.5000        18.6622        36.8381       35.73573         0.2982         0.3993         2.0668         1.7286      -159.5935      -87.53837     0.05820692              0
      5630.0000        19.0356        36.7677       35.63007          0.298         0.3974         2.0586          1.728      -159.5427      -87.48396     0.05595893              0
      5630.5000        19.3642        36.8148       35.70124         0.2984         0.3973         2.0504         1.7273      -159.5198      -87.45747     0.05747328              0
      5631.0000        19.6268        37.1268       36.17108         0.2998         0.3972         2.0423         1.7274      -159.4968      -87.43085     0.06746982              0
      5631.5000        19.6113        37.4391       36.64137         0.3012         0.3971          2.048         1.7286      -159.4741      -87.40456     0.07747585              0
      5632.0000        19.5848        37.5511       36.81021         0.3025         0.3957         2.0546         1.7297      -159.4512      -87.37806     0.08106832              0
      5632.5000        19.5078        37.5663       36.83339         0.3039         0.3939         2.0571         1.7247      -159.4282      -87.35146     0.08156139              0
      5633.0000        19.4308        37.5816        36.8567         0.3053         0.3922         2.0513         1.7182       -159.469      -87.38864     0.08205747              0
      5633.5000        19.4327        37.5968       36.87986         0.3043         0.3904         2.0281         1.7067      -159.6431      -87.55914     0.08255029              0
      5634.0000        19.5581        37.3574       36.51986         0.3028         0.3872         2.0201         1.6872      -159.8167      -87.72914      0.0748907              0
      5634.5000        19.6835        37.1073       36.14376         0.3013          0.383         2.0284         1.6678      -159.9905      -87.89934     0.06688844              0
      5635.0000        19.8076        36.8569       35.76721         0.2998         0.3788         2.0366         1.6516      -160.0581      -87.96335     0.05887677              0
      5635.5000        19.9277        36.6069       35.39125         0.2983         0.3747         2.0448         1.6367      -160.0894      -87.99104     0.05087767              0
      5636.0000        20.0477        36.2173       34.80521         0.2962          0.369         2.0522          1.622      -160.1208      -88.01884     0.03840873              0
      5636.5000        20.1679        35.7999       34.17732          0.294         0.3632         2.0532         1.6095      -160.1521      -88.04654     0.02504941              0
      5637.0000         20.288        35.4078       33.58751         0.2917         0.3579         2.0543         1.6011      -160.1719      -88.06274     0.01250028              0
      5637.5000        20.3759        35.0729        33.0838         0.2898         0.3545          2.053         1.5926      -160.1758      -88.06303    0.001782925              0
      5638.0000        20.4533        34.7377       32.57962         0.2886          0.351         2.0498         1.5842      -160.1794      -88.06303              0              0
      5638.5000        20.5306        34.5122       32.24054         0.2875         0.3526         2.0466         1.5901      -160.1833      -88.06333              0              0
      5639.0000        20.6079        34.3522       32.00003         0.2864         0.3565         2.0436         1.6017      -160.1882      -88.06463              0              0
      5639.5000        20.6852        34.1924       31.75982         0.2857         0.3632          2.044         1.6134      -160.2483      -88.12113              0              0
      5640.0000        20.7426        34.5407       32.28429         0.2858         0.3701         2.0444         1.6251      -160.3081      -88.17733              0              0
      5640.5000        20.7914        35.3932       33.56757          0.286         0.3748         2.0454         1.6329      -160.3679      -88.23353     0.01207595              0
      5641.0000        20.8401        36.2457       34.85084         0.2862          0.374         2.0487         1.6326      -160.4277      -88.28973     0.03937961              0
      5641.5000        20.8889        36.7034       35.53996         0.2864         0.3733          2.052         1.6322      -160.5229      -88.38132      0.0540416              0
