#------------------------------------------------------------------------------
# Created by    : vladimir.rabinovich
# Created on    : 09/19/2023 17:20:25
#------------------------------------------------------------------------------
~Version Information Section
VERS.           2.0     :   CWLS log ASCII Standard - VERSION 2.0
WRAP.           NO      :   One line per depth step
~Well Information Section
#MNEM       .UNIT                                         VALUE :DESCRIPTION
#------------------------------------------------------------------------------
STRT        .FT                                             293 :START DEPTH
STOP        .FT                                            8505 :STOP DEPTH
STEP        .FT                                             0.5 :STEP      
NULL        .                                           -999.25 :NULL      
COMP        .                                        TEXACO USA :COMPANY   
WELL        .                                     ST TR 00058-L :WELL      
FLD         .                                           WILDCAT :FIELD     
LOC         .                                                   :LOCATION  
CNTY        .                           HIGH ISLAND LARGE BLOCK :LOCATION  
STAT        .                                             TEXAS :STATE     
CTRY        .                                     UNITED STATES :COUNTRY   
SRVC        .                                                   :SERVICE COMPANY
DATE        .                             9/13/2023 11:19:15 AM :LOG DATE  
API         .                                    42708000230000 :API NUMBER
UWI         .                                    42708000230000 :UNIQUE WELL ID
XCOORD      .                                  1179226.38702832 :SURFACE X 
YCOORD      .                                  10699123.4735792 :SURFACE Y 
LAT         .                                        29.4730929 :LATITUDE  
LON         .                                        -94.449778 :LONGITUDE 
ELEV        .FT                                              80 :ELEVATION VALUE
ELEV_TYPE   .                                                KB :ELEVATION REFERENCE TYPE
~Curve Information Section
#MNEM       .UNIT                                      API CODE :CURVE DESCRIPTION
#------------------------------------------------------------------------------
DEPT        .FT                                                 :DEPTH     
ASN         .OHMM                                               :          
CILD        .MMHO                                               :          
ILD         .OHMM                                               :          
LAT         .OHMM                                               :          
LN          .OHMM                                               :          
SP          .MV                                                 :          
SP_NORM     .MV                                                 :SP Normalized
VSH_SP      .V/V                                                :Volume of Shale from SP
~A        DEPTH            ASN           CILD            ILD            LAT             LN             SP        SP_NORM         VSH_SP
# ...
      1915.5000         0.4813        -999.25        -999.25         0.3653         0.4219       -71.4752      -39.86056     0.07848606
      1916.0000         0.4647        -999.25        -999.25         0.3574         0.4148       -69.3333      -37.70777      0.1323057
      1916.5000         0.4525        -999.25        -999.25         0.3503         0.4076       -67.1912      -35.55478      0.1861304
      1917.0000         0.4468        -999.25        -999.25         0.3432         0.4004       -66.2596      -34.61229      0.2096928
      1917.5000          0.441        -999.25        -999.25         0.3361         0.3932       -65.3712      -33.71301      0.2321749
      1918.0000         0.4496        -999.25        -999.25          0.329         0.3861       -64.7963      -33.12722      0.2468195
      1918.5000         0.4583        -999.25        -999.25         0.3219         0.3814        -64.465      -32.78502      0.2553744
      1919.0000         0.4711        -999.25        -999.25         0.3149         0.3774       -64.1335      -32.44263      0.2639341
      1919.5000         0.4891        -999.25        -999.25         0.3078         0.3734       -63.5007      -31.79895      0.2800263
      1920.0000         0.5066        -999.25        -999.25         0.3032         0.3694       -62.6225      -30.90986      0.3022535
      1920.5000         0.4717        -999.25        -999.25         0.3035         0.3653       -61.7446      -30.02107      0.3244733
      1921.0000         0.4359        -999.25        -999.25         0.3037         0.3613       -60.7625      -29.02808       0.349298
      1921.5000         0.4141        -999.25        -999.25          0.304         0.3573       -59.1734      -27.42809      0.3892977
      1922.0000         0.3941        -999.25        -999.25         0.3253         0.3532       -57.5837       -25.8275      0.4293125
      1922.5000         0.3792        -999.25        -999.25          0.367         0.3503       -55.3845      -23.61741      0.4845647
      1923.0000         0.3758        -999.25        -999.25         0.4088         0.3494       -52.6874      -20.90942      0.5522644
      1923.5000         0.3843        -999.25        -999.25         0.4351         0.3485       -49.9915      -18.20263      0.6199342
      1924.0000         0.4423        -999.25        -999.25         0.4285         0.3476       -47.4333      -15.63354      0.6841614
      1924.5000         0.5118        -999.25        -999.25         0.4219         0.3467        -54.091      -22.28035      0.5179912
      1925.0000         0.5697        -999.25        -999.25         0.4112         0.3458       -61.0375      -29.21596      0.3446009
      1925.5000         0.6471        -999.25        -999.25         0.3903         0.3449       -65.4393      -33.60688      0.2348281
      1926.0000         0.6958        -999.25        -999.25         0.3695         0.3446       -69.7588      -37.91548       0.127113
      1926.5000         0.7241        -999.25        -999.25         0.3486         0.3519       -73.8472        -41.993     0.02517509
      1927.0000         0.7433        -999.25        -999.25         0.3277         0.3591       -77.4955      -45.63041              0
      1927.5000         0.7422        -999.25        -999.25         0.3069         0.3663        -80.087      -48.21101              0
      1928.0000         0.7673        -999.25        -999.25          0.286         0.3735         -79.59      -47.70313              0
      1928.5000         0.8407        -999.25        -999.25          0.274         0.3807        -79.093      -47.19524              0
      1929.0000          0.922        -999.25        -999.25         0.2764         0.3859       -78.5959      -46.68725              0
      1929.5000         1.0066        -999.25        -999.25         0.2788         0.3844       -77.7111      -45.79156              0
      1930.0000         1.0543        -999.25        -999.25         0.2867         0.3829       -75.2085      -43.27808              0
      1930.5000         0.9933        -999.25        -999.25         0.3254         0.3814       -72.5292      -40.58788     0.06030292
      1931.0000         0.8417        -999.25        -999.25          0.364         0.3799       -69.1532      -37.20099      0.1449753
      1931.5000         0.6083        -999.25        -999.25         0.4027         0.3771       -65.7771        -33.814      0.2296499
      1932.0000         0.5186        -999.25        -999.25         0.4389         0.3741       -62.4011      -30.42711      0.3143221
      1932.5000         0.4732        -999.25        -999.25         0.4629          0.371       -29.3729       2.611975              1
      1933.0000         0.5157        -999.25        -999.25         0.4868         0.3679       -29.1348       2.860964              1
      1933.5000         0.5565        -999.25        -999.25         0.5108          0.375       -30.0952       1.911453              1
      1934.0000         0.5678        -999.25        -999.25         0.5347         0.3998       -31.1987      0.8188438              1
      1934.5000         0.5747        -999.25        -999.25         0.5358         0.4247       -32.4233     -0.3948708              1
      1935.0000          0.587        -999.25        -999.25         0.5295         0.4495       -33.6485      -1.609177              1
      1935.5000         0.5995        -999.25        -999.25         0.5232         0.4727       -34.8737       -2.82349              1
      1936.0000         0.6172        -999.25        -999.25          0.517         0.4869       -36.0989        -4.0378       0.974055
      1936.5000         0.6268        -999.25        -999.25         0.5182          0.501        -37.255      -5.183014      0.9454247
      1937.0000         0.6299        -999.25        -999.25         0.5266         0.5152       -37.6783      -5.595421      0.9351145
      1937.5000         0.6318        -999.25        -999.25          0.535         0.5294       -38.1014      -6.007629      0.9248093
      1938.0000         0.6332        -999.25        -999.25         0.5443         0.5435       -38.4577      -6.353043      0.9161739
      1938.5000         0.6373        -999.25        -999.25         0.5628         0.5444        -37.866      -5.750454      0.9312387
      1939.0000         0.6424        -999.25        -999.25         0.5814         0.5404        -37.274      -5.147564      0.9463109
      1939.5000         0.6495        -999.25        -999.25         0.5999         0.5364       -36.6823      -4.544975      0.9613756
      1940.0000         0.6554        -999.25        -999.25         0.6116         0.5271       -36.0904      -3.942188      0.9764453
      1940.5000         0.6407        -999.25        -999.25         0.6056         0.5052       -35.4838      -3.324696      0.9918826
      1941.0000          0.628        -999.25        -999.25         0.5996         0.4834       -34.8326      -2.662605              1
      1941.5000         0.6205        -999.25        -999.25         0.5937         0.4615       -34.1814      -2.000519              1
      1942.0000          0.613        -999.25        -999.25         0.5877         0.4396       -34.9221      -2.730328              1
      1942.5000         0.6021        -999.25        -999.25         0.5721         0.4221       -35.9133       -3.71064       0.982234
      1943.0000         0.5872        -999.25        -999.25         0.5546         0.4189       -36.9045      -4.690948      0.9577263
      1943.5000         0.5647        -999.25        -999.25         0.5371         0.4157       -37.8961      -5.671661      0.9332085
      1944.0000         0.5451        -999.25        -999.25         0.5195         0.4125       -38.8873       -6.65197      0.9087008
      1944.5000         0.5312        -999.25        -999.25          0.502         0.4092       -41.0646      -8.818382      0.8545405
