#------------------------------------------------------------------------------
# Created by    : vladimir.rabinovich
# Created on    : 09/19/2023 17:20:01
#------------------------------------------------------------------------------
~Version Information Section
VERS.           2.0     :   CWLS log ASCII Standard - VERSION 2.0
WRAP.           NO      :   One line per depth step
~Well Information Section
#MNEM       .UNIT                                         VALUE :DESCRIPTION
#------------------------------------------------------------------------------
STRT        .FT                                            3470 :START DEPTH
STOP        .FT                                           12708 :STOP DEPTH
STEP        .FT                                             0.5 :STEP      
NULL        .                                           -999.25 :NULL      
COMP        .                                     INEXCO OIL CO :COMPANY   
WELL        .                                     ST TR 00794-L :WELL      
FLD         .                                       BLOCK 794-L :FIELD     
LOC         .                                                   :LOCATION  
CNTY        .                        MUSTANG ISLAND LARGE BLOCK :LOCATION  
STAT        .                                             TEXAS :STATE     
CTRY        .                                     UNITED STATES :COUNTRY   
SRVC        .                                                   :SERVICE COMPANY
DATE        .                             9/13/2023 11:18:55 AM :LOG DATE  
API         .                                    42702301710000 :API NUMBER
UWI         .                                    42702301710000 :UNIQUE WELL ID
XCOORD      .                                  319607.894357718 :SURFACE X 
YCOORD      .                                   10038241.944616 :SURFACE Y 
LAT         .                                        27.6026524 :LATITUDE  
LON         .                                       -97.0775955 :LONGITUDE 
ELEV        .FT                                               0 :ELEVATION VALUE
ELEV_TYPE   .                                                GL :ELEVATION REFERENCE TYPE
~Curve Information Section
#MNEM       .UNIT                                      API CODE :CURVE DESCRIPTION
#------------------------------------------------------------------------------
DEPT        .FT                                                 :DEPTH     
ASFL        .OHMM                                               :          
CILD        .MMHO                                               :          
DT          .US/F                                               :          
GR          .GAPI                                               :          
GR_NORM     .GAPI                                               :GammaRay Normalized
ILD         .OHMM                                               :          
ILM         .OHMM                                               :          
SP          .MV                                                 :          
SP_NORM     .MV                                                 :SP Normalized
VSH_GR      .V/V                                                :Volume of Shale from GR
VSH_SP      .V/V                                                :Volume of Shale from SP
~A        DEPTH           ASFL           CILD             DT             GR        GR_NORM            ILD            ILM             SP        SP_NORM         VSH_GR         VSH_SP
# ...
     11480.0000         1.2774       836.3115       104.8462        55.8727       65.18989         1.0578         1.1586       -55.7972      -10.18317      0.6848912      0.6833391
     11480.5000         1.3537       885.1426       105.1466        58.1027       69.08982         1.0526         1.1039        -54.554      -8.939968      0.7678685       0.726208
     11481.0000         1.4894       950.1846       105.7831        60.1054       72.59311         1.0427         1.0257        -53.321      -7.706966      0.8424066      0.7687253
     11481.5000         0.9522        1000.18       107.0842        58.9686        70.6173         1.0327          0.932       -53.0139      -7.399868      0.8003681      0.7793149
     11482.0000         0.8397       1039.691       110.3043        57.4352       67.94932         1.0227         0.8336       -52.7067      -7.092667      0.7436025      0.7899081
     11482.5000         0.8792       1061.631       113.7797        55.5922       64.74104         1.0128         0.8236       -52.5567      -6.942669      0.6753412      0.7950804
     11483.0000         0.9186       1070.955       113.7091        52.8687       59.99605         1.0028         0.8386       -52.5662      -6.952168       0.574384      0.7947528
     11483.5000         0.9579       1072.479       112.1866        51.8239       58.18079         0.9915         0.8597       -52.5757      -6.961666      0.5357614      0.7944253
     11484.0000         1.0004       1073.998       110.3748        53.6862       61.43905         0.9795         0.8829       -52.5851      -6.971066      0.6050862      0.7941012
     11484.5000         1.0435       1075.518       110.1644        55.4277        64.4865         0.9675         0.9036       -52.5946      -6.980568      0.6699255      0.7937735
     11485.0000         1.0931       1078.303       110.5822        57.1183       67.44508         0.9555         0.9245       -52.6041      -6.990067      0.7328741       0.793446
     11485.5000         1.1471       1082.496        110.853        58.7461       70.29407         0.9435         0.9423       -52.6136      -6.999569      0.7934908      0.7931183
     11486.0000         1.1893       1086.689       110.7506        60.2941       73.00381         0.9314         0.9442        -52.623      -7.008968       0.851145      0.7927942
     11486.5000         1.2344       1091.725       109.9298        56.9031       67.09392         0.9221         0.9333       -52.6326      -7.018566      0.7254025      0.7924632
     11487.0000         1.3068       1102.646       108.6042        50.7016        56.2791         0.9129         0.9097       -52.1982      -6.584167      0.4953001      0.8074425
     11487.5000         1.3645       1113.566       107.7653        52.9122       60.14522         0.9038         0.8818       -51.7568      -6.142769      0.5775578      0.8226631
     11488.0000         1.1222       1126.115       108.4657        55.1277       64.01988         0.8946         0.8536        -51.316      -5.701969      0.6599975      0.8378631
     11488.5000         0.8845         1139.9       112.4932        57.3674       67.93678          0.901         0.8245       -50.3648      -4.750767      0.7433358      0.8706632
     11489.0000          0.932       1145.021       114.9786        60.7488       73.84618         0.9119         0.8088        -50.822      -5.207966      0.8690675      0.8548977
     11489.5000         0.9796       1114.586       116.4272        56.7096       66.80505         0.9227         0.8023       -52.6432      -7.029167      0.7192563      0.7920977
     11490.0000         1.0428       1084.152       115.6718        53.1251       60.55745         0.9401         0.8096          -54.3      -8.685966      0.5863287      0.7349667
     11490.5000         1.1121       1052.117       113.8745        51.4731       57.68249          0.966         0.8247       -55.2892      -9.675167      0.5251594      0.7008563
     11491.0000         1.2318       1001.539       110.6448        50.6254       56.21122          0.992         0.8498       -56.2277      -10.61367      0.4938558      0.6684943
     11491.5000         1.1782       950.9609       108.6846        49.7789       54.74202         1.0179         0.8777       -57.1638      -11.54977      0.4625962       0.636215
     11492.0000         1.1273       883.0068        108.093        48.8246        53.0847         1.0206         0.8999       -58.3586      -12.74457      0.4273341      0.5950149
     11492.5000         1.0754        799.082       108.0161        47.7701       51.25251         1.0209         0.9295       -59.1785      -13.56447      0.3883514      0.5667425
     11493.0000         1.1275       810.9014       108.0323        46.7156       49.42032         1.0212         0.9721       -58.6633      -13.04927      0.3493686      0.5845081
     11493.5000         1.7725       822.7207       107.9015        44.1614       44.97083         1.0113         1.0657       -58.1481      -12.53407      0.2546984      0.6022735
     11494.0000         1.7536       834.5645       106.0093        40.2601       38.17035         0.9825         1.2172       -57.4564      -11.84237      0.1100073      0.6261252
     11494.5000         1.0131       848.9316       102.3273        44.4662       45.51905         0.9537         1.2894        -56.703      -11.08897      0.2663628      0.6521046
     11495.0000         0.9196       886.5986        98.2123        47.8524       51.43683          0.925         1.2621       -55.9496      -10.33557      0.3922729      0.6780839
     11495.5000          0.866       924.2646        96.5122        50.9821       56.90698         0.8993         1.1936       -55.1962      -9.582169      0.5086592      0.7040632
     11496.0000         0.8048       961.9316        97.7648        53.8217       61.87085         0.8759         1.0867       -54.4827      -8.868668      0.6142733      0.7286667
     11496.5000         0.7536         1012.8       103.9324           56.4       66.37865         0.8525         0.9483       -53.8199      -8.205868       0.710184      0.7515218
     11497.0000         0.7227        1068.91       109.0883         58.572       70.17741         0.8291         0.8054        -53.156      -7.541965      0.7910087       0.774415
     11497.5000         0.7308       1125.314       113.9718        60.9036       74.25468         0.8058         0.7541       -52.5078      -6.893768      0.8777592      0.7967666
     11498.0000         0.7616        1184.24       118.7434        62.5919       77.20927         0.7904          0.729       -51.9067      -6.292667      0.9406229      0.8174942
     11498.5000         0.7934       1242.973       119.6627        62.5917       77.21708         0.7807         0.7227       -51.3057      -5.691666      0.9407889      0.8382185
     11499.0000         0.8275       1299.861       118.0795        62.5915       77.22485          0.771         0.7308       -50.7059      -5.091866      0.9409543      0.8589012
     11499.5000         0.8667       1322.576       115.6401        62.5913       77.23265         0.7613         0.7428       -50.2421      -4.628067      0.9411202      0.8748943
     11500.0000         0.8899       1341.896        112.681        62.5912       77.24061         0.7516         0.7562        -49.811      -4.196968      0.9412895      0.8897597
     11500.5000         0.8834       1345.221       112.7648        63.4843        78.8074         0.7557         0.7591       -50.0534      -4.439365      0.9746256      0.8814012
     11501.0000         0.8686       1332.018       113.2198        64.6477        80.8459          0.762         0.7634       -50.3703      -4.756268              1      0.8704735
     11501.5000         0.8539       1314.641        113.645         65.811       82.88428         0.7683         0.7618        -50.695      -5.080967              1       0.859277
     11502.0000         0.8392        1297.07       112.8646        68.4547       87.50625         0.7745         0.7551        -50.916      -5.301968              1      0.8516563
