#------------------------------------------------------------------------------
# Created by    : vladimir.rabinovich
# Created on    : 09/19/2023 17:19:47
#------------------------------------------------------------------------------
~Version Information Section
VERS.           2.0     :   CWLS log ASCII Standard - VERSION 2.0
WRAP.           NO      :   One line per depth step
~Well Information Section
#MNEM       .UNIT                                         VALUE :DESCRIPTION
#------------------------------------------------------------------------------
STRT        .FT                                             380 :START DEPTH
STOP        .FT                                            8002 :STOP DEPTH
STEP        .FT                                             0.5 :STEP      
NULL        .                                           -999.25 :NULL      
COMP        .                               AMOCO PRODUCTION CO :COMPANY   
WELL        .                               OCS G07253 ST00BP00 :WELL      
FLD         .                                           WILDCAT :FIELD     
LOC         .                                                   :LOCATION  
CNTY        .                             GALVESTON LARGE BLOCK :LOCATION  
STAT        .                                             TEXAS :STATE     
CTRY        .                                     UNITED STATES :COUNTRY   
SRVC        .                                                   :SERVICE COMPANY
DATE        .                             9/13/2023 11:19:27 AM :LOG DATE  
API         .                                    42706401230000 :API NUMBER
UWI         .                                    42706401230000 :UNIQUE WELL ID
XCOORD      .                                  925879.569593371 :SURFACE X 
YCOORD      .                                  10358786.1357032 :SURFACE Y 
LAT         .                                         28.526408 :LATITUDE  
LON         .                                        -95.225632 :LONGITUDE 
ELEV        .FT                                             100 :ELEVATION VALUE
ELEV_TYPE   .                                                KB :ELEVATION REFERENCE TYPE
~Curve Information Section
#MNEM       .UNIT                                      API CODE :CURVE DESCRIPTION
#------------------------------------------------------------------------------
DEPT        .FT                                                 :DEPTH     
ASFL        .OHMM                                               :          
CILD        .MMHO                                               :          
GR          .GAPI                                               :          
GR_NORM     .GAPI                                               :GammaRay Normalized
ILD         .OHMM                                               :          
SP          .MV                                                 :          
SP_NORM     .MV                                                 :SP Normalized
VSH_GR      .V/V                                                :Volume of Shale from GR
VSH_SP      .V/V                                                :Volume of Shale from SP
~A        DEPTH           ASFL           CILD             GR        GR_NORM            ILD             SP        SP_NORM         VSH_GR         VSH_SP
# ...
      3957.5000         0.8629       1141.473         76.644       79.37393         0.8559       -51.0395      -2.311649      0.9866794      0.9923988
      3958.0000         0.8566       1149.965         75.974       78.70331         0.8468        -52.023      -3.298275      0.9724108      0.9683347
      3958.5000         0.8502       1158.449        75.3096       78.03828         0.8377       -53.0059      -4.284302      0.9582612      0.9442853
      3959.0000         0.8438       1166.941        77.9441       80.67215         0.8286        -52.741       -4.02253              1        0.95067
      3959.5000         0.8374       1175.432        81.2799       84.00732         0.8195       -52.4066      -3.691254              1      0.9587499
      3960.0000         0.8328       1183.918        83.2544       85.98119         0.8104       -51.9329       -3.22068              1      0.9702273
      3960.5000         0.8301       1192.408        78.8354       81.56157         0.8014       -51.4589      -2.749805              1       0.981712
      3961.0000         0.8372       1186.201        77.3209       80.04644         0.8261       -51.1043      -2.398331              1      0.9902846
      3961.5000          0.849       1172.512        75.5981       78.32301         0.8509       -51.5269      -2.824059      0.9643193       0.979901
      3962.0000         0.8609       1158.824        74.7994       77.52368         0.8756       -51.9495      -3.249783      0.9473124      0.9695175
      3962.5000         0.8728       1145.135        75.0118       77.73546         0.9003       -51.7421      -3.045509      0.9518183      0.9744998
      3963.0000         0.8846       1131.445        75.2242       77.94722         0.9222       -51.5068      -2.813335      0.9563238      0.9801626
      3963.5000          0.894       1117.758        75.2953        78.0177         0.9424       -51.2715      -2.581161      0.9578234      0.9858253
      3964.0000          0.902       1104.461        74.9203       77.64207         0.9625       -51.0361      -2.348885      0.9498314      0.9914906
      3964.5000         0.9059       1091.652         73.957       76.67814         0.9827       -50.8008      -2.116714      0.9293221      0.9971533
      3965.0000         0.8981       1078.844        72.8932       75.61372         1.0028       -50.5655      -1.884537      0.9066748              1
      3965.5000         0.8904       1065.311        71.8292       74.54909         1.0225       -50.2233      -1.545464      0.8840231              1
      3966.0000         0.8854       1062.596        70.7653       73.48455         1.0203       -49.7886      -1.113892      0.8613734              1
      3966.5000         0.8807       1073.678        73.0726       75.79123         1.0148       -49.9026      -1.231014      0.9104517              1
      3967.0000         0.8761       1084.758        75.3501        78.0681          0.998       -50.5193      -1.850842      0.9588957              1
      3967.5000         0.8714       1095.732        77.6288       80.34617         0.9813       -51.1361      -2.470768              1      0.9885179
      3968.0000         0.8668       1106.701        78.6621       81.37885         0.9645       -51.7531      -3.090897              1      0.9733928
      3968.5000         0.8621        1117.67          77.64       80.35612         0.9478       -52.3699      -3.710819              1      0.9582727
      3969.0000         0.8585       1128.639        77.0697       79.78519         0.9311       -52.8522      -4.196247      0.9954295       0.946433
      3969.5000         0.8558       1139.607        78.0227       80.73756         0.9152       -53.2997      -4.646873              1      0.9354421
      3970.0000         0.8531       1153.146        80.3911       83.10533         0.9018       -53.7401      -5.090397              1      0.9246244
      3970.5000         0.8505        1169.18        80.0046        82.7182         0.8884       -53.9129      -5.266323              1      0.9203336
      3971.0000         0.8386       1185.229        78.6671       81.38007         0.8751       -54.0857      -5.442249              1      0.9160427
      3971.5000         0.8262       1202.486         77.089       79.80135         0.8617       -54.2604      -5.620075      0.9957733      0.9117055
      3972.0000         0.8138       1222.301        75.4523       78.16402         0.8483       -54.4416      -5.804401      0.9609365      0.9072097
      3972.5000         0.8017       1242.117        73.8156       76.52669         0.8349       -54.3173      -5.683228      0.9260997      0.9101652
      3973.0000         0.7895       1256.492        72.1788       74.88927         0.8272       -53.3387      -4.707752       0.891261      0.9339573
      3973.5000         0.7864        1260.77        71.3257       74.03553         0.8219       -52.4818      -3.853981      0.8730964      0.9547809
      3974.0000         0.7833       1265.045        72.0754       74.78461         0.8166       -51.6247      -3.000004      0.8890342      0.9756097
      3974.5000          0.783       1269.322        73.9751       76.68368         0.8112       -50.7684      -2.146828        0.92944      0.9964188
      3975.0000         0.7868         1273.6        75.6836       78.39155         0.8059       -50.3386      -1.720158      0.9657776              1
      3975.5000         0.7907       1277.467        75.1434       77.85072         0.8006       -49.9185      -1.303181      0.9542707              1
      3976.0000         0.7946       1279.336        73.8741        76.5808         0.7953       -49.4984     -0.8862114       0.927251              1
      3976.5000         0.7984       1281.201        72.5167       75.22276           0.79       -48.8761     -0.2670326      0.8983567              1
      3977.0000         0.7933        1283.07        71.1605       73.86594         0.7847       -49.1871     -0.5811615       0.869488              1
      3977.5000         0.7837       1284.938         69.803       72.50781         0.7782       -49.5539      -0.951088      0.8405917              1
      3978.0000         0.7741       1302.375         68.458       71.16218         0.7713        -49.921      -1.321316      0.8119612              1
      3978.5000         0.7645       1320.031        67.1191       69.82265         0.7644       -50.2881       -1.69154      0.7834607              1
      3979.0000         0.7549       1337.689        65.7816       68.48453         0.7575       -50.6552      -2.061764      0.7549899      0.9984936
      3979.5000         0.7453       1355.295        64.9801        67.6824         0.7505       -51.0223      -2.431992      0.7379233      0.9894636
      3980.0000         0.7364       1369.732        67.4882       70.18987         0.7444       -51.5562      -2.969013      0.7912737      0.9763655
      3980.5000          0.731       1383.521        71.1455       73.84654         0.7389       -52.3297      -3.745644      0.8690754      0.9574233
      3981.0000         0.7409       1375.492        74.6234       77.32381         0.7333       -53.1025      -4.521568      0.9430597      0.9384983
      3981.5000         0.7508       1360.637        72.5031       75.20288         0.7278       -53.4068      -4.828995      0.8979337      0.9310001
      3982.0000         0.7606       1336.703        70.3826       73.08176         0.7435       -53.1782      -4.603519      0.8528033      0.9364995
      3982.5000         0.7705        1312.77        68.4392       71.13773         0.7596       -52.9496      -4.378048       0.811441      0.9419988
      3983.0000         0.7804       1288.848        66.9957        69.6936         0.7758       -52.6978      -4.129372      0.7807148      0.9480641
      3983.5000         0.7894       1264.914        66.2965       68.99377         0.7919       -52.4421      -3.876797       0.765825      0.9542245
