#------------------------------------------------------------------------------
# Created by    : vladimir.rabinovich
# Created on    : 09/19/2023 17:22:16
#------------------------------------------------------------------------------
~Version Information Section
VERS.           2.0     :   CWLS log ASCII Standard - VERSION 2.0
WRAP.           NO      :   One line per depth step
~Well Information Section
#MNEM       .UNIT                                         VALUE :DESCRIPTION
#------------------------------------------------------------------------------
STRT        .FT                                              10 :START DEPTH
STOP        .FT                                            7932 :STOP DEPTH
STEP        .FT                                             0.5 :STEP      
NULL        .                                           -999.25 :NULL      
COMP        .                                       ALLIED CORP :COMPANY   
WELL        .                               OCS G04069 ST00BP00 :WELL      
FLD         .                                           WILDCAT :FIELD     
LOC         .                                                   :LOCATION  
CNTY        .                             GALVESTON LARGE BLOCK :LOCATION  
STAT        .                                             TEXAS :STATE     
CTRY        .                                     UNITED STATES :COUNTRY   
SRVC        .                                                   :SERVICE COMPANY
DATE        .                             9/13/2023 11:18:53 AM :LOG DATE  
API         .                                    42706400790000 :API NUMBER
UWI         .                                    42706400790000 :UNIQUE WELL ID
XCOORD      .                                  993545.470392299 :SURFACE X 
YCOORD      .                                  10396443.6120929 :SURFACE Y 
LAT         .                                         28.633244 :LATITUDE  
LON         .                                        -95.016955 :LONGITUDE 
ELEV        .FT                                              82 :ELEVATION VALUE
ELEV_TYPE   .                                                KB :ELEVATION REFERENCE TYPE
~Curve Information Section
#MNEM       .UNIT                                      API CODE :CURVE DESCRIPTION
#------------------------------------------------------------------------------
DEPT        .FT                                                 :DEPTH     
CALI        .IN                                                 :          
CILD        .MMHO                                               :          
DPHI        .B                                                  :          
DRHO        .G/C3                                               :          
DT          .US/F                                               :          
GR          .GAPI                                               :          
GR_1        .GAPI                                               :          
GR_NORM     .GAPI                                               :GammaRay Normalized
ILD         .OHMM                                               :          
ILM         .OHMM                                               :          
NPHI        .%                                                  :          
SFL         .OHMM                                               :          
SP          .MV                                                 :          
SP_NORM     .MV                                                 :SP Normalized
VSH_GR      .V/V                                                :Volume of Shale from GR
VSH_SP      .V/V                                                :Volume of Shale from SP
~A        DEPTH           CALI           CILD           DPHI           DRHO             DT             GR           GR_1        GR_NORM            ILD            ILM           NPHI            SFL             SP        SP_NORM         VSH_GR         VSH_SP
# ...
      2858.0000        -999.25       1150.059        -999.25        -999.25       150.5405        82.6195        -999.25       88.75312         0.8112         1.0018        -999.25         1.3291        -79.538      0.7490005              1              1
      2858.5000        -999.25       1144.201        -999.25        -999.25       149.8008        81.2556        -999.25       87.06918         0.8145         0.9995        -999.25         1.3393       -78.8331       1.434135              1              1
      2859.0000        -999.25       1136.465        -999.25        -999.25       149.7246        77.6942        -999.25       82.63836         0.8184         1.0038        -999.25         1.3484       -78.3518       1.895668              1              1
      2859.5000        -999.25       1127.852        -999.25        -999.25       149.6885        74.4744        -999.25       78.63455         0.8313         1.0099        -999.25         1.3561       -77.9801       2.247597      0.9709479              1
      2860.0000        -999.25       1119.238        -999.25        -999.25       149.9497        70.7737        -999.25        74.0296          0.847         1.0223        -999.25         1.3576       -77.8756       2.332336      0.8729703              1
      2860.5000        -999.25       1110.625        -999.25        -999.25       150.2502        66.4567        -999.25        68.6543         0.8621         1.0349        -999.25         1.3681       -77.8405       2.347672      0.7586021              1
      2861.0000        -999.25       1102.012        -999.25        -999.25       150.4441        64.7358        -999.25       66.52411         0.8769         1.0486        -999.25         1.3981         -79.03       1.138405      0.7132789              1
      2861.5000        -999.25       1099.061        -999.25        -999.25       150.6101        64.5203        -999.25       66.27567         0.8919         1.0627        -999.25         1.3844       -81.4019      -1.253265      0.7079929      0.9820962
      2862.0000        -999.25       1098.066        -999.25        -999.25       150.5564        66.7894        -999.25       69.13297         0.8972         1.0727        -999.25         1.3607        -84.252      -4.123131      0.7687865      0.9410982
      2862.5000        -999.25        1097.07        -999.25        -999.25       149.6812         68.797        -999.25        71.6634         0.9002         1.0812        -999.25         1.3504       -86.1375      -6.028397      0.8226255      0.9138801
      2863.0000        -999.25       1094.754        -999.25        -999.25       148.2014        68.6169        -999.25       71.45921         0.9032         1.0749        -999.25         1.4015       -86.8474      -6.758064       0.818281      0.9034562
      2863.5000        -999.25       1091.555        -999.25        -999.25       146.3757         67.943        -999.25       70.63777         0.9043         1.0574        -999.25         1.4438       -84.9226      -4.853035      0.8008037      0.9306709
      2864.0000        -999.25       1088.355        -999.25        -999.25        145.302        67.3605        -999.25       69.93057         0.9047         1.0329        -999.25         1.4655       -80.6956     -0.6458054      0.7857569      0.9907742
      2864.5000        -999.25       1086.082        -999.25        -999.25        145.198        67.5018        -999.25       70.12814         0.9053          1.026        -999.25         1.3714       -77.0768       2.953232      0.7899603              1
      2865.0000        -999.25       1084.309        -999.25        -999.25       148.4534         67.623        -999.25       70.30057         0.9083         1.0235        -999.25          1.316       -77.1139       2.896362      0.7936291              1
      2865.5000        -999.25       1101.131        -999.25        -999.25       153.1792        67.5541        -999.25       70.23538         0.9114          1.027        -999.25         1.2799       -77.4866       2.503899      0.7922422              1
      2866.0000        -999.25       1120.496        -999.25        -999.25       155.1636        67.1447        -999.25       69.74457         0.9023         1.0316        -999.25          1.322       -77.8868       2.083931      0.7817993              1
      2866.5000        -999.25       1139.859        -999.25        -999.25       155.9932        66.2766        -999.25       68.68038         0.8809         1.0321        -999.25         1.3381        -77.791       2.159966      0.7591571              1
      2867.0000        -999.25       1145.037        -999.25        -999.25       155.8792        61.3729        -999.25       62.57168         0.8616           1.03        -999.25         1.3471       -77.8561       2.075096      0.6291847              1
      2867.5000        -999.25       1146.314        -999.25        -999.25       154.4224        60.9338        -999.25       62.04374         0.8536         1.0229        -999.25         1.3363       -78.3065       1.604927       0.617952              1
      2868.0000        -999.25       1147.592        -999.25        -999.25       152.3518        61.5775        -999.25        62.8693         0.8518         1.0152        -999.25         1.3245       -79.9059    -0.01423645      0.6355171      0.9997966
      2868.5000        -999.25       1148.904        -999.25        -999.25       151.5132        64.7844        -999.25       66.89886         0.8543         1.0077        -999.25         1.2705       -81.1221      -1.250206      0.7212524      0.9821399
      2869.0000        -999.25       1150.768        -999.25        -999.25       151.5989        65.1694        -999.25       67.40105          0.858         0.9995        -999.25         1.2465       -81.9545      -2.102371      0.7319372      0.9699661
      2869.5000        -999.25       1152.631        -999.25        -999.25        152.302         65.696        -999.25       68.08022         0.8526          0.991        -999.25         1.2649       -81.3562      -1.523842      0.7463877      0.9782308
      2870.0000        -999.25       1155.445        -999.25        -999.25       153.2998        68.3378        -999.25       71.40341         0.8442         0.9884        -999.25         1.2953       -80.6517     -0.8391113      0.8170938      0.9880127
      2870.5000        -999.25       1159.172        -999.25        -999.25       154.5554        71.8228        -999.25       75.78059         0.8341         0.9856        -999.25         1.3359        -79.239      0.5538254      0.9102254              1
      2871.0000        -999.25       1162.898        -999.25        -999.25       155.4932        73.4922        -999.25       77.88829         0.8233         0.9813        -999.25         1.3401       -78.2812       1.491867        0.95507              1
      2871.5000        -999.25       1165.623        -999.25        -999.25       155.6655        74.3483        -999.25       78.97934         0.8238         0.9711        -999.25         1.3408       -77.6322       2.121094      0.9782838              1
      2872.0000        -999.25       1168.314        -999.25        -999.25       155.7466        74.1563        -999.25       78.76028         0.8289         0.9593        -999.25         1.3144       -77.3306       2.402931      0.9736231              1
      2872.5000        -999.25       1172.541        -999.25        -999.25       155.2051        69.2438        -999.25       72.64058         0.8318         0.9517        -999.25         1.2898       -77.3317       2.382057      0.8434166              1
      2873.0000        -999.25       1177.734        -999.25        -999.25       154.6213        67.6141        -999.25       70.62439         0.8316         0.9512        -999.25         1.2696       -77.3035       2.390495      0.8005189              1
      2873.5000        -999.25       1182.926        -999.25        -999.25        154.001        67.0073        -999.25       69.88683         0.8188         0.9548        -999.25         1.2631       -77.1249       2.549324      0.7848261              1
