#------------------------------------------------------------------------------
# Created by    : vladimir.rabinovich
# Created on    : 09/19/2023 17:20:12
#------------------------------------------------------------------------------
~Version Information Section
VERS.           2.0     :   CWLS log ASCII Standard - VERSION 2.0
WRAP.           NO      :   One line per depth step
~Well Information Section
#MNEM       .UNIT                                         VALUE :DESCRIPTION
#------------------------------------------------------------------------------
STRT        .FT                                             970 :START DEPTH
STOP        .FT                                            6500 :STOP DEPTH
STEP        .FT                                             0.5 :STEP      
NULL        .                                           -999.25 :NULL      
COMP        .                                CONTINENTAL OIL CO :COMPANY   
WELL        .                               OCS G03106 ST00BP00 :WELL      
FLD         .                       MATAGORDA ISLAND BLOCK 0687 :FIELD     
LOC         .                                                   :LOCATION  
CNTY        .                      MATAGORDA ISLAND LARGE BLOCK :LOCATION  
STAT        .                                             TEXAS :STATE     
CTRY        .                                     UNITED STATES :COUNTRY   
SRVC        .                                                   :SERVICE COMPANY
DATE        .                             9/13/2023 11:12:09 AM :LOG DATE  
API         .                                    42703400330000 :API NUMBER
UWI         .                                    42703400330000 :UNIQUE WELL ID
XCOORD      .                                  468864.661343862 :SURFACE X 
YCOORD      .                                  10154488.9405743 :SURFACE Y 
LAT         .                                         27.934663 :LATITUDE  
LON         .                                        -96.628194 :LONGITUDE 
ELEV        .FT                                              96 :ELEVATION VALUE
ELEV_TYPE   .                                                KB :ELEVATION REFERENCE TYPE
~Curve Information Section
#MNEM       .UNIT                                      API CODE :CURVE DESCRIPTION
#------------------------------------------------------------------------------
DEPT        .FT                                                 :DEPTH     
ASFL        .OHMM                                               :          
CALI        .IN                                                 :          
CILD        .MMHO                                               :          
DRHO        .G/C3                                               :          
DT          .US/F                                               :          
DTL         .US/F                                               :          
GR          .GAPI                                               :          
GR_1        .GAPI                                               :          
GR_NORM     .GAPI                                               :GammaRay Normalized
ILD         .OHMM                                               :          
ILM         .OHMM                                               :          
NPHI        .%                                                  :          
RHOB        .G/C3                                               :          
SFL         .OHMM                                               :          
SP          .MV                                                 :          
SP_NORM     .MV                                                 :SP Normalized
VSH_GR      .V/V                                                :Volume of Shale from GR
VSH_SP      .V/V                                                :Volume of Shale from SP
~A        DEPTH           ASFL           CALI           CILD           DRHO             DT            DTL             GR           GR_1        GR_NORM            ILD            ILM           NPHI           RHOB            SFL             SP        SP_NORM         VSH_GR         VSH_SP
# ...
      4652.0000         0.7485        15.8255       1428.709         0.1088       121.5829        -999.25        -999.25        47.9965       63.32877         0.7091         0.7986        46.9299         2.1658         0.7796       -45.4743        -7.7384      0.6452929      0.8796715
      4652.5000         0.7379        15.4796       1459.186         0.0816       120.4785        -999.25        -999.25         47.973       63.29662         0.7364         0.7676        47.8878         2.1372         0.7914       -49.8481       -12.1122      0.6446089      0.8015679
      4653.0000         0.7347        15.4823       1497.916         0.0631       128.8853        -999.25        -999.25        48.6735       64.27238         0.7003          0.737        47.6859         2.1089         0.8231       -51.0281       -13.2922      0.6653697      0.7804964
      4653.5000         0.7317        15.5069       1536.646         0.0529       134.4492        -999.25        -999.25        49.5681       65.51834         0.6581         0.7063        46.6916         2.1141         0.7931        -52.124       -14.3881      0.6918796      0.7609268
      4654.0000         0.7286        15.3512       1595.207         0.0562       139.0352        -999.25        -999.25        49.5928        65.5534          0.616         0.6809        45.4501         2.1346         0.7324       -53.6766       -15.9408      0.6926255         0.7332
      4654.5000         0.7319        15.0359       1809.963         0.0572       132.1462        -999.25        -999.25        48.4305       63.93588         0.5738         0.6658        44.3568         2.1489         0.6976       -58.7675       -21.0317      0.6582103      0.6422911
      4655.0000         0.7361        14.6776       2072.727         0.0493       123.5441        -999.25        -999.25        45.3112       59.59392         0.5316         0.6841        44.0211         2.1271         0.6789       -63.5464       -25.8105      0.5658281      0.5569554
      4655.5000         0.7403        14.6255       2335.492         0.0437       118.7798        -999.25        -999.25        41.4198       54.17707         0.4905         0.6932        45.0695         2.1164          0.703       -68.7281       -30.9923       0.450576      0.4644232
      4656.0000         0.7445        15.1252       2598.258         0.0784       115.0233        -999.25        -999.25        37.7328       49.04479         0.4499         0.6765         44.141         2.1303         0.7482       -74.9608       -37.2249      0.3413786      0.3531268
      4656.5000         0.7409        15.9511       2835.918         0.1735        109.172        -999.25        -999.25        34.1229       44.01983         0.4092         0.6033        42.0168         2.0004         0.7858       -80.3832       -42.6474      0.2344644      0.2562964
      4657.0000         0.7351        17.8963       2959.094         0.1927       117.2247        -999.25        -999.25        30.6079       39.12699         0.3686         0.5225        41.9687         1.9838         0.8044        -87.613       -49.8771      0.1303615      0.1271946
      4657.5000         0.7294        19.5567       3266.598         0.1691       119.9391        -999.25        -999.25        29.2088        37.1798         0.3408         0.4673        44.4078         1.7971         0.7905        -90.765       -53.0291     0.08893187     0.07090896
      4658.0000         0.7236        19.7968       3447.117         0.1207       119.5657        -999.25        -999.25        28.7345       36.52006         0.3285         0.4303        51.6608         1.7056         0.7433       -92.7383       -55.0024     0.07489493     0.03567144
      4658.5000         0.7202        19.5245        3575.18         0.0848       119.4794        -999.25        -999.25        29.4216        37.4773         0.3161         0.4207        54.8157         1.6693          0.694       -94.3369        -56.601     0.09526168    0.007124969
      4659.0000         0.7314        18.7698       3670.809         0.1007       120.4803        -999.25        -999.25        30.0629       38.37064         0.3037         0.4109        55.1259         1.7503         0.6659       -95.2693       -57.5335      0.1142689              0
      4659.5000         0.7426        16.5591       3743.289         0.1159       121.9233        -999.25        -999.25        29.9419       38.20274         0.2914            0.4        50.9727         1.8314         0.6649       -95.5964       -57.8605      0.1106967              0
      4660.0000         0.7538        15.2661       3754.035         0.1348         98.975        -999.25        -999.25        29.8606       38.09012         0.2798         0.3907        50.5142          1.954         0.6803        -95.384       -57.6482      0.1083005              0
      4660.5000         0.7665        14.1381       3545.188          0.167        96.9624        -999.25        -999.25        30.3939       38.83311         0.2979          0.385        49.2305         2.0081         0.7922       -95.0259       -57.2901      0.1241088              0
      4661.0000         0.7792        14.9924       3336.539         0.2191        98.0984        -999.25        -999.25        31.3956       40.22818         0.3159         0.3794        46.2957         2.0692         0.9555       -93.7206       -55.9847      0.1537911     0.01813037
      4661.5000         0.7865        16.1261       3127.695          0.221       108.5282        -999.25        -999.25        33.0298       42.50378         0.3339         0.3766        44.2328         1.9927         1.1019       -90.6705       -52.9347      0.2022082     0.07259464
      4662.0000         0.7381        16.5267       2919.047         0.1595       121.9493        -999.25        -999.25        34.9502       45.17782          0.352         0.3737        45.7242         1.8317         0.9974       -86.9106       -49.1747      0.2591026      0.1397375
      4662.5000          0.696          16.27       2710.203         0.1075       126.6936        -999.25        -999.25        36.8766       47.86021         0.3878         0.3751        49.0577         1.7196         0.7308       -83.4137       -45.6778      0.3161747      0.2021822
      4663.0000         0.6932        15.7947       2501.551         0.0601       124.6509        -999.25        -999.25        39.1182        50.9814          0.425         0.3882        50.0972         1.7751         0.5809         -79.59       -41.8541       0.382583      0.2704625
      4663.5000         0.7138        15.2199       2292.707         0.0231       118.1855        -999.25        -999.25        40.9929       53.59195         0.4621         0.4369        49.7145          1.875         0.5694       -75.8768       -38.1409      0.4381265      0.3367696
      4664.0000         0.7345        14.4085       2107.941          0.014       103.9225        -999.25        -999.25        42.1686       55.22926         0.4993         0.5013         46.978         2.0139         0.6391       -71.9403       -34.2044       0.472963      0.4070643
      4664.5000         0.7551        14.0172       2065.914         0.0142        95.2953        -999.25        -999.25        41.9056       54.86368         0.5256         0.5743        38.4989         2.1004         0.7587       -68.0393       -30.3034      0.4651846       0.476725
      4665.0000         0.7757        14.4724       2023.861         0.0453        92.6718        -999.25        -999.25        40.2413       52.54729         0.5126         0.6361        33.6062         2.2214         0.8694       -66.4901       -28.7542      0.4158997      0.5043893
      4665.5000         0.7963        15.0689       1981.834         0.0966        91.8292        -999.25        -999.25        37.9373       49.34034         0.4821         0.6773        31.2838         2.2753         0.9548       -67.0729        -29.337      0.3476667      0.4939821
