#------------------------------------------------------------------------------
# Created by    : vladimir.rabinovich
# Created on    : 09/19/2023 17:20:31
#------------------------------------------------------------------------------
~Version Information Section
VERS.           2.0     :   CWLS log ASCII Standard - VERSION 2.0
WRAP.           NO      :   One line per depth step
~Well Information Section
#MNEM       .UNIT                                         VALUE :DESCRIPTION
#------------------------------------------------------------------------------
STRT        .FT                                            2377 :START DEPTH
STOP        .FT                                            9500 :STOP DEPTH
STEP        .FT                                             0.5 :STEP      
NULL        .                                           -999.25 :NULL      
COMP        .                                     SKELLY OIL CO :COMPANY   
WELL        .                                     ST TR 00146-L :WELL      
FLD         .                                           WILDCAT :FIELD     
LOC         .                                                   :LOCATION  
CNTY        .                             GALVESTON LARGE BLOCK :LOCATION  
STAT        .                                             TEXAS :STATE     
CTRY        .                                     UNITED STATES :COUNTRY   
SRVC        .                                                   :SERVICE COMPANY
DATE        .                             9/13/2023 11:19:24 AM :LOG DATE  
API         .                                    42706001330000 :API NUMBER
UWI         .                                    42706001330000 :UNIQUE WELL ID
XCOORD      .                                  1116482.89093459 :SURFACE X 
YCOORD      .                                  10631825.2810539 :SURFACE Y 
LAT         .                                         29.285733 :LATITUDE  
LON         .                                       -94.6439746 :LONGITUDE 
ELEV        .FT                                              61 :ELEVATION VALUE
ELEV_TYPE   .                                                KB :ELEVATION REFERENCE TYPE
~Curve Information Section
#MNEM       .UNIT                                      API CODE :CURVE DESCRIPTION
#------------------------------------------------------------------------------
DEPT        .FT                                                 :DEPTH     
ASN         .OHMM                                               :          
CALI        .IN                                                 :          
CILD        .MMHO                                               :          
DT          .US/F                                               :          
ILD         .OHMM                                               :          
SP          .MV                                                 :          
SP_NORM     .MV                                                 :SP Normalized
VSH_SP      .V/V                                                :Volume of Shale from SP
~A        DEPTH            ASN           CALI           CILD             DT            ILD             SP        SP_NORM         VSH_SP
# ...
      3321.0000          0.748        10.8931       1926.033       130.6138         0.4902       -92.7438      -18.91286      0.6682804
      3321.5000         0.7604        10.8857       1977.469       130.1992         0.4655       -95.8541      -22.02045      0.6107323
      3322.0000         0.7575        11.0366       2101.004       129.1907         0.4441       -98.6625      -24.82614      0.5587752
      3322.5000         0.7483        11.2599       2140.805       130.1528         0.4403       -99.7867      -25.94764      0.5380067
      3323.0000         0.7381        11.6582       2192.059       132.2031         0.4364      -100.9116      -27.06983      0.5172253
      3323.5000         0.7211        12.0135       2173.207       134.8633         0.4326       -101.876      -28.03152      0.4994162
      3324.0000         0.7023        12.1441       2153.043       137.6919         0.4289      -100.6356      -26.78841      0.5224368
      3324.5000         0.6828        12.0588       2122.855       143.7759          0.432       -98.5483      -24.69842      0.5611404
      3325.0000         0.6659        12.0277       2104.266       142.7678         0.4351        -95.317      -21.46441      0.6210294
      3325.5000         0.6493        12.1742       2085.133       140.2866         0.4449       -93.2771       -19.4218      0.6588556
      3326.0000         0.6351        12.2064        2062.91       140.9626         0.4628       -90.9843      -17.12629       0.701365
      3326.5000         0.6218        12.2028       2030.078       140.5728         0.4783       -88.6061      -14.74539      0.7454557
      3327.0000         0.6047        12.2094       2029.115       140.2908         0.4926       -85.7921      -11.92868       0.797617
      3327.5000         0.5953        12.1658       2001.857       139.6116          0.507       -84.6252      -10.75907      0.8192765
      3328.0000         0.5898        12.0557       1985.275       143.9133         0.5083       -83.1696      -9.300766      0.8462821
      3328.5000         0.5869        12.1385       1974.031       143.7012         0.5083       -82.6359      -8.764366      0.8562154
      3329.0000         0.5856        12.2514       1977.992       138.8799         0.4996       -82.1259      -8.251656      0.8657101
      3329.5000         0.5917        11.8687       1991.664       135.8552         0.4878       -81.7196      -7.842644      0.8732844
      3330.0000          0.602         11.353       2006.143       133.8838          0.476       -81.9014      -8.021736      0.8699679
      3330.5000         0.6151        11.0122       2050.414       129.6338         0.4645        -82.083      -8.200638      0.8666549
      3331.0000         0.6281        10.8997       2080.207       129.1697         0.4535       -84.6573      -10.77223      0.8190327
      3331.5000         0.6402        10.8647       2192.918        131.448         0.4426       -89.9298      -16.04202       0.721444
      3332.0000         0.6563        10.9848       2280.355       134.3792         0.4316       -92.6079      -18.71741      0.6718997
      3332.5000         0.6708        11.1542       2320.051       137.1753          0.421       -94.7292      -20.83601      0.6326664
      3333.0000         0.6724        11.3187       2316.203       140.3572         0.4264       -96.0886       -22.1927      0.6075425
      3333.5000         0.6718        11.3971       2306.379       143.2129         0.4318       -96.8635       -22.9649      0.5932426
      3334.0000         0.6668        11.5266       2235.047       143.3459         0.4375       -96.6893      -22.78799      0.5965188
      3334.5000         0.6679        11.8053       2045.553       145.2632         0.4496       -95.5967      -21.69269      0.6168021
      3335.0000         0.6709        11.9587       2003.656       146.1401         0.4627       -92.5697      -18.66298      0.6729078
      3335.5000         0.6762        11.8491       1975.057       147.0002         0.4875        -89.226      -15.31657      0.7348784
      3336.0000         0.6911        11.7418       1823.873       150.0364         0.5123       -85.9045      -11.99236      0.7964377
      3336.5000         0.7036        11.9473       1722.797       149.9111           0.54       -81.6841      -7.769257      0.8746434
      3337.0000         0.7036        12.4086       1657.893       147.9336         0.5702       -78.2712      -4.353653      0.9378953
      3337.5000         0.7036        12.7176       1599.795       146.8435         0.5835       -75.1461      -1.225845      0.9958177
      3338.0000         0.7034        12.8506       1574.785       154.9907         0.5959       -73.3965      0.5264664              1
      3338.5000         0.6999        12.7806       1604.215       154.9385          0.605       -74.4739      -0.548233              1
      3339.0000         0.6975        12.7732       1604.191       150.0498         0.6086       -75.5511      -1.622726      0.9884681
      3339.5000         0.6982        12.7859       1604.168       146.1992         0.6123       -76.2834      -2.352318       0.974957
      3340.0000         0.6988         12.738        1603.83       146.0886         0.6159       -76.5587      -2.624908      0.9699091
      3340.5000         0.6984        12.6682       1602.209       145.3157         0.6194       -76.0469      -2.110405      0.9794369
      3341.0000         0.6979        12.6669       1600.588        143.262         0.6174       -75.5348      -1.595596      0.9889705
      3341.5000         0.6974        13.1261        1598.08       140.9897         0.6154       -75.1698      -1.247513      0.9954164
      3342.0000         0.6968        13.3578       1592.725       138.5728         0.6134       -75.1682      -1.264305      0.9951054
      3342.5000         0.6962        13.3404       1587.367       136.5808          0.611       -75.2551      -1.369591      0.9931557
      3343.0000         0.6956        13.2243       1586.875       135.6648          0.604       -75.5515       -1.68438      0.9873263
      3343.5000         0.6951        12.9507       1585.004        134.749          0.597       -75.7621      -1.913376      0.9830856
      3344.0000         0.6946        12.4023       1581.346       133.8462           0.59        -75.937      -2.106659      0.9795063
      3344.5000         0.6941        11.9933       1596.359       132.8394          0.583        -75.345      -1.533058      0.9901286
      3345.0000         0.6931        11.6346       1624.824       130.5247         0.5783       -75.1587      -1.365143      0.9932381
      3345.5000         0.6921        11.5046       1676.262       126.8839         0.5755       -75.1571      -1.381927      0.9929273
      3346.0000         0.6911        11.7204       1723.832       124.7314         0.5727        -75.244      -1.487228      0.9909772
      3346.5000         0.6896        12.1728       1754.031        122.891           0.57       -75.9045      -2.166115      0.9784053
      3347.0000          0.688        12.1648       1825.277       121.7687         0.5672       -76.5648      -2.844803       0.965837
      3347.5000         0.6857        12.0854       1876.689       121.7382         0.5644       -77.2255      -3.523895      0.9532612
      3348.0000         0.6833        11.9081       1916.775       124.7876         0.5478       -78.0917      -4.408478      0.9368801
      3348.5000          0.684        11.5182       1950.963       130.3152         0.5278       -79.1239      -5.459076      0.9174245
      3349.0000          0.685        11.0871       1962.594       133.4402         0.5078       -80.1432      -6.496765      0.8982081
      3349.5000         0.6861        10.9392       1957.773       131.1338         0.4961       -81.1532      -7.525154      0.8791638
      3350.0000         0.6954        10.8979       1950.691       125.8108         0.4894       -82.2323      -8.622643      0.8588399
