#------------------------------------------------------------------------------
# Created by    : vladimir.rabinovich
# Created on    : 09/19/2023 17:22:41
#------------------------------------------------------------------------------
~Version Information Section
VERS.           2.0     :   CWLS log ASCII Standard - VERSION 2.0
WRAP.           NO      :   One line per depth step
~Well Information Section
#MNEM       .UNIT                                         VALUE :DESCRIPTION
#------------------------------------------------------------------------------
STRT        .FT                                            4470 :START DEPTH
STOP        .FT                                            9513 :STOP DEPTH
STEP        .FT                                             0.5 :STEP      
NULL        .                                           -999.25 :NULL      
COMP        .                 FAIRWAYS SPEC SALES & SERVICE INC :COMPANY   
WELL        .                               OCS G11315 ST00BP00 :WELL      
FLD         .                              GALVESTON BLOCK 0319 :FIELD     
LOC         .                                                   :LOCATION  
CNTY        .                             GALVESTON LARGE BLOCK :LOCATION  
STAT        .                                             TEXAS :STATE     
CTRY        .                                     UNITED STATES :COUNTRY   
SRVC        .                                                   :SERVICE COMPANY
DATE        .                             9/13/2023 11:19:34 AM :LOG DATE  
API         .                                    42706402650000 :API NUMBER
UWI         .                                    42706402650000 :UNIQUE WELL ID
XCOORD      .                                  1065572.18570413 :SURFACE X 
YCOORD      .                                  10465680.9820926 :SURFACE Y 
LAT         .                                         28.826802 :LATITUDE  
LON         .                                        -94.795723 :LONGITUDE 
ELEV        .FT                                              86 :ELEVATION VALUE
ELEV_TYPE   .                                                KB :ELEVATION REFERENCE TYPE
~Curve Information Section
#MNEM       .UNIT                                      API CODE :CURVE DESCRIPTION
#------------------------------------------------------------------------------
DEPT        .FT                                                 :DEPTH     
DCAL        .IN                                                 :          
DPHI        .%                                                  :          
DRHO        .G/C3                                               :          
GR          .GAPI                                               :          
GR_NORM     .GAPI                                               :GammaRay Normalized
ILD         .OHMM                                               :          
ILM         .OHMM                                               :          
NPHI        .%                                                  :          
SFL         .OHMM                                               :          
SP          .MV                                                 :          
SP_NORM     .MV                                                 :SP Normalized
VSH_GR      .V/V                                                :Volume of Shale from GR
VSH_SP      .V/V                                                :Volume of Shale from SP
~A        DEPTH           DCAL           DPHI           DRHO             GR        GR_NORM            ILD            ILM           NPHI            SFL             SP        SP_NORM         VSH_GR         VSH_SP
# ...
      5230.0000         2.4493        25.2995        -0.0161       105.6046       87.53976         0.8049          0.808        46.8385         0.7582       -39.4553     -0.5298309              1      0.9918488
      5230.5000         2.4289        25.3514         -0.017       103.4572       85.56015         0.8138         0.8103        47.2932         0.7526       -39.5645     -0.6396484              1      0.9901593
      5231.0000         2.4134        25.1599        -0.0171       101.0597       83.35004         0.8228         0.8126        47.0594           0.74       -39.6733      -0.749073              1      0.9884758
      5231.5000         2.4249         24.767        -0.0149        99.9716       82.34669         0.8321         0.8241        46.8133         0.7279       -39.7469     -0.8232918              1       0.987334
      5232.0000         2.4456        24.0378        -0.0121        98.0969       80.61839         0.8418         0.8361        46.5485         0.7237       -39.8033     -0.8803101              1      0.9864568
      5232.5000         2.4729           22.6         -0.007        93.6998       76.56544         0.8515         0.8539        46.0442         0.7304       -39.8538     -0.9314346      0.9269243      0.9856702
      5233.0000         2.5154        21.4692        -0.0022        88.2297       71.52363         0.8689         0.8735        45.0968         0.7564        -39.897     -0.9752541      0.8196517      0.9849961
      5233.5000         2.5616        21.1261         0.0025         81.163       65.01039         0.8884         0.8961        42.6227          0.823       -40.1154      -1.194271      0.6810722      0.9816266
      5234.0000         2.6394        21.1832         0.0043        77.1349       61.29753         0.9155         0.9194        39.7535         0.9346        -41.444      -2.523495      0.6020752       0.961177
      5234.5000         2.7816        21.7383         0.0062        75.7875       60.05519         0.9391           0.94        37.8301         1.0557       -44.1176      -5.197716      0.5756423      0.9200351
      5235.0000         2.9132        22.2861         0.0064        75.6523       59.93002         0.9402         0.9555        36.5319         1.1208       -47.7727      -8.853436      0.5729792      0.8637933
      5235.5000         2.9038        22.7583         0.0051        76.0446       60.29099         0.9404          0.964        35.6591         1.1239        -50.886      -11.96736      0.5806594      0.8158868
      5236.0000         2.8625        23.2308         0.0041        76.6023        60.8044         0.9395           0.97        34.8018         1.1102       -53.1473      -14.22928       0.591583       0.781088
      5236.5000         2.8572        23.1566         0.0034        76.5326       60.73959         0.9377          0.973        34.5476          1.084       -54.3953       -15.4779      0.5902041      0.7618784
      5237.0000         2.8677        22.9195          0.003        74.9757       59.30418         0.9348         0.9749        34.5281         1.0465        -54.488      -15.57122      0.5596635      0.7604428
      5237.5000         2.8847        22.4115         0.0035         73.137       57.60907         0.9335         0.9758        34.6296         1.0128       -53.6213      -14.70514      0.5235972      0.7737671
      5238.0000         2.9176        21.8549          0.004        73.6434       58.07519         0.9335         0.9769        34.8329         1.0076        -52.423      -13.50746      0.5335147      0.7921929
      5238.5000         2.9504         21.743         0.0052        75.8734       60.12979         0.9332          0.978        35.2628         1.0472        -51.761      -12.84608      0.5772295       0.802368
      5239.0000         2.9889        21.7136         0.0065        76.9832       61.15201         0.9323         0.9768        35.8099         1.1026       -51.3748       -12.4605      0.5989789         0.8083
      5239.5000         3.0296        21.5827         0.0111        77.0774       61.23825         0.9323         0.9751        36.5986           1.13       -50.7054      -11.79172      0.6008139      0.8185889
      5240.0000         3.0703        21.2352         0.0163        77.4418       61.57352         0.9353         0.9739        37.3317          1.074       -49.6503      -10.73724      0.6079472      0.8348117
      5240.5000         3.1189        20.2068         0.0206        78.0837       62.16452         0.9384         0.9731        38.0475          0.968       -48.1771      -9.264664      0.6205216      0.8574667
      5241.0000         3.1674        18.5008         0.0187        78.8156       62.83846         0.9407          0.972        38.7759         0.8889       -46.3436      -7.431786      0.6348609      0.8856648
      5241.5000         3.2121        17.2463         0.0141        78.6139       62.65201         0.9429         0.9701        39.4258         0.8467       -43.8624      -4.951202      0.6308938      0.9238276
      5242.0000         3.2428        17.0816          0.008        78.2502       62.31625         0.9452         0.9681        38.7394         0.8694       -41.8131      -2.902523      0.6237501      0.9553458
      5242.5000          3.238         17.507         0.0017        77.7837       61.88576          0.948         0.9651        37.6325         0.9044       -40.6794      -1.769447      0.6145906      0.9727777
      5243.0000         3.1439        18.0612        -0.0026        77.5978       61.71386         0.9508         0.9607        36.9366         0.9407       -40.2247      -1.315365      0.6109332      0.9797636
      5243.5000         3.0761        18.8016         -0.006        77.8881       61.98082         0.9464         0.9525        38.9457         0.9655       -40.0857      -1.176987      0.6166133      0.9818925
      5244.0000          3.091        19.4832        -0.0066         80.061        63.9828          0.938         0.9444        41.1135         0.9497       -40.0857      -1.177608      0.6592085      0.9818829
      5244.5000         3.1537        20.1029        -0.0071        82.1798       65.93492         0.9295          0.937        42.7615          0.909       -39.8918     -0.9843292       0.700743      0.9848565
      5245.0000         3.1846        20.7174        -0.0063        82.8197       66.52408         0.9201         0.9234        43.4413         0.8603       -39.5405     -0.6336479      0.7132782      0.9902515
      5245.5000         3.0861        21.1822        -0.0052        82.1013       65.86143         0.9109          0.919        42.5441         0.8208       -39.2156     -0.3093681      0.6991795      0.9952405
      5246.0000         2.9948        20.8083        -0.0049        81.4449       65.25591         0.9059           0.91        41.3714         0.8145       -38.9096   -0.003990173       0.686296      0.9999386
      5246.5000         2.9109        20.0279        -0.0047        82.0044       65.77098         0.9047         0.9045        40.8719         0.8337       -38.5793      0.3256912      0.6972549              1
      5247.0000         2.8882        19.7879        -0.0056         82.838       66.53866         0.9035         0.9025        40.8486         0.8519        -38.228      0.6763687      0.7135885              1
      5247.5000         2.9332         19.794        -0.0065        83.2253       66.89503         0.9038         0.9066        40.9648         0.8663       -38.0175      0.8862457       0.721171              1
      5248.0000         3.0712        19.9073         -0.008        82.7373       66.44472          0.905         0.9088        39.4916         0.8808       -37.9151      0.9880295      0.7115898              1
      5248.5000         3.1704        19.6665        -0.0094        81.9037        65.6759         0.9062         0.9097        38.4053         0.8961       -38.2056       0.696907      0.6952318              1
