#------------------------------------------------------------------------------
# Created by    : vladimir.rabinovich
# Created on    : 09/19/2023 17:20:39
#------------------------------------------------------------------------------
~Version Information Section
VERS.           2.0     :   CWLS log ASCII Standard - VERSION 2.0
WRAP.           NO      :   One line per depth step
~Well Information Section
#MNEM       .UNIT                                         VALUE :DESCRIPTION
#------------------------------------------------------------------------------
STRT        .FT                                             523 :START DEPTH
STOP        .FT                                           11863 :STOP DEPTH
STEP        .FT                                             0.5 :STEP      
NULL        .                                           -999.25 :NULL      
COMP        .                                      SHELL OIL CO :COMPANY   
WELL        .                                OCS 00727 ST00BP00 :WELL      
FLD         .                                           WILDCAT :FIELD     
LOC         .                                                   :LOCATION  
CNTY        .                             GALVESTON LARGE BLOCK :LOCATION  
STAT        .                                             TEXAS :STATE     
CTRY        .                                     UNITED STATES :COUNTRY   
SRVC        .                                                   :SERVICE COMPANY
DATE        .                             9/13/2023 11:19:42 AM :LOG DATE  
API         .                                    42706000240000 :API NUMBER
UWI         .                                    42706000240000 :UNIQUE WELL ID
XCOORD      .                                  977080.798970248 :SURFACE X 
YCOORD      .                                   10388448.113324 :SURFACE Y 
LAT         .                                         28.610486 :LATITUDE  
LON         .                                        -95.067834 :LONGITUDE 
ELEV        .FT                                              76 :ELEVATION VALUE
ELEV_TYPE   .                                                KB :ELEVATION REFERENCE TYPE
~Curve Information Section
#MNEM       .UNIT                                      API CODE :CURVE DESCRIPTION
#------------------------------------------------------------------------------
DEPT        .FT                                                 :DEPTH     
ASN         .OHMM                                               :          
ILD         .OHMM                                               :          
LN          .OHMM                                               :          
SP          .MV                                                 :          
SP_NORM     .MV                                                 :SP Normalized
VSH_SP      .V/V                                                :Volume of Shale from SP
~A        DEPTH            ASN            ILD             LN             SP        SP_NORM         VSH_SP
# ...
     10289.0000         0.8485         0.7295        -999.25       -39.7823      -2.264362      0.9531718
     10289.5000         0.8454         0.7267        -999.25        -39.789      -2.269913      0.9529662
     10290.0000         0.8423         0.7248        -999.25       -39.7956      -2.275356      0.9527646
     10290.5000         0.8433         0.7228        -999.25       -39.8022      -2.280804      0.9525628
     10291.0000         0.8458         0.7209        -999.25       -39.8127      -2.290146      0.9522168
     10291.5000         0.8484         0.7198        -999.25       -39.8299      -2.306194      0.9516224
     10292.0000          0.851         0.7236        -999.25        -39.847       -2.32214      0.9510319
     10292.5000         0.8535         0.7274        -999.25       -39.8643      -2.338284       0.950434
     10293.0000         0.8561         0.7312        -999.25       -39.8814      -2.354233      0.9498432
     10293.5000         0.8587          0.735        -999.25       -39.8986      -2.370277       0.949249
     10294.0000         0.8612         0.7389        -999.25       -39.9158      -2.386322      0.9486547
     10294.5000          0.864         0.7427        -999.25        -39.933      -2.402367      0.9480605
     10295.0000         0.8674         0.7465        -999.25       -39.9505      -2.418716      0.9474549
     10295.5000         0.8708         0.7489        -999.25       -39.9717      -2.438759      0.9467126
     10296.0000         0.8742          0.751        -999.25       -39.9929      -2.458809      0.9459701
     10296.5000         0.8776         0.7531        -999.25       -40.0142      -2.478951       0.945224
     10297.0000         0.8809         0.7552        -999.25       -40.0354      -2.499001      0.9444814
     10297.5000         0.8843         0.7573        -999.25       -40.0566      -2.519043      0.9437392
     10298.0000         0.8877         0.7594        -999.25       -40.0778      -2.539089      0.9429967
     10298.5000         0.8906          0.759        -999.25        -40.163      -2.623135      0.9398839
     10299.0000         0.8923         0.7547        -999.25        -40.405      -2.863979      0.9309638
     10299.5000          0.894         0.7504        -999.25       -40.6788      -3.136627      0.9208657
     10300.0000         0.8932         0.7461        -999.25       -40.3624      -2.819073       0.932627
     10300.5000         0.8896         0.7417        -999.25       -40.1279       -2.58342      0.9413548
     10301.0000         0.8861         0.7374        -999.25       -39.8935      -2.347866       0.950079
     10301.5000         0.8807         0.7331        -999.25        -39.659      -2.112213      0.9588069
     10302.0000         0.8704         0.7263        -999.25       -39.4245      -1.876556       0.967535
     10302.5000         0.8601         0.7185        -999.25       -39.7959      -2.246799      0.9538223
     10303.0000         0.8499         0.7108        -999.25       -40.2255      -2.675247      0.9379538
     10303.5000         0.8408          0.703        -999.25       -40.6551      -3.103695      0.9220853
     10304.0000         0.8348         0.6953        -999.25       -41.0076       -3.45504      0.9090726
     10304.5000         0.8288         0.6875        -999.25       -41.1726      -3.618885      0.9030042
     10305.0000         0.8228         0.6823        -999.25       -40.9926      -3.437733      0.9097136
     10305.5000         0.8167         0.6832        -999.25       -40.8125      -3.256477      0.9164268
     10306.0000         0.8107         0.6842        -999.25        -40.705      -3.147827      0.9204509
     10306.5000         0.8128         0.6851        -999.25        -40.776       -3.21767      0.9178641
     10307.0000         0.8163         0.6861        -999.25        -40.847      -3.287518      0.9152771
     10307.5000         0.8198         0.6871        -999.25       -40.9182      -3.357563      0.9126828
     10308.0000         0.8231          0.688        -999.25       -40.7885      -3.226707      0.9175293
     10308.5000         0.8262         0.6892        -999.25       -40.6282      -3.065254      0.9235091
     10309.0000         0.8293         0.6907        -999.25       -40.4678      -2.903698      0.9294927
     10309.5000         0.8324         0.6921        -999.25       -40.3074      -2.742146      0.9354761
     10310.0000         0.8355         0.6936        -999.25       -40.1277      -2.561291      0.9421744
     10310.5000         0.8386         0.6951        -999.25       -39.9431      -2.375538      0.9490542
     10311.0000         0.8333         0.6966        -999.25       -39.7582      -2.189484      0.9559451
     10311.5000         0.8251          0.698        -999.25       -39.5733      -2.003429       0.962836
     10312.0000         0.8168         0.6971        -999.25       -39.4958      -1.924774      0.9657491
     10312.5000         0.8102         0.6941        -999.25       -39.5208       -1.94862      0.9648659
     10313.0000         0.8139         0.6921        -999.25       -39.5457      -1.972366      0.9639865
     10313.5000         0.8176         0.6974        -999.25       -39.5706      -1.996109       0.963107
     10314.0000         0.8216         0.7026        -999.25       -39.5955      -2.019859      0.9622274
     10314.5000         0.8284         0.7079        -999.25       -39.6205      -2.043701      0.9613444
     10315.0000         0.8352         0.7131        -999.25       -39.7643      -2.186352      0.9560611
     10315.5000         0.8421         0.7154        -999.25       -39.9277      -2.348595       0.950052
     10316.0000         0.8489         0.7143        -999.25        -40.091      -2.510742      0.9440466
     10316.5000         0.8557         0.7132        -999.25       -40.2458      -2.664387       0.938356
     10317.0000         0.8581         0.7117        -999.25       -40.2228      -2.640236      0.9392505
     10317.5000         0.8541         0.7035        -999.25       -40.1998      -2.616077      0.9401453
     10318.0000         0.8435         0.6954        -999.25       -40.1768      -2.591923      0.9410399
     10318.5000         0.8329         0.6872        -999.25       -40.1539      -2.567871      0.9419307
     10319.0000         0.8223         0.6791        -999.25       -40.1309      -2.543716      0.9428253
     10319.5000         0.8116         0.6709        -999.25       -40.0975      -2.509163      0.9441051
     10320.0000         0.7989         0.6638        -999.25        -40.017      -2.427505      0.9471294
     10320.5000         0.7858          0.657        -999.25       -39.9366      -2.345955      0.9501498
     10321.0000         0.7726         0.6502        -999.25       -39.8561      -2.264297      0.9531742
     10321.5000         0.7663         0.6433        -999.25       -39.7757      -2.182747      0.9561946
     10322.0000         0.7601         0.6365        -999.25       -39.9016      -2.307491      0.9515744
     10322.5000         0.7538         0.6324        -999.25       -40.1182      -2.522938      0.9435949
     10323.0000         0.7501         0.6303        -999.25        -40.364      -2.767582       0.934534
     10323.5000         0.7506         0.6282        -999.25       -40.6099      -3.012329      0.9254693
     10324.0000          0.751         0.6261        -999.25       -40.8557      -3.256977      0.9164082
     10324.5000         0.7514          0.624        -999.25       -40.8329      -3.233021      0.9172955
     10325.0000         0.7519         0.6286        -999.25       -40.7861      -3.185066      0.9190716
     10325.5000         0.7614         0.6477        -999.25       -40.7393      -3.137112      0.9208477
     10326.0000          0.774         0.6667        -999.25       -40.6814       -3.07806      0.9230348
     10326.5000         0.7867         0.6858        -999.25       -40.5931      -2.988605       0.926348
