#------------------------------------------------------------------------------
# Created by    : vladimir.rabinovich
# Created on    : 09/19/2023 17:19:40
#------------------------------------------------------------------------------
~Version Information Section
VERS.           2.0     :   CWLS log ASCII Standard - VERSION 2.0
WRAP.           NO      :   One line per depth step
~Well Information Section
#MNEM       .UNIT                                         VALUE :DESCRIPTION
#------------------------------------------------------------------------------
STRT        .FT                                             305 :START DEPTH
STOP        .FT                                          9892.5 :STOP DEPTH
STEP        .FT                                             0.5 :STEP      
NULL        .                                           -999.25 :NULL      
COMP        .                         ATLANTIC RICHFIELD CO THE :COMPANY   
WELL        .                               OCS G07247 ST00BP00 :WELL      
FLD         .                                           WILDCAT :FIELD     
LOC         .                                                   :LOCATION  
CNTY        .                             GALVESTON LARGE BLOCK :LOCATION  
STAT        .                                             TEXAS :STATE     
CTRY        .                                     UNITED STATES :COUNTRY   
SRVC        .                                                   :SERVICE COMPANY
DATE        .                             9/13/2023 11:19:27 AM :LOG DATE  
API         .                                    42706401220000 :API NUMBER
UWI         .                                    42706401220000 :UNIQUE WELL ID
XCOORD      .                                  995038.545578968 :SURFACE X 
YCOORD      .                                  10445559.0196594 :SURFACE Y 
LAT         .                                         28.768363 :LATITUDE  
LON         .                                        -95.014888 :LONGITUDE 
ELEV        .FT                                              98 :ELEVATION VALUE
ELEV_TYPE   .                                                KB :ELEVATION REFERENCE TYPE
~Curve Information Section
#MNEM       .UNIT                                      API CODE :CURVE DESCRIPTION
#------------------------------------------------------------------------------
DEPT        .FT                                                 :DEPTH     
ALL         .OHMM                                               :          
CILD        .MMHO                                               :          
GR          .GAPI                                               :          
GR_NORM     .GAPI                                               :GammaRay Normalized
ILD         .OHMM                                               :          
SP          .MV                                                 :          
VSH_GR      .V/V                                                :Volume of Shale from GR
~A        DEPTH            ALL           CILD             GR        GR_NORM            ILD             SP         VSH_GR
# ...
      8579.5000         0.8149       1362.723        76.2904       80.95764         0.7933        29.2354              1
      8580.0000         0.8163       1362.697        77.1337       81.90305         0.7933        29.0579              1
      8580.5000         0.8175       1363.182        77.9086       82.77245         0.7932        28.8804              1
      8581.0000         0.8188       1363.664        77.9656       82.84417         0.7932        28.7247              1
      8581.5000           0.82       1364.148        77.4052        82.2299         0.7931        28.6494              1
      8582.0000         0.8212       1363.686        76.7169       81.47353         0.7931         28.574              1
      8582.5000         0.8225       1363.219        76.0286       80.71715          0.793        28.4984              1
      8583.0000         0.8238       1362.752        75.3402       79.96066          0.793        28.4231      0.9991629
      8583.5000         0.8257       1362.285         74.652       79.20438          0.793        28.3524       0.983072
      8584.0000         0.8275       1361.818        73.9636       78.44789         0.7932        28.2929      0.9669764
      8584.5000         0.8293        1360.23        73.5973       78.04929         0.7942        28.2334      0.9584956
      8585.0000         0.8311       1357.557        73.2621       77.68524         0.7953        28.1739      0.9507498
      8585.5000         0.8329       1354.879        73.4723       77.92719         0.7963        28.1144      0.9558977
      8586.0000         0.8343       1352.205        74.0399       78.56627         0.7974         28.096      0.9694951
      8586.5000         0.8354       1349.529        75.0844       79.73521         0.7985        28.0793      0.9943661
      8587.0000         0.8364       1346.855        76.4683       81.28128         0.7995        28.2005              1
      8587.5000         0.8374       1343.828         78.347       83.37713         0.8006        28.3215              1
      8588.0000         0.8385       1340.301        80.3746       85.63841         0.8016        28.4425              1
      8588.5000         0.8392       1336.773        81.6697       87.08581         0.8027        28.5798              1
      8589.0000         0.8374       1333.246        81.9556       87.41187         0.8038        28.8531              1
      8589.5000         0.8355       1329.725        80.3219       85.60504          0.803        29.1263              1
      8590.0000         0.8337       1326.197        75.2213       79.94611         0.8015        29.3996      0.9988535
      8590.5000         0.8319       1323.064        73.0784        77.5735         0.8001        29.6729      0.9483724
      8591.0000         0.8296       1319.969        71.6416       75.98547         0.7986        29.9483      0.9145844
      8591.5000         0.8261       1316.873        70.9413       75.21575         0.7972        30.2297      0.8982075
      8592.0000         0.8226       1313.777        70.2397       74.44459         0.7957        30.3732      0.8817998
      8592.5000         0.8191       1312.889        69.6548        73.8031         0.7942        30.2534      0.8681511
      8593.0000         0.8156       1313.635        69.2126       73.32017         0.7928        30.1337      0.8578759
      8593.5000         0.8123       1316.035        69.6992       73.86923         0.7913         30.014      0.8695582
      8594.0000          0.809       1324.395        70.4908       74.75718         0.7898        29.8942      0.8884506
      8594.5000         0.8058       1338.289        71.2813       75.64391         0.7884        29.7745      0.9073173
      8595.0000         0.8033       1352.205        72.2722       76.75331         0.7882        29.6547      0.9309215
      8595.5000         0.8008       1365.764        73.3606       77.97105         0.7883        29.5379      0.9568308
      8596.0000         0.7983       1377.789         74.449       79.18877         0.7883        29.4247      0.9827397
      8596.5000         0.7958       1389.791        75.0687       79.88573         0.7884        29.3115      0.9975687
      8597.0000         0.7935       1401.791        75.6694       80.56158         0.7885        29.1984              1
      8597.5000         0.7913       1409.973        76.2688       81.23596         0.7885        29.0852              1
      8598.0000         0.7892       1416.523        76.8683       81.91048         0.7886        28.9721              1
      8598.5000         0.7875       1416.961        77.4689       82.58621         0.7887        28.8589              1
      8599.0000         0.7985       1412.721        77.8154        82.9796         0.7902        28.7472              1
      8599.5000         0.8183        1390.58        77.5157       82.65501         0.7924        28.6437              1
      8600.0000         0.8382       1363.848        77.2161       82.33052         0.7946        28.5404              1
      8600.5000         0.8539       1344.014        76.9156       82.00502         0.7968         28.437              1
      8601.0000         0.8681       1324.418         76.616       81.68053          0.799        28.3336              1
      8601.5000         0.8824       1304.799        75.8544        80.8427         0.8012        28.2302              1
      8602.0000         0.8908       1293.469        75.0916       80.00354         0.8034          28.14              1
      8602.5000         0.8932        1283.48        74.3252       79.16039         0.8053        28.0682       0.982136
      8603.0000         0.8956       1273.504        72.9678       77.66055         0.8036        27.9964      0.9502245
      8603.5000         0.8719       1270.961        70.8896       75.35986         0.8018        27.9246      0.9012735
      8604.0000         0.8471       1269.047        68.0522       72.21558            0.8        27.8528      0.8343741
      8604.5000         0.8386       1272.965        66.7814       70.81198         0.7982        27.7992      0.8045102
      8605.0000         0.8314       1276.881        65.6954       69.61371         0.7964          27.78      0.7790151
      8605.5000         0.8278       1280.797        64.8918       68.72923         0.7946        27.7608      0.7601963
      8606.0000         0.8275       1286.463        65.5272       69.44361         0.7928        27.7439       0.775396
      8606.5000         0.8283       1292.475        66.3153       70.32768          0.791        27.7784       0.794206
      8607.0000          0.829       1298.477        67.1033       71.21163         0.7892         27.813      0.8130134
      8607.5000         0.8292       1304.477        67.8914        72.0957         0.7874        27.8884      0.8318235
      8608.0000         0.8292       1310.477        68.8691       73.19044          0.788        28.0009      0.8551157
      8608.5000         0.8293        1316.49        70.4283       74.93127         0.7891        28.1446      0.8921546
      8609.0000         0.8294       1321.377          71.99       76.67489         0.7902        28.3347      0.9292529
      8609.5000         0.8295       1325.533        73.2717        78.1074         0.7913        28.5248      0.9597319
      8610.0000         0.8294       1329.688        73.7294       78.62435         0.7924        28.7149      0.9707309
      8610.5000         0.8271       1333.838        72.6927       77.48087         0.7934        28.9053      0.9464014
      8611.0000         0.8248       1337.904        71.6765       76.36015         0.7945        29.0954      0.9225565
      8611.5000         0.8225       1340.475        70.6589       75.23788         0.7956        29.3338      0.8986782
      8612.0000         0.8202       1343.041        69.6427       74.11717         0.7967        29.4987      0.8748335
      8612.5000         0.8168       1345.605         68.931       73.33479         0.7978        28.8849      0.8581871
