#------------------------------------------------------------------------------
# Created by    : vladimir.rabinovich
# Created on    : 09/19/2023 17:20:24
#------------------------------------------------------------------------------
~Version Information Section
VERS.           2.0     :   CWLS log ASCII Standard - VERSION 2.0
WRAP.           NO      :   One line per depth step
~Well Information Section
#MNEM       .UNIT                                         VALUE :DESCRIPTION
#------------------------------------------------------------------------------
STRT        .FT                                            2979 :START DEPTH
STOP        .FT                                           11003 :STOP DEPTH
STEP        .FT                                             0.5 :STEP      
NULL        .                                           -999.25 :NULL      
COMP        .                                        TEXACO USA :COMPANY   
WELL        .                               OCS G01821 ST00BP00 :WELL      
FLD         .                                           WILDCAT :FIELD     
LOC         .                                                   :LOCATION  
CNTY        .                           HIGH ISLAND LARGE BLOCK :LOCATION  
STAT        .                                             TEXAS :STATE     
CTRY        .                                     UNITED STATES :COUNTRY   
SRVC        .                                                   :SERVICE COMPANY
DATE        .                             9/13/2023 11:19:15 AM :LOG DATE  
API         .                                    42708300170000 :API NUMBER
UWI         .                                    42708300170000 :UNIQUE WELL ID
XCOORD      .                                  1345073.13508324 :SURFACE X 
YCOORD      .                                  10640242.4404634 :SURFACE Y 
LAT         .                                         29.315788 :LATITUDE  
LON         .                                        -93.927032 :LONGITUDE 
ELEV        .FT                                              74 :ELEVATION VALUE
ELEV_TYPE   .                                                KB :ELEVATION REFERENCE TYPE
~Curve Information Section
#MNEM       .UNIT                                      API CODE :CURVE DESCRIPTION
#------------------------------------------------------------------------------
DEPT        .FT                                                 :DEPTH     
ASN         .OHMM                                               :          
CILD        .MMHO                                               :          
ILD         .OHMM                                               :          
SP          .MV                                                 :          
SP_NORM     .MV                                                 :SP Normalized
VSH_SP      .V/V                                                :Volume of Shale from SP
~A        DEPTH            ASN           CILD            ILD             SP        SP_NORM         VSH_SP
# ...
      9895.0000         0.6474       1686.594         0.5139       -34.2576      -1.530327      0.9914463
      9895.5000         0.6514       1697.471         0.5169       -33.3026     -0.5753288              1
      9896.0000         0.6554       1708.324         0.5199       -32.6041      0.1231728              1
      9896.5000         0.6603       1719.203         0.5221       -32.2792      0.4480705              1
      9897.0000         0.6662       1730.057         0.5229       -32.8519     -0.1246262              1
      9897.5000          0.672       1720.352         0.5237       -33.4258     -0.6985283              1
      9898.0000         0.6778       1688.764         0.5246       -34.1019      -1.374626      0.9939576
      9898.5000          0.686       1657.127         0.5254        -34.778      -2.050728      0.9830528
      9899.0000         0.7095       1625.539         0.5308        -35.454      -2.726727      0.9721496
      9899.5000         0.7329       1593.252         0.5422       -36.1301      -3.402828      0.9612447
      9900.0000         0.7564       1553.381         0.5537       -35.9645      -3.237228      0.9639156
      9900.5000         0.7798        1513.51         0.5652       -35.4821      -2.754829      0.9716963
      9901.0000         0.7973       1473.639          0.581       -34.9647      -2.237427      0.9800415
      9901.5000         0.8124       1433.768         0.6094       -34.4094      -1.682129      0.9889979
      9902.0000         0.8275       1393.945         0.6378       -33.8934      -1.166126      0.9973205
      9902.5000         0.8426       1368.396         0.6614       -34.0757      -1.348427      0.9943802
      9903.0000         0.8577       1342.848         0.6843       -34.2579      -1.530628      0.9914415
      9903.5000         0.8729       1317.297         0.7072       -34.6572      -1.929928      0.9850011
      9904.0000         0.8929       1291.748         0.7301       -35.0905      -2.363228      0.9780124
      9904.5000         0.9134       1266.197         0.7409       -35.5231       -2.79583       0.971035
      9905.0000         0.9339       1240.648         0.7464       -35.9564       -3.22913      0.9640463
      9905.5000         0.9544       1225.254         0.7518       -36.3896      -3.662327      0.9570593
      9906.0000         0.9749       1212.654         0.7572       -36.8223      -4.095028      0.9500802
      9906.5000         0.9929       1200.053         0.7626       -37.2556      -4.528328      0.9430915
      9907.0000         1.0042       1187.453         0.7568       -37.6888      -4.961529      0.9361044
      9907.5000         0.9675       1174.854         0.7407       -38.1968      -5.469528      0.9279109
      9908.0000         0.9352       1212.455         0.7247        -38.731      -6.003727      0.9192947
      9908.5000         0.9029       1285.311         0.7014       -38.1047      -5.377426      0.9293963
      9909.0000         0.8706       1369.744         0.6724       -37.4772      -4.749928      0.9395173
      9909.5000         0.8382       1454.178         0.6433       -36.8497      -4.122429      0.9496382
      9910.0000         0.8136       1518.549         0.6142       -36.2222      -3.494926      0.9597592
      9910.5000         0.7989       1577.135         0.6028       -35.5685      -2.841228      0.9703028
      9911.0000         0.7842       1625.152         0.5916       -34.7332      -2.005928      0.9837754
      9911.5000         0.7694       1633.859         0.5804       -33.9482      -1.220928      0.9964367
      9912.0000         0.7547       1627.373         0.5692       -33.7679      -1.040627      0.9993447
      9912.5000         0.7466       1617.842         0.5583       -33.5874     -0.8601265              1
      9913.0000         0.7449       1608.322         0.5589       -33.4072     -0.6799278              1
      9913.5000         0.7431       1598.805         0.5594        -33.227     -0.4997292              1
      9914.0000         0.7414       1589.285           0.56       -33.0464     -0.3191261              1
      9914.5000         0.7397       1579.766         0.5606       -32.8662     -0.1389275              1
      9915.0000         0.7379       1570.248         0.5612       -32.6624     0.06487274              1
      9915.5000         0.7406       1560.717         0.5617       -32.4289      0.2983704              1
      9916.0000         0.7467       1551.197         0.5623       -32.1957      0.5315704              1
      9916.5000         0.7529        1538.41         0.5725       -31.9623      0.7649727              1
      9917.0000          0.759       1522.766         0.5838       -31.7289      0.9983711              1
      9917.5000         0.7652       1507.123         0.5952       -31.4958       1.231472              1
      9918.0000         0.7713       1491.479         0.6066       -31.2623       1.464972              1
      9918.5000         0.7775       1475.859          0.618       -31.0289       1.698372              1
      9919.0000         0.7836       1460.215         0.6294       -30.7957       1.931572              1
      9919.5000         0.7898        1444.57         0.6435       -30.5623       2.164972              1
      9920.0000         0.8003       1428.928          0.658       -30.3289       2.398373              1
      9920.5000         0.8108       1412.459         0.6725       -30.1636       2.563671              1
      9921.0000         0.8213       1394.494         0.6869       -30.3314       2.395872              1
      9921.5000         0.8318       1376.529         0.7013       -30.4991       2.228172              1
      9922.0000         0.8423       1358.566         0.7067       -30.6669       2.060371              1
      9922.5000         0.8528       1340.627         0.7115        -30.835       1.892273              1
      9923.0000         0.8634       1327.553         0.7163       -31.0027       1.724571              1
      9923.5000         0.8739       1317.035         0.7211       -31.1705       1.556772              1
      9924.0000         0.8844       1336.709          0.726       -31.3386       1.388672              1
      9924.5000         0.8906       1357.668         0.7198       -31.5175       1.209772              1
      9925.0000         0.8815       1373.885         0.7134        -31.699       1.028273              1
      9925.5000         0.8724       1390.078         0.7071       -31.8802      0.8470726              1
      9926.0000         0.8633       1406.297         0.7007       -32.0616      0.6656723              1
      9926.5000         0.8553       1406.459         0.6944       -32.2431      0.4841728              1
      9927.0000          0.859       1395.941          0.688       -32.4246      0.3026733              1
      9927.5000           0.89         1379.1         0.6817       -32.6057      0.1215706              1
      9928.0000         0.8689       1360.486         0.6753       -32.7872    -0.05992889              1
      9928.5000         0.8425       1341.873         0.6698       -32.9033     -0.1760292              1
      9929.0000          0.816       1350.807         0.6643        -32.947     -0.2197266              1
      9929.5000         0.8069       1367.947         0.6589       -32.9907     -0.2634277              1
      9930.0000          0.831       1395.543         0.6534       -33.0344     -0.3071289              1
      9930.5000         0.8551       1423.139         0.6479       -33.0782     -0.3509293              1
      9931.0000         0.8698       1444.646         0.6425       -33.1218     -0.3945274              1
      9931.5000         0.8531        1465.08         0.6384       -33.1656     -0.4383278              1
      9932.0000         0.8364       1485.516         0.6373       -33.2093      -0.482029              1
      9932.5000         0.8197        1505.65         0.6363       -33.2172     -0.4899292              1
