#------------------------------------------------------------------------------
# Created by    : vladimir.rabinovich
# Created on    : 09/19/2023 17:20:03
#------------------------------------------------------------------------------
~Version Information Section
VERS.           2.0     :   CWLS log ASCII Standard - VERSION 2.0
WRAP.           NO      :   One line per depth step
~Well Information Section
#MNEM       .UNIT                                         VALUE :DESCRIPTION
#------------------------------------------------------------------------------
STRT        .FT                                             945 :START DEPTH
STOP        .FT                                           12004 :STOP DEPTH
STEP        .FT                                             0.5 :STEP      
NULL        .                                           -999.25 :NULL      
COMP        .                                    EXXON CO U S A :COMPANY   
WELL        .                                     ST TR 00819-L :WELL      
FLD         .                                           WILDCAT :FIELD     
LOC         .                                                   :LOCATION  
CNTY        .                        MUSTANG ISLAND LARGE BLOCK :LOCATION  
STAT        .                                             TEXAS :STATE     
CTRY        .                                     UNITED STATES :COUNTRY   
SRVC        .                                                   :SERVICE COMPANY
DATE        .                             9/13/2023 11:18:55 AM :LOG DATE  
API         .                                    42702301310000 :API NUMBER
UWI         .                                    42702301310000 :UNIQUE WELL ID
XCOORD      .                                  274042.524369281 :SURFACE X 
YCOORD      .                                  9990401.22532542 :SURFACE Y 
LAT         .                                        27.4671591 :LATITUDE  
LON         .                                       -97.2129423 :LONGITUDE 
ELEV        .FT                                              93 :ELEVATION VALUE
ELEV_TYPE   .                                                KB :ELEVATION REFERENCE TYPE
~Curve Information Section
#MNEM       .UNIT                                      API CODE :CURVE DESCRIPTION
#------------------------------------------------------------------------------
DEPT        .FT                                                 :DEPTH     
ASFL        .OHMM                                               :          
CILD        .MMHO                                               :          
GR          .GAPI                                               :          
GR_NORM     .GAPI                                               :GammaRay Normalized
ILD         .OHMM                                               :          
SP          .MV                                                 :          
SP_NORM     .MV                                                 :SP Normalized
VSH_GR      .V/V                                                :Volume of Shale from GR
VSH_SP      .V/V                                                :Volume of Shale from SP
~A        DEPTH           ASFL           CILD             GR        GR_NORM            ILD             SP        SP_NORM         VSH_GR         VSH_SP
# ...
      3886.5000         0.6898       1300.184        -999.25        -999.25         0.7344       -30.5627          -2.09        -999.25      0.9808772
      3887.0000         0.6881       1306.869        -999.25        -999.25         0.7384       -30.6739      -2.210514        -999.25      0.9787629
      3887.5000         0.6863       1315.635        -999.25        -999.25         0.7423       -30.7589      -2.304825        -999.25      0.9771084
      3888.0000         0.6846       1324.395        -999.25        -999.25         0.7434        -30.844      -2.399237        -999.25       0.975452
      3888.5000         0.6829        1329.26        -999.25        -999.25         0.7424       -30.9291      -2.493649        -999.25      0.9737957
      3889.0000         0.6824       1317.361        -999.25        -999.25         0.7415       -31.0141      -2.587959        -999.25      0.9721411
      3889.5000          0.682       1280.715        -999.25        -999.25         0.7397       -31.0992      -2.682371        -999.25      0.9704847
      3890.0000         0.6815       1213.908        -999.25        -999.25         0.7314       -31.2044      -2.796885        -999.25      0.9684757
      3890.5000         0.6842       1164.879        -999.25        -999.25         0.7231       -31.3761      -2.977898        -999.25         0.9653
      3891.0000         0.6877       1123.627        -999.25        -999.25         0.7149       -31.5613      -3.172409        -999.25      0.9618875
      3891.5000         0.6912       1084.107        -999.25        -999.25         0.7066       -31.8047      -3.425121        -999.25       0.957454
      3892.0000          0.697        1047.83        -999.25        -999.25         0.7012        -32.048      -3.677732        -999.25      0.9530222
      3892.5000         0.7069       1007.792        -999.25        -999.25         0.6994       -32.4218      -4.060843        -999.25       0.946301
      3893.0000         0.7307       947.0264        -999.25        -999.25         0.7176       -32.8041      -4.452457        -999.25      0.9394306
      3893.5000         0.9127       868.9775        -999.25        -999.25         0.7882       -33.1868      -4.844467        -999.25      0.9325532
      3894.0000         1.0521       807.7168        -999.25        -999.25         0.8967       -33.5692      -5.236179        -999.25      0.9256811
      3894.5000         1.1449        758.417        -999.25        -999.25         0.9903       -34.1486      -5.824894        -999.25      0.9153528
      3895.0000         1.2076       721.2373        -999.25        -999.25         1.0598       -34.8719      -6.557503        -999.25         0.9025
      3895.5000         1.2985       700.7471        -999.25        -999.25         1.1168       -36.0209      -7.715816        -999.25      0.8821787
      3896.0000         1.3824       685.9766        -999.25        -999.25         1.1728       -36.8072      -8.511431        -999.25      0.8682205
      3896.5000         1.4151       674.0908        -999.25        -999.25         1.2287       -37.8246      -9.538141        -999.25       0.850208
      3897.0000         1.4347       664.8623        -999.25        -999.25         1.2712       -39.0748      -10.79765        -999.25      0.8281114
      3897.5000         1.4501       668.1152        -999.25        -999.25         1.3108       -40.6191      -12.35126        -999.25       0.800855
      3898.0000          1.423       671.3672        -999.25        -999.25          1.338       -40.3412      -12.08268        -999.25       0.805567
      3898.5000         1.3959       676.3135        -999.25        -999.25         1.3471       -39.8859      -11.63669        -999.25      0.8133914
      3899.0000         1.3686         686.54        -999.25        -999.25         1.3523       -39.1663       -10.9264        -999.25      0.8258526
      3899.5000         1.3261       708.5215        -999.25        -999.25         1.3395       -38.4473      -10.21671        -999.25      0.8383033
      3900.0000         1.2712       748.3633        -999.25        -999.25         1.3098       -37.6998      -9.478523        -999.25       0.851254
      3900.5000          1.217       822.2773        -999.25        -999.25         1.2473       -36.9283      -8.716335        -999.25      0.8646257
      3901.0000         1.1512       1010.466        -999.25        -999.25         1.1753       -38.4324      -10.22975        -999.25      0.8380746
      3901.5000         1.1035       1148.537        -999.25        -999.25          1.103       -40.0829      -11.88956        -999.25      0.8089551
      3902.0000         1.0366       1238.805        -999.25        -999.25         1.0429       -41.7335      -13.54947        -999.25      0.7798338
      3902.5000         0.9652       1260.658        -999.25        -999.25         0.9698       -42.0739      -13.89918        -999.25      0.7736986
      3903.0000         0.9359       1192.588        -999.25        -999.25         0.8993       -41.2937       -13.1283        -999.25      0.7872229
      3903.5000         0.9157       1145.293        -999.25        -999.25         0.8391       -40.4418      -12.28571        -999.25      0.8020051
      3904.0000         0.9234       1095.473        -999.25        -999.25         0.8118        -39.569      -11.42222        -999.25       0.817154
      3904.5000         0.9401       1053.996        -999.25        -999.25         0.8382       -38.7753      -10.63783        -999.25      0.8309153
      3905.0000         0.9574       1008.608        -999.25        -999.25         0.8785       -39.4875      -11.35934        -999.25      0.8182571
      3905.5000         0.9785       965.6221        -999.25        -999.25         0.9223       -40.8798      -12.76096        -999.25      0.7936674
      3906.0000         1.0037       925.7813        -999.25        -999.25         0.9674       -41.5902      -13.48067        -999.25      0.7810409
      3906.5000         1.0299       881.4824        -999.25        -999.25         1.0094       -42.0399      -13.93968        -999.25       0.772988
      3907.0000         1.0627       845.3672        -999.25        -999.25         1.0414        -42.539      -14.44809        -999.25      0.7640685
      3907.5000         1.1073       843.4355        -999.25        -999.25         1.0615       -43.2722      -15.19061        -999.25       0.751042
      3908.0000         1.1599       863.7285        -999.25        -999.25         1.0906       -44.0598      -15.98752        -999.25      0.7370611
      3908.5000         1.1965       884.0078        -999.25        -999.25         1.1197       -45.5497      -17.48673        -999.25      0.7107591
      3909.0000         1.2378       908.9434        -999.25        -999.25         1.1487       -46.5999      -18.54624        -999.25      0.6921712
      3909.5000         1.2898        932.207        -999.25        -999.25         1.1831       -49.5093      -21.46495        -999.25      0.6409658
      3910.0000         1.3282       950.7031        -999.25        -999.25          1.221        -51.655      -23.61996        -999.25      0.6031585
      3910.5000         1.3992       967.0459        -999.25        -999.25         1.2622       -51.0684      -23.04268        -999.25      0.6132864
      3911.0000         1.4414       983.6123        -999.25        -999.25         1.3171       -50.6064      -22.58999        -999.25      0.6212283
      3911.5000         1.5522       1008.856        -999.25        -999.25         1.3721       -50.2033       -22.1962        -999.25      0.6281368
      3912.0000         1.5332       1036.688        -999.25        -999.25          1.381       -49.8167      -21.81891        -999.25      0.6347559
      3912.5000         1.5143       1076.777        -999.25        -999.25         1.3575       -49.4398      -21.45132        -999.25      0.6412048
