#------------------------------------------------------------------------------
# Created by    : vladimir.rabinovich
# Created on    : 09/19/2023 17:20:24
#------------------------------------------------------------------------------
~Version Information Section
VERS.           2.0     :   CWLS log ASCII Standard - VERSION 2.0
WRAP.           NO      :   One line per depth step
~Well Information Section
#MNEM       .UNIT                                         VALUE :DESCRIPTION
#------------------------------------------------------------------------------
STRT        .FT                                            3071 :START DEPTH
STOP        .FT                                           14991 :STOP DEPTH
STEP        .FT                                             0.5 :STEP      
NULL        .                                           -999.25 :NULL      
COMP        .                                        TEXACO USA :COMPANY   
WELL        .                                     ST TR 00012-L :WELL      
FLD         .                                           WILDCAT :FIELD     
LOC         .                                                   :LOCATION  
CNTY        .                           HIGH ISLAND LARGE BLOCK :LOCATION  
STAT        .                                             TEXAS :STATE     
CTRY        .                                     UNITED STATES :COUNTRY   
SRVC        .                                                   :SERVICE COMPANY
DATE        .                             9/13/2023 11:19:15 AM :LOG DATE  
API         .                                    42708000680000 :API NUMBER
UWI         .                                    42708000680000 :UNIQUE WELL ID
XCOORD      .                                  1354682.00685938 :SURFACE X 
YCOORD      .                                  10733491.7088446 :SURFACE Y 
LAT         .                                        29.5724948 :LATITUDE  
LON         .                                       -93.8991324 :LONGITUDE 
ELEV        .FT                                              44 :ELEVATION VALUE
ELEV_TYPE   .                                                KB :ELEVATION REFERENCE TYPE
~Curve Information Section
#MNEM       .UNIT                                      API CODE :CURVE DESCRIPTION
#------------------------------------------------------------------------------
DEPT        .FT                                                 :DEPTH     
ASN         .OHMM                                               :          
CILD        .MMHO                                               :          
ILD         .OHMM                                               :          
SP          .MV                                                 :          
SP_NORM     .MV                                                 :SP Normalized
VSH_SP      .V/V                                                :Volume of Shale from SP
~A        DEPTH            ASN           CILD            ILD             SP        SP_NORM         VSH_SP
# ...
      7821.0000         0.6516        1528.59         0.4773       -45.5748      0.9660797              1
      7821.5000         0.6708       1505.646         0.4841       -45.0693       1.471577              1
      7822.0000         0.6899       1482.676         0.4908       -44.5638       1.977077              1
      7822.5000         0.7077       1460.287         0.4976       -44.0588       2.482079              1
      7823.0000         0.7178       1450.125         0.5043       -43.5533       2.987579              1
      7823.5000         0.7278       1439.963         0.5111       -43.0477       3.493179              1
      7824.0000         0.7378        1434.24         0.5178       -42.5422        3.99868              1
      7824.5000           0.74       1479.537         0.5204       -42.0367       4.504177              1
      7825.0000         0.7315       1518.799         0.5216       -41.7463       4.794579              1
      7825.5000          0.723       1556.135         0.5228       -41.6434        4.89748              1
      7826.0000         0.7144       1593.469          0.524       -41.5406       5.000278              1
      7826.5000         0.7059        1626.75         0.5252       -41.4379       5.102978              1
      7827.0000         0.6977       1656.123         0.5264        -41.335       5.205879              1
      7827.5000         0.6916       1685.496         0.5275       -41.2324       5.308479              1
      7828.0000         0.6854       1705.227         0.5287       -41.1295       5.411377              1
      7828.5000         0.6793       1712.979         0.5299       -41.0268        5.51408              1
      7829.0000         0.6732       1717.242         0.5311        -40.924       5.616879              1
      7829.5000         0.6771       1691.775         0.5323       -40.8213       5.719578              1
      7830.0000         0.6869       1666.285         0.5335       -40.7184       5.822479              1
      7830.5000         0.6967       1640.818         0.5346       -40.6157       5.925179              1
      7831.0000         0.7066       1615.326         0.5358       -40.5129       6.027977              1
      7831.5000         0.7164       1590.848          0.537        -40.412        6.12888              1
      7832.0000         0.7223       1575.617         0.5385       -40.3859        6.15498              1
      7832.5000         0.7247       1560.387         0.5409       -40.3598        6.18108              1
      7833.0000         0.7271       1545.156         0.5432       -40.3337        6.20718              1
      7833.5000         0.7295       1529.926         0.5456       -40.3076        6.23328              1
      7834.0000         0.7319       1514.695          0.548       -40.2816       6.259277              1
      7834.5000         0.7343       1521.371         0.5504       -40.2555       6.285378              1
      7835.0000         0.7367       1535.785         0.5527        -40.261       6.279877              1
      7835.5000         0.7395       1550.176         0.5551       -40.4305       6.110378              1
      7836.0000         0.7428       1564.566         0.5575       -40.6003       5.940578              1
      7836.5000         0.7461       1578.955         0.5599         -40.77       5.770878              1
      7837.0000         0.7494       1588.799         0.5623       -40.9642       5.576679              1
      7837.5000         0.7527       1588.387         0.5646       -42.0348       4.506077              1
      7838.0000          0.756       1587.977          0.567       -43.1066       3.434277              1
      7838.5000         0.7593       1587.564         0.5694       -44.1784        2.36248              1
      7839.0000         0.7639       1579.277         0.5718        -45.249       1.291878              1
      7839.5000         0.7734        1536.75         0.5786       -46.3208      0.2200775              1
      7840.0000         0.7828       1494.271         0.5858       -47.3975     -0.8566208              1
      7840.5000         0.7923       1451.746          0.593        -48.483      -1.942123      0.9855058
      7841.0000         0.8017       1406.895         0.6002       -48.3652      -1.824322      0.9873181
      7841.5000         0.8112        1346.07         0.6074       -47.9719      -1.431023      0.9933689
      7842.0000         0.8207       1285.246         0.6146       -47.5778      -1.036922       0.999432
      7842.5000         0.8286       1258.691         0.6218       -47.1844     -0.6435204              1
      7843.0000         0.8266       1237.576          0.629       -46.7904     -0.2495232              1
      7843.5000          0.821       1216.486         0.6362        -46.397      0.1438789              1
      7844.0000         0.8126       1198.857         0.6334       -46.0029      0.5379791              1
      7844.5000         0.8041       1230.258         0.6297       -45.6096      0.9312782              1
      7845.0000         0.7957       1295.531          0.626       -45.2155       1.325378              1
      7845.5000         0.7872       1360.807         0.6222       -44.9473       1.593578              1
      7846.0000         0.7788        1426.08         0.6185       -45.0116       1.529278              1
      7846.5000         0.7704       1461.389         0.6056       -45.0759       1.464977              1
      7847.0000         0.7619       1494.668         0.5907       -45.1403       1.400578              1
      7847.5000         0.7535       1527.947         0.5758       -45.2045        1.33638              1
      7848.0000         0.7407       1561.229         0.5608       -45.2689       1.271976              1
      7848.5000         0.7276       1632.189         0.5459       -45.3331       1.207779              1
      7849.0000         0.7146       1706.166          0.531       -45.3975       1.143379              1
      7849.5000         0.7018       1775.199         0.5161       -45.4618       1.079079              1
      7850.0000         0.6895       1843.539         0.5011       -45.5261       1.014778              1
      7850.5000         0.6771       1896.797         0.4862       -45.5904      0.9504776              1
      7851.0000         0.6648       1944.764         0.4713       -45.6547      0.8861771              1
      7851.5000         0.6592       1977.797         0.4675       -45.7191      0.8217773              1
      7852.0000           0.66       1995.684         0.4661       -45.8193      0.7215767              1
      7852.5000         0.6609       2076.301         0.4647       -45.9996      0.5412788              1
      7853.0000         0.6617       2085.016         0.4634       -46.1795      0.3613777              1
      7853.5000         0.6625       2093.746          0.462       -46.3598      0.1810799              1
      7854.0000         0.6633       2080.195         0.4607       -46.5398    0.001079559              1
      7854.5000         0.6641       2050.277         0.4593       -46.7198     -0.1789207              1
      7855.0000         0.6651       1974.754         0.4579          -46.9     -0.3591232              1
      7855.5000         0.6664       1971.262         0.4566         -47.08     -0.5391235              1
      7856.0000         0.6676       1967.775         0.4552       -47.2603     -0.7194214              1
      7856.5000         0.6688       1916.045         0.4538       -47.4403     -0.8994217              1
      7857.0000           0.67        1903.67         0.4525       -47.6205       -1.07962      0.9987751
      7857.5000         0.6712       1891.309         0.4511       -47.7663      -1.225422       0.996532
      7858.0000         0.6724       1878.934         0.4497       -47.8754      -1.334522      0.9948535
      7858.5000         0.6737       1866.559         0.4484       -47.9846      -1.443722      0.9931735
