#------------------------------------------------------------------------------
# Created by    : vladimir.rabinovich
# Created on    : 09/19/2023 17:21:40
#------------------------------------------------------------------------------
~Version Information Section
VERS.           2.0     :   CWLS log ASCII Standard - VERSION 2.0
WRAP.           NO      :   One line per depth step
~Well Information Section
#MNEM       .UNIT                                         VALUE :DESCRIPTION
#------------------------------------------------------------------------------
STRT        .FT                                             957 :START DEPTH
STOP        .FT                                           10053 :STOP DEPTH
STEP        .FT                                             0.5 :STEP      
NULL        .                                           -999.25 :NULL      
COMP        .                                    EXXON CO U S A :COMPANY   
WELL        .                               OCS G03237 ST00BP00 :WELL      
FLD         .                                           WILDCAT :FIELD     
LOC         .                                                   :LOCATION  
CNTY        .                           HIGH ISLAND LARGE BLOCK :LOCATION  
STAT        .                                             TEXAS :STATE     
CTRY        .                                     UNITED STATES :COUNTRY   
SRVC        .                                                   :SERVICE COMPANY
DATE        .                             9/13/2023 11:20:04 AM :LOG DATE  
API         .                                    42708400420000 :API NUMBER
UWI         .                                    42708400420000 :UNIQUE WELL ID
XCOORD      .                                  1163347.66403634 :SURFACE X 
YCOORD      .                                  10583934.5995257 :SURFACE Y 
LAT         .                                         29.155753 :LATITUDE  
LON         .                                        -94.495054 :LONGITUDE 
ELEV        .FT                                              94 :ELEVATION VALUE
ELEV_TYPE   .                                                KB :ELEVATION REFERENCE TYPE
~Curve Information Section
#MNEM       .UNIT                                      API CODE :CURVE DESCRIPTION
#------------------------------------------------------------------------------
DEPT        .FT                                                 :DEPTH     
CALI        .IN                                                 :          
DRHO        .G/C3                                               :          
DT          .US/F                                               :          
GR          .GAPI                                               :          
GR_1        .GAPI                                               :          
GR_NORM     .GAPI                                               :GammaRay Normalized
ILD         .OHMM                                               :          
NPHI        .%                                                  :          
RHOB        .G/C3                                               :          
SFL         .OHMM                                               :          
SP          .MV                                                 :          
SP_NORM     .MV                                                 :SP Normalized
VSH_GR      .V/V                                                :Volume of Shale from GR
VSH_SP      .V/V                                                :Volume of Shale from SP
~A        DEPTH           CALI           DRHO             DT             GR           GR_1        GR_NORM            ILD           NPHI           RHOB            SFL             SP        SP_NORM         VSH_GR         VSH_SP
# ...
      8247.0000        13.7045         0.0397       107.8821        85.8375        -999.25        81.6418         0.7347        39.1108         2.3689         0.8036       -43.6998      -1.275555              1      0.9960064
      8247.5000        13.8451         0.0399       109.5585        86.4265        -999.25       82.44164         0.7244        38.4193         2.3708         0.7494       -43.8837      -1.459457              1      0.9933412
      8248.0000        14.0638         0.0458       112.0892        87.5928        -999.25       84.02808         0.7072         38.233         2.3442         0.7014       -43.9556      -1.531357              1      0.9922992
      8248.5000        14.0165         0.0405       113.6189        88.4338        -999.25        85.1713         0.6923        39.1853         2.3366         0.6761       -43.6312      -1.206955              1      0.9970006
      8249.0000        13.9403         0.0343       113.9587        87.6969        -999.25       84.16448         0.6789        41.2238         2.3438         0.6749       -42.8435     -0.4192543              1              1
      8249.5000        14.0344         0.0259       113.7328        86.3403        -999.25       82.31329         0.6713        43.0806         2.3455          0.688       -42.8743     -0.4500542              1              1
      8250.0000        14.0419         0.0171       113.4944          84.83        -999.25       80.25266         0.6655        44.0246         2.3435         0.6998       -42.7325     -0.3082542              1              1
      8250.5000        13.9916         0.0162       113.1989        84.4641        -999.25       79.75137         0.6623         44.535          2.351          0.711       -42.3712     0.05304337      0.9947101              1
      8251.0000        14.0207         0.0194       112.9044        85.1479        -999.25       80.68039         0.6591        44.6974         2.3541         0.7164        -42.106      0.3182449              1              1
      8251.5000        14.1153         0.0245       113.3434        85.1599        -999.25         80.694         0.6553        43.4755         2.3525         0.7165       -41.9748      0.4494438              1              1
      8252.0000        14.1508         0.0277       114.2695        85.6086        -999.25       81.30267         0.6514        42.2603         2.3563         0.6821       -42.3387     0.08554459              1              1
      8252.5000        14.1346          0.028       114.8162        87.1588        -999.25       83.41222         0.6473        41.6895         2.3532         0.6574       -42.7136     -0.2893562              1              1
      8253.0000        14.2144         0.0268        115.248        88.1431        -999.25       84.75067         0.6426        41.7096         2.3443         0.6705       -42.3761     0.04814529              1              1
      8253.5000        14.3003         0.0251       115.2075         88.214        -999.25       84.84456         0.6388        42.9465         2.3557         0.6841       -41.9598      0.4644432              1              1
      8254.0000         14.354         0.0276       114.9771        88.4113        -999.25       85.11069         0.6371        44.0834          2.362         0.6874       -41.4631      0.9611435              1              1
      8254.5000        14.1382          0.031       114.7822        89.4839        -999.25       86.56947         0.6356        44.5283         2.3557         0.6908       -41.3585       1.065742              1              1
      8255.0000        14.0609         0.0292       114.8477        89.9575        -999.25       87.21204         0.6345        44.8159         2.3544         0.6857       -41.2572       1.167046              1              1
      8255.5000        14.0508         0.0272        115.333        89.3412        -999.25       86.36958         0.6334        44.4262         2.3446         0.6772       -40.6736       1.750645              1              1
      8256.0000        14.0714           0.02        115.741         89.562        -999.25       86.66769         0.6341        43.8413         2.3311         0.6627       -39.8298       2.594444              1              1
      8256.5000        14.0963          0.019       116.1143        90.3395        -999.25       87.72437          0.635        43.2817         2.3284         0.6651       -39.8111       2.613144              1              1
      8257.0000        14.1348         0.0193       116.2145          91.05        -999.25       88.68977         0.6365         43.313         2.3245         0.6704       -39.3088       3.115444              1              1
      8257.5000        14.1733          0.018        116.236        91.4177        -999.25       89.18806         0.6384         44.421          2.323         0.6693       -39.9681       2.456142              1              1
      8258.0000        14.1539         0.0138       115.8381        90.9484        -999.25        88.5459         0.6403         44.295         2.3234         0.6691       -40.8805       1.543743              1              1
      8258.5000        14.0767         0.0097       115.2947        89.7008        -999.25       86.84322         0.6486         43.179         2.3162         0.6878       -42.0414       0.382843              1              1
      8259.0000        13.9217          0.006       114.6459        88.3958        -999.25       85.06233         0.6581        41.8259         2.3133         0.7093       -40.9752       1.449043              1              1
      8259.5000        13.7136         0.0069       113.7408        87.9667        -999.25       84.47492          0.668        40.3908         2.3133         0.7399        -40.783       1.641243              1              1
      8260.0000        13.6822         0.0176       112.7875        88.7125        -999.25       85.48841         0.6796         39.984         2.3243         0.7235       -41.1715       1.252743              1              1
      8260.5000        13.6701         0.0245       111.8793         88.255        -999.25        84.8623         0.6899        40.6143         2.3355         0.7069       -41.1547       1.269543              1              1
      8261.0000        13.5844         0.0252       111.7666        86.3601        -999.25       82.27764         0.6999         41.083         2.3292         0.7243       -41.6229      0.8013458              1              1
      8261.5000        13.8446         0.0273       112.6141        84.7698        -999.25       80.10802         0.7114        41.3862         2.3235         0.7501       -41.7654       0.658844              1              1
      8262.0000        14.1139         0.0282       113.4248        85.4574        -999.25        81.0422         0.7235        41.2644          2.328         0.7802       -40.8437       1.580544              1              1
      8262.5000        14.3483         0.0262       113.3397        86.0892        -999.25       81.90035         0.7356        40.7842         2.3333         0.8088       -40.8848       1.539444              1              1
      8263.0000        14.3473         0.0244       112.7931        86.0726        -999.25       81.87502         0.7456        39.9691         2.3376         0.8264       -41.3441       1.080143              1              1
      8263.5000         14.335         0.0273       112.0879        86.4835        -999.25       82.43217         0.7509        39.1175         2.3423         0.8176       -41.5847      0.8395424              1              1
      8264.0000         14.136         0.0254       111.2126        86.8822        -999.25       82.97272          0.749        39.5206         2.3391         0.7781       -41.9025      0.5217438              1              1
      8264.5000        13.8987         0.0252       110.6567        86.7148        -999.25       82.74188         0.7406        39.9647         2.3389         0.7481       -41.6607      0.7635422              1              1
