#------------------------------------------------------------------------------
# Created by    : vladimir.rabinovich
# Created on    : 09/19/2023 17:22:32
#------------------------------------------------------------------------------
~Version Information Section
VERS.           2.0     :   CWLS log ASCII Standard - VERSION 2.0
WRAP.           NO      :   One line per depth step
~Well Information Section
#MNEM       .UNIT                                         VALUE :DESCRIPTION
#------------------------------------------------------------------------------
STRT        .FT                                          2841.5 :START DEPTH
STOP        .FT                                          6769.5 :STOP DEPTH
STEP        .FT                                             0.5 :STEP      
NULL        .                                           -999.25 :NULL      
COMP        .                      SPINNAKER EXPLORATION CO LLC :COMPANY   
WELL        .                               OCS G18941 ST00BP00 :WELL      
FLD         .                            HIGH ISLAND BLOCK 0235 :FIELD     
LOC         .                                                   :LOCATION  
CNTY        .                           HIGH ISLAND LARGE BLOCK :LOCATION  
STAT        .                                             TEXAS :STATE     
CTRY        .                                     UNITED STATES :COUNTRY   
SRVC        .                                                   :SERVICE COMPANY
DATE        .                             9/13/2023 11:20:02 AM :LOG DATE  
API         .                                    42708405540000 :API NUMBER
UWI         .                                    42708405540000 :UNIQUE WELL ID
XCOORD      .                                  1178439.61066162 :SURFACE X 
YCOORD      .                                  10526520.2311607 :SURFACE Y 
LAT         .                                         28.998365 :LATITUDE  
LON         .                                        -94.445565 :LONGITUDE 
ELEV        .FT                                              98 :ELEVATION VALUE
ELEV_TYPE   .                                                KB :ELEVATION REFERENCE TYPE
~Curve Information Section
#MNEM       .UNIT                                      API CODE :CURVE DESCRIPTION
#------------------------------------------------------------------------------
DEPT        .FT                                                 :DEPTH     
CNCF        .%                                                  :          
DCAL        .IN                                                 :          
DT24        .US/F                                               :          
GR          .GAPI                                               :          
GR_NORM     .GAPI                                               :GammaRay Normalized
M2R1        .OHMM                                               :          
M2R2        .OHMM                                               :          
M2R3        .OHMM                                               :          
M2R6        .OHMM                                               :          
M2R9        .OHMM                                               :          
M2RX        .OHMM                                               :          
PORZ        .%                                                  :          
RWAZ        .OHMM                                               :          
SPCH        .MV                                                 :          
TEN         .LB/F                                               :          
VSH_GR      .V/V                                                :Volume of Shale from GR
ZCOR        .G/CC                                               :          
~A        DEPTH           CNCF           DCAL           DT24             GR        GR_NORM           M2R1           M2R2           M2R3           M2R6           M2R9           M2RX           PORZ           RWAZ           SPCH            TEN         VSH_GR           ZCOR
# ...
      4176.5000         50.926          3.524        146.658        118.886       83.76536          0.676          0.712          0.733          0.742          0.748          0.752         31.147          0.099        -16.955        -58.708              1          0.016
      4177.0000         50.023          3.695        146.131         119.28       84.15811          0.686          0.721          0.741          0.751          0.756          0.761         31.119            0.1        -17.549            4.5              1          0.021
      4177.5000         48.025          3.542        145.455        118.833       83.70986          0.693          0.727          0.747          0.756          0.762          0.767         31.018            0.1         -17.89          2.067              1          0.029
      4178.0000         46.952          2.963        144.763        118.583       83.45861          0.694          0.727          0.747          0.757          0.762          0.768         31.052            0.1        -18.513        -41.981              1          0.037
      4178.5000         48.976           2.18        144.654        116.963       81.83736          0.689          0.721          0.741          0.751          0.756          0.762         31.164            0.1        -19.602        -34.256              1          0.042
      4179.0000         51.635          1.733        144.885        113.821       78.69411          0.682          0.712          0.732          0.741          0.747          0.753         31.304            0.1        -20.386         -4.371      0.9722152          0.039
      4179.5000         51.634          1.732        144.868        112.717       77.58887          0.675          0.705          0.724          0.734          0.739          0.745         31.625          0.101        -20.436        -15.767      0.9486995          0.026
      4180.0000         49.234          1.788        144.911        114.944       79.81462          0.675          0.703          0.722          0.731          0.737          0.744         31.971          0.103        -20.157        -23.976      0.9960558          0.017
      4180.5000         47.094          1.666        146.019        117.684       82.55337          0.679          0.707          0.725          0.734           0.74          0.747             32          0.104        -19.966          8.933              1          0.022
      4181.0000         47.512          1.486        147.698        116.847       81.71513          0.683           0.71          0.728          0.737          0.743           0.75         31.802          0.103        -19.925         15.089              1          0.026
      4181.5000         48.547          1.569        148.886         113.66       78.52688          0.685          0.713          0.731           0.74          0.745          0.752         31.591          0.102        -19.953        -34.649       0.968657          0.021
      4182.0000         48.006          2.011        148.694         112.86       77.72563          0.686          0.716          0.734          0.743          0.749          0.756         31.415          0.101        -20.084         -65.83      0.9516092          0.019
      4182.5000         48.205          2.359        146.813        115.104       79.96838          0.686          0.718          0.737          0.746          0.751          0.758         31.304          0.101        -20.171        -46.653      0.9993271          0.019
      4183.0000         51.033          2.236        145.741        114.735       79.59813          0.682          0.716          0.736          0.745           0.75          0.757         31.359          0.101         -19.87        -34.088      0.9914495          0.025
      4183.5000         53.171          1.949        145.516        110.173       75.03488          0.675          0.711          0.732           0.74          0.746          0.752         31.584          0.102        -19.316         -31.76      0.8943592          0.036
      4184.0000          52.51          1.979         146.97        106.877       71.73763          0.669          0.705          0.726          0.734           0.74          0.746         31.864          0.103        -19.145          2.889       0.824205          0.043
      4184.5000         51.724          2.417        149.892        108.826       73.68539           0.66          0.695          0.716          0.725           0.73          0.736         32.082          0.103        -19.434         28.485      0.8656465          0.039
      4185.0000         51.599          3.057         150.81        113.699       78.55714          0.648          0.681          0.702          0.711          0.716          0.722         32.199          0.102        -19.611          0.969      0.9693008          0.031
      4185.5000         51.043          3.671        150.132        117.104       81.96088          0.644          0.674          0.693          0.703          0.708          0.714         32.195          0.101        -19.518        -13.808              1          0.028
      4186.0000         50.348          4.173        148.587          119.1       83.95564          0.655           0.68          0.698          0.709          0.714           0.72         31.972            0.1        -19.396         -0.028              1          0.032
      4186.5000          49.46          4.524        146.488        120.973       85.82739          0.673          0.692          0.707          0.719          0.725          0.731         31.608          0.099        -19.274        -22.409              1          0.037
      4187.0000         48.556          4.604          145.5        121.245       86.09815           0.68          0.693          0.706          0.719          0.725          0.731         31.441          0.098        -19.068        -55.766              1          0.037
      4187.5000         49.493          4.347        146.323        119.651        84.5029          0.672          0.681          0.692          0.705          0.711          0.717         31.519          0.097        -18.974        -43.343              1           0.03
      4188.0000         51.311          3.789        147.523        119.844       84.69465          0.662           0.67          0.681          0.694            0.7          0.707         31.328          0.094         -19.23        -21.359              1          0.023
      4188.5000         50.399          3.116        147.248        121.589        86.4384          0.665          0.675          0.688          0.702          0.708          0.715         30.609           0.09        -19.684        -18.869              1           0.02
      4189.0000         47.806          2.786        145.293        122.394       87.24215          0.683            0.7          0.715          0.729          0.735          0.742         29.775          0.089        -19.872        -12.015              1          0.022
      4189.5000         46.049          3.118         142.51        121.402       86.24891           0.71          0.733          0.751          0.766          0.772          0.781         29.208          0.089        -19.724        -12.186              1          0.025
      4190.0000         45.392          3.737        140.456        118.243       83.08865          0.734          0.764          0.784          0.798          0.804          0.814         29.024          0.092        -19.617        -31.032              1           0.03
      4190.5000         45.993          3.887        140.527        113.575        78.4194           0.74          0.774          0.795          0.808          0.814          0.824         29.455          0.096        -19.682        -39.754      0.9663703          0.036
      4191.0000         47.047          3.325        142.616        111.309       76.15216          0.723          0.757          0.777          0.789          0.795          0.805         30.617          0.102        -19.736        -27.764      0.9181311          0.041
