#------------------------------------------------------------------------------
# Created by    : vladimir.rabinovich
# Created on    : 09/19/2023 17:21:24
#------------------------------------------------------------------------------
~Version Information Section
VERS.           2.0     :   CWLS log ASCII Standard - VERSION 2.0
WRAP.           NO      :   One line per depth step
~Well Information Section
#MNEM       .UNIT                                         VALUE :DESCRIPTION
#------------------------------------------------------------------------------
STRT        .FT                                            4000 :START DEPTH
STOP        .FT                                            8085 :STOP DEPTH
STEP        .FT                                             0.5 :STEP      
NULL        .                                           -999.25 :NULL      
COMP        .                             WALTER OIL & GAS CORP :COMPANY   
WELL        .                               OCS G09047 ST00BP00 :WELL      
FLD         .                              GALVESTON BLOCK 0351 :FIELD     
LOC         .                                                   :LOCATION  
CNTY        .                             GALVESTON LARGE BLOCK :LOCATION  
STAT        .                                             TEXAS :STATE     
CTRY        .                                     UNITED STATES :COUNTRY   
SRVC        .                                                   :SERVICE COMPANY
DATE        .                             9/13/2023 11:19:36 AM :LOG DATE  
API         .                                    42706402000000 :API NUMBER
UWI         .                                    42706402000000 :UNIQUE WELL ID
XCOORD      .                                  1036183.96101641 :SURFACE X 
YCOORD      .                                  10437562.0132666 :SURFACE Y 
LAT         .                                        28.7482272 :LATITUDE  
LON         .                                       -94.8860948 :LONGITUDE 
ELEV        .FT                                              80 :ELEVATION VALUE
ELEV_TYPE   .                                                KB :ELEVATION REFERENCE TYPE
~Curve Information Section
#MNEM       .UNIT                                      API CODE :CURVE DESCRIPTION
#------------------------------------------------------------------------------
DEPT        .FT                                                 :DEPTH     
CALI        .IN                                                 :          
DRHO        .G/C3                                               :          
GR          .GAPI                                               :          
GR_NORM     .GAPI                                               :GammaRay Normalized
ILD         .OHMM                                               :          
ILM         .OHMM                                               :          
NPHI        .%                                                  :          
RHOB        .G/C3                                               :          
SFL         .OHMM                                               :          
SP          .MV                                                 :          
SP_NORM     .MV                                                 :SP Normalized
VSH_GR      .V/V                                                :Volume of Shale from GR
VSH_SP      .V/V                                                :Volume of Shale from SP
~A        DEPTH           CALI           DRHO             GR        GR_NORM            ILD            ILM           NPHI           RHOB            SFL             SP        SP_NORM         VSH_GR         VSH_SP
# ...
      5634.0000        10.1842         0.0846         89.937       81.78185            0.7         0.7426        39.9966         2.3818         0.8253       -51.4611     -0.9037971              1      0.9870886
      5634.5000        10.1658         0.0911        90.6084       82.52785         0.6918         0.7352        39.6982         2.3809         0.8312       -51.2994     -0.7452927              1      0.9893529
      5635.0000        10.1456         0.0963        91.5131       83.53308         0.6839         0.7323          39.47         2.3784         0.8212       -51.3168      -0.765892              1      0.9890587
      5635.5000        10.1193          0.099        91.7881       83.83864           0.68         0.7295        38.7871         2.3728         0.8091       -51.3341     -0.7863884              1      0.9887659
      5636.0000        10.0931         0.1041        91.5596       83.58475         0.6835         0.7346        37.5518         2.3672         0.7939        -51.694      -1.149487              1      0.9835787
      5636.5000        10.0676         0.1149        90.9207       82.87486          0.687         0.7494        37.0666         2.3636         0.7905       -52.1019      -1.560581              1       0.977706
      5637.0000          10.05         0.1146        90.6801       82.60752         0.6915         0.7645        36.3771         2.3666         0.8036       -52.6293      -2.091179              1       0.970126
      5637.5000        10.0324         0.1107        90.8097       82.75153         0.6994         0.7769        33.8107         2.3684         0.8169       -53.6035      -3.068577              1      0.9561632
      5638.0000        10.0678         0.0964        89.7478       81.57164         0.7073         0.7875        33.6062         2.3677         0.8344       -53.9991      -3.467373              1      0.9504661
      5638.5000        10.1261         0.0779        88.1516       79.79808         0.7153         0.7983         33.791         2.3635          0.856       -54.5628      -4.034271      0.9957038      0.9423676
      5639.0000        10.1836          0.066        86.8431       78.34419         0.7137         0.7978        33.9758         2.3569         0.8782       -55.3603      -4.834969      0.9647701       0.930929
      5639.5000        10.2348         0.0555        86.1862        77.6143         0.7103         0.7872         34.208         2.3523         0.8952       -56.5525      -6.030369      0.9492405      0.9138519
      5640.0000        10.2861         0.0544        85.1501       76.46308         0.7052         0.7761        34.4874         2.3505         0.9029       -57.3812      -6.862263      0.9247464      0.9019677
      5640.5000        10.3315         0.0547        83.6987       74.85041         0.6981         0.7606        34.9196         2.3489         0.9106        -57.829      -7.313259      0.8904343      0.8955249
      5641.0000        10.3462          0.058        86.2468       77.68164         0.6916         0.7443        35.7733          2.349         0.8947       -57.9763      -7.463757      0.9506732      0.8933749
      5641.5000        10.3535         0.0646        86.6842       78.16763         0.6873         0.7347        37.1118         2.3488         0.8598       -57.0421      -6.532753      0.9610135       0.906675
      5642.0000        10.3609         0.0711        86.2037       77.63374          0.683         0.7308        38.3823         2.3487         0.8136       -55.9542      -5.448051      0.9496541      0.9221707
      5642.5000        10.3569         0.0733        87.5408       79.11942         0.6814          0.728        38.8649          2.348         0.8057       -55.1848       -4.68185      0.9812642      0.9331164
      5643.0000        10.3418         0.0704        89.1359       80.89175         0.6825         0.7372        38.8734         2.3473         0.8021       -54.7833      -4.283546              1      0.9388065
      5643.5000        10.3451         0.0676        89.6616       81.47585         0.6837         0.7489         38.437         2.3464         0.8057       -55.3328      -4.836246              1      0.9309108
      5644.0000        10.3987         0.0648        87.6881       79.28308         0.6915         0.7609        37.5114         2.3444         0.8093       -56.0504      -5.557041      0.9847464      0.9206137
      5644.5000        10.4524         0.0633        85.7147       77.09041         0.7053         0.7787        35.2188         2.3424         0.8391       -58.0588      -7.568638      0.9380938      0.8918766
      5645.0000        10.4936         0.0618        83.1241       74.21197         0.7195         0.7993        33.4328         2.3414         0.8692       -60.0798      -9.592834      0.8768504      0.8629595
      5645.5000        10.5309         0.0604        80.1864       70.94786         0.7414         0.8204        32.8391         2.3416         0.8992       -62.2432      -11.75943      0.8074013      0.8320081
      5646.0000        10.5682         0.0598        77.4935       67.95575         0.7645          0.838        32.6268         2.3427         0.9099       -63.5834      -13.10283      0.7437394      0.8128167
      5646.5000        10.5764         0.0597        75.5225       65.76575         0.7944         0.8515        32.6425         2.3465         0.9138       -64.3097      -13.83233      0.6971436      0.8023953
      5647.0000        10.5661         0.0584        73.9025       63.96574         0.8269         0.8652         32.829         2.3591         0.9202       -64.5354      -14.06123      0.6588456      0.7991254
      5647.5000        10.5559         0.0503        72.4462       62.34763         0.8451         0.8717        33.1287          2.367         0.9328       -64.4346      -13.96362      0.6244177      0.8005196
      5648.0000         10.542         0.0393        71.3813       61.16441         0.8637         0.8737         33.381         2.3726         0.9407       -63.9668      -13.49902      0.5992429      0.8071569
      5648.5000        10.5154         0.0298        71.9915       61.84241         0.8646         0.8758        33.5896         2.3711         0.9361       -62.9564      -12.49182      0.6136684      0.8215455
      5649.0000        10.4889         0.0261        73.4515       63.46463         0.8555         0.8769        33.7616         2.3689         0.9203       -61.8797      -11.41831      0.6481837      0.8368813
      5649.5000        10.4639         0.0352        75.1553       65.35774         0.8465         0.8607        33.8928         2.3666         0.9002        -60.733      -10.27481      0.6884626       0.853217
      5650.0000        10.4515         0.0534        77.0551       67.46864         0.8366         0.8447        34.5739         2.3575         0.8886       -59.2954      -8.840405      0.7333753      0.8737085
      5650.5000         10.439         0.0781        78.6163       69.20331         0.8228         0.8284        35.4433         2.3483         0.8846       -57.7916      -7.339806      0.7702832      0.8951457
      5651.0000        10.4411         0.0972        80.2052       70.96875         0.8093          0.805        36.1928         2.3357         0.8807       -56.3889      -5.940304      0.8078458      0.9151385
      5651.5000        10.4672         0.0885         81.724        72.6563          0.796         0.7823        36.3685         2.3238         0.8804       -55.3434      -4.897999      0.8437511      0.9300286
      5652.0000        10.4933         0.0777        82.1768       73.15942         0.7794         0.7601        36.5997         2.3197         0.8802       -54.3829      -3.940697      0.8544556      0.9437043
      5652.5000        10.5061          0.068        82.1881       73.17197          0.761         0.7406        37.0056         2.3217         0.8736       -53.5374      -3.098392      0.8547229      0.9557372
