#------------------------------------------------------------------------------
# Created by    : vladimir.rabinovich
# Created on    : 09/19/2023 17:19:40
#------------------------------------------------------------------------------
~Version Information Section
VERS.           2.0     :   CWLS log ASCII Standard - VERSION 2.0
WRAP.           NO      :   One line per depth step
~Well Information Section
#MNEM       .UNIT                                         VALUE :DESCRIPTION
#------------------------------------------------------------------------------
STRT        .FT                                            4790 :START DEPTH
STOP        .FT                                           12963 :STOP DEPTH
STEP        .FT                                             0.5 :STEP      
NULL        .                                           -999.25 :NULL      
COMP        .                         ATLANTIC RICHFIELD CO THE :COMPANY   
WELL        .                               OCS G06150 ST00BP00 :WELL      
FLD         .                                           WILDCAT :FIELD     
LOC         .                                                   :LOCATION  
CNTY        .                           HIGH ISLAND LARGE BLOCK :LOCATION  
STAT        .                                             TEXAS :STATE     
CTRY        .                                     UNITED STATES :COUNTRY   
SRVC        .                                                   :SERVICE COMPANY
DATE        .                             9/13/2023 11:19:59 AM :LOG DATE  
API         .                                    42708402440000 :API NUMBER
UWI         .                                    42708402440000 :UNIQUE WELL ID
XCOORD      .                                  1291497.32246636 :SURFACE X 
YCOORD      .                                   10652058.279547 :SURFACE Y 
LAT         .                                         29.347015 :LATITUDE  
LON         .                                        -94.095521 :LONGITUDE 
ELEV        .FT                                             105 :ELEVATION VALUE
ELEV_TYPE   .                                                KB :ELEVATION REFERENCE TYPE
~Curve Information Section
#MNEM       .UNIT                                      API CODE :CURVE DESCRIPTION
#------------------------------------------------------------------------------
DEPT        .FT                                                 :DEPTH     
ALL         .OHMM                                               :          
CILD        .MMHO                                               :          
GR          .GAPI                                               :          
GR_NORM     .GAPI                                               :GammaRay Normalized
ILD         .OHMM                                               :          
SP          .MV                                                 :          
SP_NORM     .MV                                                 :SP Normalized
VSH_GR      .V/V                                                :Volume of Shale from GR
VSH_SP      .V/V                                                :Volume of Shale from SP
~A        DEPTH            ALL           CILD             GR        GR_NORM            ILD             SP        SP_NORM         VSH_GR         VSH_SP
# ...
     11839.0000         0.4516        2612.07        57.2122        71.1581         0.4287       -44.5295      -3.538303      0.8672296      0.9455646
     11839.5000          0.456        2639.91        55.7114       69.28211         0.4274       -44.3569      -3.361404      0.8245935      0.9482861
     11840.0000         0.4532       2667.746         55.071       68.48161         0.4262       -44.2163      -3.216507      0.8064001      0.9505153
     11840.5000         0.4444       2701.461        57.3408       71.31886          0.425       -44.1142      -3.110107       0.870883      0.9521522
     11841.0000         0.4355       2735.625        59.6057       74.14999         0.4237       -44.0123       -3.00391      0.9352272       0.953786
     11841.5000         0.4267       2769.789        61.5788       76.61636         0.4225       -43.9102      -2.897511       0.991281      0.9554229
     11842.0000         0.4178       2803.902        62.2415       77.44473         0.4213       -43.8081      -2.791115              1      0.9570598
     11842.5000          0.409       2836.918        61.3143       76.28574           0.42        -43.706      -2.684715      0.9837667      0.9586967
     11843.0000          0.406       2869.488        60.3957       75.13748         0.4188       -43.6039      -2.578316        0.95767      0.9603336
     11843.5000         0.4031       2902.105        59.6959       74.26273         0.4176       -43.5018       -2.47192      0.9377894      0.9619704
     11844.0000         0.4003        2893.59        58.9962       73.38811         0.4164       -43.3997       -2.36552      0.9179115      0.9636074
     11844.5000         0.3974       2873.473        58.4337       72.68498         0.4151       -43.3905       -2.35202      0.9019314      0.9638151
     11845.0000         0.3977       2853.254         59.717       74.28911         0.4139       -43.4277      -2.384922      0.9383888      0.9633089
     11845.5000          0.401       2832.637        60.9656       75.84985         0.4134       -43.4649      -2.417824      0.9738603      0.9628027
     11846.0000         0.4043        2812.02        62.1154        77.2871         0.4136       -43.5408      -2.489426              1      0.9617012
     11846.5000         0.4075       2791.402        63.2354       78.68712         0.4139       -43.6686      -2.612926              1      0.9598011
     11847.0000         0.4128       2770.785        63.8276       79.42735         0.4141       -43.7966      -2.736629              1       0.957898
     11847.5000         0.4282       2750.168        63.4976       79.01485         0.4144       -43.9246      -2.860329              1       0.955995
     11848.0000         0.4436       2729.551        62.8065       78.15098         0.4146       -44.0524      -2.983829              1      0.9540949
     11848.5000         0.4464       2708.934        61.7816       76.86986         0.4148       -44.1308      -3.057934      0.9970422      0.9529549
     11849.0000         0.4419       2688.316        60.6862        75.5006         0.4151       -44.1072      -3.030037      0.9659228       0.953384
     11849.5000         0.4382       2667.699        59.5933       74.13448         0.4153       -43.9946      -2.913136      0.9348746      0.9551826
     11850.0000         0.4345       2659.293        58.4263       72.67574         0.4156       -43.8472      -2.761436      0.9017212      0.9575164
     11850.5000         0.4308       2651.801        57.2419       71.19524         0.4158       -43.6999       -2.60984      0.8680735      0.9598486
     11851.0000         0.4271       2644.316        57.8452       71.94936          0.416       -43.5525      -2.458145      0.8852127      0.9621824
     11851.5000         0.4234       2636.836        61.5615       76.59473         0.4165       -43.4051      -2.306446      0.9907894      0.9645162
     11852.0000         0.4205        2629.34        62.4887       77.75374         0.4197       -43.2578      -2.154846              1      0.9668485
     11852.5000         0.4212       2621.855        61.8508       76.95636         0.4229       -43.1678      -2.060547      0.9990082      0.9682993
     11853.0000          0.422       2619.227        61.0855       75.99974         0.4262       -43.1832      -2.071648      0.9772668      0.9681285
     11853.5000         0.4227       2619.832        60.5143       75.28574         0.4294       -43.1986      -2.082752      0.9610395      0.9679577
     11854.0000         0.4234       2620.441        59.9432       74.57185         0.4326        -43.214      -2.093853      0.9448149      0.9677868
     11854.5000         0.4241       2621.043        59.3733       73.85948         0.4358       -43.2789      -2.154453      0.9286246      0.9668546
     11855.0000         0.4257       2621.652        59.3455       73.82473         0.4391         -43.45      -2.321255      0.9278347      0.9642884
     11855.5000         0.4275       2622.258        59.6669       74.22649         0.4423       -43.6213      -2.488255      0.9369656      0.9617192
     11856.0000         0.4293       2622.867        59.9877       74.62749         0.4455       -43.7926      -2.655258      0.9460793      0.9591499
     11856.5000         0.4311       2623.473        60.3085       75.02847         0.4487       -43.9636       -2.82196      0.9551926      0.9565852
     11857.0000         0.4329       2624.078        60.6293       75.42947         0.4509       -44.1349       -2.98896      0.9643062       0.954016
     11857.5000         0.4385       2635.078        60.4062        75.1506         0.4502       -44.3051      -3.154861      0.9579683      0.9514637
     11858.0000         0.4442       2648.801        60.1503       74.83073         0.4495       -44.4745      -3.319962      0.9506985      0.9489236
     11858.5000         0.4498       2641.652        59.7157       74.28748         0.4489       -44.6443      -3.485466      0.9383519      0.9463775
     11859.0000         0.4565       2594.543        58.8738       73.23511         0.4482       -44.8138      -3.650669      0.9144343      0.9438359
     11859.5000         0.4632       2547.531        58.0306       72.18111         0.4475       -44.9833      -3.815868      0.8904797      0.9412943
     11860.0000         0.4698       2521.434        57.1888       71.12886         0.4468       -45.1445      -3.972771       0.866565      0.9388804
     11860.5000         0.4671        2497.48        56.4173       70.16449         0.4461       -45.2928      -4.116772      0.8446475      0.9366651
     11861.0000         0.4606       2520.141        55.8474       69.45212         0.4454        -45.108      -3.927673      0.8284572      0.9395742
     11861.5000         0.4547       2571.137        55.2762       68.73811         0.4447       -44.9235      -3.738876      0.8122297      0.9424788
     11862.0000         0.4488       2620.539        56.0748       69.73636          0.444       -44.7386      -3.549679      0.8349172      0.9453896
     11862.5000          0.443       2671.035        56.9106       70.78111         0.4433       -44.5541      -3.360878      0.8586615      0.9482942
     11863.0000         0.4372       2728.504        57.7241       71.79798         0.4427       -44.3692       -3.17168      0.8817723      0.9512049
     11863.5000         0.4313       2770.836        58.5388       72.81635          0.442       -44.1847       -2.98288      0.9049171      0.9541095
     11864.0000         0.4255       2789.309         59.262       73.72036         0.4413       -44.0518      -2.845684      0.9254627      0.9562203
     11864.5000         0.4196       2783.707        59.8851       74.49924         0.4406       -43.9255      -2.715084      0.9431645      0.9582295
     11865.0000         0.4138       2769.938        60.5082       75.27811         0.4398       -43.7997      -2.584988       0.960866      0.9602309
