#------------------------------------------------------------------------------
# Created by    : vladimir.rabinovich
# Created on    : 09/19/2023 17:22:45
#------------------------------------------------------------------------------
~Version Information Section
VERS.           2.0     :   CWLS log ASCII Standard - VERSION 2.0
WRAP.           NO      :   One line per depth step
~Well Information Section
#MNEM       .UNIT                                         VALUE :DESCRIPTION
#------------------------------------------------------------------------------
STRT        .FT                                             270 :START DEPTH
STOP        .FT                                            9392 :STOP DEPTH
STEP        .FT                                             0.5 :STEP      
NULL        .                                           -999.25 :NULL      
COMP        .                                     TALOS ERT LLC :COMPANY   
WELL        .                               OCS G12363 ST00BP00 :WELL      
FLD         .                                 BRAZOS BLOCK 0453 :FIELD     
LOC         .                                                   :LOCATION  
CNTY        .                                BRAZOS LARGE BLOCK :LOCATION  
STAT        .                                             TEXAS :STATE     
CTRY        .                                     UNITED STATES :COUNTRY   
SRVC        .                                                   :SERVICE COMPANY
DATE        .                             9/13/2023 11:19:08 AM :LOG DATE  
API         .                                    42704401340000 :API NUMBER
UWI         .                                    42704401340000 :UNIQUE WELL ID
XCOORD      .                                  788791.944469438 :SURFACE X 
YCOORD      .                                  10354739.7167093 :SURFACE Y 
LAT         .                                         28.507622 :LATITUDE  
LON         .                                        -95.652007 :LONGITUDE 
ELEV        .FT                                             100 :ELEVATION VALUE
ELEV_TYPE   .                                                KB :ELEVATION REFERENCE TYPE
~Curve Information Section
#MNEM       .UNIT                                      API CODE :CURVE DESCRIPTION
#------------------------------------------------------------------------------
DEPT        .FT                                                 :DEPTH     
DPHI        .%                                                  :          
DT          .US/F                                               :          
GR          .GAPI                                               :          
GR_NORM     .GAPI                                               :GammaRay Normalized
ILD         .OHMM                                               :          
ILM         .OHMM                                               :          
LL          .OHMM                                               :          
NPHI        .%                                                  :          
SP          .MV                                                 :          
SP_NORM     .MV                                                 :SP Normalized
VSH_GR      .V/V                                                :Volume of Shale from GR
VSH_SP      .V/V                                                :Volume of Shale from SP
~A        DEPTH           DPHI             DT             GR        GR_NORM            ILD            ILM             LL           NPHI             SP        SP_NORM         VSH_GR         VSH_SP
# ...
      2750.5000        19.3644        -999.25        41.2556       49.88283         1.9656         1.6811         1.1227        26.1995       -40.4815        -3.0402      0.3592092      0.9500071
      2751.0000         19.616        -999.25        39.9118       48.19087         2.1926         1.7804         1.1939        24.4297       -40.8014        -3.3625        0.32321      0.9384393
      2751.5000        18.6033        -999.25        38.8511        46.8549         2.4067         1.8382         1.2719        22.9087       -41.0503        -3.6139      0.2947851      0.9294107
      2752.0000        17.2012        -999.25         37.796       45.52597         2.5464         1.8988         1.3634        23.4126       -41.2503        -3.8163        0.26651      0.9221286
      2752.5000        14.9283        -999.25        37.1281       44.68394         2.6422         1.9303         1.4319        25.7103       -41.4569        -4.0254      0.2485945      0.9146107
      2753.0000        13.0023        -999.25        36.9841        44.5007          2.713         1.9427         1.4735        27.0022        -41.808         -4.379      0.2446958      0.9019321
      2753.5000        11.9609        -999.25        37.3487       44.95703         2.7341         1.9276         1.5462        28.2194       -42.3176         -4.891      0.2544049      0.8835893
      2754.0000        11.6536        -999.25        38.3426       46.20469          2.515         1.7732         1.6281        29.5843       -42.9647        -5.5406      0.2809508      0.8603393
      2754.5000        11.2302        -999.25        39.7299       47.94703         2.0991         1.5287         1.7538        32.1409        -43.782        -6.3603      0.3180219      0.8310107
      2755.0000        10.4569        -999.25         40.686       49.14715         1.5007         1.1923         1.8759        34.2657       -44.9775        -7.5583      0.3435564       0.788175
      2755.5000        11.6459        -999.25          40.69       49.15002         1.0993         1.0231         2.0109        39.0106       -46.3299        -8.9131      0.3436175      0.7397321
      2756.0000        14.7529        -999.25        38.5773       46.49118         0.8192         0.9032         2.0127        42.3217       -48.8893        -11.475      0.2870465      0.6481857
      2756.5000        23.0255        -999.25        35.4376       42.54092         0.7146         0.7675         1.5155        46.6097       -52.9567       -15.5448      0.2029982      0.5027822
      2757.0000        26.7698        -999.25        32.5466       38.90338         0.6273          0.653         1.1345        49.2401       -56.6099       -19.2005      0.1256038      0.3721714
      2757.5000        32.6507        -999.25        30.3309       36.11502         0.5592         0.5538         0.9094        51.7142       -59.1418       -21.7348     0.06627695      0.2816072
      2758.0000        35.9706        -999.25        29.6814       35.29612         0.4932         0.4892         0.8081        52.8237       -61.0156       -23.6111     0.04885369      0.2145429
      2758.5000        37.9686        -999.25        28.9069       34.32004         0.4516         0.4568          0.785        52.9482       -62.5422       -25.1402     0.02808591      0.1598821
      2759.0000         37.431        -999.25        27.6587       32.74829         0.4273         0.4443         0.8229        51.4833       -63.0835       -25.6839              0      0.1404107
      2759.5000        37.9739        -999.25        27.5157       32.56633         0.4122         0.4435         0.8686        50.8654       -63.3896       -25.9925              0      0.1293393
      2760.0000         42.777        -999.25        27.9976       33.17015         0.4048         0.4425         0.8761        45.2143        -63.668       -26.2733    0.003620148      0.1192536
      2760.5000        49.0448        -999.25        28.7617       34.12883         0.4016          0.441         0.8474        41.0721       -63.9332        -26.541     0.02401766      0.1096428
      2761.0000        49.8284        -999.25        29.2954       34.79779         0.3993         0.4388         0.8207         39.407        -64.207       -26.8172     0.03825094     0.09972497
      2761.5000        48.9373        -999.25         29.625        35.2101         0.3968         0.4328          0.823        39.6389       -64.4813        -27.094     0.04702345     0.08978926
      2762.0000         47.345        -999.25        27.9816       33.14139         0.3913         0.4234         0.8434         39.316       -64.6538       -27.2689    0.003008335     0.08348928
      2762.5000        45.0419        -999.25         25.375       29.86149         0.3861         0.4132         0.8849        38.0554       -64.5614        -27.179              0     0.08664642
      2763.0000        41.2946        -999.25        24.7689       29.09718         0.3832         0.4031         0.9347         39.197       -64.5007       -27.1208              0     0.08867502
      2763.5000        38.4573        -999.25        25.1106        29.5247          0.383         0.3939          0.966        42.1758       -64.6178       -27.2403              0     0.08435358
      2764.0000        36.5056        -999.25        25.4822       29.98982          0.382         0.3853          0.957        44.3213       -64.9504       -27.5754              0     0.07233572
      2764.5000        34.6422        -999.25        25.5508       30.07392         0.3792         0.3782         0.9171        42.1839       -64.9633       -27.5907              0     0.07173211
      2765.0000        32.3825        -999.25         25.065       29.46088         0.3759         0.3738         0.8743        40.3442       -64.9606       -27.5905              0     0.07168926
      2765.5000        30.6172        -999.25        24.4691       28.70939         0.3723         0.3692         0.8356        39.6435       -64.9902       -27.6225              0     0.07049288
      2766.0000        31.1772        -999.25        24.2173        28.3906         0.3679         0.3627         0.7883        41.4619       -65.0427       -27.6775              0     0.06847858
      2766.5000        32.5225        -999.25         24.369       28.57921         0.3637         0.3521         0.7411        43.9006       -65.4546       -28.0918              0     0.05362858
      2767.0000        33.3292        -999.25        24.6952       28.98723         0.3597         0.3546         0.7188        42.1891       -65.8193        -28.459              0     0.04046072
      2767.5000        33.3071        -999.25         25.231       29.65884         0.3612         0.3561         0.7136        39.2125       -65.8618       -28.5039              0     0.03880358
      2768.0000        33.2441        -999.25         25.655       30.18985         0.3641         0.3617         0.7169        38.3925       -65.7013       -28.3459              0      0.0443964
      2768.5000        33.0952        -999.25        26.9375       31.80042         0.3689         0.3698         0.7202        39.2582        -65.485        -28.132              0     0.05198213
      2769.0000        32.9598        -999.25        28.3346        33.5551         0.3766         0.3757         0.7294        39.4213       -65.3561       -28.0056     0.01181063     0.05644288
      2769.5000        32.4293        -999.25        28.7262       34.04536         0.3864         0.3857         0.7428        39.2515       -65.3923       -28.0443      0.0222418     0.05501073
      2770.0000        31.4122        -999.25        28.6227       33.91306         0.3978          0.398         0.7453         42.553       -65.3933       -28.0477     0.01942671     0.05483573
      2770.5000        30.3325        -999.25        28.3628       33.58408         0.4093         0.4092         0.7421        45.2961       -65.2942       -27.9511     0.01242723     0.05823571
