#------------------------------------------------------------------------------
# Created by    : vladimir.rabinovich
# Created on    : 09/19/2023 17:20:36
#------------------------------------------------------------------------------
~Version Information Section
VERS.           2.0     :   CWLS log ASCII Standard - VERSION 2.0
WRAP.           NO      :   One line per depth step
~Well Information Section
#MNEM       .UNIT                                         VALUE :DESCRIPTION
#------------------------------------------------------------------------------
STRT        .FT                                             504 :START DEPTH
STOP        .FT                                            9762 :STOP DEPTH
STEP        .FT                                             0.5 :STEP      
NULL        .                                           -999.25 :NULL      
COMP        .                                      SHELL OIL CO :COMPANY   
WELL        .                                OCS 00703 ST00BP00 :WELL      
FLD         .                                           WILDCAT :FIELD     
LOC         .                                                   :LOCATION  
CNTY        .                             GALVESTON LARGE BLOCK :LOCATION  
STAT        .                                             TEXAS :STATE     
CTRY        .                                     UNITED STATES :COUNTRY   
SRVC        .                                                   :SERVICE COMPANY
DATE        .                             9/13/2023 11:19:25 AM :LOG DATE  
API         .                                    42706000420000 :API NUMBER
UWI         .                                    42706000420000 :UNIQUE WELL ID
XCOORD      .                                  1132503.99790541 :SURFACE X 
YCOORD      .                                  10523078.0194322 :SURFACE Y 
LAT         .                                         28.987276 :LATITUDE  
LON         .                                        -94.589113 :LONGITUDE 
ELEV        .FT                                              83 :ELEVATION VALUE
ELEV_TYPE   .                                                KB :ELEVATION REFERENCE TYPE
~Curve Information Section
#MNEM       .UNIT                                      API CODE :CURVE DESCRIPTION
#------------------------------------------------------------------------------
DEPT        .FT                                                 :DEPTH     
ASN         .OHMM                                               :          
CILD        .MMHO                                               :          
DT          .US/F                                               :          
ILD         .OHMM                                               :          
LAT         .OHMM                                               :          
LN          .OHMM                                               :          
SP          .MV                                                 :          
SP_NORM     .MV                                                 :SP Normalized
VSH_SP      .V/V                                                :Volume of Shale from SP
~A        DEPTH            ASN           CILD             DT            ILD            LAT             LN             SP        SP_NORM         VSH_SP
# ...
      6652.0000         1.1479       1196.137       113.6805          0.842        -999.25          0.842       -55.8127      -14.67719      0.7608077
      6652.5000         1.1612       1188.039       112.0015         0.8572        -999.25         0.8572       -59.0602      -17.92621      0.6995054
      6653.0000         1.1577       1179.779        110.065         0.8724        -999.25         0.8724       -60.7076      -19.57513      0.6683938
      6653.5000         1.1522       1165.945         109.09         0.8876        -999.25         0.8876       -61.9288      -20.79784      0.6453237
      6654.0000         1.1468       1146.967       106.7832         0.9027        -999.25         0.9027        -61.909      -20.77956      0.6456686
      6654.5000         1.1438       1116.824       105.8198         0.9179        -999.25         0.9179       -59.4566      -18.32868      0.6919118
      6655.0000         1.1427       1089.475       105.8309         0.9346        -999.25         0.9346       -56.8506       -15.7242      0.7410529
      6655.5000          1.148       1068.752        106.284         0.9521        -999.25         0.9521       -54.3561      -13.23121      0.7880903
      6656.0000         1.1646       1051.246       106.9668         0.9695        -999.25         0.9695       -52.1093      -10.98593      0.8304542
      6656.5000         1.1848       1033.787       107.3762         0.9855        -999.25         0.9855       -49.4339      -8.312046      0.8809048
      6657.0000         1.2022       1016.306       106.1328         0.9862        -999.25         0.9862       -47.1574       -6.03706      0.9238291
      6657.5000         1.2121       1004.992       104.9517         0.9869        -999.25         0.9869       -46.5693      -5.450481      0.9348966
      6658.0000         1.2121        994.792       103.8353         0.9876        -999.25         0.9876       -46.2089      -5.091599       0.941668
      6658.5000         1.2002       988.7646       103.8677         0.9883        -999.25         0.9883       -45.5602      -4.444412       0.953879
      6659.0000         1.1882       984.2461       103.5065          0.989        -999.25          0.989       -44.8338      -3.719532       0.967556
      6659.5000         1.1762       989.4385       103.0586         0.9762        -999.25         0.9762       -44.2046      -3.091846      0.9793991
      6660.0000         1.1585       997.4629       102.6454          0.962        -999.25          0.962       -43.6757      -2.564465      0.9893497
      6660.5000         1.1364       1025.678       102.6463         0.9479        -999.25         0.9479       -43.1533      -2.043583      0.9991777
      6661.0000         1.1437       1050.455       103.0423         0.9337        -999.25         0.9337       -42.9316      -1.823395              1
      6661.5000          1.156       1073.648       104.2998         0.9199        -999.25         0.9199       -42.7099      -1.603214              1
      6662.0000         1.1652       1093.604       106.9313         0.9078        -999.25         0.9078       -42.4882       -1.38303              1
      6662.5000         1.1724       1108.465       109.5628         0.8956        -999.25         0.8956       -42.3872      -1.283546              1
      6663.0000         1.1796       1120.631       109.0231         0.8835        -999.25         0.8835       -42.5517      -1.449566              1
      6663.5000         1.1868       1131.523       107.3649         0.8714        -999.25         0.8714       -43.1642       -2.06358      0.9988004
      6664.0000         1.1924       1137.051       105.7067         0.8593        -999.25         0.8593       -43.7432      -2.644096      0.9878472
      6664.5000         1.1967        1141.26       104.6814         0.8472        -999.25         0.8472       -44.3148      -3.217213      0.9770337
      6665.0000          1.201       1144.172       105.1027         0.8382        -999.25         0.8382        -44.887      -3.790932      0.9662088
      6665.5000         1.2053       1146.709       106.2366          0.831        -999.25          0.831       -45.4587      -4.364147      0.9553934
      6666.0000         1.2107       1149.709       107.3706         0.8238        -999.25         0.8238       -46.0061      -4.913063      0.9450365
      6666.5000         1.2165       1153.531       108.5045         0.8165        -999.25         0.8165       -46.5443      -5.452782      0.9348532
      6667.0000         1.2222       1157.357       109.6384         0.8093        -999.25         0.8093       -47.0825      -5.992496      0.9246699
      6667.5000         1.2266       1167.281       110.7723         0.8025        -999.25         0.8025       -47.6949      -6.606415      0.9130865
      6668.0000         1.2305        1180.25       111.9063         0.7958        -999.25         0.7958       -48.4127      -7.325733      0.8995145
      6668.5000         1.2334       1195.111       113.0402         0.7891        -999.25         0.7891       -48.5954      -7.509949      0.8960387
      6669.0000          1.236        1211.48       112.8214         0.7825        -999.25         0.7825        -48.208      -7.124065      0.9033195
      6669.5000         1.2312       1229.311       110.7637         0.7758        -999.25         0.7758       -47.8206      -6.738178      0.9106004
      6670.0000         1.2124       1248.438        108.706         0.7691        -999.25         0.7691       -48.0207      -6.939796      0.9067963
      6670.5000         1.1904       1262.111       106.6483         0.7624        -999.25         0.7624       -48.8568      -7.777416      0.8909922
      6671.0000         1.1665       1275.477       104.8881         0.7576        -999.25         0.7576       -49.7448      -8.666931      0.8742089
      6671.5000           1.19       1285.992       104.9576         0.7544        -999.25         0.7544       -50.6329      -9.556549      0.8574236
      6672.0000         1.2135       1293.018       105.6833         0.7511        -999.25         0.7511       -52.1514      -11.07657       0.828744
      6672.5000         1.2317       1295.559       106.4857         0.7479        -999.25         0.7479       -53.9919      -12.91858       0.793989
      6673.0000         1.2499       1296.508       107.1401         0.7447        -999.25         0.7447       -55.5699       -14.4981      0.7641868
      6673.5000         1.2637       1291.037       107.4127         0.7509        -999.25         0.7509       -57.1726      -16.10231      0.7339186
      6674.0000         1.2761       1280.521       104.9157          0.764        -999.25          0.764       -58.1765      -17.10773      0.7149485
      6674.5000         1.2635       1262.939       102.6079         0.7771        -999.25         0.7771       -58.6837      -17.61645        0.70535
      6675.0000         1.2489       1241.699       100.3002         0.7901        -999.25         0.7901       -57.9976      -16.93187      0.7182667
      6675.5000          1.233       1221.422        97.9924         0.8108        -999.25         0.8108       -57.3107      -16.24648      0.7311984
      6676.0000         1.2207        1202.48        97.2984         0.8316        -999.25         0.8316       -56.6239       -15.5612      0.7441283
      6676.5000         1.2312       1184.504        98.9157         0.8524        -999.25         0.8524       -55.9241      -14.86292      0.7573035
      6677.0000         1.2424       1165.289        100.533         0.8683        -999.25         0.8683       -54.6546      -13.59493      0.7812277
      6677.5000         1.2537       1143.133       102.1504         0.8826        -999.25         0.8826        -53.385      -12.32685      0.8051538
      6678.0000         1.2574       1118.826       103.7677          0.897        -999.25          0.897       -52.1142      -11.05757      0.8291025
