#------------------------------------------------------------------------------
# Created by    : vladimir.rabinovich
# Created on    : 09/19/2023 17:21:52
#------------------------------------------------------------------------------
~Version Information Section
VERS.           2.0     :   CWLS log ASCII Standard - VERSION 2.0
WRAP.           NO      :   One line per depth step
~Well Information Section
#MNEM       .UNIT                                         VALUE :DESCRIPTION
#------------------------------------------------------------------------------
STRT        .FT                                            2690 :START DEPTH
STOP        .FT                                            8272 :STOP DEPTH
STEP        .FT                                             0.5 :STEP      
NULL        .                                           -999.25 :NULL      
COMP        .                        PG&E RESOURCES OFFSHORE CO :COMPANY   
WELL        .                               OCS G09053 ST00BP00 :WELL      
FLD         .                              GALVESTON BLOCK 0427 :FIELD     
LOC         .                                                   :LOCATION  
CNTY        .                             GALVESTON LARGE BLOCK :LOCATION  
STAT        .                                             TEXAS :STATE     
CTRY        .                                     UNITED STATES :COUNTRY   
SRVC        .                                                   :SERVICE COMPANY
DATE        .                             9/13/2023 11:11:09 AM :LOG DATE  
API         .                                    42706402380000 :API NUMBER
UWI         .                                    42706402380000 :UNIQUE WELL ID
XCOORD      .                                  948581.259723803 :SURFACE X 
YCOORD      .                                  10360666.4777899 :SURFACE Y 
LAT         .                                         28.532718 :LATITUDE  
LON         .                                        -95.155068 :LONGITUDE 
ELEV        .FT                                             119 :ELEVATION VALUE
ELEV_TYPE   .                                                KB :ELEVATION REFERENCE TYPE
~Curve Information Section
#MNEM       .UNIT                                      API CODE :CURVE DESCRIPTION
#------------------------------------------------------------------------------
DEPT        .FT                                                 :DEPTH     
CALI        .IN                                                 :          
DRHO        .G/C3                                               :          
DT          .US/F                                               :          
GR          .GAPI                                               :          
GR_1        .GAPI                                               :          
GR_NORM     .GAPI                                               :GammaRay Normalized
ILD         .OHMM                                               :          
ILM         .OHMM                                               :          
NPHI        .%                                                  :          
RFOC        .OHMM                                               :          
RHOB        .G/C3                                               :          
SP          .MV                                                 :          
SP_NORM     .MV                                                 :SP Normalized
VSH_GR      .V/V                                                :Volume of Shale from GR
VSH_SP      .V/V                                                :Volume of Shale from SP
~A        DEPTH           CALI           DRHO             DT             GR           GR_1        GR_NORM            ILD            ILM           NPHI           RFOC           RHOB             SP        SP_NORM         VSH_GR         VSH_SP
# ...
      4951.0000        -999.25        -999.25       124.4844        90.5332        -999.25       76.14441         0.8942         0.9172        -999.25         1.1189        -999.25       -44.8964      -1.718903      0.9179661      0.9815666
      4951.5000        -999.25        -999.25       122.6747        89.9648        -999.25        75.4996         0.8981         0.9218        -999.25         1.1293        -999.25       -45.1771      -1.993542      0.9042469      0.9745246
      4952.0000        -999.25        -999.25       122.2744         89.788        -999.25       75.29801         0.9016         0.9227        -999.25         1.1259        -999.25       -45.1909      -2.001278      0.8999577      0.9743262
      4952.5000        -999.25        -999.25       123.5764        91.0103        -999.25       76.67982         0.9049         0.9235        -999.25         1.1054        -999.25       -45.1161      -1.920414      0.9293578      0.9763997
      4953.0000        -999.25        -999.25       125.9102        94.2544        -999.25       80.34976         0.9078         0.9242        -999.25         1.0989        -999.25       -44.7465       -1.54475              1      0.9860321
      4953.5000        -999.25        -999.25       128.2021        95.7604        -999.25       82.05264         0.9107         0.9216        -999.25         1.1052        -999.25       -44.5518       -1.34399              1      0.9911798
      4954.0000        -999.25        -999.25       128.2798        94.0571        -999.25       80.12344          0.905          0.919        -999.25         1.1198        -999.25        -44.649      -1.435123              1       0.988843
      4954.5000        -999.25        -999.25       126.6329        91.5455        -999.25       77.27947         0.8975         0.9154        -999.25         1.1363        -999.25       -44.8444      -1.624462      0.9421164      0.9839882
      4955.0000        -999.25        -999.25       124.2767        91.2777        -999.25       76.97487         0.8938         0.9072        -999.25          1.139        -999.25       -44.7397      -1.513702      0.9356355      0.9868281
      4955.5000        -999.25        -999.25       122.2007        91.6149        -999.25       77.35498         0.8941          0.899        -999.25         1.1252        -999.25       -44.6382      -1.406136       0.943723      0.9895863
      4956.0000        -999.25        -999.25       121.5692        92.1058        -999.25       77.90903         0.8893         0.8908        -999.25         1.1168        -999.25       -44.6541      -1.415974      0.9555114       0.989334
      4956.5000        -999.25        -999.25       122.6985        91.5912        -999.25       77.32513         0.8816         0.8774        -999.25         1.1109        -999.25       -44.7479      -1.503712      0.9430878      0.9870843
      4957.0000        -999.25        -999.25       125.7776        91.8816        -999.25       77.65227         0.8744         0.8643        -999.25         1.1006        -999.25       -44.9414      -1.691147      0.9500483      0.9822783
      4957.5000        -999.25        -999.25       127.2445        92.6266        -999.25        78.4939         0.8674         0.8504        -999.25         1.0828        -999.25       -45.0562      -1.799885      0.9679554      0.9794902
      4958.0000        -999.25        -999.25       128.2556         92.735        -999.25       78.61507          0.858         0.8346        -999.25         1.0614        -999.25       -44.7328      -1.470425      0.9705333      0.9879378
      4958.5000        -999.25        -999.25        128.875        92.5532        -999.25        78.4078         0.8452         0.8213        -999.25         1.0492        -999.25       -43.9169     -0.6484604      0.9661234              1
      4959.0000        -999.25        -999.25       128.6133        91.4146        -999.25        77.1177         0.8307         0.8119        -999.25          1.039        -999.25       -43.3111    -0.03659821      0.9386744              1
      4959.5000        -999.25        -999.25        128.572        89.8181        -999.25       75.30937         0.8151         0.8027        -999.25         1.0356        -999.25       -43.0252      0.2553635      0.9001994              1
      4960.0000        -999.25        -999.25        129.113        91.0005        -999.25       76.64602         0.7992         0.7994        -999.25         1.0385        -999.25       -43.0846      0.2020264      0.9286387              1
      4960.5000        -999.25        -999.25       130.1909        94.7123        -999.25       80.84528         0.7836         0.7984        -999.25         1.0456        -999.25       -43.5601     -0.2674103              1              1
      4961.0000        -999.25        -999.25       131.3379         94.968        -999.25       81.13315          0.795         0.8016        -999.25         1.0342        -999.25       -43.8074     -0.5086479              1              1
      4961.5000        -999.25        -999.25       132.2778        92.7712        -999.25       78.64545         0.8336         0.8123        -999.25         1.0211        -999.25       -43.7413     -0.4364853      0.9711797              1
      4962.0000        -999.25        -999.25       131.6255        92.4219        -999.25        78.2486         0.8676         0.8278        -999.25         1.0323        -999.25       -43.6221     -0.3112221      0.9627362              1
      4962.5000        -999.25        -999.25       128.3914        92.3319        -999.25       78.14525         0.8814         0.8297        -999.25         1.0695        -999.25       -43.7452     -0.4282608      0.9605372              1
      4963.0000        -999.25        -999.25       124.3492        92.0719        -999.25       77.84948         0.8742         0.8276        -999.25          1.115        -999.25       -44.3462      -1.023197      0.9542443      0.9994052
      4963.5000        -999.25        -999.25       120.6443        92.7566        -999.25       78.62286         0.8545         0.8255        -999.25          1.152        -999.25       -44.8832      -1.554134      0.9706993      0.9857914
      4964.0000        -999.25        -999.25       120.5498        94.8633        -999.25       81.00557          0.832         0.8233        -999.25         1.1521        -999.25       -45.0024      -1.667271              1      0.9828905
      4964.5000        -999.25        -999.25       124.2943        95.9696        -999.25        82.2561         0.8142         0.8214        -999.25         1.0857        -999.25       -44.5002      -1.159008              1      0.9959229
      4965.0000        -999.25        -999.25       129.3469        96.6547        -999.25       83.02994          0.808         0.8204        -999.25         1.0226        -999.25       -44.1395      -0.792244              1              1
      4965.5000        -999.25        -999.25       134.2244        98.0027        -999.25       84.55399         0.8023         0.8195        -999.25         1.0002        -999.25       -44.2592     -0.9058838              1              1
      4966.0000        -999.25        -999.25       136.1753        98.6816        -999.25       85.32082         0.7988         0.8191        -999.25          1.001        -999.25        -44.767      -1.407619              1      0.9895482
      4966.5000        -999.25        -999.25       133.7417        97.4863        -999.25       83.96655         0.7952         0.8188        -999.25         1.0119        -999.25       -45.1161      -1.750656              1      0.9807524
      4967.0000        -999.25        -999.25       130.8352        95.4795        -999.25       81.69386         0.7906         0.8183        -999.25         1.0107        -999.25       -45.2235      -1.851994              1       0.978154
      4967.5000        -999.25        -999.25       128.4001        93.8843        -999.25       79.88701         0.7859         0.8172        -999.25         1.0159        -999.25       -45.2715      -1.893932      0.9975959      0.9770787
