#------------------------------------------------------------------------------
# Created by    : vladimir.rabinovich
# Created on    : 09/19/2023 17:22:39
#------------------------------------------------------------------------------
~Version Information Section
VERS.           2.0     :   CWLS log ASCII Standard - VERSION 2.0
WRAP.           NO      :   One line per depth step
~Well Information Section
#MNEM       .UNIT                                         VALUE :DESCRIPTION
#------------------------------------------------------------------------------
STRT        .FT                                            2600 :START DEPTH
STOP        .FT                                            8208 :STOP DEPTH
STEP        .FT                                             0.5 :STEP      
NULL        .                                           -999.25 :NULL      
COMP        .                          SEAGULL ENERGY E & P INC :COMPANY   
WELL        .                               OCS G09039 ST00BP00 :WELL      
FLD         .                              GALVESTON BLOCK 0273 :FIELD     
LOC         .                                                   :LOCATION  
CNTY        .                             GALVESTON LARGE BLOCK :LOCATION  
STAT        .                                             TEXAS :STATE     
CTRY        .                                     UNITED STATES :COUNTRY   
SRVC        .                                                   :SERVICE COMPANY
DATE        .                             9/13/2023 11:19:54 AM :LOG DATE  
API         .                                    42706403220000 :API NUMBER
UWI         .                                    42706403220000 :UNIQUE WELL ID
XCOORD      .                                  1018306.80056624 :SURFACE X 
YCOORD      .                                  10490966.5196098 :SURFACE Y 
LAT         .                                         28.894284 :LATITUDE  
LON         .                                        -94.944599 :LONGITUDE 
ELEV        .FT                                             103 :ELEVATION VALUE
ELEV_TYPE   .                                                KB :ELEVATION REFERENCE TYPE
~Curve Information Section
#MNEM       .UNIT                                      API CODE :CURVE DESCRIPTION
#------------------------------------------------------------------------------
DEPT        .FT                                                 :DEPTH     
DCAL        .IN                                                 :          
DPHI        .%                                                  :          
DTL         .US/F                                               :          
GR          .GAPI                                               :          
GR_1        .GAPI                                               :          
GR_NORM     .GAPI                                               :GammaRay Normalized
ILD         .OHMM                                               :          
ILM         .OHMM                                               :          
NPHI        .%                                                  :          
SFL         .OHMM                                               :          
SP          .MV                                                 :          
SP_NORM     .MV                                                 :SP Normalized
VSH_GR      .V/V                                                :Volume of Shale from GR
VSH_SP      .V/V                                                :Volume of Shale from SP
~A        DEPTH           DCAL           DPHI            DTL             GR           GR_1        GR_NORM            ILD            ILM           NPHI            SFL             SP        SP_NORM         VSH_GR         VSH_SP
# ...
      8198.0000        -999.25        -999.25       111.4395        42.5093        -999.25       78.80198         0.4974         0.4992        -999.25         0.5799       -48.8294      -9.508584      0.9745102      0.8415236
      8198.5000        -999.25        -999.25       111.4385         42.536        -999.25       77.89432         0.4983         0.4964        -999.25         0.5808        -48.478      -9.130155      0.9551982      0.8478308
      8199.0000        -999.25        -999.25       111.4491         42.595        -999.25       78.99001         0.4992         0.5019        -999.25         0.5944       -47.8207      -8.422294      0.9785109      0.8596284
      8199.5000        -999.25        -999.25       111.4596        42.5956        -999.25       81.65406         0.5058         0.5105        -999.25          0.606       -47.0073      -7.546325              1      0.8742279
      8200.0000        -999.25        -999.25       111.4702        42.5749        -999.25       82.64775          0.513         0.5254        -999.25         0.6106       -46.2885      -6.772233              1      0.8871295
      8200.5000        -999.25        -999.25       111.4807        42.4557        -999.25       78.17159         0.5209         0.5395        -999.25         0.6327       -45.8781      -6.330263      0.9610975      0.8944956
      8201.0000        -999.25        -999.25       111.4913        42.2821        -999.25       83.62441          0.529         0.5526        -999.25         0.6536        -45.735      -6.176155              1      0.8970641
      8201.5000        -999.25        -999.25        111.502        42.2288        -999.25       81.03099         0.5379         0.5615        -999.25         0.6623       -45.7079       -6.14697              1      0.8975505
      8202.0000        -999.25        -999.25       111.5125        42.2123        -999.25       80.86412         0.5474         0.5692        -999.25         0.6675       -45.8922      -6.345447              1      0.8942426
      8202.5000        -999.25        -999.25       111.5231        42.2562        -999.25       79.88039         0.5517         0.5697        -999.25         0.6746       -46.0903      -6.558786       0.997455      0.8906869
      8203.0000        -999.25        -999.25       111.5336         42.236        -999.25       80.51909         0.5546         0.5653        -999.25         0.6803       -46.2679      -6.750045              1      0.8874993
      8203.5000        -999.25        -999.25       111.5442        42.1247        -999.25       83.80311         0.5519         0.5534        -999.25         0.6728        -46.345      -6.833078              1      0.8861154
      8204.0000        -999.25        -999.25       111.5546        42.1082        -999.25        80.9965          0.549         0.5431        -999.25         0.6218       -46.4728      -6.970709              1      0.8838215
      8204.5000        -999.25        -999.25       111.5602         42.151        -999.25       79.85956         0.5443         0.5324        -999.25         0.6089       -46.5518      -7.055784      0.9970119      0.8824036
      8205.0000        -999.25        -999.25       111.5658        42.2186        -999.25       79.29443         0.5385           0.52        -999.25         0.6057         -46.66      -7.172307       0.984988      0.8804615
      8205.5000        -999.25        -999.25        -999.25        -999.25        -999.25       80.50819        -999.25        -999.25        -999.25        -999.25        -999.25        -999.25              1        -999.25
      8206.0000        -999.25        -999.25        -999.25        -999.25        -999.25       81.19909        -999.25        -999.25        -999.25        -999.25        -999.25        -999.25              1        -999.25
      8206.5000        -999.25        -999.25        -999.25        -999.25        -999.25       79.30959        -999.25        -999.25        -999.25        -999.25        -999.25        -999.25      0.9853105        -999.25
      8207.0000        -999.25        -999.25        -999.25        -999.25        -999.25       81.29772        -999.25        -999.25        -999.25        -999.25        -999.25        -999.25              1        -999.25
      8207.5000        -999.25        -999.25        -999.25        -999.25        -999.25       77.92802        -999.25        -999.25        -999.25        -999.25        -999.25        -999.25      0.9559154        -999.25
      8208.0000        -999.25        -999.25        -999.25        -999.25        -999.25       81.03389        -999.25        -999.25        -999.25        -999.25        -999.25        -999.25              1        -999.25
