#------------------------------------------------------------------------------
# Created by    : vladimir.rabinovich
# Created on    : 09/19/2023 17:19:49
#------------------------------------------------------------------------------
~Version Information Section
VERS.           2.0     :   CWLS log ASCII Standard - VERSION 2.0
WRAP.           NO      :   One line per depth step
~Well Information Section
#MNEM       .UNIT                                         VALUE :DESCRIPTION
#------------------------------------------------------------------------------
STRT        .FT                                             790 :START DEPTH
STOP        .FT                                           12500 :STOP DEPTH
STEP        .FT                                             0.5 :STEP      
NULL        .                                           -999.25 :NULL      
COMP        .                                 CHEVRON U S A INC :COMPANY   
WELL        .                               OCS G04596 ST00BP00 :WELL      
FLD         .                                           WILDCAT :FIELD     
LOC         .                                                   :LOCATION  
CNTY        .                        MUSTANG ISLAND LARGE BLOCK :LOCATION  
STAT        .                                             TEXAS :STATE     
CTRY        .                                     UNITED STATES :COUNTRY   
SRVC        .                                                   :SERVICE COMPANY
DATE        .                             9/13/2023 11:19:13 AM :LOG DATE  
API         .                                    42702401310000 :API NUMBER
UWI         .                                    42702401310000 :UNIQUE WELL ID
XCOORD      .                                  486632.184756912 :SURFACE X 
YCOORD      .                                  10088502.2555927 :SURFACE Y 
LAT         .                                          27.75488 :LATITUDE  
LON         .                                        -96.567316 :LONGITUDE 
ELEV        .FT                                              90 :ELEVATION VALUE
ELEV_TYPE   .                                                KB :ELEVATION REFERENCE TYPE
~Curve Information Section
#MNEM       .UNIT                                      API CODE :CURVE DESCRIPTION
#------------------------------------------------------------------------------
DEPT        .FT                                                 :DEPTH     
ASFL        .OHMM                                               :          
CILD        .MMHO                                               :          
GR          .GAPI                                               :          
GR_NORM     .GAPI                                               :GammaRay Normalized
ILD         .OHMM                                               :          
SP          .MV                                                 :          
SP_NORM     .MV                                                 :SP Normalized
VSH_GR      .V/V                                                :Volume of Shale from GR
VSH_SP      .V/V                                                :Volume of Shale from SP
~A        DEPTH           ASFL           CILD             GR        GR_NORM            ILD             SP        SP_NORM         VSH_GR         VSH_SP
# ...
     10171.0000         1.4417        849.999        75.6221       78.01064         1.2001        -41.804      -3.207512      0.9576733      0.9549487
     10171.5000         1.5037       869.8242        77.2419       80.21663         1.1853       -41.8156      -3.219112              1       0.954712
     10172.0000         1.5584       889.3301        78.8595       82.41964         1.1705        -41.827      -3.230511              1      0.9544794
     10172.5000         1.3824       908.5654        80.3936       84.50887         1.1558       -41.8301      -3.233612              1      0.9544161
     10173.0000         1.3314       927.7754        81.8959       86.55476          1.141       -41.8331       -3.23661              1      0.9543549
     10173.5000         1.2904       947.0098          83.55        88.8075         1.1228       -41.8362      -3.239712              1      0.9542916
     10174.0000         1.2621       966.1709        84.7019       90.37593         1.0987       -41.8394      -3.242912              1      0.9542263
     10174.5000         1.2647       978.8877        81.4131       85.89359         1.0747       -41.8425       -3.24601              1      0.9541631
     10175.0000         1.2867       991.6045        76.2274       78.82658         1.0507       -41.8456      -3.249111      0.9750337      0.9540998
     10175.5000         1.3087       993.0557        73.9188       75.67984         1.0267       -41.8486       -3.25211      0.9080817      0.9540386
     10176.0000         1.3307       988.5488        72.6715       73.97919         1.0045       -41.8517      -3.255211      0.8718976      0.9539753
     10176.5000         1.3541       984.0469        71.7806       72.76418         0.9916       -41.8799      -3.283413      0.8460463      0.9533997
     10177.0000          1.378       970.3779        70.8138       71.44572         0.9798       -41.9238      -3.327312       0.817994      0.9525038
     10177.5000          1.402       948.0928         69.662       69.87521          1.003       -41.9677      -3.371212      0.7845789      0.9516079
     10178.0000         1.4254       928.7344        69.3851       69.49681         1.0262       -42.0116      -3.415112      0.7765279       0.950712
     10178.5000         1.4439       923.1016        71.5172       72.40086         1.0493       -42.0554      -3.458912      0.8383161      0.9498181
     10179.0000         1.4007       938.2783        73.7767       75.47849         1.0666       -42.0992      -3.502712      0.9037977      0.9489242
     10179.5000         1.3608       963.5889        76.0411       78.56278         1.0407       -42.1285      -3.532013      0.9694209      0.9483263
     10180.0000         1.3214       995.2207        78.5898       82.03448         1.0148       -42.1471       -3.55061              1      0.9479467
     10180.5000         1.2892       1026.852        81.1533       85.52634         0.9889       -42.1656      -3.569111              1      0.9475692
     10181.0000         1.2571       1064.289        79.3348       83.04741          0.963       -42.1841      -3.587612              1      0.9471916
     10181.5000         1.2319       1082.244        76.3451       78.97261         0.9371       -42.1274       -3.53091      0.9781407      0.9483488
     10182.0000         1.2837       1050.219        68.0323       67.64469         0.9058       -42.0334      -3.436913      0.7371211      0.9502671
     10182.5000         1.3357       1018.194          66.03       64.91529         1.0231       -41.9398      -3.343311      0.6790487      0.9521773
     10183.0000         1.3962       985.5293        65.3751       64.02184         1.0482        -41.846      -3.249512      0.6600391      0.9540916
     10183.5000         1.4664       951.6836        67.0031         66.239         1.0584       -41.7523      -3.155811      0.7072127      0.9560038
     10184.0000         1.5857       932.7686         73.865       75.58777         1.0673       -41.6585      -3.062012      0.9061227      0.9579181
     10184.5000         1.6495       924.1348        78.5066       81.91119         1.0719       -41.5646      -2.968113              1      0.9598345
     10185.0000         1.5493       915.9531        81.9424       86.59163         1.0764       -41.4725      -2.876011              1      0.9617141
     10185.5000         1.4782       917.5645        84.7668       90.43899         1.0809       -41.4709      -2.874413              1      0.9617467
     10186.0000         1.4019       919.1787        84.1824        89.6416         1.0855       -41.4693       -2.87281              1      0.9617794
     10186.5000         1.3179       922.1182        84.0549       89.46677           1.09       -41.4678      -2.871311              1        0.96181
     10187.0000         1.2851       936.7783        82.5453       87.40873         1.1505       -41.4662      -2.869713              1      0.9618426
     10187.5000         1.3393       933.2363        80.4426       84.54252         1.2136       -41.4646      -2.868111              1      0.9618753
     10188.0000         1.4989       824.6152        75.7961       78.21021         1.2767        -41.463      -2.866512      0.9619194      0.9619079
     10188.5000         2.2328       759.3838        66.3854       65.38631         1.3398       -41.4541      -2.857613      0.6890703      0.9620895
     10189.0000         2.5366       702.2197        55.7887       50.94639         1.4117       -41.4113      -2.814812      0.3818381       0.962963
     10189.5000         2.8291       639.1533        54.4653       49.14206          1.515       -41.3685      -2.772011      0.3434482      0.9638365
     10190.0000         2.8709       563.0986        66.8363       65.99738         1.6181       -41.3257       -2.72921       0.702072        0.96471
     10190.5000          2.749       510.1172        69.5126       69.64295         1.7826       -41.2829      -2.686413      0.7796373      0.9655834
     10191.0000         2.2421       530.1387        71.2157       71.96245         1.8314       -41.2401      -2.643612      0.8289883      0.9664569
     10191.5000         1.9913       595.4687        72.7352       74.03177         1.7838       -41.1973      -2.600811      0.8730164      0.9673304
     10192.0000         1.8773       625.4277        73.9998       75.75378         1.7362       -41.1238      -2.527309      0.9096548      0.9688304
     10192.5000         1.7904       654.0342          73.05       74.45851         1.6186       -41.0223      -2.425812       0.882096      0.9709018
     10193.0000         1.7159       673.3184        72.2009       73.30043         1.4669        -40.921      -2.324512       0.857456      0.9729691
     10193.5000         1.7498       692.0615        71.3518       72.14237         1.4709       -40.8195      -2.223011      0.8328164      0.9750406
     10194.0000         1.8794       701.2363        71.4314       72.24972         1.5066       -40.7181      -2.121613      0.8351004        0.97711
     10194.5000         1.9312       681.1895         73.338        74.8465         1.5422       -40.6168      -2.020309       0.890351      0.9791774
     10195.0000          1.964       660.6514        74.5291       76.46837         1.5779       -40.5153      -1.918812      0.9248589      0.9812487
     10195.5000         1.9918       638.2676         73.686       75.31847         1.6136       -40.4724      -1.875912      0.9003929      0.9821243
     10196.0000         2.0129       615.9336         72.843       74.16873         1.6493       -40.4995      -1.903011      0.8759305      0.9815712
     10196.5000         2.0358       593.5498        71.9988       73.01733          1.685       -40.5266      -1.930111      0.8514326      0.9810181
     10197.0000         2.0619       576.0615        71.1558       71.86757         1.7179       -40.5538       -1.95731      0.8269696      0.9804631
