#------------------------------------------------------------------------------
# Created by    : vladimir.rabinovich
# Created on    : 09/19/2023 17:22:52
#------------------------------------------------------------------------------
~Version Information Section
VERS.           2.0     :   CWLS log ASCII Standard - VERSION 2.0
WRAP.           NO      :   One line per depth step
~Well Information Section
#MNEM       .UNIT                                         VALUE :DESCRIPTION
#------------------------------------------------------------------------------
STRT        .FT                                            1126 :START DEPTH
STOP        .FT                                            9906 :STOP DEPTH
STEP        .FT                                             0.5 :STEP      
NULL        .                                           -999.25 :NULL      
COMP        .                                        EXXON CORP :COMPANY   
WELL        .                               OCS G06053 ST00BP00 :WELL      
FLD         .                                           WILDCAT :FIELD     
LOC         .                                                   :LOCATION  
CNTY        .                      MATAGORDA ISLAND LARGE BLOCK :LOCATION  
STAT        .                                             TEXAS :STATE     
CTRY        .                                     UNITED STATES :COUNTRY   
SRVC        .                                                   :SERVICE COMPANY
DATE        .                             9/13/2023 11:12:11 AM :LOG DATE  
API         .                                    42703402640000 :API NUMBER
UWI         .                                    42703402640000 :UNIQUE WELL ID
XCOORD      .                                  440255.018680432 :SURFACE X 
YCOORD      .                                  10152284.9344853 :SURFACE Y 
LAT         .                                         27.926249 :LATITUDE  
LON         .                                        -96.716438 :LONGITUDE 
ELEV        .FT                                              94 :ELEVATION VALUE
ELEV_TYPE   .                                                KB :ELEVATION REFERENCE TYPE
~Curve Information Section
#MNEM       .UNIT                                      API CODE :CURVE DESCRIPTION
#------------------------------------------------------------------------------
DEPT        .FT                                                 :DEPTH     
GR          .GAPI                                               :          
GR_NORM     .GAPI                                               :GammaRay Normalized
ILD         .OHMM                                               :          
SP          .MV                                                 :          
SP_NORM     .MV                                                 :SP Normalized
VSH_GR      .V/V                                                :Volume of Shale from GR
VSH_SP      .V/V                                                :Volume of Shale from SP
~A        DEPTH             GR        GR_NORM            ILD             SP        SP_NORM         VSH_GR         VSH_SP
# ...
      5213.0000        40.2768       52.71698         0.7785      -105.5554      -50.38298      0.4195101      0.2843046
      5213.5000        39.6633       51.70575         0.8554      -105.4438      -50.27139      0.3979947      0.2859219
      5214.0000        38.1593       49.23366         0.9126      -109.7362      -54.56379      0.3453971      0.2237132
      5214.5000        35.7795       45.32482         0.9317      -113.1979      -58.02549      0.2622302      0.1735437
      5215.0000        33.9828       42.37254         0.8347      -115.9716      -60.79919      0.1994158      0.1333451
      5215.5000        32.3093       39.62239         0.6833      -117.9896      -62.81719      0.1409019      0.1040987
      5216.0000        31.3988       38.12394         0.5689      -118.7433      -63.57089      0.1090201     0.09317553
      5216.5000        32.0386       39.16875          0.501      -118.9747      -63.80229        0.13125     0.08982191
      5217.0000        34.0975       42.54162         0.4536      -118.8474      -63.67498      0.2030132      0.0916669
      5217.5000        34.8293       43.73735          0.421      -118.9606      -63.78819      0.2284544     0.09002624
      5218.0000        32.8241       40.44305         0.3978      -119.7654      -64.59299      0.1583628     0.07836251
      5218.5000        30.8566       37.21058         0.3797      -121.3525      -66.18008     0.08958687      0.0553611
      5219.0000        30.2357       36.18723         0.3685      -123.5389      -68.36649     0.06781331     0.02367412
      5219.5000        29.8622       35.56972         0.3594       -126.653      -71.48059     0.05467492              0
      5220.0000        29.1825       34.44989         0.3528      -127.8116      -72.63919     0.03084881              0
      5220.5000         27.545        31.7588         0.3458      -124.7611      -69.58868              0      0.0059611
      5221.0000        26.6228       30.24114         0.3385      -121.8392      -66.66679              0     0.04830734
      5221.5000        27.5377       31.73727         0.3313      -119.6848      -64.51239              0     0.07953057
      5222.0000        29.4734       34.90802         0.3229      -118.9447      -63.77229     0.04059609     0.09025668
      5222.5000        31.1969       37.73065         0.3144      -119.7278      -64.55539      0.1006522      0.0789074
      5223.0000        32.5106         39.881         0.3061      -120.9482      -65.77579      0.1464043     0.06122047
      5223.5000        33.5181       41.52904         0.2992      -122.0369      -66.86449       0.181469     0.04544222
      5224.0000        34.5269        43.1792         0.2986      -119.7955      -64.62309      0.2165788      0.0779262
      5224.5000        34.2902       42.78613         0.3052      -114.4054      -59.23299      0.2082154      0.1560436
      5225.0000        32.8961       40.49433         0.3179      -110.9144      -55.74199      0.1594539      0.2066379
      5225.5000        32.1093        39.1988         0.3381      -107.7931      -52.62069      0.1318893      0.2518741
      5226.0000        31.6266       38.40217         0.3706      -104.9773      -49.80489      0.1149397      0.2926828
      5226.5000        31.4271       38.07011         0.4019      -102.6702      -47.49778      0.1078746      0.3261191
      5227.0000        31.5275       38.23003         0.4082      -103.8154      -48.64299      0.1112772      0.3095219
      5227.5000        32.4539       39.74502         0.4163      -108.1334      -52.96099       0.143511      0.2469422
      5228.0000        32.4569       39.74517         0.4262      -108.9696      -53.79718      0.1435142      0.2348234
      5228.5000        32.0953       39.14719         0.4378      -106.8875      -51.71508      0.1307913      0.2649988
      5229.0000        31.8291       38.70571         0.4595      -105.0048      -49.83239      0.1213981      0.2922843
      5229.5000        31.6197       38.35742         0.4889      -106.8087      -51.63629      0.1139876      0.2661408
      5230.0000        31.0701       37.45102         0.5336      -112.8319      -57.65949     0.09470246       0.178848
      5230.5000        28.7672       33.66833         0.6039      -117.5634      -62.39099     0.01421973      0.1102755
      5231.0000        27.2034       31.09813         0.6773      -119.4465      -64.27409              0     0.08298415
      5231.5000        26.4496       29.85675         0.7407      -119.5631      -64.39069              0      0.0812944
      5232.0000        26.0825       29.24975         0.7789      -117.7207      -62.54829              0      0.1079958
      5232.5000        26.0673       29.22004         0.7942      -116.6005      -61.42809              0      0.1242306
      5233.0000        26.4533        29.8485         0.7989      -117.2203      -62.04789              0       0.115248
      5233.5000        27.5084       31.57463         0.7794      -118.4315      -63.25909              0     0.09769434
      5234.0000        28.2719       32.82236         0.7265      -119.8898      -64.71739              0     0.07655954
      5234.5000        28.9306       33.89819         0.6478      -124.6514      -69.47899     0.01911042    0.007550889
      5235.0000        29.5143       34.85098         0.5567      -127.9803      -72.80789     0.03938261              0
      5235.5000        30.3248       36.17583         0.4643      -128.7761      -73.60368     0.06757087              0
      5236.0000        31.5251       38.14016         0.3804      -129.2969       -74.1245       0.109365              0
      5236.5000        32.7387       40.12629         0.3208      -129.5876      -74.41519      0.1516233              0
      5237.0000        34.9781       43.79527         0.2834      -127.5551      -72.38269      0.2296866              0
      5237.5000        36.6974       46.61101         0.2593      -125.6321      -70.45969       0.289596              0
      5238.0000        36.9023       46.94238         0.2565      -124.0685      -68.89609      0.2966464     0.01599873
      5238.5000        36.1802         45.753         0.2581      -124.3047      -69.13229      0.2713404     0.01257545
      5239.0000        34.3365       42.72362         0.2719      -125.5022      -70.32979      0.2068856              0
      5239.5000        32.6758       39.99446         0.2916      -125.9415      -70.76909      0.1488183              0
      5240.0000        33.4028       41.18235          0.316      -125.8654      -70.69299      0.1740925              0
      5240.5000        34.2421       42.55444         0.3425      -125.3993      -70.22688      0.2032859              0
      5241.0000        34.7648       43.40715         0.3715      -125.4374      -70.26498      0.2214288              0
      5241.5000        34.0487       42.22762         0.4033      -126.1992      -71.02679      0.1963322              0
      5242.0000        33.5797       41.45344         0.4347      -128.1057      -72.93329      0.1798605              0
      5242.5000        33.9041       41.98084         0.4667      -130.8264      -75.65399      0.1910817              0
      5243.0000        33.7432       41.71212         0.5091      -129.1011       -73.9287      0.1853642              0
      5243.5000        33.6486       41.55216         0.5563      -126.3073      -71.13489      0.1819609              0
      5244.0000        34.0914        42.2738         0.6084      -124.3092      -69.13678      0.1973149     0.01251044
      5244.5000        35.1306       43.97383         0.6625      -124.4922      -69.31979      0.2334858    0.009858062
      5245.0000        35.7076       44.91562         0.7015      -125.6256      -70.45319      0.2535239              0
      5245.5000        34.4109       42.78362         0.7215      -126.1924      -71.01999       0.208162              0
      5246.0000        33.4222       41.15687         0.6694      -125.5836      -70.41119      0.1735504              0
