#------------------------------------------------------------------------------
# Created by    : vladimir.rabinovich
# Created on    : 09/19/2023 17:21:24
#------------------------------------------------------------------------------
~Version Information Section
VERS.           2.0     :   CWLS log ASCII Standard - VERSION 2.0
WRAP.           NO      :   One line per depth step
~Well Information Section
#MNEM       .UNIT                                         VALUE :DESCRIPTION
#------------------------------------------------------------------------------
STRT        .FT                                             682 :START DEPTH
STOP        .FT                                            8542 :STOP DEPTH
STEP        .FT                                             0.5 :STEP      
NULL        .                                           -999.25 :NULL      
COMP        .                       CORPUS CHRISTI OIL & GAS CO :COMPANY   
WELL        .                               OCS G08551 ST00BP00 :WELL      
FLD         .                                           WILDCAT :FIELD     
LOC         .                                                   :LOCATION  
CNTY        .                             GALVESTON LARGE BLOCK :LOCATION  
STAT        .                                             TEXAS :STATE     
CTRY        .                                     UNITED STATES :COUNTRY   
SRVC        .                                                   :SERVICE COMPANY
DATE        .                             9/13/2023 11:19:36 AM :LOG DATE  
API         .                                    42706401950000 :API NUMBER
UWI         .                                    42706401950000 :UNIQUE WELL ID
XCOORD      .                                   976199.22633255 :SURFACE X 
YCOORD      .                                  10415950.2633902 :SURFACE Y 
LAT         .                                         28.686063 :LATITUDE  
LON         .                                        -95.072067 :LONGITUDE 
ELEV        .FT                                              81 :ELEVATION VALUE
ELEV_TYPE   .                                                KB :ELEVATION REFERENCE TYPE
~Curve Information Section
#MNEM       .UNIT                                      API CODE :CURVE DESCRIPTION
#------------------------------------------------------------------------------
DEPT        .FT                                                 :DEPTH     
CALI        .IN                                                 :          
DPHI        .%                                                  :          
DRHO        .G/C3                                               :          
DT          .US/F                                               :          
GR          .GAPI                                               :          
GR_1        .GAPI                                               :          
GR_NORM     .GAPI                                               :GammaRay Normalized
ILD         .OHMM                                               :          
ILM         .OHMM                                               :          
NPHI        .%                                                  :          
SFL         .OHMM                                               :          
SP_NORM     .MV                                                 :SP Normalized
SPS         .MV                                                 :          
VSH_GR      .V/V                                                :Volume of Shale from GR
VSH_SP      .V/V                                                :Volume of Shale from SP
~A        DEPTH           CALI           DPHI           DRHO             DT             GR           GR_1        GR_NORM            ILD            ILM           NPHI            SFL        SP_NORM            SPS         VSH_GR         VSH_SP
# ...
      7771.0000        15.1797        25.3959        -0.0791       118.5354        -999.25         53.448        85.9118         0.5368         0.5183        39.9995         0.6427        -4.5895       -54.8611              1      0.9621547
      7771.5000        15.2668        25.8812        -0.0772       119.0435        -999.25        54.7437       87.62554         0.5348         0.5189        39.4285         0.6303      -4.511814       -54.7787              1      0.9640044
      7772.0000        15.8063        26.4344        -0.0786       119.3666        -999.25        54.8029       87.79366         0.5314         0.5212        40.8314          0.621      -4.695629       -54.9578              1      0.9596279
      7772.5000        16.2025        26.7508        -0.0797        119.203        -999.25        52.3401       84.80928         0.5271         0.5202        42.4615         0.6204       -5.02544       -55.2829              1      0.9517753
      7773.0000        16.3186        26.0029        -0.0792       118.0247        -999.25        48.4989       80.10189         0.5238         0.5227        43.9529         0.6246      -5.266655       -55.5194              1       0.946032
      7773.5000        16.2168        25.3206        -0.0781        117.728        -999.25        46.5734       77.78914         0.5205         0.5231        45.3278         0.6294      -5.375664       -55.6237      0.9529604      0.9434366
      7774.0000        15.9629         24.704        -0.0766       118.4093        -999.25        46.7895       78.15338         0.5167         0.5206        46.4349         0.6188      -5.295975       -55.5393      0.9607102       0.945334
      7774.5000        15.5098        24.2648        -0.0748       118.9707        -999.25        47.1412       78.68712         0.5128         0.5134        47.1688         0.6067      -4.982792       -55.2214      0.9720663      0.9527907
      7775.0000        15.3817        24.0011        -0.0736       119.2457        -999.25        46.9127        78.4956         0.5087         0.5068        47.7264         0.6001      -4.853401       -55.0873      0.9679915      0.9558714
      7775.5000         15.412        23.8676        -0.0734       119.1711        -999.25        46.5839       78.17872         0.5055         0.5022        48.0282         0.5973      -4.890717       -55.1199      0.9612494      0.9549829
      7776.0000        15.5657        23.7398        -0.0745       119.1162        -999.25        45.9459       77.47534         0.5046         0.5032        47.9175         0.5953      -5.023228       -55.2477      0.9462839      0.9518279
      7776.5000        16.1896        23.5742        -0.0765       119.0537        -999.25        45.1715       76.60145         0.5049         0.5072        46.9372         0.5934      -5.240238         -55.46      0.9276904       0.946661
      7777.0000        16.9445        23.8757        -0.0785       119.3138        -999.25         44.139       75.40494         0.5067         0.5074        46.2011         0.5942      -5.212254       -55.4273      0.9022327      0.9473273
      7777.5000        17.4095         24.513        -0.0823       118.8177        -999.25         42.847       73.88405         0.5092         0.5131        45.7172         0.5978      -5.052166       -55.2625      0.8698733      0.9511389
      7778.0000        17.5275        25.1443        -0.0901       118.3682        -999.25        41.7342       72.58717         0.5156         0.5154        45.2459         0.6048      -4.916779       -55.1224      0.8422801      0.9543624
      7778.5000        17.4712        25.5021        -0.1011       118.9539        -999.25        40.9623        71.7164         0.5228         0.5182        44.7952          0.615       -5.18549       -55.3864      0.8237532      0.9479645
      7779.0000        17.1911        25.4113         -0.107       119.3165        -999.25        40.3515       71.04702          0.533         0.5247        44.3085         0.6227      -5.194202       -55.3904      0.8095111      0.9477571
      7779.5000        16.2885        25.0079        -0.1065       119.0156        -999.25        40.2457        71.0089         0.5404         0.5318        43.7184         0.6282      -5.026817       -55.2183      0.8086999      0.9517425
      7780.0000        15.5276         24.603        -0.1003       118.6169        -999.25        41.6169         72.817         0.5442         0.5407        42.9476         0.6351       -4.96513       -55.1519      0.8471702      0.9532112
      7780.5000        15.5311         24.307        -0.0938       118.5498        -999.25         43.803       75.64375         0.5398         0.5427        42.7521         0.6349      -5.149445       -55.3315      0.9073139      0.9488227
      7781.0000        15.8216        24.7092        -0.0882       119.1324        -999.25        46.1299       78.64648         0.5338         0.5385        45.9857         0.6296      -5.114353       -55.2917      0.9712018      0.9496583
      7781.5000        15.6731        26.0073        -0.0897       119.7588        -999.25        47.6245       80.60884         0.5278         0.5315        48.7532         0.6222      -4.796764       -54.9694              1      0.9572199
      7782.0000        15.8048        26.9573        -0.0974       120.1709        -999.25        46.6339       79.46471         0.5216         0.5228         50.696          0.611       -4.62278       -54.7907      0.9886109      0.9613624
      7782.5000        16.1254        26.9382        -0.1038       120.6156        -999.25        44.5317       76.93108         0.5152         0.5158        50.1015         0.6028       -4.58279        -54.746      0.9347038      0.9623145
      7783.0000        16.5824        26.1239        -0.1067       120.8564        -999.25        42.9965       75.10619         0.5098         0.5098        47.6763         0.5986      -4.649303       -54.8078      0.8958763      0.9607309
      7783.5000        16.9268        25.7529        -0.1027       120.4464        -999.25        43.6264       75.98769         0.5049         0.5087        45.2747         0.5917      -4.761219        -54.915      0.9146316      0.9580662
      7784.0000        16.5898        26.6756        -0.0985       119.6646        -999.25        44.6398       77.34855         0.5018         0.5077        43.3569         0.5882      -4.803429       -54.9525      0.9435862      0.9570612
      7784.5000         15.413        27.6359        -0.0952       119.2633        -999.25        44.9086       77.77866         0.4995         0.5132        43.3157          0.591      -5.089043       -55.2334      0.9527375      0.9502609
      7785.0000         14.825        28.2326        -0.0923       119.2832        -999.25        45.3185       78.38515          0.501         0.5184        46.5433         0.5993      -5.044754       -55.1844      0.9656416      0.9513154
      7785.5000        14.4144        28.2581        -0.0898       119.2162        -999.25        45.8231       79.11002          0.501         0.5199        49.3993         0.6104      -4.807167       -54.9421      0.9810641      0.9569722
      7786.0000         14.748        27.5858        -0.0873       119.1641        -999.25        46.6005       80.17587         0.5002         0.5214        50.4349         0.6201      -4.699181       -54.8294              1      0.9595433
      7786.5000        15.0568          26.68        -0.0846       119.1244        -999.25        47.9653         81.976         0.5008         0.5197        47.2603         0.6191      -4.521992       -54.6475              1      0.9637621
      7787.0000        15.2618        25.5736        -0.0818       119.0063        -999.25        49.6747       84.20686         0.5002         0.5217        44.7495         0.6151      -4.372108       -54.4929              1      0.9673308
      7787.5000         15.519         24.749        -0.0795       118.3087        -999.25         51.163       86.16135         0.4999          0.521        43.1017          0.615      -4.311218       -54.4273              1      0.9687805
