#------------------------------------------------------------------------------
# Created by    : vladimir.rabinovich
# Created on    : 09/19/2023 17:21:03
#------------------------------------------------------------------------------
~Version Information Section
VERS.           2.0     :   CWLS log ASCII Standard - VERSION 2.0
WRAP.           NO      :   One line per depth step
~Well Information Section
#MNEM       .UNIT                                         VALUE :DESCRIPTION
#------------------------------------------------------------------------------
STRT        .FT                                          2542.5 :START DEPTH
STOP        .FT                                            8214 :STOP DEPTH
STEP        .FT                                             0.5 :STEP      
NULL        .                                           -999.25 :NULL      
COMP        .                          SEAGULL ENERGY E & P INC :COMPANY   
WELL        .                               OCS G12505 ST00BP00 :WELL      
FLD         .                              GALVESTON BLOCK 0357 :FIELD     
LOC         .                                                   :LOCATION  
CNTY        .                             GALVESTON LARGE BLOCK :LOCATION  
STAT        .                                             TEXAS :STATE     
CTRY        .                                     UNITED STATES :COUNTRY   
SRVC        .                                                   :SERVICE COMPANY
DATE        .                             9/13/2023 11:19:54 AM :LOG DATE  
API         .                                    42706403610000 :API NUMBER
UWI         .                                    42706403610000 :UNIQUE WELL ID
XCOORD      .                                  1003713.76055251 :SURFACE X 
YCOORD      .                                  10412171.7759297 :SURFACE Y 
LAT         .                                          28.67696 :LATITUDE  
LON         .                                        -94.986081 :LONGITUDE 
ELEV        .FT                                              96 :ELEVATION VALUE
ELEV_TYPE   .                                                KB :ELEVATION REFERENCE TYPE
~Curve Information Section
#MNEM       .UNIT                                      API CODE :CURVE DESCRIPTION
#------------------------------------------------------------------------------
DEPT        .FT                                                 :DEPTH     
AT10        .OHMM                                               :          
AT20        .OHMM                                               :          
AT30        .OHMM                                               :          
AT60        .OHMM                                               :          
AT90        .OHMM                                               :          
DCAL        .IN                                                 :          
DPSS        .V/V                                                :          
DTLF        .US/FT                                              :          
DTLN        .US/FT                                              :          
GR          .GAPI                                               :          
GR_NORM     .GAPI                                               :GammaRay Normalized
NPSS        .V/V                                                :Neutron Porosity Sandstone
SP          .MV                                                 :          
SP_NORM     .MV                                                 :SP Normalized
TENS        .LB                                                 :          
VSH_GR      .V/V                                                :Volume of Shale from GR
VSH_SP      .V/V                                                :Volume of Shale from SP
~A        DEPTH           AT10           AT20           AT30           AT60           AT90           DCAL           DPSS           DTLF           DTLN             GR        GR_NORM           NPSS             SP        SP_NORM           TENS         VSH_GR         VSH_SP
# ...
      2767.5000        -999.25        -999.25        -999.25        -999.25        -999.25        -999.25        -999.25       189.5373          166.4           34.8       49.00124         0.6584        -999.25        -999.25       2227.723      0.3404519        -999.25
      2768.0000        -999.25        -999.25        -999.25        -999.25        -999.25        -999.25        -999.25       184.2413          156.6           34.2       47.96908          0.641        -999.25        -999.25       2231.848      0.3184911        -999.25
      2768.5000        -999.25        -999.25        -999.25        -999.25        -999.25        -999.25        -999.25       182.0065            161           33.6       46.93692         0.6235        -999.25        -999.25       2235.974      0.2965301        -999.25
      2769.0000        -999.25        -999.25        -999.25        -999.25        -999.25        -999.25        -999.25       190.5762       179.7757           32.8       45.66475         0.6336        -999.25        -999.25       2240.099      0.2694628        -999.25
      2769.5000        -999.25        -999.25        -999.25        -999.25        -999.25        -999.25        -999.25       195.7861       191.5861           32.4       44.87259         0.7019        -999.25        -999.25       2244.224      0.2526084        -999.25
      2770.0000        -999.25        -999.25        -999.25        -999.25        -999.25        -999.25        -999.25       182.2409        194.796           32.6       44.80043         0.7494        -999.25        -999.25        2248.35      0.2510729        -999.25
      2770.5000        -999.25        -999.25        -999.25        -999.25        -999.25        -999.25        -999.25        151.206       185.5102        34.1881       46.39399         0.7729        -999.25        -999.25       2252.475      0.2849784        -999.25
      2771.0000        -999.25        -999.25        -999.25        -999.25        -999.25        -999.25        -999.25       132.2156        167.016        35.9683       48.21806         0.8028        -999.25        -999.25       2256.601      0.3237886        -999.25
      2771.5000        -999.25        -999.25        -999.25        -999.25        -999.25        -999.25        -999.25       111.4551        151.026        37.5485       49.80214         0.8196        -999.25        -999.25       2260.726      0.3574924        -999.25
      2772.0000        -999.25        -999.25        -999.25        -999.25        -999.25        -999.25        -999.25       109.6419       139.6361        39.5287       51.86623         0.7542        -999.25        -999.25       2264.852      0.4014091        -999.25
      2772.5000        -999.25        -999.25        -999.25        -999.25        -999.25        -999.25        -999.25       116.5776       134.6451         41.486       53.90282          0.725        -999.25        -999.25       2268.977      0.4447409        -999.25
      2773.0000        -999.25        -999.25        -999.25        -999.25        -999.25        -999.25        -999.25       126.1333       128.2902        43.2422        55.6981         0.6891        -999.25        -999.25       2273.102      0.4829382        -999.25
      2773.5000        -999.25        -999.25        -999.25        -999.25        -999.25        -999.25        -999.25       133.0654       131.4657        46.3834       59.15538         0.6592        -999.25        -999.25       2277.228      0.5564974        -999.25
      2774.0000        -999.25        -999.25        -999.25        -999.25        -999.25        -999.25        -999.25        143.476        139.876        49.3331       62.38285         0.6761        -999.25        -999.25       2281.353      0.6251671        -999.25
      2774.5000        -999.25        -999.25        -999.25        -999.25        -999.25        -999.25        -999.25        152.086        147.286        53.3825       66.92997         0.6953        -999.25        -999.25       2285.479      0.7219142        -999.25
      2775.0000         1.3631         2.3941         0.4908         0.6671         0.5597          4.768         0.5994        160.496        154.896        55.2091       68.80973         0.6543       -13.8187      -15.72346       2289.604      0.7619092      0.7753791
      2775.5000         0.8717         4.2087         0.9037         0.8638         0.8717         6.9301         0.5994        168.506        161.906        54.3807       67.50349         0.6469        -9.1069      -11.01166       2294.554      0.7341167      0.8426905
      2776.0000         0.4472         2.1024         0.7463         0.6236         0.4685           8.04         0.5995        168.916        167.116        52.3298       64.73024         0.7051        -7.7168      -9.621562        2298.68      0.6751115      0.8625491
      2776.5000         0.2461         0.9352         0.2352         0.1554          0.154           8.12         0.5984        166.526        166.726        50.2788       61.95688         0.7848        -6.1267      -8.031462       2302.805      0.6161038      0.8852648
      2777.0000         0.2269         0.5177         0.1165         0.2438         0.2055         7.8013         0.5984        163.936        166.536        49.8642        61.1472         0.8112        -4.9366      -6.841362       2306.931      0.5988767      0.9022663
      2777.5000         0.2946         0.4556         0.1701         0.6801         0.4229         7.5226         0.5709        163.946        166.146         51.075       62.28799          0.758        -4.3465      -6.251262       2311.056      0.6231487      0.9106963
      2778.0000         0.4642         0.3819         0.3172         1.6352         1.0789         7.4026         0.5565        163.956        154.356        53.1057       64.41267         0.6837        -3.7564      -5.661162       2315.181      0.6683547      0.9191263
      2778.5000         0.6236         0.3854         0.7257         5.9548         2.8431            8.2         0.5554        163.966       137.3665        57.7895       69.72106         0.6223        -3.3663      -5.271062       2319.307      0.7812992      0.9246991
      2779.0000         0.6236         0.3963         0.8929         10.104         1.7431           8.92         0.5615        163.176          128.8        59.8202       71.84574         0.6311        -2.5762      -4.480962       2323.432      0.8265051      0.9359863
      2779.5000         0.6236         0.4075         0.7452         7.8637          1.545           9.04         0.5687        154.986       131.7856        60.4138       72.24591         0.6262        -2.1861      -4.090862       2327.558      0.8350194      0.9415591
      2780.0000         0.6296          0.439         0.6801         3.9272          1.332           8.24         0.5688        143.396        148.396        61.0038       72.64174         0.6075         -1.996      -3.900762       2331.683      0.8434412      0.9442748
      2780.5000         0.6294         0.4907         0.6669         1.4743         1.0867         7.3592         0.5652          145.4          153.4           62.4       74.00503         0.5988             -2      -3.904762       2335.833      0.8724474      0.9442177
      2781.0000         0.6231         0.5497          0.673          0.957         0.8919         6.9585         0.5676          156.4            156           65.4       77.29286         0.5796           -2.6      -4.504762           2340      0.9424013      0.9356462
      2781.5000         0.5942         0.5739         0.6792          0.758         0.7787         6.6383         0.5736          160.8          157.8           66.4        78.1807         0.5592           -2.8      -4.704762       2344.167      0.9612916      0.9327891
      2782.0000         0.5786         0.5888         0.6724         0.7511         0.7511         6.0797         0.5724          158.8          158.2             66       77.38853         0.6003           -2.6      -4.504762       2348.333      0.9444369      0.9356462
