#------------------------------------------------------------------------------
# Created by    : vladimir.rabinovich
# Created on    : 09/19/2023 17:21:45
#------------------------------------------------------------------------------
~Version Information Section
VERS.           2.0     :   CWLS log ASCII Standard - VERSION 2.0
WRAP.           NO      :   One line per depth step
~Well Information Section
#MNEM       .UNIT                                         VALUE :DESCRIPTION
#------------------------------------------------------------------------------
STRT        .FT                                            4296 :START DEPTH
STOP        .FT                                         10848.5 :STOP DEPTH
STEP        .FT                                             0.5 :STEP      
NULL        .                                           -999.25 :NULL      
COMP        .                                 CHEVRON U S A INC :COMPANY   
WELL        .                               OCS G07271 ST00BP00 :WELL      
FLD         .                                           WILDCAT :FIELD     
LOC         .                                                   :LOCATION  
CNTY        .                           HIGH ISLAND LARGE BLOCK :LOCATION  
STAT        .                                             TEXAS :STATE     
CTRY        .                                     UNITED STATES :COUNTRY   
SRVC        .                                                   :SERVICE COMPANY
DATE        .                             9/13/2023 11:19:59 AM :LOG DATE  
API         .                                    42708403180000 :API NUMBER
UWI         .                                    42708403180000 :UNIQUE WELL ID
XCOORD      .                                  1325118.04890174 :SURFACE X 
YCOORD      .                                  10672078.9744079 :SURFACE Y 
LAT         .                                          29.40291 :LATITUDE  
LON         .                                        -93.990507 :LONGITUDE 
ELEV        .FT                                              89 :ELEVATION VALUE
ELEV_TYPE   .                                                KB :ELEVATION REFERENCE TYPE
~Curve Information Section
#MNEM       .UNIT                                      API CODE :CURVE DESCRIPTION
#------------------------------------------------------------------------------
DEPT        .FT                                                 :DEPTH     
CALI        .IN                                                 :          
DRHO        .G/C3                                               :          
DTLN        .US/F                                               :          
GR          .GAPI                                               :          
GR_1        .GAPI                                               :          
GR_NORM     .GAPI                                               :GammaRay Normalized
ILD         .OHMM                                               :          
ILM         .OHMM                                               :          
NPHI        .%                                                  :          
RHOB        .G/C3                                               :          
SFL         .OHMM                                               :          
SP          .MV                                                 :          
SP_NORM     .MV                                                 :SP Normalized
VSH_GR      .V/V                                                :Volume of Shale from GR
VSH_SP      .V/V                                                :Volume of Shale from SP
~A        DEPTH           CALI           DRHO           DTLN             GR           GR_1        GR_NORM            ILD            ILM           NPHI           RHOB            SFL             SP        SP_NORM         VSH_GR         VSH_SP
# ...
      4976.0000        17.1928        -0.0262       117.1948        38.4084        55.1562        72.1836         0.4114         0.4873        35.5905         2.2591         0.5892        -999.25        -999.25      0.8336936        -999.25
      4976.5000        17.3049        -0.0205       116.6138         38.175        55.8197       73.05502         0.4043         0.4762        35.5557         2.2557         0.5995        -999.25        -999.25      0.8522344        -999.25
      4977.0000        17.3663        -0.0165       116.9832        38.5374        55.8731       73.12516         0.3985         0.4668        35.8578         2.2603         0.6016        -999.25        -999.25      0.8537268        -999.25
      4977.5000        17.3126        -0.0145       117.6448        39.0018        56.3977       73.81415         0.3933         0.4587        36.6348         2.2675         0.5954        -999.25        -999.25      0.8683861        -999.25
      4978.0000        17.0494        -0.0151       118.2961        40.0411        58.4383       76.49422         0.3899         0.4548        36.9739         2.2712         0.5885        -999.25        -999.25      0.9254089        -999.25
      4978.5000        16.7568        -0.0184       118.5895        41.3296        61.1754       80.08904         0.3877         0.4534        37.3012         2.2578          0.586        -999.25        -999.25              1        -999.25
      4979.0000        16.5517        -0.0211       118.6191        43.0571         62.025       81.20488         0.3883         0.4526        37.6243          2.233         0.5905        -999.25        -999.25              1        -999.25
      4979.5000        16.3706        -0.0214       118.7565        45.6143        61.2455       80.18111         0.3916         0.4537        38.1548         2.2314          0.595        -999.25        -999.25              1        -999.25
      4980.0000        16.3035         -0.018       119.4075        47.7234        60.7952       79.58971         0.3967         0.4562        38.5861         2.2463         0.5962        -999.25        -999.25      0.9912704        -999.25
      4980.5000        16.2731        -0.0149       120.5366        45.3662         61.528       80.55214         0.4039         0.4604        38.7081         2.2616          0.589        -999.25        -999.25              1        -999.25
      4981.0000        16.3183        -0.0119       121.9175        41.7202         63.361       82.95954          0.414         0.4659        38.6644         2.2693         0.5632        -999.25        -999.25              1        -999.25
      4981.5000        16.3889        -0.0112       120.6669         38.171        62.8481       82.28592         0.4268         0.4735        38.7416         2.2706         0.5377        -999.25        -999.25              1        -999.25
      4982.0000        16.5251        -0.0107       118.6575        35.9077        62.2762        81.5348         0.4428         0.4837        38.7893         2.2692          0.528        -999.25        -999.25              1        -999.25
      4982.5000         16.631        -0.0105       116.8168        37.9973         62.463       81.78014         0.4606         0.4974        38.2344         2.2751         0.5301        -999.25        -999.25              1        -999.25
      4983.0000        16.7251        -0.0104       115.2998        40.5694         65.135       85.28947         0.4771         0.5121        37.4193          2.286         0.5401        -999.25        -999.25              1        -999.25
      4983.5000        16.7762        -0.0118       115.1161        41.7503        63.3475       82.94181         0.4891          0.522        36.4449         2.2956         0.5585        -999.25        -999.25              1        -999.25
      4984.0000        16.8129        -0.0143       116.4412        42.1071           61.2       80.12136         0.4984         0.5235         36.369         2.2952         0.5854        -999.25        -999.25              1        -999.25
      4984.5000        16.7781        -0.0136       118.6438        42.5877        60.8938       79.71919         0.5045         0.5205        36.9558         2.2873         0.6171        -999.25        -999.25      0.9940253        -999.25
      4985.0000        16.7433        -0.0121       121.8121        43.2003        63.3204       82.90621         0.5047         0.5126        37.7443         2.2721         0.6425        -999.25        -999.25              1        -999.25
      4985.5000        16.6708        -0.0094       124.7251        42.7656        65.0969       85.23943         0.5003         0.5037        38.6772         2.2673         0.6317        -999.25        -999.25              1        -999.25
      4986.0000        16.5941        -0.0063       126.6068        42.2213         65.158       85.31966         0.4977         0.4976        39.9935          2.267         0.5959        -999.25        -999.25              1        -999.25
      4986.5000         16.469        -0.0063       127.8303        43.6449         65.105       85.25007         0.4905         0.4879         41.541         2.2692         0.5547        -999.25        -999.25              1        -999.25
      4987.0000         16.337        -0.0065       128.6755        46.5667         66.033       86.46886         0.4792         0.4786         43.426         2.2687         0.5193        -999.25        -999.25              1        -999.25
      4987.5000         16.196        -0.0069       129.4478        49.3619        69.2026       90.63172          0.467         0.4701         45.687         2.2613         0.4895        -999.25        -999.25              1        -999.25
      4988.0000        16.0837        -0.0066        129.522        50.2958        71.2474       93.31731         0.4575         0.4617        47.7097         2.2497         0.4617        -999.25        -999.25              1        -999.25
      4988.5000        15.9726        -0.0053       129.1602        49.4797        69.0479       90.42854         0.4488         0.4548         47.766         2.2444         0.4496        -999.25        -999.25              1        -999.25
      4989.0000        15.8752        -0.0042        129.073        48.2471        64.3008       84.19384         0.4422         0.4518        47.1878         2.2466          0.452        -999.25        -999.25              1        -999.25
      4989.5000        15.7777        -0.0037       129.3254        46.6088        63.3597       82.95784         0.4399         0.4546        46.5266         2.2604         0.4757        -999.25        -999.25              1        -999.25
      4990.0000        15.7055        -0.0032       129.8076        44.7896         65.146       85.30392         0.4395          0.459        46.5251         2.2648         0.5164        -999.25        -999.25              1        -999.25
      4990.5000        15.6386        -0.0072       129.8535        43.5717        70.2677        92.0306          0.441         0.4659        47.2292         2.2573         0.5188        -999.25        -999.25              1        -999.25
      4991.0000        15.5756         -0.011       129.2483        42.8549        69.7333       91.32873         0.4455         0.4704        47.6831         2.2506         0.5041        -999.25        -999.25              1        -999.25
      4991.5000        15.5251        -0.0129       128.7561        42.5641        67.4926       88.38586         0.4513         0.4738        47.3692         2.2455         0.5004        -999.25        -999.25              1        -999.25
      4992.0000        15.4799        -0.0128       128.3562        42.6121        65.3481       85.56934         0.4571         0.4768        47.3644         2.2498         0.5065        -999.25        -999.25              1        -999.25
      4992.5000        15.4548        -0.0096        127.917        42.9963        64.6156        84.6073         0.4631         0.4803        47.8345         2.2539         0.5209        -999.25        -999.25              1        -999.25
