#------------------------------------------------------------------------------
# Created by    : vladimir.rabinovich
# Created on    : 09/19/2023 17:20:23
#------------------------------------------------------------------------------
~Version Information Section
VERS.           2.0     :   CWLS log ASCII Standard - VERSION 2.0
WRAP.           NO      :   One line per depth step
~Well Information Section
#MNEM       .UNIT                                         VALUE :DESCRIPTION
#------------------------------------------------------------------------------
STRT        .FT                                            3094 :START DEPTH
STOP        .FT                                           15705 :STOP DEPTH
STEP        .FT                                             0.5 :STEP      
NULL        .                                           -999.25 :NULL      
COMP        .                                       MONSANTO CO :COMPANY   
WELL        .                                     ST TR 00011-L :WELL      
FLD         .                                           WILDCAT :FIELD     
LOC         .                                                   :LOCATION  
CNTY        .                           HIGH ISLAND LARGE BLOCK :LOCATION  
STAT        .                                             TEXAS :STATE     
CTRY        .                                     UNITED STATES :COUNTRY   
SRVC        .                                                   :SERVICE COMPANY
DATE        .                             9/13/2023 11:19:15 AM :LOG DATE  
API         .                                    42708300660000 :API NUMBER
UWI         .                                    42708300660000 :UNIQUE WELL ID
XCOORD      .                                  1343190.12128624 :SURFACE X 
YCOORD      .                                   10724936.940093 :SURFACE Y 
LAT         .                                        29.5487141 :LATITUDE  
LON         .                                       -93.9350737 :LONGITUDE 
ELEV        .FT                                              49 :ELEVATION VALUE
ELEV_TYPE   .                                                KB :ELEVATION REFERENCE TYPE
~Curve Information Section
#MNEM       .UNIT                                      API CODE :CURVE DESCRIPTION
#------------------------------------------------------------------------------
DEPT        .FT                                                 :DEPTH     
ASN         .OHMM                                               :          
CILD        .MMHO                                               :          
ILD         .OHMM                                               :          
SP_NORM     .MV                                                 :SP Normalized
VSH_SP      .V/V                                                :Volume of Shale from SP
~A        DEPTH            ASN           CILD            ILD        SP_NORM         VSH_SP
# ...
     15678.0000         3.6586       712.6484         1.3829      -52.48827       0.169544
     15678.5000         3.7667       702.8311         1.3895      -49.70086      0.2145022
     15679.0000         3.5739       718.4248         1.3848      -45.55426      0.2813828
     15679.5000         3.2494       730.7959         1.3799      -47.55367      0.2491344
     15680.0000         2.9328        743.168         1.3749      -49.44477      0.2186328
     15680.5000         2.6092       744.4941         1.3699      -51.11427      0.1917053
     15681.0000         2.3832       738.0605          1.365      -52.73937      0.1654941
     15681.5000         2.3008       731.6143           1.36      -51.36547      0.1876538
     15682.0000         2.4125       715.3262          1.355      -48.25306      0.2378538
     15682.5000         2.5179       715.2266         1.3501      -45.15046      0.2878958
     15683.0000         2.6234       728.6143         1.3451      -42.03807      0.3380957
     15683.5000         2.7288        742.002         1.3426      -38.91587      0.3884538
     15684.0000         2.8018       756.1338         1.3415      -35.29126      0.4469151
     15684.5000         2.8153       770.7119         1.3419      -31.67646      0.5052183
     15685.0000         2.7705       785.1904         1.3489      -28.06186      0.5635183
     15685.5000         2.7259       782.2148         1.3559      -41.33867      0.3493764
     15686.0000         2.6764       766.7939         1.3629      -50.34107      0.2041763
     15686.5000         2.6245       751.3242         1.3699      -53.24907      0.1572731
     15687.0000         2.5726       735.9033         1.3769      -53.73426      0.1494474
     15687.5000         2.5208        721.127         1.3839      -49.61216      0.2159328
     15688.0000         2.5368       706.3516         1.3871      -46.51457      0.2658941
     15688.5000          2.586       693.8809         1.3845      -44.17047      0.3037021
     15689.0000         2.6086       706.0537          1.382      -42.75707      0.3264989
     15689.5000         2.6244       718.2266         1.3794      -44.09166      0.3049732
     15690.0000         2.6246       733.8213         1.3768      -45.89417      0.2759005
     15690.5000         2.5581       749.9355         1.3682      -47.95256      0.2427006
     15691.0000         2.4916       748.8447         1.3448      -50.26717      0.2053682
     15691.5000         2.4251        739.126         1.3214      -52.67037       0.166607
     15692.0000         1.6992       730.5977         1.2981      -52.05487      0.1765344
     15692.5000         1.5998       725.0566         1.2747      -45.06186      0.2893248
     15693.0000         1.5683       779.5371         1.2513      -42.05287       0.337857
     15693.5000         1.5369       818.8076          1.228      -39.75306      0.3749506
     15694.0000         1.4318       847.8145         1.2046      -38.18697      0.4002102
     15694.5000         1.3287       864.0283         1.1778      -37.25866      0.4151829
     15695.0000         1.2432       880.2422          1.144      -35.90197      0.4370651
     15695.5000         1.2147       896.2334         1.1101      -34.04036      0.4670909
     15696.0000         1.2063       904.1172         1.0921      -30.94777      0.5169715
     15696.5000          1.301       911.9766         1.0867      -27.86486      0.5666957
     15697.0000         1.4208       919.8604         1.0824      -21.36427      0.6715441
     15697.5000         1.5407       927.7441          1.079      -13.69657      0.7952167
     15698.0000         1.6467       933.4219         1.0756      -12.60826      0.8127699
     15698.5000         1.7293       938.5781         1.0722      -15.46447      0.7667022
     15699.0000         1.8119       942.9385         1.0687      -19.80807      0.6966441
     15699.5000         1.8945       944.4727         1.0653      -24.15157      0.6265876
     15700.0000         1.5848       946.0039         1.0659      -33.49867      0.4758279
     15700.5000         1.5096       946.9023         1.0696      -47.52417      0.2496102
     15701.0000         1.4977       944.4414         1.0734      -37.28086      0.4148248
     15701.5000         1.4857       941.9873         1.0771      -24.35846      0.6232506
     15702.0000         1.5043       939.5264         1.0809      -18.46857      0.7182489
     15702.5000         1.5235       937.0664         1.0846      -16.78437      0.7454134
     15703.0000         1.5432       934.6113         1.0883      -15.19617      0.7710296
     15703.5000         1.5924       932.1514         1.0973      -14.19027      0.7872538
     15704.0000         1.6388       929.6963         1.1006      -13.56607      0.7973215
     15704.5000         1.6798       927.2363         1.0984      -13.09946      0.8048474
     15705.0000         1.7196       925.6992         1.0963      -12.74857       0.810507
