#------------------------------------------------------------------------------
# Created by    : vladimir.rabinovich
# Created on    : 09/19/2023 17:21:24
#------------------------------------------------------------------------------
~Version Information Section
VERS.           2.0     :   CWLS log ASCII Standard - VERSION 2.0
WRAP.           NO      :   One line per depth step
~Well Information Section
#MNEM       .UNIT                                         VALUE :DESCRIPTION
#------------------------------------------------------------------------------
STRT        .FT                                             682 :START DEPTH
STOP        .FT                                            8542 :STOP DEPTH
STEP        .FT                                             0.5 :STEP      
NULL        .                                           -999.25 :NULL      
COMP        .                       CORPUS CHRISTI OIL & GAS CO :COMPANY   
WELL        .                               OCS G08551 ST00BP00 :WELL      
FLD         .                                           WILDCAT :FIELD     
LOC         .                                                   :LOCATION  
CNTY        .                             GALVESTON LARGE BLOCK :LOCATION  
STAT        .                                             TEXAS :STATE     
CTRY        .                                     UNITED STATES :COUNTRY   
SRVC        .                                                   :SERVICE COMPANY
DATE        .                             9/13/2023 11:19:36 AM :LOG DATE  
API         .                                    42706401950000 :API NUMBER
UWI         .                                    42706401950000 :UNIQUE WELL ID
XCOORD      .                                   976199.22633255 :SURFACE X 
YCOORD      .                                  10415950.2633902 :SURFACE Y 
LAT         .                                         28.686063 :LATITUDE  
LON         .                                        -95.072067 :LONGITUDE 
ELEV        .FT                                              81 :ELEVATION VALUE
ELEV_TYPE   .                                                KB :ELEVATION REFERENCE TYPE
~Curve Information Section
#MNEM       .UNIT                                      API CODE :CURVE DESCRIPTION
#------------------------------------------------------------------------------
DEPT        .FT                                                 :DEPTH     
CALI        .IN                                                 :          
DPHI        .%                                                  :          
DRHO        .G/C3                                               :          
DT          .US/F                                               :          
GR          .GAPI                                               :          
GR_1        .GAPI                                               :          
GR_NORM     .GAPI                                               :GammaRay Normalized
ILD         .OHMM                                               :          
ILM         .OHMM                                               :          
NPHI        .%                                                  :          
SFL         .OHMM                                               :          
SP_NORM     .MV                                                 :SP Normalized
SPS         .MV                                                 :          
VSH_GR      .V/V                                                :Volume of Shale from GR
VSH_SP      .V/V                                                :Volume of Shale from SP
~A        DEPTH           CALI           DPHI           DRHO             DT             GR           GR_1        GR_NORM            ILD            ILM           NPHI            SFL        SP_NORM            SPS         VSH_GR         VSH_SP
# ...
      3725.0000        -999.25        -999.25        -999.25       130.2065        53.4819        -999.25       64.09375         0.7556         0.7665        -999.25         0.7601      -2.195145        -78.537      0.6615692      0.9971302
      3725.5000        -999.25        -999.25        -999.25        125.608        55.3362        -999.25       66.41163         0.7777         0.7873        -999.25         0.7813      -2.614899       -78.9513      0.7108857      0.9909574
      3726.0000        -999.25        -999.25        -999.25       123.2767        57.6849        -999.25        69.3475         0.7983         0.8045        -999.25         0.8019      -2.650848       -78.9818       0.773351      0.9904287
      3726.5000        -999.25        -999.25        -999.25       126.6539        61.3824        -999.25       73.96938         0.8104         0.8103        -999.25         0.8188      -2.460304       -78.7858      0.8716888      0.9932308
      3727.0000        -999.25        -999.25        -999.25       129.9172         63.804        -999.25       76.99638         0.7961         0.8002        -999.25         0.8155      -2.109268       -78.4293      0.9360931      0.9983931
      3727.5000        -999.25        -999.25        -999.25       132.0056        65.7888        -999.25       79.47738         0.7832         0.7845        -999.25         0.8047      -1.943321       -78.2579      0.9888804              1
      3728.0000        -999.25        -999.25        -999.25       132.6138        68.3458        -999.25       82.67363         0.7795          0.776        -999.25         0.7988      -2.074379       -78.3835              1      0.9989062
      3728.5000        -999.25        -999.25        -999.25       131.2549        66.1614        -999.25       79.94312         0.7954         0.7983        -999.25         0.8106      -2.315636       -78.6193      0.9987898      0.9953583
      3729.0000        -999.25        -999.25        -999.25        130.373        63.7324        -999.25       76.90688         0.8213         0.8314        -999.25         0.8312      -2.608498       -78.9067      0.9341888      0.9910515
      3729.5000        -999.25        -999.25        -999.25        130.999        61.2871        -999.25       73.85025         0.8279         0.8428        -999.25         0.8427      -2.818855       -79.1116      0.8691543       0.987958
      3730.0000        -999.25        -999.25        -999.25       131.1919         58.981        -999.25       70.96762         0.8382          0.845        -999.25          0.848      -2.987404       -79.2747      0.8078217      0.9854794
      3730.5000        -999.25        -999.25        -999.25       131.0337        57.4466        -999.25       69.04962         0.8428         0.8476        -999.25         0.8562      -3.024559       -79.3064      0.7670133       0.984933
      3731.0000        -999.25        -999.25        -999.25       130.3052        57.2187        -999.25       68.76474         0.8418         0.8534        -999.25         0.8514      -2.922218       -79.1986      0.7609519       0.986438
      3731.5000        -999.25        -999.25        -999.25       129.4043        57.1525        -999.25       68.68201         0.8439         0.8529        -999.25         0.8507      -2.688881       -78.9598      0.7591916      0.9898694
      3732.0000        -999.25        -999.25        -999.25       128.1851        57.1317        -999.25         68.656          0.845         0.8484        -999.25         0.8624      -2.393639       -78.6591      0.7586383      0.9942112
      3732.5000        -999.25        -999.25        -999.25       127.6595        56.8557        -999.25         68.311         0.8379         0.8449        -999.25         0.8472      -2.095787       -78.3558       0.751298      0.9985914
      3733.0000        -999.25        -999.25        -999.25       129.0317        56.4206        -999.25       67.76712         0.8252         0.8371        -999.25         0.8286      -1.739449        -77.994      0.7397259              1
      3733.5000        -999.25        -999.25        -999.25       130.4182        56.2816        -999.25       67.59338         0.8037         0.8204        -999.25         0.8171       -1.18251       -77.4316      0.7360293              1
      3734.0000        -999.25        -999.25        -999.25       131.8118        56.3284        -999.25       67.65187         0.7842         0.7991        -999.25         0.8036     -0.3498611       -76.5935      0.7372739              1
      3734.5000        -999.25        -999.25        -999.25       133.2285        56.2847        -999.25       67.59724         0.7664         0.7762        -999.25         0.7845      0.2955856       -75.9426      0.7361116              1
      3735.0000        -999.25        -999.25        -999.25       134.7244        56.6088        -999.25       68.00238         0.7468         0.7556        -999.25         0.7662      0.5771255       -75.6556      0.7447315              1
      3735.5000        -999.25        -999.25        -999.25       135.9846        57.1213        -999.25         68.643         0.7264         0.7376        -999.25         0.7485       0.693573       -75.5337      0.7583616              1
      3736.0000        -999.25        -999.25        -999.25       136.8999        57.4651        -999.25       69.07274         0.7155         0.7219        -999.25         0.7356      0.7576065       -75.4642       0.767505              1
      3736.5000        -999.25        -999.25        -999.25       137.0029         57.637        -999.25       69.28763         0.7058         0.7168        -999.25         0.7245      0.5177536       -75.6986      0.7720772              1
      3737.0000        -999.25        -999.25        -999.25       137.2908        57.7816        -999.25       69.46838         0.7085         0.7148        -999.25         0.7204      0.1691971       -76.0417      0.7759229              1
      3737.5000        -999.25        -999.25        -999.25       137.7776        58.6103        -999.25       70.50424         0.7138           0.72        -999.25         0.7232     -0.1730576       -76.3785      0.7979626              1
      3738.0000        -999.25        -999.25        -999.25       138.2507        60.2507        -999.25       72.55475         0.7235          0.725        -999.25          0.731      -0.447319       -76.6473      0.8415904              1
      3738.5000        -999.25        -999.25        -999.25       138.3655        62.2745        -999.25        75.0845         0.7276         0.7297        -999.25         0.7321      -0.613472        -76.808      0.8954148              1
      3739.0000        -999.25        -999.25        -999.25       137.1494        64.2656        -999.25       77.57338         0.7198         0.7264        -999.25         0.7274     -0.7805252       -76.9696      0.9483698              1
      3739.5000        -999.25        -999.25        -999.25       135.5127         66.396        -999.25       80.23637         0.7133         0.7117        -999.25         0.7273      -1.455681       -77.6393              1              1
      3740.0000        -999.25        -999.25        -999.25       133.8093        66.9104        -999.25       80.87937         0.7071         0.7055        -999.25         0.7374      -2.782936       -78.9611              1      0.9884862
      3740.5000        -999.25        -999.25        -999.25       132.1348        64.7386        -999.25       78.16463         0.7196         0.7118        -999.25           0.76      -4.050003       -80.2227      0.9609495      0.9698529
      3741.0000        -999.25        -999.25        -999.25       130.5898        62.4665        -999.25       75.32449         0.7381         0.7345        -999.25         0.7874      -5.259857       -81.4271      0.9005212      0.9520609
      3741.5000        -999.25        -999.25        -999.25       129.1216        60.2884        -999.25       72.60187          0.753         0.7546        -999.25         0.8231      -6.715012       -82.8768       0.842593      0.9306616
