#------------------------------------------------------------------------------
# Created by    : vladimir.rabinovich
# Created on    : 09/19/2023 17:21:24
#------------------------------------------------------------------------------
~Version Information Section
VERS.           2.0     :   CWLS log ASCII Standard - VERSION 2.0
WRAP.           NO      :   One line per depth step
~Well Information Section
#MNEM       .UNIT                                         VALUE :DESCRIPTION
#------------------------------------------------------------------------------
STRT        .FT                                            4000 :START DEPTH
STOP        .FT                                            8085 :STOP DEPTH
STEP        .FT                                             0.5 :STEP      
NULL        .                                           -999.25 :NULL      
COMP        .                             WALTER OIL & GAS CORP :COMPANY   
WELL        .                               OCS G09047 ST00BP00 :WELL      
FLD         .                              GALVESTON BLOCK 0351 :FIELD     
LOC         .                                                   :LOCATION  
CNTY        .                             GALVESTON LARGE BLOCK :LOCATION  
STAT        .                                             TEXAS :STATE     
CTRY        .                                     UNITED STATES :COUNTRY   
SRVC        .                                                   :SERVICE COMPANY
DATE        .                             9/13/2023 11:19:36 AM :LOG DATE  
API         .                                    42706402000000 :API NUMBER
UWI         .                                    42706402000000 :UNIQUE WELL ID
XCOORD      .                                  1036183.96101641 :SURFACE X 
YCOORD      .                                  10437562.0132666 :SURFACE Y 
LAT         .                                        28.7482272 :LATITUDE  
LON         .                                       -94.8860948 :LONGITUDE 
ELEV        .FT                                              80 :ELEVATION VALUE
ELEV_TYPE   .                                                KB :ELEVATION REFERENCE TYPE
~Curve Information Section
#MNEM       .UNIT                                      API CODE :CURVE DESCRIPTION
#------------------------------------------------------------------------------
DEPT        .FT                                                 :DEPTH     
CALI        .IN                                                 :          
DRHO        .G/C3                                               :          
GR          .GAPI                                               :          
GR_NORM     .GAPI                                               :GammaRay Normalized
ILD         .OHMM                                               :          
ILM         .OHMM                                               :          
NPHI        .%                                                  :          
RHOB        .G/C3                                               :          
SFL         .OHMM                                               :          
SP          .MV                                                 :          
SP_NORM     .MV                                                 :SP Normalized
VSH_GR      .V/V                                                :Volume of Shale from GR
VSH_SP      .V/V                                                :Volume of Shale from SP
~A        DEPTH           CALI           DRHO             GR        GR_NORM            ILD            ILM           NPHI           RHOB            SFL             SP        SP_NORM         VSH_GR         VSH_SP
# ...
      7800.0000         9.8992         0.1016        73.2682       63.26097          0.889         0.9358        29.8225         2.4908         0.9919       -45.0529     -0.6084518      0.6438504      0.9913079
      7800.5000         9.9151         0.1012        71.6479       61.46064          0.885         0.9315        29.8718         2.4923         0.9886       -45.5302      -1.085754      0.6055455      0.9844892
      7801.0000         9.9311         0.1067        70.3108       59.97497         0.8811         0.9187          30.17         2.4889         0.9893       -46.1299      -1.685455      0.5739355       0.975922
      7801.5000         9.9784         0.1286        70.7937       60.51152         0.8712         0.9061         30.933         2.4811         0.9918       -46.5037      -2.059254      0.5853516      0.9705821
      7802.0000        10.0318         0.1538        70.1853       59.83553         0.8614         0.8937        30.9394         2.4703          0.974        -46.045      -1.600552      0.5709686       0.977135
      7802.5000        10.0869         0.1593         68.795       58.29074         0.8518         0.8861        30.8971         2.4687         0.9638       -45.4578      -1.013355       0.538101      0.9855235
      7803.0000        10.1721         0.1568        67.8616       57.25364         0.8425         0.8795         31.289         2.4788         0.9641       -44.7864     -0.3419533      0.5160349       0.995115
      7803.5000        10.2573         0.1522        70.0605       59.69686         0.8335          0.873        31.6451         2.4811          0.957       -44.0201      0.4243469      0.5680183              1
      7804.0000        10.3376         0.1475        73.1082       63.08319         0.8247         0.8763        31.9461         2.4821         0.9483       -43.3406       1.103848      0.6400679              1
      7804.5000         10.361         0.1428        74.9602       65.14097         0.8192         0.8796        31.2602         2.4778         0.9293       -42.8976       1.546848      0.6838504              1
      7805.0000        10.2785         0.1382         75.684       65.94519         0.8203         0.8829        30.0472          2.473         0.9165       -42.5677       1.876747      0.7009615              1
      7805.5000        10.1274         0.1318        74.8167       64.98153         0.8214         0.8856        28.9016         2.4692         0.9117       -42.8795       1.564945      0.6804581              1
      7806.0000         9.9729         0.1248        74.1377       64.22708         0.8225          0.886        28.8195          2.466         0.9228       -43.9802      0.4642448       0.664406              1
      7806.5000         9.8836         0.1176        73.4763        63.4922         0.8234         0.8863        29.1576          2.469         0.9392       -45.5002      -1.055752      0.6487701      0.9849178
      7807.0000         9.8495         0.1097        72.8292       62.77319          0.824         0.8866        29.6818         2.4755         0.9559       -46.9205      -2.476055      0.6334722      0.9646278
      7807.5000         9.8239         0.1028        72.1821       62.05419         0.8246         0.8869        30.4965         2.4823         0.9572       -46.2316      -1.787155      0.6181742      0.9744692
      7808.0000         9.8181         0.0972         74.733       64.88853         0.8253         0.8867        31.7125         2.4852         0.9582       -45.5027      -1.058254      0.6784793      0.9848821
      7808.5000         9.8173         0.1194        76.6962       67.06985         0.8259         0.8861        32.4321          2.481         0.9591       -44.9657     -0.5212517      0.7248905      0.9925535
      7809.0000         9.8496          0.135        77.3613       67.80885         0.8225         0.8856         32.766          2.477          0.945       -44.8947     -0.4502525      0.7406139      0.9935678
      7809.5000         9.8782         0.1442        75.8287       66.10596         0.8187          0.885        32.5399         2.4741         0.9305       -44.8236     -0.3791542      0.7043822      0.9945835
      7810.0000         9.8264         0.1547        73.2006       63.18586          0.815         0.8839        31.7918         2.4725         0.9221       -44.8342     -0.3897552      0.6422523      0.9944321
      7810.5000         9.7746         0.1654        70.9216       60.65364         0.8113         0.8828        30.4141         2.4748         0.9158       -44.8523     -0.4078522      0.5883753      0.9941735
      7811.0000         9.7026         0.1554        70.0219       59.65396         0.8071         0.8817        29.5537          2.484         0.9304       -44.9014      -0.456955      0.5671057      0.9934721
      7811.5000         9.6194         0.1454        70.1748       59.82385         0.8028         0.8781        28.8109         2.5011         0.9592       -44.6292     -0.1847534      0.5707203      0.9973606
      7812.0000          9.562          0.132        71.1613       60.91997         0.7984         0.8727        28.8843         2.5197         1.0087       -44.0289      0.4155464      0.5940419              1
      7812.5000         9.5707         0.1263        72.6389       62.56175         0.7941         0.8673        29.1801          2.526         1.0045       -43.3893       1.055145      0.6289734              1
      7813.0000         9.5843         0.1409        72.8158        62.7583         0.7973         0.8617        30.5009         2.5143         1.0118       -44.2448       0.199646      0.6331554              1
      7813.5000         9.7244         0.1769        72.7101       62.64085         0.8007         0.8558        31.8847         2.4906          1.036       -47.5744      -3.129955      0.6306565      0.9552863
      7814.0000         9.8644         0.1943        72.3051       62.19086         0.8042         0.8499        33.7537         2.4635         1.0601       -56.1431      -11.69865      0.6210821      0.8328764
      7814.5000         9.9715         0.2054        74.4785       64.60574         0.8077         0.8575        35.0221         2.4549         0.9609       -56.5939      -12.14945      0.6724626      0.8264364
      7815.0000        10.0442         0.1968        77.0343       67.44553         0.8129         0.8662        36.0629         2.4657         0.9032       -54.3535      -9.909054      0.7328835      0.8584421
      7815.5000         10.117         0.1827        78.9688       69.59497         0.8188          0.875        35.5627         2.4862          0.893       -51.6803      -7.235855      0.7786164      0.8966306
      7816.0000        10.1483         0.1742        78.5931       69.17753         0.8247         0.8827        35.0513          2.506         0.9066       -50.0779      -5.633453      0.7697346      0.9195221
      7816.5000        10.1683         0.1694        77.7626       68.25475         0.8307         0.8906        34.6301         2.5135         0.9204       -49.1987      -4.754253      0.7501011      0.9320821
      7817.0000        10.1883         0.1708        77.2103       67.64108         0.8334         0.8982        34.7709         2.5172         0.9281       -48.6227      -4.178253      0.7370442      0.9403107
      7817.5000        10.2024         0.1722        77.3239        67.7673         0.8347         0.9009        34.9775         2.5145         0.9354       -48.0468      -3.602352      0.7397299      0.9485378
      7818.0000        10.2143         0.1736        77.2166       67.64808          0.836         0.9035          35.24         2.5118         0.9428       -47.6393      -3.194855      0.7371932      0.9543592
      7818.5000        10.2263          0.175        76.1034       66.41119         0.8335         0.8958        34.9839         2.5083         0.9459        -47.235      -2.790554      0.7108765      0.9601349
