#------------------------------------------------------------------------------
# Created by    : vladimir.rabinovich
# Created on    : 09/19/2023 17:19:43
#------------------------------------------------------------------------------
~Version Information Section
VERS.           2.0     :   CWLS log ASCII Standard - VERSION 2.0
WRAP.           NO      :   One line per depth step
~Well Information Section
#MNEM       .UNIT                                         VALUE :DESCRIPTION
#------------------------------------------------------------------------------
STRT        .FT                                            1054 :START DEPTH
STOP        .FT                                           13910 :STOP DEPTH
STEP        .FT                                             0.5 :STEP      
NULL        .                                           -999.25 :NULL      
COMP        .                                            MTS LP :COMPANY   
WELL        .                                ST TR 00061-L SW/4 :WELL      
FLD         .                                           WILDCAT :FIELD     
LOC         .                                                   :LOCATION  
CNTY        .                           HIGH ISLAND LARGE BLOCK :LOCATION  
STAT        .                                             TEXAS :STATE     
CTRY        .                                     UNITED STATES :COUNTRY   
SRVC        .                                                   :SERVICE COMPANY
DATE        .                             9/13/2023 11:19:15 AM :LOG DATE  
API         .                                    42708302730000 :API NUMBER
UWI         .                                    42708302730000 :UNIQUE WELL ID
XCOORD      .                                  1164861.29381137 :SURFACE X 
YCOORD      .                                   10674042.082625 :SURFACE Y 
LAT         .                                        29.4036169 :LATITUDE  
LON         .                                       -94.4939126 :LONGITUDE 
ELEV        .FT                                              78 :ELEVATION VALUE
ELEV_TYPE   .                                                KB :ELEVATION REFERENCE TYPE
~Curve Information Section
#MNEM       .UNIT                                      API CODE :CURVE DESCRIPTION
#------------------------------------------------------------------------------
DEPT        .FT                                                 :DEPTH     
ASFL        .OHMM                                               :          
CILD        .MMHO                                               :          
ILD         .OHMM                                               :          
SP          .MV                                                 :          
SP_NORM     .MV                                                 :SP Normalized
VSH_SP      .V/V                                                :Volume of Shale from SP
~A        DEPTH           ASFL           CILD            ILD             SP        SP_NORM         VSH_SP
# ...
      4474.0000         0.9975       838.9014          1.191       -74.5664      -3.850464      0.9679723
      4474.5000          1.018       835.0234         1.2212       -74.9005      -4.192764      0.9641262
      4475.0000           1.04       831.1445         1.2482       -75.5344      -4.834869      0.9569116
      4475.5000         1.0824        828.001         1.2629       -76.4852      -5.793869      0.9461363
      4476.0000         1.1761       827.0625         1.2776       -77.5629      -6.879776      0.9339351
      4476.5000         1.2186       826.1221         1.2703       -78.5715      -7.896584      0.9225103
      4477.0000           1.24       825.5459         1.2442       -79.1946      -8.527885       0.915417
      4477.5000          1.187       833.8809         1.2133       -79.2866      -8.628082      0.9142912
      4478.0000         1.1272       855.8691         1.1676       -78.9386      -8.288284      0.9181092
      4478.5000         1.0674       920.0166         1.1218       -77.9714      -7.329285      0.9288844
      4479.0000         1.0076       1015.342         1.0841       -76.7025      -6.068588      0.9430496
      4479.5000         0.9584       1110.076         1.0591       -75.6611      -5.035393      0.9546585
      4480.0000         0.9347         1130.4         1.0341        -74.858      -4.240494        0.96359
      4480.5000         0.9145       1140.572         1.0127       -74.3159      -3.706596      0.9695888
      4481.0000         0.9028       1147.477         0.9945       -74.0173      -3.416199      0.9728517
      4481.5000          0.893       1153.287         0.9764       -73.9286      -3.335693      0.9737563
      4482.0000         0.8855       1159.104         0.9582       -73.8323      -3.247597      0.9747461
      4482.5000         0.8788        1164.92         0.9407        -73.736        -3.1595       0.975736
      4483.0000         0.8769       1170.646         0.9277       -73.6284      -3.060104      0.9768528
      4483.5000          0.876       1181.742         0.9147        -73.473      -2.912903      0.9785067
      4484.0000         0.8767       1208.547         0.9017       -73.3175       -2.76561      0.9801617
      4484.5000         0.8752       1191.742         0.8887       -73.0616      -2.517914      0.9829448
      4485.0000         0.8635       1159.018         0.8757       -72.7968      -2.261314      0.9858279
      4485.5000         0.8523        1140.91         0.8661       -72.4465       -1.91922      0.9896717
      4486.0000         0.8515       1181.326         0.8588       -72.0918      -1.572716       0.993565
      4486.5000         0.8552       1242.598         0.8515       -71.9979      -1.487022      0.9945278
      4487.0000         0.8675       1316.549         0.8442        -72.453      -1.950325      0.9893222
      4487.5000         0.8799       1383.031         0.8369       -73.4611      -2.966621      0.9779031
      4488.0000         0.8925       1449.809         0.8283       -75.5037      -5.017426      0.9548604
      4488.5000         0.9053       1586.408         0.8189        -77.345      -6.866928      0.9340795
      4489.0000         0.9024       1654.953         0.7802       -78.6879      -8.218025      0.9188986
      4489.5000         0.8529       1705.859         0.7148       -79.8916      -9.429932      0.9052817
      4490.0000         0.7628       1748.951         0.6433       -80.0854      -9.631935       0.903012
      4490.5000         0.7309       1791.896         0.5905       -79.3586       -8.91333      0.9110862
      4491.0000         0.7038        1829.93         0.5738       -78.9272      -8.490135      0.9158412
      4491.5000          0.686        1793.15         0.5639       -78.6566      -8.227737      0.9187894
      4492.0000         0.6909       1748.902         0.5845       -78.5557      -8.135048      0.9198309
      4492.5000         0.6989       1682.371         0.6051       -78.5083      -8.095848      0.9202714
      4493.0000          0.707       1535.797         0.6306       -78.4714      -8.067146      0.9205939
      4493.5000         0.7181       1379.641         0.6581       -78.4598      -8.063751       0.920632
      4494.0000         0.7334       1226.434         0.6849       -78.4482      -8.060349      0.9206703
      4494.5000         0.7462       1156.635         0.7106       -78.4303      -8.050652      0.9207792
      4495.0000         0.7565       1127.814          0.735       -78.3121      -7.940659      0.9220151
      4495.5000         0.7698       1098.996          0.749       -77.8176      -7.454353      0.9274791
      4496.0000          0.785       1077.314         0.7631       -76.8452      -6.490158      0.9383128
      4496.5000         0.8179       1069.773         0.7771       -75.6095      -5.262657       0.952105
      4497.0000         0.8386       1067.377         0.7848       -74.4377       -4.09906      0.9651791
      4497.5000          0.852       1079.465         0.7862       -73.5078      -3.177361      0.9755353
      4498.0000         0.8608       1098.334         0.7875       -72.6616      -2.339363       0.984951
      4498.5000         0.8566       1171.006         0.7767       -72.1582       -1.84417      0.9905149
      4499.0000         0.8479       1315.271         0.7634       -72.0406      -1.734772      0.9917442
      4499.5000          0.834       1468.381         0.7182       -72.6278      -2.330177      0.9850542
      4500.0000         0.8235        1621.49         0.6467       -73.2156      -2.926178      0.9783576
      4500.5000         0.8543       1774.502         0.5099        -75.996      -5.714783      0.9470249
      4501.0000         0.8819       1927.613         0.4699       -82.9182      -12.64518      0.8691553
      4501.5000         0.8937       2080.723          0.459       -85.1423      -14.87749      0.8440732
      4502.0000         0.9034       2233.832         0.4481       -86.3633      -16.10668       0.830262
      4502.5000          0.907       2406.398         0.4325        -87.684      -17.43559      0.8153305
      4503.0000          0.907       2549.484         0.4148       -88.7523      -18.51208       0.803235
      4503.5000         0.9069       2635.473          0.397       -90.8939      -20.66189      0.7790799
      4504.0000         0.9042       2706.082         0.3789       -92.3346      -22.11079         0.7628
      4504.5000         0.9014       2755.957         0.3684       -91.3641      -21.14849      0.7736124
      4505.0000         0.8691       2775.512         0.4015       -88.9308       -18.7234      0.8008607
      4505.5000         0.7963       2760.746         0.4324        -86.687      -16.48779      0.8259798
      4506.0000         0.7559       2729.277         0.4608       -75.2095      -5.018501      0.9548483
      4506.5000         0.7352       2659.551         0.4892       -73.8236        -3.6408      0.9703281
      4507.0000         0.7166       2198.848         0.5173       -71.8776      -1.703003      0.9921011
      4507.5000          0.699       2011.439          0.541       -69.4098      0.7565918              1
      4508.0000         0.6906       1926.629         0.5632       -67.7445       2.413689              1
      4508.5000         0.6912       1839.854         0.5828        -66.762       3.387985              1
      4509.0000         0.6919       1686.352         0.6024        -66.734       3.407784              1
      4509.5000         0.6936       1681.881         0.6219       -65.3591       4.774483              1
      4510.0000         0.7633       1740.598         0.6389       -63.5745        6.55088              1
      4510.5000         0.8518       1488.393         0.6597       -87.1913      -17.07412      0.8193919
      4511.0000         0.8855       1456.439         0.6805        -82.949      -12.84002      0.8669661
      4511.5000         0.8993       1430.959         0.7013       -82.7765      -12.67572      0.8688121
