#------------------------------------------------------------------------------
# Created by    : vladimir.rabinovich
# Created on    : 09/19/2023 17:21:44
#------------------------------------------------------------------------------
~Version Information Section
VERS.           2.0     :   CWLS log ASCII Standard - VERSION 2.0
WRAP.           NO      :   One line per depth step
~Well Information Section
#MNEM       .UNIT                                         VALUE :DESCRIPTION
#------------------------------------------------------------------------------
STRT        .FT                                            3434 :START DEPTH
STOP        .FT                                            9802 :STOP DEPTH
STEP        .FT                                             0.5 :STEP      
NULL        .                                           -999.25 :NULL      
COMP        .                                  UMC PETROLEUM CO :COMPANY   
WELL        .                               OCS G11352 ST00BP00 :WELL      
FLD         .                            HIGH ISLAND BLOCK 0093 :FIELD     
LOC         .                                                   :LOCATION  
CNTY        .                           HIGH ISLAND LARGE BLOCK :LOCATION  
STAT        .                                             TEXAS :STATE     
CTRY        .                                     UNITED STATES :COUNTRY   
SRVC        .                                                   :SERVICE COMPANY
DATE        .                             9/13/2023 11:19:57 AM :LOG DATE  
API         .                                    42708403880000 :API NUMBER
UWI         .                                    42708403880000 :UNIQUE WELL ID
XCOORD      .                                  1243413.75648782 :SURFACE X 
YCOORD      .                                  10663707.7269925 :SURFACE Y 
LAT         .                                         29.377731 :LATITUDE  
LON         .                                        -94.246854 :LONGITUDE 
ELEV        .FT                                              85 :ELEVATION VALUE
ELEV_TYPE   .                                                KB :ELEVATION REFERENCE TYPE
~Curve Information Section
#MNEM       .UNIT                                      API CODE :CURVE DESCRIPTION
#------------------------------------------------------------------------------
DEPT        .FT                                                 :DEPTH     
CALI        .IN                                                 :          
CALI_1      .IN                                                 :          
DPHI        .%                                                  :          
DRHO        .G/C3                                               :          
DT          .US/F                                               :          
GR          .GAPI                                               :          
GR_1        .GAPI                                               :          
GR_NORM     .GAPI                                               :GammaRay Normalized
ILD         .OHMM                                               :          
ILM         .OHMM                                               :          
NPHI        .%                                                  :          
RFOC        .OHMM                                               :          
SP          .MV                                                 :          
SP_NORM     .MV                                                 :SP Normalized
VSH_GR      .V/V                                                :Volume of Shale from GR
VSH_SP      .V/V                                                :Volume of Shale from SP
~A        DEPTH           CALI         CALI_1           DPHI           DRHO             DT             GR           GR_1        GR_NORM            ILD            ILM           NPHI           RFOC             SP        SP_NORM         VSH_GR         VSH_SP
# ...
      6410.0000        -999.25        13.5717        -999.25        -999.25        116.218        44.7333        -999.25       59.80539         0.6021         0.6859        -999.25         0.8369       -49.7983      -7.919659      0.5703275      0.8835344
      6410.5000        -999.25        13.6014        -999.25        -999.25       108.9417        40.0825        -999.25       52.07362          0.654         0.7416        -999.25         0.9819       -52.0132      -10.12839      0.4058217      0.8510531
      6411.0000        -999.25        13.6265        -999.25        -999.25        101.746        38.9353        -999.25       50.16566         0.7168         0.8051        -999.25         1.1207       -55.8422      -13.95123      0.3652267      0.7948349
      6411.5000        -999.25        13.6327        -999.25        -999.25        96.8096        40.4724        -999.25       52.71963         0.8242         0.8746        -999.25         1.1344       -59.0602      -17.16306      0.4195666      0.7476021
      6412.0000        -999.25        13.6278        -999.25        -999.25         95.266        42.4588        -999.25       56.02044         0.9217         0.9498        -999.25         1.1077       -61.8339      -19.93059      0.4897967      0.7069031
      6412.5000        -999.25        13.5875        -999.25        -999.25         93.564        43.7388        -999.25       58.14705         1.0461         1.0322        -999.25         1.1443       -62.7637      -20.85422      0.5350437      0.6933203
      6413.0000        -999.25        13.5553        -999.25        -999.25        91.1184        43.1646        -999.25       57.19154         1.1368         1.0905        -999.25         1.2445       -61.3621      -19.44645      0.5147135      0.7140228
      6413.5000        -999.25        13.5283        -999.25        -999.25         87.757        42.4103        -999.25       55.93666          1.174         1.1164        -999.25         1.3333       -59.5991      -17.67728      0.4880141        0.74004
      6414.0000        -999.25        13.5071        -999.25        -999.25        89.8755        41.3836        -999.25         54.229         1.1782         1.1102        -999.25         1.2986       -57.8981      -15.97012      0.4516809      0.7651454
      6414.5000        -999.25        13.4969        -999.25        -999.25        92.2556        43.8568        -999.25       58.33899          1.153         1.0774        -999.25         1.2124       -56.6606      -14.72644      0.5391274      0.7834346
      6415.0000        -999.25        13.5046        -999.25        -999.25        93.9137        44.1609        -999.25       58.84343          1.115         1.0212        -999.25          1.207       -56.4398      -14.49948      0.5498601      0.7867723
      6415.5000        -999.25        13.5123        -999.25        -999.25        92.1914        42.7952        -999.25       56.57225         1.0637          0.913        -999.25         1.2866       -56.4789      -14.53241      0.5015373       0.786288
      6416.0000        -999.25          13.52        -999.25        -999.25        90.6755        44.3012        -999.25       59.07454         0.9748         0.8007        -999.25         1.2166       -56.2866      -14.33394      0.5547774      0.7892067
      6416.5000        -999.25        13.5277        -999.25        -999.25        96.4271        48.2493        -999.25       65.63614         0.8484          0.738        -999.25         1.0525       -53.9376      -11.97878      0.6943859      0.8238416
      6417.0000        -999.25        13.5316        -999.25        -999.25       105.8923        51.5469        -999.25       71.11648         0.7433         0.6926        -999.25         0.8527       -51.2659      -9.300907      0.8109889      0.8632219
      6417.5000        -999.25        13.5065        -999.25        -999.25       115.1034        54.2348        -999.25       75.58335         0.6835         0.6686        -999.25         0.7454       -48.6164      -6.645241      0.9060287      0.9022759
      6418.0000        -999.25        13.4722        -999.25        -999.25       117.9968         54.254        -999.25       75.61422         0.6605         0.6518        -999.25         0.7721       -47.1191      -5.141769      0.9066855      0.9243857
      6418.5000        -999.25        13.4929        -999.25        -999.25       119.0243        52.7859        -999.25       73.17283         0.6449         0.6422        -999.25         0.8134       -46.1147      -4.131203       0.854741       0.939247
      6419.0000        -999.25        13.5552        -999.25        -999.25       117.6785        51.0304        -999.25       70.25374          0.632         0.6397        -999.25         0.8643       -45.6963      -3.706635      0.7926328      0.9454907
      6419.5000        -999.25        13.5614        -999.25        -999.25       116.3286        51.3457        -999.25       70.77679         0.6284         0.6378        -999.25         0.8667       -45.6124      -3.616566      0.8037616      0.9468152
      6420.0000        -999.25        13.5132        -999.25        -999.25       115.0254        54.1765        -999.25        75.4812         0.6275         0.6405        -999.25         0.8609       -45.6192      -3.617203      0.9038553      0.9468058
      6420.5000        -999.25         13.479        -999.25        -999.25       113.8114        54.9369        -999.25       76.74412         0.6324         0.6463        -999.25         0.8542       -45.6094      -3.601234      0.9307259      0.9470407
      6421.0000        -999.25        13.4528        -999.25        -999.25       113.1327        54.7882        -999.25       76.49587          0.635         0.6497        -999.25         0.8463       -45.6177      -3.603363      0.9254441      0.9470094
      6421.5000        -999.25        13.4459        -999.25        -999.25       112.6818        54.8792        -999.25        76.6461         0.6366         0.6469        -999.25         0.8406       -45.6524      -3.631897      0.9286405      0.9465898
      6422.0000        -999.25        13.4586        -999.25        -999.25       112.6133        55.3565        -999.25       77.43842         0.6363          0.641        -999.25         0.8331       -45.7219      -3.695229      0.9454983      0.9456584
      6422.5000        -999.25        13.5216        -999.25        -999.25       112.8009         55.125        -999.25       77.05258         0.6363         0.6384        -999.25         0.8263       -45.8718      -3.838959       0.937289      0.9435447
      6423.0000        -999.25        13.6096        -999.25        -999.25       113.6857        53.7072        -999.25       74.69481         0.6372         0.6381        -999.25          0.821       -46.0026      -3.963593      0.8871236      0.9417119
      6423.5000        -999.25        13.6144        -999.25        -999.25       114.7216        52.0683        -999.25       71.96951         0.6378         0.6378        -999.25         0.8193       -46.1013      -4.056122      0.8291386      0.9403511
      6424.0000        -999.25        13.5954        -999.25        -999.25       115.4519         50.273        -999.25       68.98426         0.6375         0.6375        -999.25           0.82       -46.0408      -3.989452      0.7656226      0.9413316
      6424.5000        -999.25        13.6158        -999.25        -999.25       115.1405        50.1067        -999.25       68.70679         0.6372         0.6372        -999.25          0.822       -45.5839       -3.52639      0.7597189      0.9481413
      6425.0000        -999.25        13.6432        -999.25        -999.25       114.7722        50.9708        -999.25       70.14206         0.6365          0.637        -999.25         0.8239        -45.001      -2.937321      0.7902566      0.9568041
      6425.5000        -999.25        13.7006        -999.25        -999.25       114.5831         50.679        -999.25       69.65598         0.6357         0.6367        -999.25         0.8265       -44.7318      -2.661953      0.7799146      0.9608536
