#------------------------------------------------------------------------------
# Created by    : vladimir.rabinovich
# Created on    : 09/19/2023 17:20:32
#------------------------------------------------------------------------------
~Version Information Section
VERS.           2.0     :   CWLS log ASCII Standard - VERSION 2.0
WRAP.           NO      :   One line per depth step
~Well Information Section
#MNEM       .UNIT                                         VALUE :DESCRIPTION
#------------------------------------------------------------------------------
STRT        .FT                                             222 :START DEPTH
STOP        .FT                                            9192 :STOP DEPTH
STEP        .FT                                             0.5 :STEP      
NULL        .                                           -999.25 :NULL      
COMP        .                                      PAN AMERICAN :COMPANY   
WELL        .                                     ST TR 00060-L :WELL      
FLD         .                                           WILDCAT :FIELD     
LOC         .                                                   :LOCATION  
CNTY        .                             GALVESTON LARGE BLOCK :LOCATION  
STAT        .                                             TEXAS :STATE     
CTRY        .                                     UNITED STATES :COUNTRY   
SRVC        .                                                   :SERVICE COMPANY
DATE        .                             9/13/2023 11:19:24 AM :LOG DATE  
API         .                                    42706000830000 :API NUMBER
UWI         .                                    42706000830000 :UNIQUE WELL ID
XCOORD      .                                  1150669.84230747 :SURFACE X 
YCOORD      .                                  10684730.4394491 :SURFACE Y 
LAT         .                                        29.4325033 :LATITUDE  
LON         .                                       -94.5389235 :LONGITUDE 
ELEV        .FT                                              11 :ELEVATION VALUE
ELEV_TYPE   .                                                KB :ELEVATION REFERENCE TYPE
~Curve Information Section
#MNEM       .UNIT                                      API CODE :CURVE DESCRIPTION
#------------------------------------------------------------------------------
DEPT        .FT                                                 :DEPTH     
ASN         .OHMM                                               :          
CILD        .MMHO                                               :          
ILD         .OHMM                                               :          
SP          .MV                                                 :          
SP_NORM     .MV                                                 :SP Normalized
VSH_SP      .V/V                                                :Volume of Shale from SP
~A        DEPTH            ASN           CILD            ILD             SP        SP_NORM         VSH_SP
# ...
       830.0000         6.0862       145.0679         6.6638       -80.6635     -0.9249344              1
       830.5000         6.0235       145.9399         6.4274       -80.7684      -1.029839      0.9982448
       831.0000         5.9472       146.9858          6.212       -80.8734      -1.134834      0.9920686
       831.5000          5.871       148.0315         6.0172       -80.9784      -1.239838      0.9858919
       832.0000         5.7902       149.0774          5.839       -81.1057      -1.367134      0.9784039
       832.5000         5.7022       150.1233         5.7555       -81.3519      -1.613335      0.9639215
       833.0000         5.6161       152.8149         5.6721        -81.598      -1.859436      0.9494449
       833.5000         5.5505         157.45         5.5887       -81.8441      -2.105537      0.9349684
       834.0000         5.4849       163.1404         5.5145       -82.0903      -2.351738       0.920486
       834.5000         5.4135       168.4934         5.4807       -82.3364      -2.597839      0.9060094
       835.0000         5.3415        173.333         5.5189       -82.5826       -2.84404      0.8915271
       835.5000         5.2789       178.1719         5.5571       -82.8289       -3.09034      0.8770388
       836.0000         5.2489       183.0117         5.5968       -83.0514      -3.312836      0.8639508
       836.5000         5.2779       186.9172          5.641       -83.2509      -3.512337      0.8522155
       837.0000         5.3135       188.0923         5.6852       -83.4502      -3.711639      0.8404918
       837.5000          5.349       189.2673         5.7294       -83.6497      -3.911133      0.8287569
       838.0000         5.3846       190.0542         5.7736        -83.849      -4.110435      0.8170332
       838.5000         5.4202        187.864         5.7562       -84.0485      -4.309937      0.8052979
       839.0000         5.4536       185.6736         5.7152       -84.2478      -4.509239      0.7935742
       839.5000         5.4599       183.4836         5.6475       -84.4473       -4.70874      0.7818388
       840.0000         5.3805       180.9519         5.5798       -84.6218       -4.88324      0.7715741
       840.5000         5.2479        178.332         5.5122       -84.7179       -4.97934      0.7659212
       841.0000         5.1085       180.6995         5.4257       -84.8138      -5.075233      0.7602804
       841.5000         4.9452        185.782         5.2661       -84.9099      -5.171333      0.7546275
       842.0000         4.7443       192.8926         5.1065       -85.0059      -5.267334      0.7489803
       842.5000         4.5674       200.9817         4.8855       -85.1018      -5.363235      0.7433391
       843.0000         4.4324       209.0691         4.6595       -85.1979      -5.459335      0.7376862
       843.5000         4.2975       218.8889         4.5053       -85.2938      -5.555237      0.7320449
       844.0000         4.1973       229.4407          4.355       -85.3899      -5.651337       0.726392
       844.5000         4.1296       239.4392         4.2156       -85.4613       -5.72274      0.7221918
       845.0000         4.0618       250.6355         4.0999       -85.4786      -5.740036      0.7211744
       845.5000         3.9941       263.1211         3.9841       -85.4958      -5.757233      0.7201628
       846.0000         3.9503       273.1362          3.871       -85.5131      -5.774536      0.7191449
       846.5000         3.9265       278.8428         3.7618       -85.5304       -5.79184      0.7181271
       847.0000         3.9027       281.7266         3.6571       -85.5476      -5.809036      0.7171155
       847.5000         3.9216       279.3076         3.6618       -85.5648      -5.826233       0.716104
       848.0000         3.9464       276.8896         3.7216       -85.5822      -5.843636      0.7150803
       848.5000         3.9712       274.4712         3.7814       -85.5994       -5.86084      0.7140682
       849.0000          3.996       272.0527         3.8412       -85.6166      -5.878036      0.7130567
       849.5000         4.0208       269.6343         3.9214       -85.6338      -5.895233      0.7120451
       850.0000         4.0456       267.2153         4.0062       -85.6318      -5.893234      0.7121627
       850.5000         4.0704       264.7974         4.0331       -85.5952      -5.856636      0.7143155
       851.0000         4.0952       262.3789         3.9766       -85.5587      -5.820137      0.7164626
       851.5000         4.1199       259.9604         3.9246       -85.5221      -5.783539      0.7186154
       852.0000         4.1276       257.5425         3.8727       -85.4856       -5.74704      0.7207624
       852.5000         4.1035        255.124         3.8207        -85.449      -5.710434      0.7229156
       853.0000         4.0795       256.9414         3.7687       -85.4124      -5.673836      0.7250685
       853.5000         4.0413       259.5923         3.7239       -85.3759      -5.637337      0.7272155
       854.0000         4.0012       262.2432         3.7191       -85.3583      -5.619736      0.7282509
       854.5000         3.9611       264.8125         3.7144       -85.3854      -5.646835      0.7266567
       855.0000          3.921        266.647         3.7424       -85.4125      -5.673935      0.7250627
       855.5000         3.8809        268.481          3.791       -85.4396      -5.701035      0.7234685
       856.0000         3.8408       270.3149         3.8396       -85.4667      -5.728134      0.7218745
       856.5000         3.8093       272.1494         3.8882       -85.4939      -5.755333      0.7202745
       857.0000         3.8233       271.2725         3.9791        -85.521       -5.78244        0.71868
       857.5000         3.9151       268.4463         4.0941       -85.5481       -5.80954      0.7170859
       858.0000         4.0318       265.6206         4.2091       -85.5752      -5.836639      0.7154918
       858.5000         4.1485       260.3521         4.3241       -85.6023      -5.863739      0.7138977
       859.0000         4.2652       252.2083         4.4883       -85.6035      -5.864937      0.7138273
       859.5000         4.3718       244.0642         4.6714       -85.5817       -5.84314      0.7151094
       860.0000         4.4763       235.9202         4.8429       -85.5598      -5.821236      0.7163979
       860.5000         4.5808       227.7776         4.9512        -85.538      -5.799438      0.7176801
       861.0000         4.6853       220.3281         5.0594       -85.5161      -5.777534      0.7189686
       861.5000         4.7259       215.2324         5.0747       -85.4943      -5.755737      0.7202507
       862.0000         4.6186        210.137         4.9611       -85.4725       -5.73394      0.7215329
       862.5000          4.495       206.0793         4.8167       -85.4507      -5.712135      0.7228156
       863.0000         4.3714       209.9795         4.6184       -85.4331      -5.694534      0.7238509
       863.5000         4.2479       215.5479         4.4202       -85.4204      -5.681839      0.7245977
       864.0000         4.1243       224.3184         4.2379       -85.4076      -5.669037      0.7253508
       864.5000         4.0007       233.0872         4.0805       -85.3948      -5.656235      0.7261038
       865.0000         3.8771       241.8574          3.923       -85.3821      -5.643539      0.7268506
       865.5000         3.7535       250.6262         3.7994        -85.415      -5.676437      0.7249154
       866.0000         3.6525        259.395         3.6854       -85.5228      -5.784233      0.7185745
       866.5000         3.6045       267.1309          3.582       -85.6305      -5.891937       0.712239
       867.0000         3.5565       274.1548          3.518       -85.7383      -5.999733       0.705898
       867.5000         3.5085       281.1772         3.4539       -85.8461      -6.107536      0.6995567
