#------------------------------------------------------------------------------
# Created by    : vladimir.rabinovich
# Created on    : 09/19/2023 17:19:48
#------------------------------------------------------------------------------
~Version Information Section
VERS.           2.0     :   CWLS log ASCII Standard - VERSION 2.0
WRAP.           NO      :   One line per depth step
~Well Information Section
#MNEM       .UNIT                                         VALUE :DESCRIPTION
#------------------------------------------------------------------------------
STRT        .FT                                             130 :START DEPTH
STOP        .FT                                            9502 :STOP DEPTH
STEP        .FT                                             0.5 :STEP      
NULL        .                                           -999.25 :NULL      
COMP        .            MOBIL PRODUCING TEXAS & NEW MEXICO INC :COMPANY   
WELL        .                               OCS G07243 ST00BP00 :WELL      
FLD         .                                           WILDCAT :FIELD     
LOC         .                                                   :LOCATION  
CNTY        .                             GALVESTON LARGE BLOCK :LOCATION  
STAT        .                                             TEXAS :STATE     
CTRY        .                                     UNITED STATES :COUNTRY   
SRVC        .                                                   :SERVICE COMPANY
DATE        .                             9/13/2023 11:19:36 AM :LOG DATE  
API         .                                    42706401330000 :API NUMBER
UWI         .                                    42706401330000 :UNIQUE WELL ID
XCOORD      .                                  993943.906145108 :SURFACE X 
YCOORD      .                                  10496155.9223708 :SURFACE Y 
LAT         .                                         28.907432 :LATITUDE  
LON         .                                        -95.020991 :LONGITUDE 
ELEV        .FT                                              92 :ELEVATION VALUE
ELEV_TYPE   .                                                KB :ELEVATION REFERENCE TYPE
~Curve Information Section
#MNEM       .UNIT                                      API CODE :CURVE DESCRIPTION
#------------------------------------------------------------------------------
DEPT        .FT                                                 :DEPTH     
ASFL        .OHMM                                               :          
CILD        .MMHO                                               :          
DT          .US/F                                               :          
GR          .GAPI                                               :          
GR_NORM     .GAPI                                               :GammaRay Normalized
ILD         .OHMM                                               :          
SP          .MV                                                 :          
SP_NORM     .GAPI                                               :SP Normalized
VSH_GR      .V/V                                                :Volume of Shale from GR
VSH_SP      .V/V                                                :Volume of Shale from SP
~A        DEPTH           ASFL           CILD             DT             GR        GR_NORM            ILD             SP        SP_NORM         VSH_GR         VSH_SP
# ...
      3266.0000         0.8407       1247.865        -999.25        55.6262       71.11534         0.8747        -999.25        -999.25      0.8109647        -999.25
      3266.5000         0.8572       1226.885        -999.25        54.6634       69.77571         0.8847        -999.25        -999.25      0.7824619        -999.25
      3267.0000         0.8489       1223.293        -999.25        53.7013       68.43705         0.8943        -999.25        -999.25      0.7539798        -999.25
      3267.5000          0.825       1260.361        -999.25        51.7923       65.78049         0.9027        -999.25        -999.25      0.6974573        -999.25
      3268.0000         0.8005       1299.199        -999.25        49.9256       63.18282         0.8922        -999.25        -999.25      0.6421877        -999.25
      3268.5000         0.7809       1343.205        -999.25        48.1348       60.69078         0.8679        -999.25        -999.25      0.5891656        -999.25
      3269.0000         0.7612       1387.209        -999.25        45.0806       56.44035         0.8437        -999.25        -999.25      0.4987309        -999.25
      3269.5000         0.7466       1430.893        -999.25        42.7646       53.21735         0.8203        -999.25        -999.25      0.4301563        -999.25
      3270.0000         0.7327       1442.822        -999.25        40.7755       50.44931         0.7981        -999.25        -999.25       0.371262        -999.25
      3270.5000         0.7254       1405.336        -999.25        40.2942       49.77983         0.7759        -999.25        -999.25      0.3570176        -999.25
      3271.0000           0.74       1368.219        -999.25         41.013       50.78063         0.7495        -999.25        -999.25      0.3783113        -999.25
      3271.5000         0.7545       1331.102        -999.25        43.1038       53.69098         0.7745        -999.25        -999.25      0.4402336        -999.25
      3272.0000         0.7696        1294.01        -999.25        45.3206       56.77668         0.8113        -999.25        -999.25      0.5058869        -999.25
      3272.5000         0.7851       1271.111        -999.25        47.0086       59.12641         0.8303        -999.25        -999.25       0.555881        -999.25
      3273.0000         0.8007       1248.998        -999.25        48.5504       61.27266         0.8458        -999.25        -999.25       0.601546        -999.25
      3273.5000         0.8162       1226.885        -999.25        49.9899       63.27653         0.8612        -999.25        -999.25      0.6441814        -999.25
      3274.0000         0.8314       1204.771        -999.25        51.3566       65.17906         0.8782        -999.25        -999.25      0.6846609        -999.25
      3274.5000         0.8465       1187.947        -999.25        52.6902       67.03555         0.8955        -999.25        -999.25      0.7241606        -999.25
      3275.0000         0.8616       1172.729        -999.25        54.1664       69.09049         0.9148        -999.25        -999.25      0.7678828        -999.25
      3275.5000           0.87        1157.51        -999.25         53.887         68.702         0.9313        -999.25        -999.25      0.7596171        -999.25
      3276.0000         0.8771       1143.531        -999.25         53.525       68.19857         0.9401        -999.25        -999.25      0.7489058        -999.25
      3276.5000         0.8842       1146.311        -999.25         53.163       67.69511         0.9483        -999.25        -999.25      0.7381939        -999.25
      3277.0000         0.8873       1149.086        -999.25        52.6978       67.04804         0.9497        -999.25        -999.25      0.7244264        -999.25
      3277.5000         0.8846       1149.543        -999.25        52.2162       66.37814          0.951        -999.25        -999.25      0.7101731        -999.25
      3278.0000         0.8866       1149.043        -999.25        51.7562       65.73828         0.9501        -999.25        -999.25      0.6965592        -999.25
      3278.5000         0.9094       1146.305        -999.25        51.2966         65.099         0.9436        -999.25        -999.25      0.6829574        -999.25
      3279.0000         0.9427       1128.645        -999.25        50.8483       64.47544         0.9371        -999.25        -999.25      0.6696903        -999.25
      3279.5000         1.0045       1110.971        -999.25        50.4763       63.95809         0.9321        -999.25        -999.25      0.6586827        -999.25
      3280.0000         1.0547       1093.311        -999.25        50.1085       63.44657         0.9301        -999.25        -999.25      0.6477994        -999.25
      3280.5000         1.0886       1070.816        -999.25        49.4702       62.55856         0.9469        -999.25        -999.25      0.6289055        -999.25
      3281.0000         1.1095        1041.35        -999.25         48.505        61.2156         1.0025        -999.25        -999.25       0.600332        -999.25
      3281.5000           1.13       1011.883        -999.25        47.6525       60.02948         1.0786        -999.25        -999.25      0.5750952        -999.25
      3282.0000          1.142       986.3887        -999.25        46.7711       58.80313         1.1455        -999.25        -999.25      0.5490028        -999.25
      3282.5000         1.0622       963.1318        -999.25        45.7888       57.43636         1.1849        -999.25        -999.25      0.5199224        -999.25
      3283.0000         1.0081       951.2393        -999.25        44.8658       56.15211          1.145        -999.25        -999.25      0.4925982        -999.25
      3283.5000          0.978       980.6328        -999.25        47.8838       60.35293          1.105        -999.25        -999.25      0.5819772        -999.25
      3284.0000         0.9509       1009.473        -999.25        50.6674        64.2275         1.0651        -999.25        -999.25      0.6644149        -999.25
      3284.5000          0.933       1038.018        -999.25        52.7177       67.08148         1.0245        -999.25        -999.25      0.7251379        -999.25
      3285.0000         0.9151       1066.563        -999.25        54.7167       69.86405         0.9837        -999.25        -999.25      0.7843415        -999.25
      3285.5000         0.8985       1095.107        -999.25        56.0264       71.68727         0.9475        -999.25        -999.25      0.8231334        -999.25
      3286.0000         0.8874       1126.947        -999.25        56.9365       72.95432         0.9226        -999.25        -999.25      0.8500918        -999.25
      3286.5000         0.8764       1158.998        -999.25        57.0729       73.14454         0.9086        -999.25        -999.25      0.8541391        -999.25
      3287.0000         0.8735       1188.723        -999.25        56.9863       73.02441         0.9068        -999.25        -999.25      0.8515831        -999.25
      3287.5000         0.8784       1191.154        -999.25        56.9383       72.95798         0.9064        -999.25        -999.25      0.8501697        -999.25
      3288.0000         0.8832       1182.977        -999.25        56.9499        72.9745         0.9113        -999.25        -999.25      0.8505213        -999.25
      3288.5000         0.8881       1174.805        -999.25        56.9615       72.99101         0.9161        -999.25        -999.25      0.8508726        -999.25
      3289.0000         0.8929       1165.977        -999.25        57.4556        73.6791         0.9211        -999.25        -999.25      0.8655128        -999.25
      3289.5000          0.899       1156.102        -999.25        57.9639       74.38692          0.934        -999.25        -999.25      0.8805729        -999.25
      3290.0000         0.9064        1146.23        -999.25        58.3832       74.97089         0.9469        -999.25        -999.25      0.8929977        -999.25
