#------------------------------------------------------------------------------
# Created by    : vladimir.rabinovich
# Created on    : 09/19/2023 17:20:24
#------------------------------------------------------------------------------
~Version Information Section
VERS.           2.0     :   CWLS log ASCII Standard - VERSION 2.0
WRAP.           NO      :   One line per depth step
~Well Information Section
#MNEM       .UNIT                                         VALUE :DESCRIPTION
#------------------------------------------------------------------------------
STRT        .FT                                            3071 :START DEPTH
STOP        .FT                                           14991 :STOP DEPTH
STEP        .FT                                             0.5 :STEP      
NULL        .                                           -999.25 :NULL      
COMP        .                                        TEXACO USA :COMPANY   
WELL        .                                     ST TR 00012-L :WELL      
FLD         .                                           WILDCAT :FIELD     
LOC         .                                                   :LOCATION  
CNTY        .                           HIGH ISLAND LARGE BLOCK :LOCATION  
STAT        .                                             TEXAS :STATE     
CTRY        .                                     UNITED STATES :COUNTRY   
SRVC        .                                                   :SERVICE COMPANY
DATE        .                             9/13/2023 11:19:15 AM :LOG DATE  
API         .                                    42708000680000 :API NUMBER
UWI         .                                    42708000680000 :UNIQUE WELL ID
XCOORD      .                                  1354682.00685938 :SURFACE X 
YCOORD      .                                  10733491.7088446 :SURFACE Y 
LAT         .                                        29.5724948 :LATITUDE  
LON         .                                       -93.8991324 :LONGITUDE 
ELEV        .FT                                              44 :ELEVATION VALUE
ELEV_TYPE   .                                                KB :ELEVATION REFERENCE TYPE
~Curve Information Section
#MNEM       .UNIT                                      API CODE :CURVE DESCRIPTION
#------------------------------------------------------------------------------
DEPT        .FT                                                 :DEPTH     
ASN         .OHMM                                               :          
CILD        .MMHO                                               :          
ILD         .OHMM                                               :          
SP          .MV                                                 :          
SP_NORM     .MV                                                 :SP Normalized
VSH_SP      .V/V                                                :Volume of Shale from SP
~A        DEPTH            ASN           CILD            ILD             SP        SP_NORM         VSH_SP
# ...
      8619.0000         0.8701        1204.16         0.6651       -49.1298      -5.104641      0.9304298
      8619.5000         0.8716           1200          0.698        -47.998      -3.972843      0.9496129
      8620.0000         0.8801        1195.84         0.7309       -48.1413      -4.116142       0.947184
      8620.5000         0.8959       1191.682         0.7638       -48.2847      -4.259541      0.9447535
      8621.0000         0.9116       1187.521         0.7967        -48.428      -4.402843      0.9423247
      8621.5000         0.9274       1161.572         0.8276       -48.8206      -4.795441      0.9356705
      8622.0000         0.9428       1130.764         0.8413       -49.3361      -5.310944      0.9269332
      8622.5000         0.9576       1104.357         0.8549       -49.8515      -5.826344      0.9181976
      8623.0000         0.9723       1078.496         0.8686        -50.367      -6.341843      0.9094603
      8623.5000         0.9871       1052.682         0.8823       -50.8824      -6.857243      0.9007247
      8624.0000         1.0018        1026.82          0.869       -51.3979      -7.372742      0.8919874
      8624.5000         1.0166       1014.606          0.845       -51.9133      -7.888142      0.8832518
      8625.0000         1.0267        1002.12         0.8211       -51.6439      -7.618744      0.8878179
      8625.5000          1.034       991.3643         0.7971        -50.924      -6.898842      0.9000196
      8626.0000         1.0241       1006.941         0.7732        -50.204      -6.178841       0.912223
      8626.5000         1.0151       1022.543         0.7492       -49.4841      -5.458942      0.9244247
      8627.0000         1.0061       1049.963         0.7253        -49.245      -5.219841      0.9284773
      8627.5000         0.9991       1079.781         0.7013       -50.3788      -6.353642      0.9092603
      8628.0000         0.9936         1109.6         0.6778       -52.2944      -8.269241      0.8767925
      8628.5000         0.9906       1139.418          0.657       -54.2075      -10.18234      0.8443671
      8629.0000         0.9877       1169.285         0.6362       -56.1231      -12.09794      0.8118993
      8629.5000         0.9848       1199.104         0.6153       -58.0363      -14.01114      0.7794722
      8630.0000         0.9956       1228.922         0.5945       -60.7028      -16.67764      0.7342772
      8630.5000         1.0071       1259.334         0.5737       -63.9789      -19.95374      0.6787501
      8631.0000         1.0186       1290.637         0.5528        -67.255      -23.22984      0.6232231
      8631.5000         1.0303       1321.939          0.532       -70.2833      -26.25814      0.5718958
      8632.0000         1.0428        1353.24         0.5112       -72.8804      -28.85524      0.5278772
      8632.5000         1.0552       1384.543         0.4903       -75.4775      -31.45234      0.4838586
      8633.0000         1.0677       1415.844         0.4695       -78.0671      -34.04194      0.4399671
      8633.5000         1.0275       1460.102         0.4487        -79.155      -35.12984      0.4215281
      8634.0000         0.9484       1522.211         0.4355       -80.2443      -36.21914      0.4030654
      8634.5000         0.9186       1571.959         0.4245       -81.3334      -37.30824      0.3846061
      8635.0000          0.892       1589.959         0.4136       -82.4213      -38.39614       0.366167
      8635.5000         0.8737       1607.959         0.4026       -83.5105      -39.48534      0.3477061
      8636.0000         0.8553       1625.959         0.3917       -83.5919      -39.56675      0.3463264
      8636.5000         0.8308       1653.551         0.3807       -83.5887      -39.56354      0.3463807
      8637.0000         0.8018       1694.596         0.3698       -83.8462      -39.82104      0.3420162
      8637.5000           0.77       1735.639         0.3589       -85.7222      -41.69704      0.3102196
      8638.0000         0.7362       2090.629         0.3479       -87.6106      -43.58545      0.2782128
      8638.5000         0.6879        2146.41         0.3312       -89.6823      -45.65714      0.2430993
      8639.0000         0.6202       2293.375         0.3128        -91.754      -47.72884      0.2079858
      8639.5000         0.5738       2768.887         0.2945       -93.7267      -49.70154      0.1745501
      8640.0000         0.5368       3244.398         0.2762       -95.2408      -51.21564      0.1488874
      8640.5000         0.4997       3719.914         0.2579       -96.8838      -52.85864        0.12104
      8641.0000         0.4627       3991.848         0.2395       -98.5244      -54.49924     0.09323321
      8641.5000         0.4256       3992.891         0.2212        -99.953      -55.92785     0.06901958
      8642.0000         0.4075        3993.93         0.2029      -100.7844      -56.75924     0.05492808
      8642.5000         0.4195       3949.758         0.1905      -101.1279      -57.10274     0.04910608
      8643.0000         0.4314       3711.211         0.1819      -101.2043      -57.17914     0.04781115
      8643.5000         0.4434       3473.059         0.1733      -100.5775      -56.55234     0.05843489
      8644.0000         0.4555       3234.906         0.1787       -99.5763      -55.55114     0.07540435
      8644.5000         0.4784       2996.754         0.2037       -98.5752      -54.55005     0.09237212
      8645.0000         0.5013       2758.207         0.2286        -97.574      -53.54884      0.1093417
      8645.5000         0.5241       2520.055         0.2536       -96.5728      -52.54764      0.1263112
      8646.0000          0.547       2479.309         0.2786       -95.5717      -51.54654      0.1432789
      8646.5000         0.5699       2525.988         0.3036       -94.5469      -50.52174      0.1606485
      8647.0000         0.5927       2581.273         0.3285        -93.438      -49.41285      0.1794433
      8647.5000         0.6046       2636.656         0.3449        -92.329      -48.30384      0.1982399
      8648.0000         0.6129       2691.941         0.3334         -91.22      -47.19484      0.2170366
      8648.5000         0.5849       2757.711         0.3219       -90.3837      -46.35854      0.2312112
      8649.0000         0.5568       2850.086         0.3103       -91.3947      -47.36954      0.2140756
      8649.5000         0.5288       2942.555         0.2988       -92.4045      -48.37934      0.1969603
      8650.0000          0.515       3018.215         0.2873       -93.4156      -49.39045       0.179823
      8650.5000         0.5107        3083.59         0.2757       -94.4268      -50.40165       0.162684
      8651.0000         0.5373       3148.961         0.2642       -95.4365      -51.41134      0.1455705
      8651.5000         0.5638       3214.234         0.2535       -96.4476      -52.42244      0.1284332
      8652.0000         0.5517       3279.609         0.2565       -97.4575      -53.43234      0.1113163
      8652.5000         0.5238       3344.883         0.2594         -98.16      -54.13485     0.09940939
      8653.0000         0.5088       3410.254         0.2624       -98.6718      -54.64664      0.0907349
      8653.5000         0.4938       3520.828         0.2654       -99.1842      -55.15904      0.0820502
      8654.0000         0.4788       3561.375         0.2684       -99.6959      -55.67074     0.07337725
      8654.5000         0.4638       3515.039         0.2714      -100.2083      -56.18314     0.06469255
      8655.0000         0.4488        3420.84         0.2744        -100.72      -56.69484      0.0560196
      8655.5000         0.4662       3166.465         0.2774      -101.2324      -57.20724      0.0473349
      8656.0000         0.4884       3077.355         0.2804      -100.7596      -56.73444     0.05534848
      8656.5000         0.5105       2988.148         0.2834       -98.7102      -54.68504     0.09008408
