#------------------------------------------------------------------------------
# Created by    : vladimir.rabinovich
# Created on    : 09/19/2023 17:22:39
#------------------------------------------------------------------------------
~Version Information Section
VERS.           2.0     :   CWLS log ASCII Standard - VERSION 2.0
WRAP.           NO      :   One line per depth step
~Well Information Section
#MNEM       .UNIT                                         VALUE :DESCRIPTION
#------------------------------------------------------------------------------
STRT        .FT                                            3496 :START DEPTH
STOP        .FT                                          7091.5 :STOP DEPTH
STEP        .FT                                             0.5 :STEP      
NULL        .                                           -999.25 :NULL      
COMP        .                          SEAGULL ENERGY E & P INC :COMPANY   
WELL        .                               OCS G07251 ST00BP00 :WELL      
FLD         .                              GALVESTON BLOCK 0349 :FIELD     
LOC         .                                                   :LOCATION  
CNTY        .                             GALVESTON LARGE BLOCK :LOCATION  
STAT        .                                             TEXAS :STATE     
CTRY        .                                     UNITED STATES :COUNTRY   
SRVC        .                                                   :SERVICE COMPANY
DATE        .                             9/13/2023 11:19:36 AM :LOG DATE  
API         .                                    42706402300000 :API NUMBER
UWI         .                                    42706402300000 :UNIQUE WELL ID
XCOORD      .                                  1015542.86720011 :SURFACE X 
YCOORD      .                                  10434819.2372955 :SURFACE Y 
LAT         .                                         28.739771 :LATITUDE  
LON         .                                        -94.950355 :LONGITUDE 
ELEV        .FT                                              93 :ELEVATION VALUE
ELEV_TYPE   .                                                KB :ELEVATION REFERENCE TYPE
~Curve Information Section
#MNEM       .UNIT                                      API CODE :CURVE DESCRIPTION
#------------------------------------------------------------------------------
DEPT        .FT                                                 :DEPTH     
DCAL        .IN                                                 :          
DPHI        .%                                                  :          
DRHO        .G/C3                                               :          
GR          .GAPI                                               :          
GR_NORM     .GAPI                                               :GammaRay Normalized
ILD         .OHMM                                               :          
ILM         .OHMM                                               :          
NPHI        .%                                                  :          
SGRD        .OHMM                                               :          
SP          .MV                                                 :          
SP_NORM     .MV                                                 :SP Normalized
VSH_GR      .V/V                                                :Volume of Shale from GR
VSH_SP      .V/V                                                :Volume of Shale from SP
~A        DEPTH           DCAL           DPHI           DRHO             GR        GR_NORM            ILD            ILM           NPHI           SGRD             SP        SP_NORM         VSH_GR         VSH_SP
# ...
      5415.0000         0.2428        26.7243         0.0301        67.0009       71.97504         0.7463         0.7861        42.5132         0.8276       -48.9692      -5.407295      0.8292561      0.9168109
      5415.5000         0.2501        26.7672         0.0187        66.2488        70.9644         0.7476         0.7873        42.7679         0.8106       -48.3871      -4.809929      0.8077532      0.9260011
      5416.0000         0.2466        26.4135         0.0118        66.1512       70.83324         0.7462         0.7864        42.7094          0.805       -47.8535      -4.261066      0.8049626      0.9344451
      5416.5000         0.1633        24.9364         0.0132         66.207       70.90822         0.7447         0.7856        42.4753         0.8084       -47.6844      -4.076698      0.8065578      0.9372815
      5417.0000         0.1615        24.1982         0.0216        65.7773       70.33082         0.7466         0.7853        41.8002         0.8145       -48.0413      -4.418339      0.7942727      0.9320256
      5417.5000         0.1831        24.0037         0.0305        66.3195       71.05941         0.7482         0.7849         41.313          0.823       -48.9586       -5.32037      0.8097747      0.9181482
      5418.0000         0.2207        23.4143         0.0377        68.4077       73.86543         0.7513         0.7836         40.856         0.8402       -49.8439      -6.190403      0.8694772       0.904763
      5418.5000         0.2595        23.1954           0.04        69.9138       75.88925         0.7545         0.7818        40.6086         0.8517       -50.7905      -7.121742      0.9125373      0.8904347
      5419.0000         0.2806        23.7258         0.0405        69.9438       75.92956         0.7506         0.7784        40.7164         0.8423       -51.7233      -8.039276      0.9133949      0.8763188
      5419.5000         0.3048         24.059         0.0387        68.6228       74.15446         0.7434         0.7805        40.9826         0.8309        -52.703      -9.003712      0.8756269      0.8614814
      5420.0000         0.3288        24.1964         0.0331        67.4661       72.60016         0.7336         0.7828        41.1534         0.8203       -53.2889      -9.574345      0.8425566      0.8527024
      5420.5000         0.3238        23.9749         0.0247        63.5459       67.33237         0.7038         0.7844        41.1593         0.8249       -53.8604      -10.13058      0.7304761      0.8441448
      5421.0000         0.2392        24.4261         0.0092        60.9474       63.84064         0.6636         0.7806        40.7745         0.8514       -57.2191      -13.47402      0.6561838      0.7927074
      5421.5000         0.1381        24.5382        -0.0064        58.9955       61.21777         0.6233         0.7606        40.1805         0.8797       -62.2309      -18.47055      0.6003782      0.7158377
      5422.0000         0.0775        24.0241        -0.0226        57.6613       59.42494         0.5865         0.7064        39.1432         0.9078       -66.7325      -22.95689      0.5622328      0.6468171
      5422.5000         0.0452        23.8014        -0.0378        55.8131       56.94142         0.5562         0.6307        38.5483         0.9142       -69.8286      -26.03772       0.509392      0.5994197
      5423.0000         0.0451        23.7303        -0.0448        56.0907       57.31445         0.5316         0.5997        38.4785         0.8409        -72.192      -28.38586      0.5173287      0.5632945
      5423.5000         0.0535        23.8594        -0.0498        56.9498       58.46886          0.521         0.5852        38.6077          0.763       -73.2036      -29.38219      0.5418907      0.5479663
      5424.0000          0.069        23.8962        -0.0525        57.2261       58.84015          0.515          0.583        38.5932          0.737       -73.0636      -29.22693      0.5497903       0.550355
      5424.5000         0.0932        23.4435        -0.0495        56.8647       58.35451          0.516         0.5877        38.1524         0.8003       -71.2679      -27.41596      0.5394577       0.578216
      5425.0000         0.1117        21.7015        -0.0428        56.2679       57.55256         0.5214         0.6004        37.1392         0.8938       -71.4799      -27.61269       0.522395      0.5751894
      5425.5000         0.1142        19.8386        -0.0356        55.5305       56.56168         0.5299         0.6143        36.2317         0.9078       -72.6084      -28.72593      0.5013123      0.5580626
      5426.0000         0.1124        19.8134        -0.0318        53.4998       53.83293         0.5505         0.6311        35.3468         0.8894       -73.5671      -29.66937      0.4432539      0.5435482
      5426.5000         0.1105        20.1766         -0.034         52.832       52.93558         0.5912         0.6488        34.7713         0.9153        -72.327      -28.41401      0.4241612      0.5628614
      5427.0000         0.1149        20.2045        -0.0253        54.8002       55.58035         0.6217         0.6686        34.6527         0.9539       -67.3228      -23.39454      0.4804329       0.640084
      5427.5000         0.1349        20.1172        -0.0085        56.8209       58.29565         0.6324         0.6881        34.8398         0.9648       -62.0508      -18.10727      0.5382054      0.7214265
      5428.0000          0.137        19.5353         0.0072        58.9067       61.09845         0.6412         0.6985        35.8091         0.9256       -55.4434      -11.48461      0.5978393      0.8233137
      5428.5000         0.1426        19.4554         0.0253        66.2706       70.99369         0.6544         0.7084        37.3163         0.8301       -53.2251      -9.251045      0.8083764      0.8576762
      5429.0000         0.1564        20.3384         0.0367        67.4298       72.55138         0.6678         0.7219        38.7424         0.7985       -51.8246      -7.835281      0.8415186      0.8794572
      5429.5000         0.1722        22.0918         0.0463        68.3152       73.74112          0.681         0.7396        40.2345         0.7869       -50.9818      -6.977215      0.8668323      0.8926582
      5430.0000         0.1777        23.1216         0.0497        68.7089       74.27016         0.6945         0.7528        41.3063         0.7878       -50.2215      -6.201653      0.8780886        0.90459
      5430.5000         0.1723        23.8076         0.0495        68.0038       73.32268         0.7118         0.7658        41.8553         0.7979       -49.7802      -5.745087      0.8579293      0.9116141
      5431.0000         0.1447         24.127         0.0475        66.8584       71.78354         0.7291           0.78        41.7814         0.8178       -49.8317      -5.781319      0.8251817      0.9110566
      5431.5000         0.1321        24.2149         0.0472        65.9424       70.55267         0.7471         0.7946        41.2662         0.8341       -50.1558      -6.090157      0.7989931      0.9063053
      5432.0000         0.1303        24.0217         0.0443        65.4178       69.84775         0.7723         0.8104         41.047         0.8495       -50.5598      -6.478889      0.7839946      0.9003248
      5432.5000         0.1326        23.5269         0.0439        65.0271       69.32274         0.7988         0.8292        40.6368         0.8579       -50.9774      -6.881229      0.7728242      0.8941349
      5433.0000         0.1506        22.7853         0.0429         63.756        67.6147         0.8222         0.8543        40.0746         0.8919       -51.0059      -6.894463       0.736483      0.8939313
      5433.5000         0.1479        21.8283         0.0407        62.2189       65.54921         0.8436         0.8861        39.5807         0.9332       -49.9489      -5.822197      0.6925364      0.9104277
