#------------------------------------------------------------------------------
# Created by    : vladimir.rabinovich
# Created on    : 09/19/2023 17:22:48
#------------------------------------------------------------------------------
~Version Information Section
VERS.           2.0     :   CWLS log ASCII Standard - VERSION 2.0
WRAP.           NO      :   One line per depth step
~Well Information Section
#MNEM       .UNIT                                         VALUE :DESCRIPTION
#------------------------------------------------------------------------------
STRT        .FT                                             306 :START DEPTH
STOP        .FT                                           13139 :STOP DEPTH
STEP        .FT                                             0.5 :STEP      
NULL        .                                           -999.25 :NULL      
COMP        .                                    CITIES SERVICE :COMPANY   
WELL        .                                          SL 77337 :WELL      
FLD         .                                           WILDCAT :FIELD     
LOC         .                                                   :LOCATION  
CNTY        .                                BRAZOS LARGE BLOCK :LOCATION  
STAT        .                                             TEXAS :STATE     
CTRY        .                                     UNITED STATES :COUNTRY   
SRVC        .                                                   :SERVICE COMPANY
DATE        .                             9/13/2023 11:18:52 AM :LOG DATE  
API         .                                    42704301950000 :API NUMBER
UWI         .                                    42704301950000 :UNIQUE WELL ID
XCOORD      .                                   673900.18951543 :SURFACE X 
YCOORD      .                                   10333530.060148 :SURFACE Y 
LAT         .                                        28.4418955 :LATITUDE  
LON         .                                       -96.0077528 :LONGITUDE 
ELEV        .FT                                              82 :ELEVATION VALUE
ELEV_TYPE   .                                                KB :ELEVATION REFERENCE TYPE
~Curve Information Section
#MNEM       .UNIT                                      API CODE :CURVE DESCRIPTION
#------------------------------------------------------------------------------
DEPT        .FT                                                 :DEPTH     
DT          .US/F                                               :          
SP          .MV                                                 :          
SP_NORM     .MV                                                 :SP Normalized
VSH_SP      .V/V                                                :Volume of Shale from SP
~A        DEPTH             DT             SP        SP_NORM         VSH_SP
# ...
      5394.0000       115.1641       -53.4271      -1.046146      0.9990582
      5394.5000       115.0912       -53.4642      -1.083244      0.9983011
      5395.0000       115.3326        -53.458      -1.077045      0.9984276
      5395.5000       115.2644       -53.4302      -1.049244       0.998995
      5396.0000        115.011       -53.4109      -1.029945      0.9993889
      5396.5000       115.9196       -53.4072      -1.026245      0.9994644
      5397.0000       117.9644       -53.4671      -1.086143       0.998242
      5397.5000       119.9285        -53.399      -1.018044      0.9996318
      5398.0000       120.8921       -53.2297     -0.8487434              1
      5398.5000       119.5779       -53.0277     -0.6467438              1
      5399.0000       117.3876       -52.8781     -0.4971466              1
      5399.5000       115.5354        -52.754     -0.3730469              1
      5400.0000       114.8359       -52.7955      -0.414547              1
      5400.5000       114.9996       -52.8724     -0.4914436              1
      5401.0000       115.6281       -52.8915     -0.5105438              1
      5401.5000       116.2384       -52.7592     -0.3782463              1
      5402.0000       116.7816       -52.5705     -0.1895447              1
      5402.5000       117.1998       -52.4004    -0.01944351              1
      5403.0000       117.5082       -52.1909      0.1900558              1
      5403.5000       117.7633       -51.9783      0.4026566              1
      5404.0000       118.3391       -51.8361      0.5448532              1
      5404.5000       119.1702       -51.7305      0.6504555              1
      5405.0000       120.0695       -51.7871       0.593853              1
      5405.5000       120.8334       -51.8901      0.4908562              1
      5406.0000       120.8073       -51.9916      0.3893547              1
      5406.5000       119.6077       -52.9583     -0.5773468              1
      5407.0000       118.4355       -53.5414      -1.160446      0.9967256
      5407.5000       117.4839       -53.5864      -1.205444      0.9958072
      5408.0000       117.0879       -53.2737      -0.892746              1
      5408.5000       117.0471       -53.2061     -0.8251457              1
      5409.0000       116.9077        -53.105     -0.7240448              1
      5409.5000       116.7902       -53.0168     -0.6358452              1
      5410.0000       116.7091       -52.7844     -0.4034462              1
      5410.5000       116.6279       -52.5623     -0.1813469              1
      5411.0000       116.8723       -52.6415     -0.2605438              1
      5411.5000       117.4149       -52.9089     -0.5279465              1
      5412.0000        118.525       -53.0422     -0.6612434              1
      5412.5000       118.9688       -52.9589     -0.5779457              1
      5413.0000       119.2034       -52.6218     -0.2408447              1
      5413.5000       119.3706       -52.2002      0.1807556              1
      5414.0000       119.5378        -51.983       0.397953              1
      5414.5000       119.7526       -51.7697      0.6112556              1
      5415.0000       119.9789       -51.6898      0.6911545              1
      5415.5000       120.1403        -51.681       0.699955              1
      5416.0000       119.9683       -51.7148       0.666153              1
      5416.5000       119.1503       -51.6433      0.7376556              1
      5417.0000       118.0806       -51.9232       0.457756              1
      5417.5000       117.5767       -52.5874     -0.2064438              1
      5418.0000       117.0719       -53.1747     -0.7937469              1
      5418.5000        116.157       -53.4377      -1.056744      0.9988419
      5419.0000       115.2421       -53.4323      -1.051346      0.9989522
      5419.5000       114.1954       -53.3137     -0.9327469              1
      5420.0000       113.0294       -53.1247     -0.7437439              1
      5420.5000       114.5883       -52.9116     -0.5306435              1
      5421.0000       116.4404       -52.6528     -0.2718468              1
      5421.5000       118.8793       -52.4144    -0.03344345              1
      5422.0000       118.6107       -52.3024     0.07855606              1
      5422.5000        116.147        -52.477    -0.09604645              1
      5423.0000       113.4906       -52.7613     -0.3803444              1
      5423.5000       112.6764       -53.1769     -0.7959442              1
      5424.0000       112.6515       -53.6138      -1.232845      0.9952481
      5424.5000       113.1227       -54.0035      -1.622547       0.987295
      5425.0000        113.594         -54.36      -1.979046      0.9800195
      5425.5000       114.4142       -54.4866      -2.105644      0.9774358
      5426.0000       117.8326       -54.2245      -1.843544      0.9827848
      5426.5000       123.1779       -53.4899      -1.108944      0.9977766
      5427.0000       127.5087        -53.178     -0.7970467              1
      5427.5000       127.5907       -53.5078      -1.126846      0.9974113
      5428.0000        124.391       -53.9543      -1.573345      0.9882991
      5428.5000       121.0919       -54.1528      -1.771847       0.984248
      5429.0000       117.8425       -54.0576      -1.676643       0.986191
      5429.5000       117.4708       -53.7864      -1.405445      0.9917256
      5430.0000       119.4038       -53.4971      -1.116146      0.9976296
      5430.5000       123.6204        -53.215     -0.8340454              1
      5431.0000       132.2075       -52.9847     -0.6037445              1
      5431.5000       135.6233       -52.8168     -0.4358444              1
      5432.0000       137.7141       -52.9361     -0.5551453              1
      5432.5000       139.1946       -53.2551     -0.8741455              1
      5433.0000       140.0212       -53.5084      -1.127445      0.9973991
      5433.5000       136.3691       -53.8987      -1.517746      0.9894338
      5434.0000       127.1506       -54.1912      -1.810246      0.9834644
      5434.5000        121.184        -54.015      -1.634045      0.9870603
      5435.0000       113.4769       -53.5706      -1.189644      0.9961297
      5435.5000       103.0997       -53.1456     -0.7646446              1
      5436.0000        94.6519       -52.9469     -0.5659447              1
      5436.5000          92.28       -52.9402     -0.5592461              1
      5437.0000        90.5758       -52.8842     -0.5032463              1
      5437.5000          88.25       -52.8298     -0.4488449              1
      5438.0000        84.3295       -53.3761     -0.9951439              1
      5438.5000        83.4661       -54.8923      -2.511345      0.9691562
      5439.0000        85.3586       -55.8354      -3.454445      0.9499093
      5439.5000        90.4453       -56.5667      -4.185745      0.9349848
      5440.0000        94.4032       -57.2178      -4.836845       0.921697
      5440.5000        95.5841       -57.2071      -4.826145      0.9219154
      5441.0000        96.2902       -56.8012      -4.420246      0.9301991
      5441.5000        97.1616       -56.3033      -3.922344      0.9403603
      5442.0000        98.5166       -55.8189      -3.437946       0.950246
      5442.5000       100.5043       -55.3992      -3.018246      0.9588113
      5443.0000       102.8114       -55.1249      -2.743946      0.9644093
      5443.5000       104.7058       -54.9424      -2.561447      0.9681337
      5444.0000       103.2067       -54.9691      -2.588146      0.9675888
      5444.5000        99.5695       -54.8911      -2.510147      0.9691806
      5445.0000         95.179       -54.9196      -2.538647       0.968599
      5445.5000        91.7157       -55.2482      -2.867245       0.961893
      5446.0000        88.0063       -56.2483      -3.867344      0.9414828
      5446.5000        83.9739       -57.4079      -5.026947      0.9178174
