#------------------------------------------------------------------------------
# Created by    : vladimir.rabinovich
# Created on    : 09/19/2023 17:21:24
#------------------------------------------------------------------------------
~Version Information Section
VERS.           2.0     :   CWLS log ASCII Standard - VERSION 2.0
WRAP.           NO      :   One line per depth step
~Well Information Section
#MNEM       .UNIT                                         VALUE :DESCRIPTION
#------------------------------------------------------------------------------
STRT        .FT                                            4234 :START DEPTH
STOP        .FT                                            7516 :STOP DEPTH
STEP        .FT                                             0.5 :STEP      
NULL        .                                           -999.25 :NULL      
COMP        .                          SEAGULL ENERGY E & P INC :COMPANY   
WELL        .                               OCS G11311 ST00BP00 :WELL      
FLD         .                                           WILDCAT :FIELD     
LOC         .                                                   :LOCATION  
CNTY        .                             GALVESTON LARGE BLOCK :LOCATION  
STAT        .                                             TEXAS :STATE     
CTRY        .                                     UNITED STATES :COUNTRY   
SRVC        .                                                   :SERVICE COMPANY
DATE        .                             9/13/2023 11:19:54 AM :LOG DATE  
API         .                                    42706403550000 :API NUMBER
UWI         .                                    42706403550000 :UNIQUE WELL ID
XCOORD      .                                  972569.007613557 :SURFACE X 
YCOORD      .                                  10477919.1442114 :SURFACE Y 
LAT         .                                         28.856272 :LATITUDE  
LON         .                                        -95.086774 :LONGITUDE 
ELEV        .FT                                              94 :ELEVATION VALUE
ELEV_TYPE   .                                                KB :ELEVATION REFERENCE TYPE
~Curve Information Section
#MNEM       .UNIT                                      API CODE :CURVE DESCRIPTION
#------------------------------------------------------------------------------
DEPT        .FT                                                 :DEPTH     
CALI        .IN                                                 :          
DPHI        .%                                                  :          
DRHO        .G/C3                                               :          
DTLN        .US/F                                               :          
GR          .GAPI                                               :          
GR_NORM     .GAPI                                               :GammaRay Normalized
IDPH        .OHMM                                               :          
IMPH        .OHMM                                               :          
NPHI        .%                                                  :          
SFLU        .OHMM                                               :          
SP          .MV                                                 :          
SP_NORM     .MV                                                 :SP Normalized
VSH_GR      .V/V                                                :Volume of Shale from GR
VSH_SP      .V/V                                                :Volume of Shale from SP
~A        DEPTH           CALI           DPHI           DRHO           DTLN             GR        GR_NORM           IDPH           IMPH           NPHI           SFLU             SP        SP_NORM         VSH_GR         VSH_SP
# ...
      5494.0000        10.0209         21.932        -0.0208        106.204        60.0809       63.60339         0.5354         0.6067        40.7562         0.9499       -83.5741      -21.19631       0.651136      0.6971955
      5494.5000        10.0526        22.0206        -0.0209       105.2496        60.2979        63.8042         0.5732         0.6791        36.6037         0.9615       -83.0983      -20.75901      0.6554085      0.7034428
      5495.0000          10.18        21.5431        -0.0169       104.3342        62.1392       65.51531         0.5973         0.7086        36.3478         0.8898       -83.6572      -21.28743      0.6918151      0.6958939
      5495.5000        10.3057        20.9214         -0.013       103.5414        63.8517       67.10666         0.5705         0.6967        36.8353         0.7807       -83.5662      -21.20926      0.7256736      0.6970106
      5496.0000        10.3801        21.2925        -0.0106       103.2271         63.431       66.71451         0.5426         0.6683        36.5139          0.712       -83.1615      -20.83832        0.71733      0.7023098
      5496.5000        10.3422        22.9445         -0.014       103.8855        60.9688       64.42412         0.5108         0.6077        36.3134         0.6933       -84.2852      -21.89388      0.6685982      0.6872303
      5497.0000        10.2714        24.8764        -0.0198       105.3999        56.8696        60.6116         0.4809         0.5365        37.0077         0.6874       -90.1765       -27.3992      0.5874809      0.6085829
      5497.5000        10.1908        26.7858        -0.0251       107.3835        52.3178       56.37825         0.4527         0.4807        36.3373         0.6591       -97.8662      -34.58303      0.4974095      0.5059568
      5498.0000        10.0902        27.5957        -0.0282        108.864        48.9777       53.27156          0.427         0.4351        34.9756         0.6028      -105.1627      -41.39986      0.4313099      0.4085735
      5498.5000        10.0116        27.0342        -0.0269        108.621        50.0119       54.23222         0.4057         0.4085         35.512         0.5427      -107.9814      -44.03742      0.4517494       0.370894
      5499.0000         9.9833        25.4001        -0.0221       107.4636        52.0602       56.13581         0.4016         0.3992        35.8802         0.5646      -107.4219      -43.52199      0.4922513      0.3782573
      5499.5000         9.9594        22.3908         -0.017       105.6113        53.6108       57.57663         0.4136         0.4059        34.5087         0.6955      -103.9607      -40.29832       0.522907      0.4243098
      5500.0000         9.9623        20.4051        -0.0117       102.6296         57.795       61.46623          0.439         0.4555        32.6562         0.9406       -98.1316      -34.86459      0.6056644      0.5019343
      5500.5000        10.0198        19.5155        -0.0066       101.9874        65.1178       68.27419         0.4657         0.4867        34.9382         1.0192       -90.3387        -27.598      0.7505147      0.6057429
      5501.0000        10.1042        19.8391        -0.0017       102.9568        69.1095        71.9848         0.5067          0.535        38.7989         0.8819       -82.4969      -20.28576      0.8294639      0.7102035
      5501.5000        10.1869        20.2274         0.0027       105.0693        72.2213       74.87727         0.5771         0.6055        42.5204          0.797       -74.5571      -12.88205      0.8910058      0.8159708
      5502.0000        10.2633         20.062         0.0065       106.9574        73.0248       75.62341         0.6424         0.7062        41.6555         0.8253        -66.625       -5.48553      0.9068812      0.9216353
      5502.5000        10.3375        19.8383         0.0088       106.3606         74.224       76.73749         0.6979         0.8104        40.5654         0.8883       -59.9621      0.7264038      0.9305848              1
      5503.0000        10.3871        19.5615         0.0091       105.9991        76.8101       79.14114         0.7462         0.8501        42.2915         0.8721       -58.7935       1.810324      0.9817263              1
      5503.5000        10.4281        19.9577         0.0065       106.9298        76.8613       79.18777           0.77         0.8499        44.1029         0.8394       -58.7885       1.808216      0.9827185              1
      5504.0000        10.4539         20.664         0.0024       108.9482        75.1669       77.61131         0.7816         0.8366        44.4995          0.824       -59.0101       1.594618      0.9491768              1
      5504.5000        10.4623        21.1766        -0.0018       109.7947        74.4525       76.94606         0.7861         0.8203         44.908         0.8203       -59.3094       1.308498      0.9350225              1
      5505.0000        10.4467        21.0766        -0.0059       109.7512        73.6975       76.24307         0.7847         0.8038        45.2888         0.8377       -59.6829      0.9531255      0.9200653              1
      5505.5000        10.4258        21.1496        -0.0124       109.5762        72.3757       75.01306         0.7797         0.7872        43.5829         0.8802       -60.2662      0.4019353      0.8938949              1
      5506.0000        10.3947        21.5611        -0.0178        109.707        71.4379        74.1401         0.7718         0.7755        41.6286         0.9509       -60.9637      -0.255835      0.8753213      0.9963452
      5506.5000        10.3546        22.1851         -0.019       110.1605        73.7788       76.31574         0.7645         0.7715        41.5283         0.8991        -60.689   -0.006223551      0.9216115      0.9999111
      5507.0000         10.311        22.9467        -0.0183         111.29        76.4674       78.81472         0.7572         0.7732         42.721         0.8111       -59.6269      0.9782974      0.9747813              1
      5507.5000        10.2628        23.7092        -0.0166       113.2837        77.7207        79.9791         0.7481          0.778           44.4         0.7666       -58.8199       1.724725      0.9995552              1
      5508.0000        10.2405        24.1243        -0.0134       113.6082        77.9552       80.19616          0.736         0.7833        46.5189         0.7743       -58.3686       2.139164              1              1
      5508.5000        10.2337        23.8573        -0.0093       113.4489        78.0612       80.29375         0.7264         0.7838         48.089         0.7821       -58.8999       1.636513              1              1
      5509.0000         10.221        23.2595        -0.0058       112.8502        77.8901       80.13367         0.7086         0.7816        47.6022         0.7698       -59.8284      0.7631363              1              1
      5509.5000        10.1877        22.6149        -0.0055       113.4764        77.2914       79.57602         0.6804         0.7661        46.2502         0.7321       -60.8143     -0.1638097      0.9909791      0.9976599
      5510.0000        10.1522         22.126         -0.006       114.7853        76.3885        78.7355         0.6483         0.7563         46.058         0.6863       -62.1127      -1.382422      0.9730958      0.9802511
      5510.5000        10.1069        21.8632        -0.0063       116.3348        75.9913       78.36521         0.6057         0.7416         46.438         0.6663       -63.4178      -2.607291      0.9652173       0.962753
      5511.0000        10.0639        21.5566        -0.0053       116.9752        76.3073       78.65807         0.5519         0.7019        47.1436         0.6375       -64.7737      -3.879565      0.9714482      0.9445776
      5511.5000        10.0315        21.3371        -0.0045       117.3425        77.0695       79.36581         0.4916         0.6394         47.796         0.6002       -68.2219      -7.104665      0.9865065      0.8985048
