#------------------------------------------------------------------------------
# Created by    : vladimir.rabinovich
# Created on    : 09/19/2023 17:20:38
#------------------------------------------------------------------------------
~Version Information Section
VERS.           2.0     :   CWLS log ASCII Standard - VERSION 2.0
WRAP.           NO      :   One line per depth step
~Well Information Section
#MNEM       .UNIT                                         VALUE :DESCRIPTION
#------------------------------------------------------------------------------
STRT        .FT                                             540 :START DEPTH
STOP        .FT                                            8409 :STOP DEPTH
STEP        .FT                                             0.5 :STEP      
NULL        .                                           -999.25 :NULL      
COMP        .                                      SHELL OIL CO :COMPANY   
WELL        .                                OCS 00706 ST00BP00 :WELL      
FLD         .                                           WILDCAT :FIELD     
LOC         .                                                   :LOCATION  
CNTY        .                             GALVESTON LARGE BLOCK :LOCATION  
STAT        .                                             TEXAS :STATE     
CTRY        .                                     UNITED STATES :COUNTRY   
SRVC        .                                                   :SERVICE COMPANY
DATE        .                             9/13/2023 11:19:25 AM :LOG DATE  
API         .                                    42706000280000 :API NUMBER
UWI         .                                    42706000280000 :UNIQUE WELL ID
XCOORD      .                                  1100625.96198943 :SURFACE X 
YCOORD      .                                  10499283.7203345 :SURFACE Y 
LAT         .                                         28.920625 :LATITUDE  
LON         .                                        -94.687754 :LONGITUDE 
ELEV        .FT                                              78 :ELEVATION VALUE
ELEV_TYPE   .                                                KB :ELEVATION REFERENCE TYPE
~Curve Information Section
#MNEM       .UNIT                                      API CODE :CURVE DESCRIPTION
#------------------------------------------------------------------------------
DEPT        .FT                                                 :DEPTH     
ASN         .OHMM                                               :          
DT          .US/F                                               :          
ILD         .OHMM                                               :          
LAT         .OHMM                                               :          
LN          .OHMM                                               :          
SP          .MV                                                 :          
SP_NORM     .MV                                                 :SP Normalized
VSH_SP      .V/V                                                :Volume of Shale from SP
~A        DEPTH            ASN             DT            ILD            LAT             LN             SP        SP_NORM         VSH_SP
# ...
      2634.5000         0.6719        -999.25        -999.25         1.2973         0.6449       -51.3034      -2.948849      0.9500295
      2635.0000         0.6673        -999.25        -999.25           1.27         0.6472       -51.2646      -2.914848      0.9509013
      2635.5000         0.6628        -999.25        -999.25         1.2371         0.6559       -51.2176      -2.872654      0.9519832
      2636.0000         0.6582        -999.25        -999.25         1.2041         0.6726       -51.1705      -2.830357      0.9530678
      2636.5000          0.662        -999.25        -999.25         1.1711         0.6893       -51.1235      -2.788155      0.9541499
      2637.0000         0.6748        -999.25        -999.25         1.1381         0.7059       -51.0765      -2.745956      0.9552319
      2637.5000         0.6924        -999.25        -999.25         1.1051         0.7226       -51.0295      -2.703758      0.9563139
      2638.0000         0.7308        -999.25        -999.25         1.0721         0.7393       -50.9825      -2.661556       0.957396
      2638.5000         0.7665        -999.25        -999.25         1.0351         0.7559       -50.9355      -2.619362      0.9584779
      2639.0000          0.794        -999.25        -999.25         0.9894         0.7679        -51.044      -2.732658      0.9555728
      2639.5000          0.821        -999.25        -999.25         0.9438          0.778       -52.1611      -3.854561      0.9268062
      2640.0000         0.8398        -999.25        -999.25         0.8981         0.7882        -58.993      -10.69127       0.751506
      2640.5000         0.8586        -999.25        -999.25         0.8525         0.7984       -66.2109      -17.91396      0.5663086
      2641.0000         0.8659        -999.25        -999.25         0.8068         0.8086       -71.7408      -23.44867      0.4243932
      2641.5000           0.87        -999.25        -999.25         0.7612         0.8116       -73.0114      -24.72406      0.3916907
      2642.0000           0.86        -999.25        -999.25         0.7155         0.8021       -72.6632      -24.38067      0.4004957
      2642.5000         0.8458        -999.25        -999.25         0.6765         0.7927       -72.3151      -24.03737      0.4092982
      2643.0000         0.8094        -999.25        -999.25         0.6432         0.7832       -71.9669      -23.69397      0.4181032
      2643.5000         0.7752        -999.25        -999.25         0.6099         0.7738       -71.6188      -23.35067      0.4269059
      2644.0000         0.7616        -999.25        -999.25         0.5766         0.7643        -71.136      -22.87268      0.4391621
      2644.5000          0.748        -999.25        -999.25         0.5456         0.7549       -70.4563      -22.19777      0.4564674
      2645.0000         0.7344        -999.25        -999.25          0.546         0.7454       -69.7766      -21.52288      0.4737723
      2645.5000         0.7266        -999.25        -999.25         0.5463         0.7388       -69.0969      -20.84798      0.4910775
      2646.0000         0.7208        -999.25        -999.25         0.5461         0.7324       -68.4171      -20.17298      0.5083852
      2646.5000          0.715        -999.25        -999.25         0.5403         0.7261       -67.7374      -19.49808      0.5256903
      2647.0000         0.7092        -999.25        -999.25         0.5345         0.7197       -67.1644      -18.92988      0.5402595
      2647.5000         0.7039        -999.25        -999.25         0.5286         0.7133       -66.8158      -18.58609      0.5490747
      2648.0000         0.6986        -999.25        -999.25         0.5228          0.707         -68.46      -20.23508      0.5067928
      2648.5000         0.6933        -999.25        -999.25          0.517         0.7082       -70.1035      -21.88338      0.4645286
      2649.0000          0.688        -999.25        -999.25         0.5112         0.7094       -71.4122      -23.19689       0.430849
      2649.5000         0.6827        -999.25        -999.25         0.5101          0.701       -72.6957      -24.48519      0.3978157
      2650.0000         0.6774        -999.25        -999.25         0.5112         0.6927       -73.8762      -25.67049      0.3674234
      2650.5000         0.6765        -999.25        -999.25         0.5123         0.6843       -74.6111      -26.41019      0.3484567
      2651.0000          0.677        -999.25        -999.25         0.5133          0.676       -75.3456      -27.14949      0.3295003
      2651.5000         0.6775        -999.25        -999.25         0.5144         0.6692         -75.25      -27.05869      0.3318284
      2652.0000         0.6781        -999.25        -999.25         0.5348         0.6643       -74.6096      -26.42309      0.3481259
      2652.5000           0.68        -999.25        -999.25         0.5624         0.6593       -73.9696      -25.78789      0.3644131
      2653.0000         0.6846        -999.25        -999.25         0.5899         0.6544       -73.3296      -25.15269      0.3807001
      2653.5000         0.6892        -999.25        -999.25         0.6174         0.6495       -72.6892       -24.5171      0.3969975
      2654.0000         0.6938        -999.25        -999.25         0.6449         0.6445       -71.6058       -23.4385      0.4246539
      2654.5000         0.6948        -999.25        -999.25         0.6725         0.6396       -69.6533       -21.4908       0.474595
      2655.0000         0.6909        -999.25        -999.25         0.6984         0.6347       -67.6401       -19.4824      0.5260924
      2655.5000          0.687        -999.25        -999.25         0.7202         0.6297       -65.4963       -17.3434      0.5809384
      2656.0000         0.6832        -999.25        -999.25          0.742         0.6248       -63.7583       -15.6102      0.6253794
      2656.5000         0.6793        -999.25        -999.25         0.7637         0.6218       -62.4186       -14.2753      0.6596076
      2657.0000         0.6754        -999.25        -999.25         0.7855         0.6199        -62.728       -14.5895      0.6515512
      2657.5000         0.6711        -999.25        -999.25         0.8073         0.6179       -63.1939      -15.06021      0.6394818
      2658.0000         0.6666        -999.25        -999.25         0.8291          0.616       -63.6601      -15.53121      0.6274049
      2658.5000         0.6621        -999.25        -999.25         0.8509         0.6141       -64.1346      -16.01051      0.6151152
      2659.0000         0.6576        -999.25        -999.25         0.8628         0.6122       -64.6118      -16.49251      0.6027561
      2659.5000         0.6531        -999.25        -999.25          0.862         0.6103        -65.089      -16.97451      0.5903973
      2660.0000          0.649        -999.25        -999.25         0.8613         0.6084       -65.0844      -16.97471      0.5903921
      2660.5000         0.6515        -999.25        -999.25         0.8605         0.6065       -64.7961      -16.69121      0.5976613
      2661.0000          0.654        -999.25        -999.25         0.8598         0.6046       -64.5079      -16.40781       0.604928
      2661.5000         0.6566        -999.25        -999.25          0.859         0.6027       -64.2198      -16.12452      0.6121918
      2662.0000         0.6591        -999.25        -999.25         0.8583         0.6007       -63.9316      -15.84112      0.6194585
      2662.5000         0.6616        -999.25        -999.25         0.8533         0.5988       -63.6434      -15.55772      0.6267252
      2663.0000         0.6683        -999.25        -999.25         0.8478         0.5969       -62.9028      -14.82192      0.6455917
      2663.5000         0.6754        -999.25        -999.25         0.8423         0.5992       -62.0466      -13.97052      0.6674226
