#------------------------------------------------------------------------------
# Created by    : vladimir.rabinovich
# Created on    : 09/19/2023 17:20:24
#------------------------------------------------------------------------------
~Version Information Section
VERS.           2.0     :   CWLS log ASCII Standard - VERSION 2.0
WRAP.           NO      :   One line per depth step
~Well Information Section
#MNEM       .UNIT                                         VALUE :DESCRIPTION
#------------------------------------------------------------------------------
STRT        .FT                                            2124 :START DEPTH
STOP        .FT                                            8264 :STOP DEPTH
STEP        .FT                                             0.5 :STEP      
NULL        .                                           -999.25 :NULL      
COMP        .                               SUPERIOR OIL CO THE :COMPANY   
WELL        .                                     ST TR 00009-L :WELL      
FLD         .                                           WILDCAT :FIELD     
LOC         .                                                   :LOCATION  
CNTY        .                           HIGH ISLAND LARGE BLOCK :LOCATION  
STAT        .                                             TEXAS :STATE     
CTRY        .                                     UNITED STATES :COUNTRY   
SRVC        .                                                   :SERVICE COMPANY
DATE        .                             9/13/2023 11:19:15 AM :LOG DATE  
API         .                                    42708300270000 :API NUMBER
UWI         .                                    42708300270000 :UNIQUE WELL ID
XCOORD      .                                  1318170.30554107 :SURFACE X 
YCOORD      .                                  10738395.6931535 :SURFACE Y 
LAT         .                                        29.5851559 :LATITUDE  
LON         .                                       -94.0141459 :LONGITUDE 
ELEV        .FT                                              72 :ELEVATION VALUE
ELEV_TYPE   .                                                KB :ELEVATION REFERENCE TYPE
~Curve Information Section
#MNEM       .UNIT                                      API CODE :CURVE DESCRIPTION
#------------------------------------------------------------------------------
DEPT        .FT                                                 :DEPTH     
ASN         .OHMM                                               :          
CILD        .MMHO                                               :          
ILD         .OHMM                                               :          
SN          .OHMM                                               :          
SP          .MV                                                 :          
SP_NORM     .MV                                                 :SP Normalized
VSH_SP      .V/V                                                :Volume of Shale from SP
~A        DEPTH            ASN           CILD            ILD             SN             SP        SP_NORM         VSH_SP
      2124.0000        -999.25        -999.25         0.4522         0.1187      -132.9431      0.9499496              1
      2124.5000        -999.25        -999.25         0.5367         0.1518      -129.7439       1.030284              1
      2125.0000        -999.25        -999.25         0.7203         0.2505      -125.3739    -0.05311017              1
      2125.5000        -999.25        -999.25         1.0912         0.4306      -120.5183      0.4460781              1
      2126.0000        -999.25       2927.832         7.6542         0.6784      -116.5106       1.929756              1
      2126.5000         0.9344       3882.426         2.4034          0.941      -114.5149       1.470836              1
      2127.0000         1.0162       4158.695         0.3826         1.0353      -113.2502     -0.5070376              1
      2127.5000         1.0392       4486.648         0.3191         1.0583      -112.7684       2.654822              1
      2128.0000         1.0563        4585.93         0.3285         1.0764      -112.6953       3.395004              1
      2128.5000         1.0715       3979.164         0.3464         1.0908      -112.9817      -47.27273     0.05565861
      2129.0000         1.0869       3703.547         0.3716         1.1056      -113.5406      -49.29818     0.01432286
      2129.5000         1.1043       3424.391         0.3913         1.1148      -114.0707      -49.82828    0.003504539
      2130.0000          1.119       3361.848         0.4007         1.1155      -114.5457      -50.30328              0
      2130.5000         1.1134       3348.078         0.4025          1.119      -115.1101      -50.86768              0
      2131.0000         1.1062       3339.992         0.4065         1.1171       -115.202      -50.95958              0
      2131.5000         1.1069       3331.758         0.4111          1.116      -114.7621      -50.51968              0
      2132.0000         1.1115       3314.434         0.4114         1.1144      -113.9998      -49.75738    0.004951477
      2132.5000         1.1193       3263.332         0.4117          1.115       -113.075      -48.83257     0.02382504
      2133.0000         1.1328       3176.813          0.412         1.1251       -112.016      -47.77357     0.04543725
      2133.5000         1.1514        3123.32         0.4171         1.1418      -112.1176      -47.87518     0.04336376
      2134.0000         1.1688       3098.117         0.4232         1.1575      -112.4138      -48.17138      0.0373188
      2134.5000         1.1838       3097.832         0.4294         1.1684      -112.2092      -47.96677     0.04149441
      2135.0000         1.1824       3106.625         0.4331         1.1761      -112.2279      -47.98547     0.04111278
      2135.5000         1.1685        3115.93         0.4366         1.1811      -112.4254      -48.18298     0.03708213
      2136.0000          1.156       3118.586         0.4377         1.1762      -112.6241      -48.38168     0.03302703
      2136.5000         1.1523       3111.789          0.438         1.1689      -112.6108      -48.36838     0.03329841
      2137.0000         1.1503       3097.688         0.4423         1.1621      -112.5242      -48.28178     0.03506579
      2137.5000         1.1475       3075.422         0.4465         1.1594      -112.6266      -48.38418     0.03297596
      2138.0000         1.1458       3044.309         0.4468         1.1597      -112.8323      -48.58987     0.02877808
      2138.5000         1.1495        3008.66         0.4489           1.16      -112.6758      -48.43337     0.03197199
      2139.0000         1.1583       2988.445         0.4508         1.1662      -112.2422      -47.99978     0.04082084
      2139.5000         1.1723       2964.234         0.4479         1.1754      -111.6699      -47.42747     0.05250051
      2140.0000         1.1857       2945.352         0.4457         1.1907      -111.0005      -46.75808     0.06616164
      2140.5000         1.2018       2935.055         0.4434         1.2036      -110.5692      -46.32677     0.07496379
      2141.0000         1.2237        2942.02         0.4409         1.2114      -110.0458      -45.80338      0.0856454
      2141.5000         1.2318       2966.785         0.4365         1.2112      -109.9342      -45.69177     0.08792301
      2142.0000         1.2212       3007.703         0.4326         1.1991      -110.3042      -46.06178     0.08037193
      2142.5000         1.2007       3051.164         0.4304         1.1776      -110.8719      -46.62948     0.06878615
      2143.0000         1.1842        3087.57         0.4299         1.1583      -111.4729      -47.23048     0.05652089
      2143.5000         1.1667       3118.496         0.4308          1.146      -112.0237      -47.78127     0.04528014
      2144.0000         1.1489       3141.469         0.4341         1.1436      -112.4969      -48.25448     0.03562289
      2144.5000         1.1533       3116.805         0.4399         1.1572      -112.3453      -48.10287     0.03871684
      2145.0000         1.1703       3041.941         0.4548         1.1851      -111.8065      -47.56408     0.04971267
      2145.5000         1.2204       2919.609         0.4775         1.2443      -111.1073      -46.86488     0.06398213
      2146.0000          1.291       2739.039         0.4995         1.3146      -110.3386      -46.09618     0.07966988
      2146.5000         1.3895       2558.418         0.5254         1.4003      -109.6033      -45.36088     0.09467596
      2147.0000         1.4881       2377.797         0.5556         1.4935      -109.0662      -44.82378      0.1056372
      2147.5000         1.5866       2177.488         0.5836         1.5868      -108.9354      -44.69298      0.1083066
      2148.0000         1.6852       2072.023         0.6053         1.6652      -109.2839      -45.04147      0.1011944
      2148.5000         1.7681       2001.527         0.6112         1.7153      -109.9611      -45.71867     0.08737401
      2149.0000         1.8026       1979.137         0.5942         1.7318      -110.8022      -46.55978     0.07020865
      2149.5000         1.7923       2051.391          0.563         1.7186      -111.7339      -47.49148     0.05119433
      2150.0000         1.7364        2248.41         0.5296         1.6462      -112.5918      -48.34937     0.03368627
      2150.5000         1.6476       2454.648         0.5015         1.5153      -113.2505      -49.00808     0.02024327
      2151.0000         1.5008       2660.988         0.4782         1.3864      -113.7479      -49.50548     0.01009229
      2151.5000         1.3539       2867.328         0.4607         1.2574       -113.993      -49.75057    0.005090363
      2152.0000         1.2071       3073.566         0.4483         1.1527      -114.0682      -49.82578    0.003555609
      2152.5000         1.1198       3283.492         0.4379         1.1003        -113.87      -49.62758    0.007600434
      2153.0000         1.0694       3433.188         0.4308         1.0657      -113.4756      -49.23318     0.01564945
      2153.5000         1.0437         3476.5         0.4258         1.0534      -113.0956      -48.85317     0.02340465
      2154.0000         1.0331        3491.32         0.4263         1.0478      -112.7234      -48.48097     0.03100057
      2154.5000         1.0283       3466.668         0.4259         1.0378      -112.3779      -48.13548     0.03805153
      2155.0000         1.0229       3441.102         0.4232         1.0155      -112.0476      -47.80518     0.04479233
      2155.5000         1.0111       3423.563         0.4208         0.9878      -111.7606      -47.51817     0.05064953
      2156.0000         0.9844       3419.777         0.4204         0.9553      -111.7614      -47.51897     0.05063318
      2156.5000         0.9456       3425.008         0.4203         0.9187      -112.2789      -48.03648     0.04007192
      2157.0000         0.9076       3436.422         0.4184         0.8883      -112.9706      -48.72817     0.02595567
