#------------------------------------------------------------------------------
# Created by    : vladimir.rabinovich
# Created on    : 09/19/2023 17:22:41
#------------------------------------------------------------------------------
~Version Information Section
VERS.           2.0     :   CWLS log ASCII Standard - VERSION 2.0
WRAP.           NO      :   One line per depth step
~Well Information Section
#MNEM       .UNIT                                         VALUE :DESCRIPTION
#------------------------------------------------------------------------------
STRT        .FT                                            2948 :START DEPTH
STOP        .FT                                            8770 :STOP DEPTH
STEP        .FT                                             0.5 :STEP      
NULL        .                                           -999.25 :NULL      
COMP        .                 BROOKLYN UNION EXPLORATION CO INC :COMPANY   
WELL        .                               OCS G07238 ST00BP00 :WELL      
FLD         .                                           WILDCAT :FIELD     
LOC         .                                                   :LOCATION  
CNTY        .                             GALVESTON LARGE BLOCK :LOCATION  
STAT        .                                             TEXAS :STATE     
CTRY        .                                     UNITED STATES :COUNTRY   
SRVC        .                                                   :SERVICE COMPANY
DATE        .                             9/13/2023 11:19:34 AM :LOG DATE  
API         .                                    42706402470000 :API NUMBER
UWI         .                                    42706402470000 :UNIQUE WELL ID
XCOORD      .                                  1057740.92261072 :SURFACE X 
YCOORD      .                                   10547901.298013 :SURFACE Y 
LAT         .                                         29.052568 :LATITUDE  
LON         .                                        -94.824133 :LONGITUDE 
ELEV        .FT                                              85 :ELEVATION VALUE
ELEV_TYPE   .                                                KB :ELEVATION REFERENCE TYPE
~Curve Information Section
#MNEM       .UNIT                                      API CODE :CURVE DESCRIPTION
#------------------------------------------------------------------------------
DEPT        .FT                                                 :DEPTH     
DCAL        .IN                                                 :          
DT          .US/F                                               :          
GR          .GAPI                                               :          
GR_NORM     .GAPI                                               :GammaRay Normalized
ILD         .OHMM                                               :          
ILM         .OHMM                                               :          
SFL         .OHMM                                               :          
SP          .MV                                                 :          
SP_NORM     .MV                                                 :SP Normalized
VSH_GR      .V/V                                                :Volume of Shale from GR
VSH_SP      .V/V                                                :Volume of Shale from SP
~A        DEPTH           DCAL             DT             GR        GR_NORM            ILD            ILM            SFL             SP        SP_NORM         VSH_GR         VSH_SP
# ...
      4163.0000         2.9785       127.6479        59.7311       74.77979         0.3962         0.4748         0.6397       -62.2681      -15.10622      0.8889316      0.7482297
      4163.5000         2.9113       124.3064        58.5053       73.10117         0.4405         0.5184         0.7388        -60.725      -13.56177      0.8532165      0.7739705
      4164.0000         2.9018       121.4156        56.5447       70.41732         0.4865         0.5418         0.7991       -64.9891      -17.82453      0.7961132      0.7029245
      4164.5000         2.9228       119.3757        55.4084       68.86114         0.5137         0.5567         0.8247       -67.4922       -20.3263      0.7630029      0.6612284
      4165.0000         2.9595       118.1588        54.5649       67.70557          0.535         0.5701         0.8183       -69.4781      -22.31086      0.7384163      0.6281523
      4165.5000         2.9684        117.283        53.7023       66.52386         0.5495          0.583         0.8049       -70.1162      -22.94762      0.7132736      0.6175396
      4166.0000         2.9745       118.2361        52.9707       65.52137         0.5616         0.6033         0.8107       -69.9246      -22.75468      0.6919441      0.6207554
      4166.5000         2.9862        121.448        54.2027       67.20527         0.5727          0.617          0.866       -69.2954      -22.12414      0.7277717      0.6312643
      4167.0000         3.0212       118.5374        56.0803       69.77242         0.5801         0.6251         0.9052       -68.9807      -21.80809      0.7823918      0.6365318
      4167.5000         3.0562        115.593        57.9022       72.26334         0.5842          0.633         0.9047       -69.1735      -21.99956      0.8353902      0.6333407
      4168.0000         3.0942       113.6023        56.1125       69.81328         0.5866         0.6372         0.8842       -69.6338      -22.45852      0.7832612      0.6256914
      4168.5000         3.1195       114.3705         53.093       65.68073          0.587         0.6291         0.8357       -69.6583      -22.48168      0.6953347      0.6253053
      4169.0000         3.1083       116.1868         51.447       63.42726         0.5874         0.6185         0.7863        -68.527      -21.34904      0.6473885      0.6441826
      4169.5000         3.1087        118.012        49.9311       61.35177         0.5861         0.6176          0.743       -67.0859       -19.9066      0.6032292      0.6682233
      4170.0000          3.109       121.1604        47.7773       58.40359         0.5842          0.618         0.7151       -66.0592      -18.87856      0.5405018      0.6853573
      4170.5000         3.1022       117.6733        49.9695       61.40112         0.5824         0.6184          0.745       -65.7443      -18.56232       0.604279       0.690628
      4171.0000         3.0945       114.9357        53.5884       66.35052          0.584         0.6236         0.8012       -65.6655      -18.48218      0.7095856      0.6919637
      4171.5000         3.1068       113.4753        57.4302       71.60487         0.5859         0.6299         0.8684       -64.9172      -17.73254      0.8213803      0.7044576
      4172.0000         3.1206       114.7302        59.4583       74.37792         0.5862         0.6323          0.922       -63.0521       -15.8661      0.8803813      0.7355649
      4172.5000         3.1396       119.2021        60.8758       76.31561         0.5857         0.6323          0.789       -60.5924      -13.40506      0.9216086      0.7765823
      4173.0000         3.1602       122.8075        62.7534       78.88275         0.5774         0.6156         0.6906       -58.9465      -11.75782      0.9762288      0.8040363
      4173.5000         3.1696       125.6398        64.4823       81.24646         0.5655         0.5973         0.6253        -57.664      -10.47399              1      0.8254336
      4174.0000         3.1943       126.7825        65.6527       82.84607         0.5486           0.58         0.6212       -56.7772      -9.585842              1      0.8402359
      4174.5000          3.239        126.731        67.1439       84.88459         0.5298         0.5637         0.6217       -56.1502      -8.957504              1      0.8507082
      4175.0000         3.2552       126.8195        68.6908       86.99931         0.5101         0.5499         0.5832       -55.5591      -8.365067              1      0.8605822
      4175.5000         3.2556       127.7108        70.3553       89.27491         0.4901         0.5435         0.5407       -55.0715      -7.876125              1      0.8687313
      4176.0000         3.2501       128.5444        69.6494       88.30756         0.4703         0.5421         0.5107       -54.9638      -7.767086              1      0.8705485
      4176.5000         3.2212       129.0623        66.2955       83.71754         0.4517         0.5472         0.5915       -55.2842      -8.086147              1      0.8652309
      4177.0000         3.1923        129.761        62.7682       78.89027          0.439         0.5442         0.7173       -56.3419      -9.142509      0.9763886      0.8476248
      4177.5000         3.1674       128.3052        60.9811       76.44374         0.4278         0.5315         0.8199       -58.2591      -11.05837      0.9243349      0.8156939
      4178.0000         3.1469       126.9639        59.2286       74.04458         0.4215         0.5078         0.8842       -62.5889      -15.38683      0.8732889      0.7435529
      4178.5000         3.1303       125.7892        57.7015       71.95377         0.4153         0.4864          0.888       -67.7435      -20.54009      0.8288037      0.6576652
      4179.0000         3.1306       125.0629        57.4362       71.58922         0.4092         0.4728         0.8274       -70.8522      -23.64745      0.8210472      0.6058758
      4179.5000         3.1173       125.5042        58.6824       73.29255         0.4037         0.4625         0.7653       -72.2341      -25.02801      0.8572883      0.5828665
      4180.0000         3.0525        126.097        60.1122       75.24705         0.4017         0.4618         0.6371       -72.3694      -25.16197      0.8988733      0.5806338
      4180.5000         3.0124       127.0529        60.6702       76.00886         0.4005          0.474         0.5715       -71.3229      -24.11413      0.9150821      0.5980978
      4181.0000          2.997       128.2068         59.241       74.05197          0.401         0.4802         0.5318       -70.0112      -22.80109      0.8734462      0.6199818
      4181.5000         2.9961       129.3967        57.1503       71.19012         0.4092         0.4829         0.6196       -68.8323      -21.62085      0.8125557      0.6396525
      4182.0000         3.0107       128.3401        54.7055       67.84383         0.4366         0.4895         0.7164       -68.7988      -21.58601      0.7413582      0.6402332
      4182.5000         3.0305       125.8801        53.3766       66.02416         0.4862         0.5259         0.7645       -72.6803      -25.46617      0.7026417      0.5755638
      4183.0000         3.0639       121.7045        52.2254       64.44762         0.5344         0.5711         0.7372       -74.8007      -27.58523      0.6690982      0.5402461
      4183.5000         3.0812       115.6539        50.6581       62.30181         0.5701         0.6281         0.7278        -76.306       -29.0892      0.6234428      0.5151801
      4184.0000         3.0666       102.4923        46.4422       56.53248         0.5956         0.6929         0.9283        -77.256      -30.03785      0.5006911      0.4993691
      4184.5000         3.0384        92.5226        43.8289       52.95564          0.606         0.7583         1.3256       -78.5248      -31.30532      0.4245881      0.4782447
      4185.0000         3.0298        85.3218        40.5815       48.51131         0.5953         0.7961         1.6768       -81.5951      -34.37428       0.330028      0.4270954
