#------------------------------------------------------------------------------
# Created by    : vladimir.rabinovich
# Created on    : 09/19/2023 17:21:51
#------------------------------------------------------------------------------
~Version Information Section
VERS.           2.0     :   CWLS log ASCII Standard - VERSION 2.0
WRAP.           NO      :   One line per depth step
~Well Information Section
#MNEM       .UNIT                                         VALUE :DESCRIPTION
#------------------------------------------------------------------------------
STRT        .FT                                             692 :START DEPTH
STOP        .FT                                            6716 :STOP DEPTH
STEP        .FT                                             0.5 :STEP      
NULL        .                                           -999.25 :NULL      
COMP        .                                  FMP OPERATING CO :COMPANY   
WELL        .                                          SL 89457 :WELL      
FLD         .                                           WILDCAT :FIELD     
LOC         .                                                   :LOCATION  
CNTY        .                      MATAGORDA ISLAND LARGE BLOCK :LOCATION  
STAT        .                                             TEXAS :STATE     
CTRY        .                                     UNITED STATES :COUNTRY   
SRVC        .                                                   :SERVICE COMPANY
DATE        .                             9/13/2023 11:12:01 AM :LOG DATE  
API         .                                    42703303600000 :API NUMBER
UWI         .                                    42703303600000 :UNIQUE WELL ID
XCOORD      .                                  499223.886875127 :SURFACE X 
YCOORD      .                                  10221285.9321665 :SURFACE Y 
LAT         .                                        28.1205561 :LATITUDE  
LON         .                                       -96.5403272 :LONGITUDE 
ELEV        .FT                                              81 :ELEVATION VALUE
ELEV_TYPE   .                                                KB :ELEVATION REFERENCE TYPE
~Curve Information Section
#MNEM       .UNIT                                      API CODE :CURVE DESCRIPTION
#------------------------------------------------------------------------------
DEPT        .FT                                                 :DEPTH     
CALI        .IN                                                 :          
CILD        .MMHO                                               :          
DT          .US/F                                               :          
DTL         .US/F                                               :          
GR          .GAPI                                               :          
GR_NORM     .GAPI                                               :GammaRay Normalized
ILD         .OHMM                                               :          
ILM         .OHMM                                               :          
SFLU        .OHMM                                               :          
SP          .MV                                                 :          
SP_NORM     .MV                                                 :SP Normalized
TENS        .LBS                                                :          
VSH_GR      .V/V                                                :Volume of Shale from GR
VSH_SP      .V/V                                                :Volume of Shale from SP
~A        DEPTH           CALI           CILD             DT            DTL             GR        GR_NORM            ILD            ILM           SFLU             SP        SP_NORM           TENS         VSH_GR         VSH_SP
# ...
      3212.0000        -999.25       2130.346       123.7569       121.7659         45.586       45.51347         0.4539         0.5263         0.6066       -34.3909       -23.0701       1657.029      0.2662441      0.1637458
      3212.5000        -999.25       2377.297       121.5678       119.5767        44.3937       43.42968         0.4247         0.5082         0.6206       -35.6823       -24.3615       1657.042      0.2219082      0.1099375
      3213.0000        -999.25       2480.862       118.5822       117.7063        43.2012       41.34555         0.4051         0.4867         0.6408       -36.5767       -25.2559       1657.055      0.1775649     0.07267085
      3213.5000        -999.25       2584.449       117.5876       116.5186        42.1081       39.43471         0.3923         0.4691         0.6615       -37.0741       -25.7533       1657.068      0.1369088     0.05194585
      3214.0000        -999.25       2656.182        116.593       115.5289        39.3273       34.57864         0.3781         0.4605         0.6675       -37.1745       -25.8537       1657.081     0.03358817     0.04776247
      3214.5000        -999.25       2696.059       115.9965       115.1335        36.1495       29.02973         0.3677         0.4458         0.6705       -37.2749       -25.9541       1657.094              0     0.04357918
      3215.0000        -999.25       2743.902       115.9974       115.5307        36.1481       29.02432         0.3627         0.4397         0.6673       -37.5739       -26.2531       1657.109              0     0.03112086
      3215.5000        -999.25       2771.885       117.1931       116.5222        37.6356       31.61719         0.3593         0.4311         0.6491       -37.7736       -26.4528       1657.122              0     0.02279997
      3216.0000        -999.25       2787.837       118.3888       117.9906        38.9247       33.86398         0.3593         0.4296         0.6402       -38.3704       -27.0496       1657.135     0.01838262              0
      3216.5000        -999.25       2819.754       118.5891       118.1908        39.3204       34.55159          0.351         0.4295         0.6086        -38.173       -26.8522       1647.184     0.03301263    0.006158352
      3217.0000        -999.25       2867.604       118.3909       117.5944        38.5248       33.15996         0.3462          0.426         0.6057       -38.0748        -26.754       1657.161     0.00340344     0.01025001
      3217.5000        -999.25        2919.42       117.9936       116.7987        37.9277       32.11493         0.3367         0.4235         0.6084        -38.076       -26.7552       1657.174              0     0.01020002
      3218.0000        -999.25       3007.104       117.3971       116.0031         37.827       31.93622         0.3305         0.4138         0.6281       -38.5735       -27.2527       1657.187              0              0
      3218.5000        -999.25       3094.778       116.8006       115.6057        37.8269        31.9329         0.3171         0.3974         0.5999       -38.9718        -27.651         1657.2              0              0
      3219.0000        -999.25       3198.413       116.4032       115.4074        37.2283       30.88524         0.3014         0.3844         0.5755       -39.4694       -28.1486       1657.213              0              0
      3219.5000        -999.25       3238.308       116.6033       115.4083        36.4323       29.49308         0.2994         0.3774         0.5471       -39.3713       -28.0505       1657.226              0              0
      3220.0000        -999.25       3262.269       117.4009       115.8076        36.3325       29.31577         0.2986         0.3738          0.542       -39.0746       -27.7538       1657.239              0              0
      3220.5000        -999.25       3198.603       117.9998        116.406        40.1037       35.89437         0.3055         0.3704          0.552       -36.9907       -25.6699       1657.252     0.06158228      0.0554208
      3221.0000        -999.25       3047.296       118.3986       117.0044        45.0126       44.45848          0.314         0.4014         0.5751       -35.1054       -23.7846       1657.265      0.2437975       0.133975
      3221.5000        -999.25       2832.247       118.7979       118.0012        47.8727       49.44684         0.3425         0.4191         0.5965       -32.8228        -21.502       1657.278      0.3499328      0.2290833
      3222.0000        -999.25       2569.397       119.3964       118.7989        51.0212       54.93869         0.3736          0.455         0.6331       -31.6323       -20.3115       1657.291      0.4667806      0.2786875
      3222.5000        -999.25       2338.394        119.995       119.1982        50.9209       54.76068         0.4076         0.4941         0.6749       -28.5552       -17.2344       1667.259      0.4629933         0.4069
      3223.0000        -999.25       2107.384       120.1952       119.1992         50.026       53.19573         0.4719         0.5196         0.7065       -26.0738        -14.753        1658.48      0.4296964      0.5102916
      3223.5000        -999.25       1924.169       119.2002       118.6026        47.9396       49.55156         0.5124         0.5891         0.7261       -24.5852       -13.2644        1667.29      0.3521608      0.5723167
      3224.0000        -999.25       1701.122       116.8108       114.2215        45.2576       44.86791          0.596         0.6679          0.731       -24.0895       -12.7687       1667.303      0.2525088      0.5929708
      3224.5000        -999.25       1470.083        110.995        110.791        47.0434       47.98155         0.7127         0.7427         0.7393       -22.4351       -11.1143       1647.399      0.3187564      0.6619042
      3225.0000        -999.25       1334.642       107.2509       103.2598        47.5387       48.84282         0.7846         0.8389         0.7633       -20.7807        -9.4599       1647.409      0.3370813      0.7308375
      3225.5000        -999.25       1151.398       100.6779        95.7683        46.6437       47.27789         0.9425         0.9476         0.8138       -19.1264        -7.8056       1647.422       0.303785      0.7997667
      3226.0000        -999.25       960.1789        95.6983        94.7774        44.8549       44.15308         1.0764         1.0703         0.9598       -16.7446        -5.4238       1647.435      0.2372996      0.8990083
      3226.5000        -999.25       848.6378        93.7065        91.9137        42.6688       40.33472         1.3048         1.2089         1.1635       -15.4108          -4.09       1647.448      0.1560578      0.9545833
      3227.0000        -999.25       729.1236        92.9101         91.914        42.5681       40.15601         1.5602         1.3655          1.281        -15.256        -3.9352       1647.462      0.1522554      0.9610333
      3227.5000        -999.25       601.6383        92.3129        91.7152        43.2619       41.36387         1.7179         1.5423         1.3288       -15.1574        -3.8366       1647.475      0.1779547      0.9651417
      3228.0000        -999.25       521.9574        91.9149         91.118        44.2537       43.09164         1.9711         1.7575         1.3521       -15.2574        -3.9366       1647.488      0.2147157       0.960975
      3228.5000        -999.25       506.0293        91.5169        90.3215        44.1531        42.9131         1.9799         1.9085         1.3842       -15.7547        -4.4339       1667.421       0.210917      0.9402542
      3229.0000        -999.25       521.9782        90.9196        89.9234        43.3572       41.52112         1.9258         1.9525         1.5242       -16.4506        -5.1298       1667.436      0.1813005      0.9112583
      3229.5000        -999.25       577.7951          90.92        90.3223          42.76       40.47573         1.7091         1.8993         1.8476       -19.1331        -7.8123        1667.45      0.1590581      0.7994875
