#------------------------------------------------------------------------------
# Created by    : vladimir.rabinovich
# Created on    : 09/19/2023 17:20:25
#------------------------------------------------------------------------------
~Version Information Section
VERS.           2.0     :   CWLS log ASCII Standard - VERSION 2.0
WRAP.           NO      :   One line per depth step
~Well Information Section
#MNEM       .UNIT                                         VALUE :DESCRIPTION
#------------------------------------------------------------------------------
STRT        .FT                                            2998 :START DEPTH
STOP        .FT                                           12526 :STOP DEPTH
STEP        .FT                                             0.5 :STEP      
NULL        .                                           -999.25 :NULL      
COMP        .                                 CALIFORNIA CO THE :COMPANY   
WELL        .                               OCS G01117 ST00BP00 :WELL      
FLD         .                                       HIGH ISLAND :FIELD     
LOC         .                                                   :LOCATION  
CNTY        .                           HIGH ISLAND LARGE BLOCK :LOCATION  
STAT        .                                             TEXAS :STATE     
CTRY        .                                     UNITED STATES :COUNTRY   
SRVC        .                                                   :SERVICE COMPANY
DATE        .                             9/13/2023 11:19:15 AM :LOG DATE  
API         .                                    42708000660000 :API NUMBER
UWI         .                                    42708000660000 :UNIQUE WELL ID
XCOORD      .                                  1214371.69372255 :SURFACE X 
YCOORD      .                                  10618355.5582238 :SURFACE Y 
LAT         .                                         29.252113 :LATITUDE  
LON         .                                        -94.336419 :LONGITUDE 
ELEV        .FT                                              77 :ELEVATION VALUE
ELEV_TYPE   .                                                KB :ELEVATION REFERENCE TYPE
~Curve Information Section
#MNEM       .UNIT                                      API CODE :CURVE DESCRIPTION
#------------------------------------------------------------------------------
DEPT        .FT                                                 :DEPTH     
ASN         .OHMM                                               :          
CILD        .OHMM                                               :          
ILD         .OHMM                                               :          
SP          .MV                                                 :          
SP_NORM     .MV                                                 :SP Normalized
VSH_SP      .V/V                                                :Volume of Shale from SP
~A        DEPTH            ASN           CILD            ILD             SP        SP_NORM         VSH_SP
      2998.0000         0.9397       1266.615         0.3179       -79.2659      -10.17499      0.8235579
      2998.5000         1.0141       1246.211          0.434       -77.5433      -8.452385      0.8566849
      2999.0000         1.4886       1225.793           0.55       -75.8478      -6.756889      0.8892906
      2999.5000         3.7306       1193.195         0.6661       -74.1653      -5.074387      0.9216464
      3000.0000         4.7464        1153.09         0.7853       -72.4833      -3.392387      0.9539925
      3000.5000         5.5422       1112.959         0.9053       -70.8014      -1.710487      0.9863368
      3001.0000         5.9289       1074.703         1.0138       -69.4799     -0.7707367              1
      3001.5000         6.0941       1049.029         0.9455        -68.292      -1.262627      0.9949495
      3002.0000         5.9365       1023.356         0.8773       -67.0925      -1.742912      0.9857132
      3002.5000         5.7089       997.6689          0.809       -65.7642      -2.094398      0.9789539
      3003.0000         5.3728       1366.393         0.7408       -64.4359      -2.445885      0.9721946
      3003.5000         4.3935       1484.713         0.6889       -62.2858      -1.975574       0.981239
      3004.0000          3.307       1602.984          0.644       -59.9643      -1.333858      0.9935796
      3004.5000         2.1104       1695.832         0.6288       -57.6429     -0.6922455              1
      3005.0000         1.6417       1683.707         0.6221       -55.3362    -0.06533432              1
      3005.5000         1.4235       1671.588          0.625       -53.5656     0.02547836              1
      3006.0000         1.3595        1643.65         0.6412        -51.883     0.02829361              1
      3006.5000         1.2954       1610.797         0.6573       -50.6699     -0.4383926              1
      3007.0000         1.2313       1577.943         0.6735       -50.5395     -0.8471718              1
      3007.5000         1.1673       1545.078         0.6896       -50.8107      -1.125179      0.9975927
      3008.0000         1.1032       1512.225         0.7057       -50.9438      -1.265091      0.9949021
      3008.5000         1.0621       1479.371         0.7219       -51.0728      -1.400902      0.9922904
      3009.0000         1.0737       1443.367          0.738       -51.2018      -1.536713      0.9896786
      3009.5000         1.0859       1407.324         0.7451       -51.3521      -1.693821      0.9866573
      3010.0000         1.0981       1396.801         0.7479       -51.5663      -1.914829      0.9824072
      3010.5000         1.1103       1425.078         0.7507       -51.7806      -2.135941       0.978155
      3011.0000         1.1175       1451.945         0.7535       -51.9948      -2.356953      0.9739047
      3011.5000         1.1217       1472.813         0.7563        -52.716      -3.084961      0.9599046
      3012.0000         1.1259       1493.668         0.7549       -53.1437       -3.51947      0.9515486
      3012.5000         1.1198       1514.523         0.7306       -53.0457       -3.42828      0.9533023
      3013.0000         1.1077       1530.586         0.7064       -52.9478      -3.337189       0.955054
      3013.5000         1.0957       1487.316         0.6917        -52.864      -3.260201      0.9565346
      3014.0000         1.1067       1444.072         0.7069       -52.7993      -3.202312      0.9576479
      3014.5000         1.1243       1400.803          0.722       -52.7346      -3.144421      0.9587612
      3015.0000          1.142       1367.615         0.7371       -52.6699      -3.086529      0.9598745
      3015.5000         1.1596       1354.516         0.7523       -52.6052      -3.028641      0.9609877
      3016.0000         1.1773       1341.418         0.7666       -52.5668      -2.997047      0.9615952
      3016.5000         1.1949       1341.479          0.772       -52.5402      -2.977261      0.9619758
      3017.0000         1.1902       1355.277         0.7775       -52.5136       -2.95747      0.9623563
      3017.5000         1.1698       1369.082         0.7829       -52.4869       -2.93758      0.9627389
      3018.0000         1.1528       1382.879         0.7883       -52.4603      -2.917789      0.9631194
      3018.5000         1.1359       1396.678         0.7938       -52.4725      -2.936798      0.9627539
      3019.0000         1.1189       1386.664         0.7942       -52.6605      -3.131611      0.9590075
      3019.5000         1.1019        1368.01         0.7856       -52.8485       -3.32642      0.9552612
      3020.0000         1.0922       1349.357          0.777       -52.9692       -3.45393       0.952809
      3020.5000         1.1136       1330.703         0.7833       -53.0515      -3.543037      0.9510955
      3021.0000          1.135       1296.402         0.7991       -53.1338      -3.632149      0.9493818
      3021.5000         1.1564       1258.609         0.8163       -53.2161       -3.72126      0.9476681
      3022.0000         1.1778       1220.816         0.8344       -53.0215       -3.53347      0.9512794
      3022.5000         1.1815       1235.686         0.8515       -52.7146      -3.233379      0.9570504
      3023.0000         1.1808       1283.164         0.8434       -52.4076      -2.933189      0.9628233
      3023.5000         1.1688       1316.297         0.8353       -52.0963      -2.628696      0.9686789
      3024.0000         1.1504        1349.43         0.8259       -51.7581      -2.297306      0.9750518
      3024.5000          1.132       1382.576         0.8166         -51.42      -1.966019      0.9814227
      3025.0000         1.1136       1404.305         0.8072       -51.0818      -1.634628      0.9877956
      3025.5000         1.0952       1405.184         0.7978       -50.7435      -1.303139      0.9941704
      3026.0000         1.0772       1406.063         0.7884       -50.4055     -0.9719467              1
      3026.5000         1.0798       1406.939         0.7816       -50.2438     -0.8170586              1
      3027.0000         1.0824       1398.973         0.7842       -50.2137     -0.7937698              1
      3027.5000         1.0853       1385.697         0.7868       -50.1837     -0.7705803              1
      3028.0000         1.0937       1372.422         0.7913       -50.1536     -0.7472878              1
      3028.5000         1.1021       1359.146         0.8015       -50.1235      -0.723999              1
      3029.0000         1.1105       1345.877         0.8117       -50.2612     -0.8685074              1
      3029.5000         1.1189       1332.602         0.8219       -50.4891      -1.103222       0.998015
      3030.0000         1.1273       1319.326         0.8322        -50.717      -1.337929      0.9935014
      3030.5000         1.1357       1306.053         0.8424        -50.945      -1.572739      0.9889858
      3031.0000         1.1442       1292.545         0.8446        -51.173      -1.807549      0.9844702
      3031.5000         1.1681       1276.568         0.8461       -52.3371      -2.978458      0.9619527
      3032.0000         1.1962       1260.592         0.8475       -53.7911      -4.439266      0.9338602
      3032.5000         1.2243       1244.615         0.8489       -55.2451      -5.900078      0.9057677
      3033.0000         1.2525       1240.455         0.8504       -56.6738       -7.33559      0.8781617
      3033.5000         1.2732       1279.988         0.8464       -57.9842      -8.652798      0.8528308
      3034.0000         1.2934       1309.775         0.8386       -59.2946      -9.970009      0.8274998
      3034.5000         1.2059       1339.574         0.8308       -59.3611      -10.04332      0.8260901
      3035.0000         1.1433       1369.373          0.823        -58.312       -9.00103      0.8461341
      3035.5000         1.1022        1399.16         0.8152       -57.2628      -7.958637      0.8661801
