#------------------------------------------------------------------------------
# Created by    : vladimir.rabinovich
# Created on    : 09/19/2023 17:21:35
#------------------------------------------------------------------------------
~Version Information Section
VERS.           2.0     :   CWLS log ASCII Standard - VERSION 2.0
WRAP.           NO      :   One line per depth step
~Well Information Section
#MNEM       .UNIT                                         VALUE :DESCRIPTION
#------------------------------------------------------------------------------
STRT        .FT                                            4200 :START DEPTH
STOP        .FT                                            8641 :STOP DEPTH
STEP        .FT                                             0.5 :STEP      
NULL        .                                           -999.25 :NULL      
COMP        .                                       HUNT OIL CO :COMPANY   
WELL        .                               OCS G25526 ST00BP00 :WELL      
FLD         .                                           WILDCAT :FIELD     
LOC         .                                                   :LOCATION  
CNTY        .                             GALVESTON LARGE BLOCK :LOCATION  
STAT        .                                             TEXAS :STATE     
CTRY        .                                     UNITED STATES :COUNTRY   
SRVC        .                                                   :SERVICE COMPANY
DATE        .                             9/13/2023 11:19:33 AM :LOG DATE  
API         .                                    42706404520000 :API NUMBER
UWI         .                                    42706404520000 :UNIQUE WELL ID
XCOORD      .                                  1090250.84236946 :SURFACE X 
YCOORD      .                                  10532258.5226608 :SURFACE Y 
LAT         .                                         29.010895 :LATITUDE  
LON         .                                        -94.721682 :LONGITUDE 
ELEV        .FT                                             108 :ELEVATION VALUE
ELEV_TYPE   .                                                KB :ELEVATION REFERENCE TYPE
~Curve Information Section
#MNEM       .UNIT                                      API CODE :CURVE DESCRIPTION
#------------------------------------------------------------------------------
DEPT        .FT                                                 :DEPTH     
CALI        .IN                                                 :          
DCAL        .IN                                                 :          
DFL         .OHMM                                               :          
DLOD        .LB                                                 :          
DPHI        .DEC                                                :          
DRHO        .G/C3                                               :          
GR          .GAPI                                               :          
GR_NORM     .GAPI                                               :GammaRay Normalized
HDCN        .MMHO                                               :          
HO24        .OHMM                                               :          
HO30        .OHMM                                               :          
HO40        .OHMM                                               :          
HO60        .OHMM                                               :          
HO90        .OHMM                                               :          
HT24        .OHMM                                               :          
HT30        .OHMM                                               :          
HT40        .OHMM                                               :          
HT60        .OHMM                                               :          
HT90        .OHMM                                               :          
NPHI        .DEC                                                :          
RHOB        .G/C3                                               :          
RWA         .OHMM                                               :          
SP_NORM     .MV                                                 :SP Normalized
SPA         .MV                                                 :          
TENS        .LBS                                                :          
VSH_GR      .V/V                                                :Volume of Shale from GR
VSH_SP      .V/V                                                :Volume of Shale from SP
~A        DEPTH           CALI           DCAL            DFL           DLOD           DPHI           DRHO             GR        GR_NORM           HDCN           HO24           HO30           HO40           HO60           HO90           HT24           HT30           HT40           HT60           HT90           NPHI           RHOB            RWA        SP_NORM            SPA           TENS         VSH_GR         VSH_SP
# ...
      5380.0000        13.4176         1.1676         0.4954       1440.867         0.2646        -0.0407        68.8078         68.005       2412.649         0.4816         0.4625         0.4486         0.4319         0.4131         0.4909         0.4693         0.4537         0.4352         0.4145         0.4137         2.2134         0.0588      -21.15168       144.7751       3071.181      0.7447872      0.6815495
      5380.5000         13.426          1.176         0.5302       1457.173         0.2559        -0.0256        67.4832       66.46264       2368.734         0.5011          0.484         0.4715         0.4563          0.439         0.4935         0.4735          0.459         0.4417         0.4222         0.4157         2.2277         0.0572      -21.14448        144.781       3070.669       0.711971      0.6816758
      5381.0000        13.3813         1.1313          0.535       1469.403         0.2685        -0.0154        65.0478       63.62716       2370.683         0.4963         0.4795         0.4671         0.4522         0.4352         0.4921         0.4724         0.4582         0.4411         0.4218         0.4095         2.2071         0.0656      -21.58329       144.4911        3065.21      0.6516417      0.6739774
      5381.5000        13.3657         1.1157         0.5127       1444.944         0.2845        -0.0163        62.6019       60.77946       2409.391         0.4805         0.4615         0.4477         0.4312         0.4126         0.4835         0.4643         0.4505         0.4338          0.415          0.401         2.1805         0.0653      -23.60982       143.1481       3054.632      0.5910524      0.6384242
      5382.0000        13.3752         1.1252         0.5131       1420.484          0.272        -0.0121        63.9265       62.32114        2403.78         0.4658         0.4494         0.4375          0.423         0.4065         0.4768           0.46         0.4477         0.4329          0.416         0.3926         2.2012         0.0549      -24.74443       142.3967       3052.414       0.623854      0.6185187
      5382.5000        13.3919         1.1419         0.5221       1432.714         0.2478        -0.0039         66.727       65.58099       2319.599         0.4685         0.4587         0.4514         0.4423         0.4317         0.4804         0.4671         0.4572         0.4451         0.4311         0.3872         2.2412         0.0474      -22.70336       143.7516       3062.822      0.6932126       0.654327
      5383.0000        13.3317         1.0817         0.5515       1440.867         0.2394         0.0021        67.6709       66.67949        2218.64         0.4993         0.4908         0.4844         0.4765          0.467         0.4938         0.4823         0.4737         0.4631         0.4507         0.3944         2.2549          0.057      -19.77036       145.6981       3072.376      0.7165849      0.7057832
      5383.5000        13.3132         1.0632         0.5758       1438.829         0.2571        -0.0059        66.2837       65.06425       2173.438         0.5127         0.5028         0.4953          0.486         0.4751         0.5065         0.4941         0.4848         0.4734         0.4601         0.3995         2.2258         0.0667      -18.76402       146.3667        3081.93      0.6822182      0.7234381
      5384.0000        13.3339         1.0839         0.5453       1455.135         0.2602        -0.0089        66.3776       65.17324       2179.111         0.5025         0.4922         0.4845         0.4749         0.4637         0.5149         0.4997         0.4884         0.4747         0.4589         0.3907         2.2206         0.0591      -19.18505       146.0886       3085.513      0.6845371      0.7160518
      5384.5000        13.3947         1.1447         0.5376       1457.173         0.2453        -0.0058        66.7739       65.63425       2175.846         0.5114         0.4964         0.4853         0.4718         0.4563         0.5289         0.5097         0.4957         0.4788         0.4596         0.3818         2.2452         0.0534      -19.24026       146.0531       3084.489      0.6943458      0.7150831
      5385.0000        13.4104         1.1604         0.5595       1475.518         0.2283         0.0004        67.5458       66.53251       2120.031         0.5438          0.525         0.5113         0.4947         0.4758         0.5552         0.5317         0.5147         0.4944         0.4717         0.3757         2.2733         0.0511      -18.83175       146.3252       3083.124      0.7134576      0.7222499
      5385.5000        13.4678         1.2178         0.6041       1459.212         0.2231         0.0067        68.1664       67.25465       2033.576         0.5853         0.5636         0.5478         0.5287         0.5072          0.591         0.5626         0.5424         0.5184         0.4917          0.379         2.2819         0.0551      -18.55693       146.5086       3080.395      0.7288224      0.7270714
      5386.0000        13.4656         1.2156         0.6236       1444.944         0.2306         0.0017         67.405       66.36794       1958.505         0.6217         0.5936         0.5735         0.5495         0.5228          0.631         0.5958         0.5711         0.5422         0.5106         0.3914         2.2695         0.0655       -18.3981       146.6151       3088.072      0.7099562      0.7298579
      5386.5000        13.4968         1.2468         0.6308       1444.944         0.2423         -0.013        66.5706       65.39626        1899.93         0.6618          0.624         0.5974         0.5665         0.5327         0.6698         0.6271         0.5974         0.5632         0.5263         0.3873         2.2501         0.0716      -18.93502       146.2601       3101.892      0.6892821      0.7204382
      5387.0000        13.5175         1.2675         0.6429       1477.557         0.2476        -0.0259        65.4285       64.06636       1846.049         0.7072         0.6585          0.625         0.5866         0.5457         0.7006         0.6527         0.6198          0.582         0.5417         0.3636         2.2415          0.063      -20.09632        145.491       3111.616      0.6609864      0.7000645
      5387.5000        13.5621         1.3121          0.649       1481.633         0.2413        -0.0246        65.4024       64.03564       1796.348         0.7207         0.6733         0.6405         0.6027         0.5622         0.7143         0.6671         0.6345         0.5969         0.5567         0.3496         2.2519         0.0556      -20.88293       144.9704       3112.981      0.6603327      0.6862644
      5388.0000        13.6083         1.3583         0.6639       1457.173         0.2304        -0.0198        65.9343       64.65452       1762.967         0.7244         0.6806         0.6501         0.6147         0.5763         0.7027         0.6631         0.6353         0.6027         0.5672         0.3506         2.2699         0.0591      -21.42878       144.6095       3111.275      0.6735004      0.6766881
      5388.5000        13.5398         1.2898         0.6942       1459.212         0.2254        -0.0137        64.0204       62.42614       1767.496         0.6882          0.658         0.6363         0.6104         0.5814          0.663         0.6357          0.616         0.5923         0.5658         0.3475         2.2781         0.0569      -23.26805       143.3907       3114.858       0.626088      0.6444201
      5389.0000        13.5554         1.3054         0.7204       1469.403          0.225        -0.0007        58.7114       56.24538       1845.546          0.603         0.5939          0.587         0.5784         0.5681         0.6044         0.5874         0.5749         0.5595         0.5418         0.3418         2.2788         0.0532      -26.75767       141.0773       3119.806      0.4945827      0.5831987
      5389.5000        13.5018         1.2518         0.6836       1459.212         0.2476         0.0026        54.0022       50.76289       2054.497         0.5621         0.5489         0.5391         0.5269         0.5128         0.5415         0.5267         0.5157         0.5023         0.4867         0.3443         2.2415         0.0577      -31.40668       137.9949       3117.247      0.3779339      0.5016372
