#------------------------------------------------------------------------------
# Created by    : vladimir.rabinovich
# Created on    : 09/19/2023 17:20:24
#------------------------------------------------------------------------------
~Version Information Section
VERS.           2.0     :   CWLS log ASCII Standard - VERSION 2.0
WRAP.           NO      :   One line per depth step
~Well Information Section
#MNEM       .UNIT                                         VALUE :DESCRIPTION
#------------------------------------------------------------------------------
STRT        .FT                                            2124 :START DEPTH
STOP        .FT                                            8264 :STOP DEPTH
STEP        .FT                                             0.5 :STEP      
NULL        .                                           -999.25 :NULL      
COMP        .                               SUPERIOR OIL CO THE :COMPANY   
WELL        .                                     ST TR 00009-L :WELL      
FLD         .                                           WILDCAT :FIELD     
LOC         .                                                   :LOCATION  
CNTY        .                           HIGH ISLAND LARGE BLOCK :LOCATION  
STAT        .                                             TEXAS :STATE     
CTRY        .                                     UNITED STATES :COUNTRY   
SRVC        .                                                   :SERVICE COMPANY
DATE        .                             9/13/2023 11:19:15 AM :LOG DATE  
API         .                                    42708300270000 :API NUMBER
UWI         .                                    42708300270000 :UNIQUE WELL ID
XCOORD      .                                  1318170.30554107 :SURFACE X 
YCOORD      .                                  10738395.6931535 :SURFACE Y 
LAT         .                                        29.5851559 :LATITUDE  
LON         .                                       -94.0141459 :LONGITUDE 
ELEV        .FT                                              72 :ELEVATION VALUE
ELEV_TYPE   .                                                KB :ELEVATION REFERENCE TYPE
~Curve Information Section
#MNEM       .UNIT                                      API CODE :CURVE DESCRIPTION
#------------------------------------------------------------------------------
DEPT        .FT                                                 :DEPTH     
ASN         .OHMM                                               :          
CILD        .MMHO                                               :          
ILD         .OHMM                                               :          
SN          .OHMM                                               :          
SP          .MV                                                 :          
SP_NORM     .MV                                                 :SP Normalized
VSH_SP      .V/V                                                :Volume of Shale from SP
~A        DEPTH            ASN           CILD            ILD             SN             SP        SP_NORM         VSH_SP
# ...
      3765.5000         0.9879       1073.342         0.9964         0.9922       -63.1664      -11.04519      0.8353248
      3766.0000         0.9781       1131.895         0.9755         0.9506       -59.9862      -7.864986      0.8874592
      3766.5000         0.9693       1207.033         0.9492         0.9118       -58.1484      -6.027187      0.9175871
      3767.0000         0.9259       1265.387         0.9255         0.8772       -57.2375      -5.116287      0.9325199
      3767.5000         0.8799       1300.109         0.9041         0.8554       -56.6837      -4.562489      0.9415985
      3768.0000         0.8536       1314.898         0.8903          0.842       -56.3017      -4.180489      0.9478608
      3768.5000         0.8404       1308.215         0.8823         0.8362       -55.8306      -3.709389      0.9555838
      3769.0000         0.8373       1288.381         0.8949         0.8355       -55.0992      -2.977989      0.9675739
      3769.5000          0.841        1256.92         0.9126         0.8443       -54.3465      -2.225288      0.9799133
      3770.0000         0.8491       1224.695         0.9371         0.8521       -54.0832      -1.961987      0.9842297
      3770.5000         0.8583       1193.221         0.9625         0.8615       -54.3779      -2.256687      0.9793985
      3771.0000         0.8677       1164.705         0.9885         0.8685       -54.8442      -2.722988      0.9717543
      3771.5000         0.8788       1138.102         1.0096         0.8758       -55.3279      -3.206688      0.9638248
      3772.0000         0.8923       1114.334         1.0298         0.8833       -55.7491      -3.627888      0.9569198
      3772.5000         0.9041       1091.488         1.0428          0.886       -55.9265      -3.805286      0.9540117
      3773.0000         0.9123       1070.943         1.0558         0.8926       -55.7541      -3.632889      0.9568379
      3773.5000         0.9209       1051.633         1.0625         0.9002       -55.0685      -2.947289      0.9680772
      3774.0000         0.9288       1035.771         1.0693         0.9077       -54.0266      -1.905388      0.9851575
      3774.5000           0.94        1021.64         1.0745         0.9125       -53.3984      -1.277187      0.9954559
      3775.0000         0.9535        1011.44          1.079          0.916        -53.554      -1.432789      0.9929051
      3775.5000         0.9668       1014.411         1.0799         0.9194       -54.0586      -1.937389      0.9866087
      3776.0000         0.9752       1019.947         1.0814         0.9246       -54.6071      -2.485889       0.978773
      3776.5000         0.9793       1025.635         1.0844         0.9305       -55.0415      -2.920288      0.9725673
      3777.0000         0.9814        1026.33         1.0873         0.9365       -55.3331      -3.211887      0.9684016
      3777.5000          0.983       1025.504         1.0904          0.943       -55.5352      -3.413986      0.9655145
      3778.0000         0.9842       1023.213         1.0948           0.95       -55.7004      -3.579189      0.9631544
      3778.5000         0.9883       1017.106         1.0999         0.9571       -55.7977      -3.676487      0.9617645
      3779.0000         0.9942       1011.001         1.1047         0.9651       -55.8707      -3.749489      0.9607216
      3779.5000         1.0023       1000.007         1.1093         0.9751        -55.923      -3.801788      0.9599745
      3780.0000         1.0145       987.0479          1.116         0.9851       -56.0219      -3.900688      0.9585616
      3780.5000         1.0283       972.1475         1.1237         0.9947         -56.11      -3.988789       0.957303
      3781.0000         1.0425       952.0889         1.1376         1.0033       -56.1915      -4.090088      0.9558559
      3781.5000         1.0545       933.3291         1.1504         1.0119       -56.3257       -4.26849      0.9533073
      3782.0000         1.0616       919.7461         1.1555         1.0196       -56.5093      -4.496296      0.9500529
      3782.5000          1.064       917.3477          1.155         1.0239       -56.7941      -4.825302      0.9453529
      3783.0000         1.0642       925.0039         1.1388         1.0281       -57.3944      -5.469807      0.9361456
      3783.5000         1.0634       940.8604         1.1134         1.0249       -58.1979      -6.317509      0.9240356
      3784.0000         1.0613       961.8311         1.0738         1.0205       -59.3891      -7.552914       0.906387
      3784.5000         1.0572       988.1846         1.0398           1.01       -60.3174      -8.525421       0.892494
      3785.0000         1.0476       1024.031         1.0113         0.9954       -61.1505      -9.402725      0.8799611
      3785.5000         1.0334       1071.393         0.9824         0.9785       -62.0067      -10.30313      0.8670982
      3786.0000         1.0176        1125.25         0.9521         0.9597       -62.8541      -11.19473      0.8543609
      3786.5000         0.9999       1191.846         0.9218         0.9453       -63.1523      -11.53714      0.8494694
      3787.0000         0.9865        1249.65         0.8888         0.9354       -63.1014      -11.53044      0.8495651
      3787.5000          0.979       1307.504         0.8559         0.9274       -62.9705      -11.44375      0.8508036
      3788.0000         0.9753       1359.961         0.8336         0.9246       -63.4167      -11.93415      0.8437978
      3788.5000         0.9656       1409.322          0.818         0.9213       -64.6982      -13.25986      0.8248592
      3789.0000         0.9593       1456.709         0.8097         0.9138       -67.2938      -15.89967      0.7871476
      3789.5000         0.9556       1490.557         0.8009         0.9029       -69.2371      -17.88717      0.7587547
      3790.0000         0.9368       1512.303         0.7912          0.878       -69.4601      -18.15437      0.7549375
      3790.5000         0.8918       1525.742         0.7749         0.8424       -67.5497      -16.28818      0.7815974
      3791.0000         0.8502       1534.723         0.7599         0.8014       -63.2869      -12.06958      0.8418631
      3791.5000         0.8087         1544.9         0.7486         0.7749       -59.3916      -8.218491      0.8968787
      3792.0000         0.7693       1570.768         0.7345         0.7571       -57.3643      -6.235394      0.9252087
      3792.5000         0.7554        1618.83         0.7119           0.76       -56.0571      -4.972397      0.9432515
      3793.0000         0.7673       1677.508          0.686         0.7654       -56.6354      -5.594902      0.9343585
      3793.5000         0.7839       1746.102          0.655         0.7745       -57.5663      -6.570007      0.9204285
      3794.0000         0.7868       1814.697         0.6404         0.7762       -58.9625      -8.010414      0.8998512
      3794.5000         0.7822       1869.316          0.631         0.7691       -63.1389      -12.23102      0.8395569
      3795.0000         0.7747       1888.988         0.6333         0.7444       -68.9109      -18.04722      0.7564683
      3795.5000         0.7553       1895.963         0.6383         0.7159       -70.7522      -19.93272      0.7295325
      3796.0000         0.7148       1887.314         0.6449         0.6855        -67.635      -16.85973      0.7734324
      3796.5000         0.6861       1869.916         0.6517         0.6707        -61.927      -11.19593      0.8543438
      3797.0000         0.6763       1846.021         0.6532         0.6598       -57.8975       -7.21064      0.9112766
      3797.5000         0.6806       1821.854         0.6541         0.6594       -55.9918      -5.349144      0.9378694
      3798.0000         0.6825       1790.467         0.6572         0.6621       -55.9297      -5.331253       0.938125
      3798.5000         0.6843       1762.326         0.6613          0.666       -56.3931       -5.83886      0.9308735
