#------------------------------------------------------------------------------
# Created by    : vladimir.rabinovich
# Created on    : 09/19/2023 17:20:36
#------------------------------------------------------------------------------
~Version Information Section
VERS.           2.0     :   CWLS log ASCII Standard - VERSION 2.0
WRAP.           NO      :   One line per depth step
~Well Information Section
#MNEM       .UNIT                                         VALUE :DESCRIPTION
#------------------------------------------------------------------------------
STRT        .FT                                             510 :START DEPTH
STOP        .FT                                            7943 :STOP DEPTH
STEP        .FT                                             0.5 :STEP      
NULL        .                                           -999.25 :NULL      
COMP        .                       BLUE DOLPHIN EXPLORATION CO :COMPANY   
WELL        .                                OCS 00709 ST00BP00 :WELL      
FLD         .                                FEDERAL BLOCK 0288 :FIELD     
LOC         .                                                   :LOCATION  
CNTY        .                             GALVESTON LARGE BLOCK :LOCATION  
STAT        .                                             TEXAS :STATE     
CTRY        .                                     UNITED STATES :COUNTRY   
SRVC        .                                                   :SERVICE COMPANY
DATE        .                             9/13/2023 11:19:25 AM :LOG DATE  
API         .                                    42706000400000 :API NUMBER
UWI         .                                    42706000400000 :UNIQUE WELL ID
XCOORD      .                                   1098851.8122004 :SURFACE X 
YCOORD      .                                  10485233.3471489 :SURFACE Y 
LAT         .                                         28.881916 :LATITUDE  
LON         .                                        -94.692672 :LONGITUDE 
ELEV        .FT                                              93 :ELEVATION VALUE
ELEV_TYPE   .                                                KB :ELEVATION REFERENCE TYPE
~Curve Information Section
#MNEM       .UNIT                                      API CODE :CURVE DESCRIPTION
#------------------------------------------------------------------------------
DEPT        .FT                                                 :DEPTH     
ASN         .OHMM                                               :          
GR          .GAPI                                               :          
ILD         .OHMM                                               :          
NEUT        .NAPI                                               :          
SP          .MV                                                 :          
SP_NORM     .MV                                                 :SP Normalized
VSH_SP      .V/V                                                :Volume of Shale from SP
~A        DEPTH            ASN             GR            ILD           NEUT             SP        SP_NORM         VSH_SP
# ...
      1012.5000         1.4263        -999.25         1.4029        -999.25       -53.8717     -0.2131615              1
      1013.0000         1.4013        -999.25         1.3718        -999.25       -53.7398    -0.08126068              1
      1013.5000         1.3792        -999.25         1.3481        -999.25       -52.9859      0.6726379              1
      1014.0000         1.3615        -999.25         1.3254        -999.25       -51.9423        1.71624              1
      1014.5000         1.3485        -999.25         1.3041        -999.25       -51.1413       2.517239              1
      1015.0000         1.3336        -999.25         1.2891        -999.25       -50.9432        2.71534              1
      1015.5000         1.3193        -999.25         1.2672        -999.25        -51.295       2.363541              1
      1016.0000          1.303        -999.25           1.23        -999.25       -51.7515        1.90704              1
      1016.5000         1.2799        -999.25         1.1934        -999.25        -52.188       1.470539              1
      1017.0000         1.2599        -999.25         1.1596        -999.25       -52.5303       1.128239              1
      1017.5000         1.2432        -999.25         1.1411        -999.25       -52.4706       1.187939              1
      1018.0000         1.2294        -999.25         1.1319        -999.25       -52.4987        1.15984              1
      1018.5000         1.2178        -999.25         1.1301        -999.25        -52.851      0.8075371              1
      1019.0000         1.2069        -999.25         1.1268        -999.25       -52.7023      0.9562378              1
      1019.5000         1.1991        -999.25         1.1282        -999.25       -52.3231       1.335438              1
      1020.0000         1.1964        -999.25         1.1315        -999.25       -52.1348       1.523739              1
      1020.5000         1.1952        -999.25         1.1404        -999.25       -52.2516        1.40694              1
      1021.0000         1.1921        -999.25         1.1513        -999.25       -52.5715        1.08704              1
      1021.5000         1.1858        -999.25         1.1672        -999.25       -51.9142       1.744339              1
      1022.0000         1.1762        -999.25         1.1837        -999.25       -51.0165        2.64204              1
      1022.5000          1.167        -999.25           1.19        -999.25       -50.0482        3.61034              1
      1023.0000         1.1586        -999.25         1.1524        -999.25       -49.1404       4.518139              1
      1023.5000         1.1478        -999.25         1.1069        -999.25       -48.4945        5.16404              1
      1024.0000         1.1323        -999.25         1.0575        -999.25       -48.0081        5.65044              1
      1024.5000         1.1126        -999.25         1.0347        -999.25       -47.6932        5.96534              1
      1025.0000         1.0946        -999.25         1.0158        -999.25       -47.5385       6.120037              1
      1025.5000          1.081        -999.25         1.0148        -999.25       -47.6012       6.057339              1
      1026.0000         1.0757        -999.25         1.0159        -999.25       -47.8876       5.770939              1
      1026.5000         1.0732        -999.25         1.0211        -999.25       -48.4573       5.201241              1
      1027.0000         1.0708        -999.25         1.0269        -999.25       -48.7606       4.897938              1
      1027.5000         1.0693        -999.25         1.0333        -999.25       -48.8298       4.828739              1
      1028.0000         1.0713        -999.25         1.0422        -999.25        -49.247       4.411537              1
      1028.5000          1.078        -999.25         1.0575        -999.25       -50.0018       3.656738              1
      1029.0000         1.0831        -999.25         1.0795        -999.25       -50.5136       3.144939              1
      1029.5000         1.0855        -999.25         1.0901        -999.25       -51.0233       2.635239              1
      1030.0000         1.0851        -999.25         1.0743        -999.25        -51.489        2.16954              1
      1030.5000         1.0855        -999.25         1.0617        -999.25       -51.6686       1.989941              1
      1031.0000         1.0858        -999.25         1.0555        -999.25       -51.6788        1.97974              1
      1031.5000         1.0822        -999.25         1.0502        -999.25       -51.8822        1.77634              1
      1032.0000         1.0772        -999.25         1.0463        -999.25       -51.6563       2.002239              1
      1032.5000         1.0713        -999.25         1.0424        -999.25       -50.9949       2.663639              1
      1033.0000         1.0683        -999.25         1.0387        -999.25       -50.6415        3.01704              1
      1033.5000         1.0693        -999.25         1.0351        -999.25         -50.52       3.138538              1
      1034.0000          1.075        -999.25         1.0311        -999.25       -50.3384       3.320137              1
      1034.5000         1.0764        -999.25         1.0269        -999.25       -49.9482       3.710339              1
      1035.0000         1.0721        -999.25         1.0255        -999.25       -49.2117       4.446838              1
      1035.5000         1.0656        -999.25         1.0263        -999.25       -48.5493       5.109238              1
      1036.0000         1.0691        -999.25         1.0275        -999.25       -48.0245       5.634037              1
      1036.5000         1.0687        -999.25         1.0324        -999.25       -47.6451       6.013439              1
      1037.0000         1.0646        -999.25         1.0187        -999.25       -47.6748       5.983738              1
      1037.5000         1.0566        -999.25         1.0052        -999.25       -47.8917       5.766838              1
      1038.0000         1.0491        -999.25         0.9919        -999.25       -48.1749       5.483639              1
      1038.5000          1.043        -999.25         0.9832        -999.25       -48.5841        5.07444              1
      1039.0000         1.0402        -999.25         0.9812        -999.25       -49.0997       4.558838              1
      1039.5000         1.0414        -999.25         0.9792        -999.25       -49.6083        4.05024              1
      1040.0000         1.0412        -999.25          0.986        -999.25       -49.8293       3.829239              1
      1040.5000         1.0323        -999.25         0.9978        -999.25       -49.7739        3.88464              1
      1041.0000         1.0217        -999.25         1.0133        -999.25       -49.6119       4.046638              1
      1041.5000         1.0243        -999.25         1.0358        -999.25       -49.3654        4.29314              1
      1042.0000         1.0313        -999.25         1.0513        -999.25       -49.3821        4.27644              1
      1042.5000         1.0378        -999.25         1.0611        -999.25        -49.618       4.040539              1
      1043.0000         1.0454        -999.25         1.0631        -999.25       -49.8867       3.771839              1
      1043.5000         1.0464        -999.25         1.0646        -999.25       -50.0818        3.57674              1
      1044.0000         1.0437        -999.25         1.0657        -999.25       -50.0853       3.573238              1
      1044.5000         1.0373        -999.25          1.065        -999.25       -49.8279       3.830639              1
      1045.0000         1.0344        -999.25         1.0566        -999.25       -49.4457       4.212837              1
      1045.5000         1.0379        -999.25         1.0474        -999.25        -49.013       4.645538              1
