#------------------------------------------------------------------------------
# Created by    : vladimir.rabinovich
# Created on    : 09/19/2023 17:22:48
#------------------------------------------------------------------------------
~Version Information Section
VERS.           2.0     :   CWLS log ASCII Standard - VERSION 2.0
WRAP.           NO      :   One line per depth step
~Well Information Section
#MNEM       .UNIT                                         VALUE :DESCRIPTION
#------------------------------------------------------------------------------
STRT        .FT                                            3512 :START DEPTH
STOP        .FT                                           11028 :STOP DEPTH
STEP        .FT                                             0.5 :STEP      
NULL        .                                           -999.25 :NULL      
COMP        .                          SEAGULL ENERGY E & P INC :COMPANY   
WELL        .                   ST TR 147-L NE/4 /ST LSE 88034/ :WELL      
FLD         .                                           WILDCAT :FIELD     
LOC         .                                                   :LOCATION  
CNTY        .                             GALVESTON LARGE BLOCK :LOCATION  
STAT        .                                             TEXAS :STATE     
CTRY        .                                     UNITED STATES :COUNTRY   
SRVC        .                                                   :SERVICE COMPANY
DATE        .                             9/13/2023 11:18:53 AM :LOG DATE  
API         .                                    42706302000000 :API NUMBER
UWI         .                                    42706302000000 :UNIQUE WELL ID
XCOORD      .                                  1107149.67333588 :SURFACE X 
YCOORD      .                                  10638300.0198507 :SURFACE Y 
LAT         .                                        29.3031745 :LATITUDE  
LON         .                                         -94.67354 :LONGITUDE 
ELEV        .FT                                              25 :ELEVATION VALUE
ELEV_TYPE   .                                                KB :ELEVATION REFERENCE TYPE
~Curve Information Section
#MNEM       .UNIT                                      API CODE :CURVE DESCRIPTION
#------------------------------------------------------------------------------
DEPT        .FT                                                 :DEPTH     
DT          .US/F                                               :          
GR          .GAPI                                               :          
GR_NORM     .GAPI                                               :GammaRay Normalized
ILD         .OHMM                                               :          
ILM         .OHMM                                               :          
SFL         .OHMM                                               :          
SP          .MV                                                 :          
SP_NORM     .MV                                                 :SP Normalized
VSH_GR      .V/V                                                :Volume of Shale from GR
VSH_SP      .V/V                                                :Volume of Shale from SP
~A        DEPTH             DT             GR        GR_NORM            ILD            ILM            SFL             SP        SP_NORM         VSH_GR         VSH_SP
# ...
      9000.0000        86.0609        34.4891       36.44967         0.2937         0.3949         0.8574       -110.121      -93.52354     0.07339721     0.01570698
      9000.5000        87.7449        32.5684       34.23492         0.2588         0.3482         0.7709      -110.5876       -93.9892      0.0262749     0.01075323
      9001.0000        89.2668        30.9538       32.37352         0.2309         0.3071         0.7583      -111.0042      -94.40486              0    0.006331261
      9001.5000        90.4673        29.4814       30.67628         0.2063         0.2741         0.7604      -111.4194      -94.81912              0    0.001924231
      9002.0000        91.4884        28.8303       29.92712         0.1908          0.249         0.7759      -112.0074      -95.40618              0              0
      9002.5000        92.2881        29.6884       30.92013          0.181         0.2301         0.7973      -112.5256      -95.92344              0              0
      9003.0000        92.6833        30.7848       32.18823          0.173         0.2186          0.814      -112.7849       -96.1818              0              0
      9003.5000        93.0221        30.8583       32.27552         0.1651         0.2095         0.8271      -113.0107      -96.40666              0              0
      9004.0000        93.2339        30.2614       31.58893         0.1597         0.2028         0.8316      -113.0068      -96.40182              0              0
      9004.5000        92.5416        30.3168       31.65532         0.1569         0.1976         0.8217      -113.0028      -96.39688              0              0
      9005.0000        92.0015        31.0494       32.50346         0.1556         0.1943         0.8046      -112.8961      -96.28925              0              0
      9005.5000        91.7294        31.2098       32.69107          0.155         0.1936         0.8083      -112.7815      -96.17371              0              0
      9006.0000        91.6353        30.9633       32.40897         0.1546         0.1938         0.8199      -112.7225      -96.11377              0              0
      9006.5000        91.5173        30.8521       32.28305          0.153          0.193         0.8319       -112.677      -96.06733              0              0
      9007.0000        91.1552        31.0041       32.46097         0.1501         0.1904         0.8383      -112.5845      -95.97389              0              0
      9007.5000        90.8892        31.4383       32.96463          0.146         0.1866         0.8334      -112.4741      -95.86255              0              0
      9008.0000        90.7485        31.8695       33.46485         0.1424         0.1828         0.8189      -112.3164      -95.70391    0.009890455              0
      9008.5000        90.7748        31.9471       33.55688         0.1394         0.1793         0.7967      -111.7588      -95.14537     0.01184845              0
      9009.0000         90.983        31.4634       33.00096         0.1394         0.1764         0.7659      -110.0499      -93.43553  0.00002045327     0.01664328
      9009.5000        91.1962        30.7885       32.22432         0.1598         0.1782         0.7341      -105.5223        -88.907              0     0.06481917
      9010.0000         91.308         31.118       32.60714         0.1858         0.1933          0.708       -99.2209      -82.60465              0      0.1318654
      9010.5000        90.4132        33.1857       34.99646         0.2225         0.2229          0.699       -93.7233      -77.10611     0.04247795      0.1903605
      9011.0000        88.8225        36.0424       38.29659         0.2827         0.2653         0.8349       -89.0682      -72.45007      0.1126935      0.2398928
      9011.5000        86.0804        38.1028       40.67751         0.3687         0.3378         1.1421       -85.7804      -69.16134      0.1633512      0.2748794
      9012.0000         82.413        39.4013       42.17889         0.4565         0.4265         1.4557       -83.7286       -67.1086      0.1952956       0.296717
      9012.5000        78.4264        37.1988       39.63885         0.5499         0.5195         1.7394       -85.5159      -68.89496      0.1412521      0.2777132
      9013.0000        75.5972        33.6757       35.57435         0.6228         0.6144         1.9096       -91.6653      -75.04342     0.05477337      0.2123041
      9013.5000        76.6123        31.5639         33.139         0.6589         0.6496         1.9213       -98.2557      -81.63287    0.002957446      0.1422035
      9014.0000         78.662        30.8411       32.30708          0.607         0.5709         1.6648      -102.5333      -85.90955              0     0.09670696
      9014.5000        82.2117        31.8971       33.52853         0.4853         0.4614          1.292      -105.7281      -89.10341      0.0112454     0.06272969
      9015.0000        85.4668        32.5059       34.23376         0.3832         0.3776         0.9391      -108.2075      -91.58186     0.02625023     0.03636324
      9015.5000        88.9133        32.6048       34.35038         0.2768         0.3025         0.8677       -110.094      -93.46742     0.02873141     0.01630402
      9016.0000        91.1792         32.593        34.3392          0.207         0.2592         0.8404      -111.3582      -94.73068      0.0284936    0.002865081
      9016.5000        92.4016         32.553       34.29547         0.1899         0.2389         0.8254      -112.2695      -95.64104     0.02756314              0
      9017.0000        92.8337        32.3037       34.01013         0.1809         0.2281         0.8262      -112.9972      -96.36781     0.02149209              0
      9017.5000        92.8829         31.461       33.03979         0.1744         0.2204          0.819      -113.5619      -96.93156   0.0008466193              0
      9018.0000        93.3934        29.8636       31.19826         0.1723         0.2146          0.797      -113.7142      -97.08293              0              0
      9018.5000        94.0807        28.5896       29.73004         0.1712         0.2101          0.756      -113.7528      -97.12059              0              0
      9019.0000        94.2482        28.6484       29.80036         0.1706         0.2061         0.7112      -113.2556      -96.62245              0              0
      9019.5000        93.9651        30.3389       31.75426         0.1705         0.2027         0.7006      -112.7216      -96.08751              0              0
      9020.0000        93.6775        31.9167       33.57808         0.1705         0.2003         0.6979      -112.2389      -95.60387     0.01229964              0
      9020.5000        93.5317        33.2516       35.12149         0.1707         0.1981         0.6969      -111.8501      -95.21413     0.04513818              0
      9021.0000        94.3312        33.2535       35.12614         0.1711         0.1959         0.6873      -111.8079      -95.17099     0.04523695              0
      9021.5000        94.2299          32.55       34.31648         0.1722         0.1946         0.6851      -111.8124      -95.17455     0.02801027              0
      9022.0000        93.6819        32.5127       34.27588         0.1736         0.1944         0.6893      -112.0524      -95.41361     0.02714628              0
      9022.5000         93.309        33.1502       35.01424         0.1751         0.1948         0.6978      -112.2155      -95.57578     0.04285609              0
      9023.0000        93.2128        33.8362       35.80857         0.1765         0.1953         0.7067      -112.1317      -95.49103     0.05975691              0
      9023.5000        93.2666        34.4646       36.53643         0.1774          0.195         0.7111      -111.9847      -95.34309     0.07524312              0
      9024.0000        93.3553        34.5087       36.58978         0.1778         0.1955         0.7108      -111.6675      -95.02496     0.07637835              0
