#------------------------------------------------------------------------------
# Created by    : vladimir.rabinovich
# Created on    : 09/19/2023 17:20:32
#------------------------------------------------------------------------------
~Version Information Section
VERS.           2.0     :   CWLS log ASCII Standard - VERSION 2.0
WRAP.           NO      :   One line per depth step
~Well Information Section
#MNEM       .UNIT                                         VALUE :DESCRIPTION
#------------------------------------------------------------------------------
STRT        .FT                                             222 :START DEPTH
STOP        .FT                                            9192 :STOP DEPTH
STEP        .FT                                             0.5 :STEP      
NULL        .                                           -999.25 :NULL      
COMP        .                                      PAN AMERICAN :COMPANY   
WELL        .                                     ST TR 00060-L :WELL      
FLD         .                                           WILDCAT :FIELD     
LOC         .                                                   :LOCATION  
CNTY        .                             GALVESTON LARGE BLOCK :LOCATION  
STAT        .                                             TEXAS :STATE     
CTRY        .                                     UNITED STATES :COUNTRY   
SRVC        .                                                   :SERVICE COMPANY
DATE        .                             9/13/2023 11:19:24 AM :LOG DATE  
API         .                                    42706000830000 :API NUMBER
UWI         .                                    42706000830000 :UNIQUE WELL ID
XCOORD      .                                  1150669.84230747 :SURFACE X 
YCOORD      .                                  10684730.4394491 :SURFACE Y 
LAT         .                                        29.4325033 :LATITUDE  
LON         .                                       -94.5389235 :LONGITUDE 
ELEV        .FT                                              11 :ELEVATION VALUE
ELEV_TYPE   .                                                KB :ELEVATION REFERENCE TYPE
~Curve Information Section
#MNEM       .UNIT                                      API CODE :CURVE DESCRIPTION
#------------------------------------------------------------------------------
DEPT        .FT                                                 :DEPTH     
ASN         .OHMM                                               :          
CILD        .MMHO                                               :          
ILD         .OHMM                                               :          
SP          .MV                                                 :          
SP_NORM     .MV                                                 :SP Normalized
VSH_SP      .V/V                                                :Volume of Shale from SP
~A        DEPTH            ASN           CILD            ILD             SP        SP_NORM         VSH_SP
# ...
      2616.0000         0.5747       260.4424         0.3381       -76.5029       -11.3754      0.6294498
      2616.5000         0.5561       241.0508         0.3423       -77.1675      -12.04214      0.6056377
      2617.0000          0.525       220.4668         0.3481        -77.832      -12.70878      0.5818294
      2617.5000         0.5055       197.2407         0.3592       -78.4965      -13.37541       0.558021
      2618.0000         0.4859       572.5195         0.3703        -79.161      -14.04206      0.5342121
      2618.5000         0.4664       924.6709         0.3789       -76.8953       -11.7785      0.6150537
      2619.0000         0.4522       1082.951         0.3587        -75.209      -10.09433      0.6752025
      2619.5000         0.4444       1165.238         0.3321       -76.0162      -10.90366      0.6462978
      2620.0000         0.4365       1159.008         0.3029       -76.8231       -11.7127      0.6174036
      2620.5000         0.4396       1086.834         0.2737       -78.0873      -12.97905      0.5721768
      2621.0000         0.4464       971.7617         0.2494        -79.739      -14.63288      0.5131114
      2621.5000         0.4531       856.6885          0.241       -81.5676      -16.46362       0.447728
      2622.0000         0.4788       741.6152         0.2326       -88.9619      -23.86005      0.1835695
      2622.5000         0.5049        626.541         0.2392       -89.1705      -24.07079      0.1760431
      2623.0000         0.5311       511.3701         0.2476       -89.3792      -24.28164      0.1685129
      2623.5000         0.5572       408.3398          0.256       -89.5879      -24.49247      0.1609832
      2624.0000         0.5884       338.1885         0.2644       -89.7965      -24.70321      0.1534568
      2624.5000         0.5881       337.3467         0.2727       -90.0278      -24.93665      0.1451198
      2625.0000         0.5466       480.2051         0.2811       -90.3386      -25.24958      0.1339436
      2625.5000         0.5086       661.2939         0.2878       -90.6493      -25.56242      0.1227706
      2626.0000         0.4755       842.4824         0.2922       -90.9598      -25.87506       0.111605
      2626.5000         0.4731       925.6289         0.2966       -91.2705       -26.1879      0.1004323
      2627.0000         0.4727       942.5381         0.3009       -91.3234      -26.24294      0.0984666
      2627.5000         0.4674       954.8213         0.2889       -91.3594      -26.28107     0.09710475
      2628.0000          0.462       965.3281         0.2748       -90.7407      -25.66451      0.1191245
      2628.5000         0.4566       975.1963         0.2607       -90.1222      -25.04815      0.1411375
      2629.0000         0.4512       1058.373         0.2466       -89.5038      -24.43188       0.163147
      2629.5000         0.4441       1304.545         0.2326       -88.8853      -23.81552        0.18516
      2630.0000         0.4333       1532.012         0.2187       -88.2666      -23.19896        0.20718
      2630.5000         0.4226       1561.088         0.2089       -86.3354      -21.26991      0.2760748
      2631.0000         0.4119        1613.34         0.1992       -84.6556      -19.59224      0.3359914
      2631.5000         0.4022       1454.961         0.1895       -84.2239      -19.16267      0.3513331
      2632.0000         0.3925        1012.56         0.1798        -83.792      -18.73291      0.3666818
      2632.5000         0.3853       570.1602           0.17       -83.3602      -18.30325      0.3820269
      2633.0000           0.38       174.7766         0.1717       -82.6984      -17.64359       0.405586
      2633.5000         0.4075       105.7377         0.1915       -81.4176      -16.36493      0.4512525
      2634.0000         0.4548        43.3099         0.2113       -80.1375      -15.08696      0.4968943
      2634.5000         0.5563        64.6558         0.2498       -78.4772       -13.4288      0.5561142
      2635.0000         0.6704       121.5658         0.2994       -77.8976      -12.85133      0.5767381
      2635.5000         0.7786       274.5381          0.349       -78.7539      -13.70978      0.5460793
      2636.0000         0.8867       464.7705         0.3936        -79.936      -14.89401      0.5037853
      2636.5000         0.9949       655.0029         0.3881       -81.2284      -16.18855      0.4575517
      2637.0000         1.1031       842.6787         0.3569       -84.0789      -19.04119      0.3556717
      2637.5000         1.0386       940.3262         0.3279       -86.3672      -21.33163      0.2738705
      2638.0000         0.9866       990.6738          0.299       -87.9032      -22.86977      0.2189369
      2638.5000         0.9302       752.1338           0.27       -88.8962      -23.86491      0.1833962
      2639.0000         0.8697       447.8608          0.247       -89.7842      -24.75504      0.1516056
      2639.5000         0.6347       117.9282         0.2321       -90.3309      -25.30388      0.1320043
      2640.0000         0.5878         7.4263         0.2172       -90.8776      -25.85271      0.1124031
      2640.5000         0.5454        52.5513         0.2023       -91.4246      -26.40186     0.09279088
      2641.0000         0.5175        65.5775         0.1874         -91.91       -26.8894     0.07537869
      2641.5000         0.4897        68.3574         0.1811       -92.0703      -27.05183     0.06957763
      2642.0000         0.4624        69.0426         0.1753       -92.2306      -27.21426     0.06377629
      2642.5000         0.4602        70.6151         0.1696       -92.3408       -27.3266     0.05976432
      2643.0000         0.4579        72.7996         0.1638       -92.2946      -27.28255     0.06133761
      2643.5000         0.4547        87.5746           0.16       -92.2483      -27.23838     0.06291498
      2644.0000         0.4515       119.3538         0.1566        -92.202      -27.19422     0.06449209
      2644.5000         0.4483        175.637         0.1533       -92.1558      -27.15015     0.06606592
      2645.0000         0.4451       312.8301         0.1499       -92.1095      -27.10599      0.0676433
      2645.5000         0.4308       450.0234         0.1465       -92.0631      -27.06174     0.06922368
      2646.0000         0.4051       587.2168         0.1431       -92.0168      -27.01757     0.07080106
      2646.5000          0.399       724.3613         0.1412       -91.9807       -26.9836     0.07201413
      2647.0000         0.3929       861.5547         0.1394       -91.9565      -26.96154     0.07280213
      2647.5000         0.3887        998.748         0.1376       -91.9323      -26.93948     0.07359014
      2648.0000         0.3869       1232.926         0.1358       -91.9081      -26.91742     0.07437788
      2648.5000         0.3851       1271.648          0.134       -91.8839      -26.89536     0.07516561
      2649.0000         0.3833       1249.244         0.1321       -91.6924      -26.70599      0.0819288
      2649.5000         0.3815       999.1904         0.1309       -88.8674      -23.88313      0.1827452
      2650.0000         0.3815        343.061         0.1308       -84.9396      -19.95747      0.3229477
      2650.5000         0.3915       290.1201         0.1308       -82.2692      -17.28922      0.4182423
      2651.0000         0.4014       353.6294         0.1611       -80.0592      -15.08134      0.4970948
      2651.5000         0.4353       457.6919         0.2355       -78.1381      -13.16238      0.5656291
      2652.0000           0.47        517.293         0.3048       -78.1218      -13.14822      0.5661349
      2652.5000         0.5048       572.5195         0.3292       -78.6946      -13.72316      0.5456014
      2653.0000         0.5338       599.1309         0.3215        -79.267       -14.2977      0.5250822
      2653.5000         0.5595       612.6055         0.3139       -79.8397      -14.87254      0.5045523
