#------------------------------------------------------------------------------
# Created by    : vladimir.rabinovich
# Created on    : 09/19/2023 17:21:15
#------------------------------------------------------------------------------
~Version Information Section
VERS.           2.0     :   CWLS log ASCII Standard - VERSION 2.0
WRAP.           NO      :   One line per depth step
~Well Information Section
#MNEM       .UNIT                                         VALUE :DESCRIPTION
#------------------------------------------------------------------------------
STRT        .FT                                            2893 :START DEPTH
STOP        .FT                                           11505 :STOP DEPTH
STEP        .FT                                             0.5 :STEP      
NULL        .                                           -999.25 :NULL      
COMP        .                               SEAGULL ENERGY CORP :COMPANY   
WELL        .                               OCS G06105 ST00BP00 :WELL      
FLD         .                              GALVESTON BLOCK 0343 :FIELD     
LOC         .                                                   :LOCATION  
CNTY        .                             GALVESTON LARGE BLOCK :LOCATION  
STAT        .                                             TEXAS :STATE     
CTRY        .                                     UNITED STATES :COUNTRY   
SRVC        .                                                   :SERVICE COMPANY
DATE        .                             9/13/2023 11:19:54 AM :LOG DATE  
API         .                                    42706403720000 :API NUMBER
UWI         .                                    42706403720000 :UNIQUE WELL ID
XCOORD      .                                  915246.934514234 :SURFACE X 
YCOORD      .                                  10428990.3748243 :SURFACE Y 
LAT         .                                         28.718869 :LATITUDE  
LON         .                                        -95.262866 :LONGITUDE 
ELEV        .FT                                              96 :ELEVATION VALUE
ELEV_TYPE   .                                                KB :ELEVATION REFERENCE TYPE
~Curve Information Section
#MNEM       .UNIT                                      API CODE :CURVE DESCRIPTION
#------------------------------------------------------------------------------
DEPT        .FT                                                 :DEPTH     
CAL         .IN                                                 :          
CNCSS       .%                                                  :          
CORR        .G/CM3                                              :          
DT24        .US/FT                                              :          
GR_NORM     .GAPI                                               :GammaRay Normalized
GRR         .GAPI                                               :          
ILD         .OHMM                                               :          
ILM         .OHMM                                               :          
PORDSS      .%                                                  :          
RFOC        .OHMM                                               :          
SP          .MV                                                 :          
SP_NORM     .MV                                                 :SP Normalized
VSH_GR      .V/V                                                :Volume of Shale from GR
VSH_SP      .V/V                                                :Volume of Shale from SP
~A        DEPTH            CAL          CNCSS           CORR           DT24        GR_NORM            GRR            ILD            ILM         PORDSS           RFOC             SP        SP_NORM         VSH_GR         VSH_SP
# ...
     10885.0000         7.1275        42.2375         0.0041          136.8       89.96661             95         0.3172         0.3028        21.4439         0.4309           -0.9        -0.5987              1      0.9524843
     10885.5000         7.1275        42.2378        -0.0039          134.4        90.7606           95.6         0.3353         0.3085        22.2802         0.4431           -0.6        -0.2861              1        0.95681
     10886.0000         7.1275         42.119        -0.0157          132.8       88.89502           94.2          0.348         0.3142        22.5224         0.4349              0         0.3265              1      0.9654214
     10886.5000         7.1275        41.8815        -0.0235          131.8        87.2954             93          0.348         0.3231         22.646         0.4229         0.2941         0.6332              1      0.9696614
     10887.0000         7.1275        41.6448        -0.0314          131.8        86.2277           92.2         0.3513         0.3292        22.5313         0.4309         0.2941         0.6457              1      0.9697014
     10887.5000         7.1275         41.172        -0.0314          129.2       85.69192           91.8         0.3545         0.3385        22.4164         0.4685           -0.3         0.0642              1      0.9612543
     10888.0000         7.1275        40.1094        -0.0275            126       84.62421             91         0.3545         0.3416        21.9428         0.5092           -0.6        -0.2232              1      0.9570072
     10888.5000         7.1275        38.9309        -0.0314          123.4       82.76901        89.6078         0.3578         0.3416        21.1095         0.5046           -0.9        -0.5106              1      0.9527614
     10889.0000         7.1275        37.6368        -0.0314          123.2       81.20077        88.4314         0.3612         0.3416        20.3943         0.4773           -0.9        -0.4981              1      0.9528014
     10889.5000         7.1275        38.1122        -0.0353          125.8       81.71831        88.8235         0.3679         0.3416        19.7975         0.4556           -0.9        -0.4855              1      0.9528414
     10890.0000         7.1275         38.822        -0.0314          130.4       82.23597        89.2157         0.3679         0.3385        20.2791         0.4472           -0.9        -0.4729              1        0.95288
     10890.5000         7.0871        39.7657        -0.0196            130       82.75323        89.6076         0.3611         0.3384        21.1236         0.4513        -0.9082        -0.4685              1      0.9528028
     10891.0000         7.0851        40.0033        -0.0118          126.6       82.22663        89.2145         0.3544         0.3384        21.4895         0.4597        -0.6227        -0.1705              1      0.9569214
     10891.5000         7.0832         39.887        -0.0118          124.6       80.65334        88.0343          0.351         0.3352        21.1354          0.464        -0.6369        -0.1721              1      0.9567586
     10892.0000         7.0812        39.4147        -0.0157            123       79.07685        86.8517         0.3509          0.332        20.5414         0.4683        -0.0526         0.4248      0.9803585      0.9651443
     10892.5000         7.0793        38.9406        -0.0197          123.2       78.02124        86.0608         0.3445         0.3259        20.3073         0.4682        -0.0673         0.4227      0.9578987      0.9649743
     10893.0000         7.1165        39.8922        -0.0315          123.8       78.53666        86.4513         0.3381           0.32        20.1933         0.4594         -0.082         0.4205      0.9688651      0.9648043
     10893.5000         7.1146        40.7283        -0.0276          124.4       78.79063        86.6452         0.3319          0.317        20.1992         0.4465        -0.0967         0.4184      0.9742687      0.9646329
     10894.0000         7.1127        41.6871        -0.0237            125       79.57039        87.2345         0.3258         0.3112        20.3251         0.4381        -0.1115         0.4162      0.9908593      0.9644614
     10894.5000         7.1499         42.646        -0.0198          126.2       82.19231        89.2091         0.3169         0.3055        20.4511         0.4338        -0.1263          0.414              1        0.96429
     10895.0000          7.148        43.2455        -0.0238            127        87.4552        93.1697         0.3112         0.3055         20.577         0.4378        -0.1411         0.4117              1      0.9641186
     10895.5000          7.146        43.6064        -0.0317            128       91.13124         95.937         0.3112         0.3055        20.9442         0.4419        -0.4554           0.11              1      0.9596671
     10896.0000         7.1441        43.7294        -0.0278          129.2       93.48547        97.7103         0.3111         0.3055        21.3101         0.4418        -0.4697         0.1083              1      0.9595029
     10896.5000         7.1421        43.8521        -0.0278       130.4051       89.79489        94.9379          0.314         0.3083         21.916         0.4416         0.1091         0.6997              1      0.9678114
     10897.0000         7.1402        43.8562        -0.0278        131.622       87.94794        93.5519         0.3168         0.3111         22.162         0.4373         0.0945         0.6976              1      0.9676428
     10897.5000         7.1382        43.6237        -0.0199       132.4355       86.89101          92.76         0.3226         0.3168        22.0479          0.433        -0.2166         0.3991              1      0.9632372
     10898.0000         7.1751        43.5099        -0.0119       132.6411       87.14538        92.9542         0.3255         0.3196        21.8139         0.4329        -0.8216        -0.1933              1      0.9546343
     10898.5000         7.1339        43.2782         -0.004       132.2371       84.78259        91.1803         0.3254         0.3167        21.6998         0.4327        -0.8355        -0.1946              1      0.9544757
     10899.0000          7.132        42.9291         -0.008       131.8322       82.14787        89.2019         0.3254         0.3138        21.8257         0.4326        -0.8492        -0.1958              1      0.9543186
     10899.5000         7.1693        42.9341          -0.02       131.2227        80.0182        87.6033         0.3253          0.311        21.9517         0.4325        -0.5685         0.0975              1      0.9583686
     10900.0000         7.1673        43.0567         -0.044       131.8359       79.21365        87.0012         0.3224         0.3082        22.0776         0.4282        -0.5825         0.0961      0.9832692      0.9582086
     10900.5000         7.1667        43.2948        -0.0401       132.6571       78.67095         86.596         0.3224         0.3054          22.08          0.424        -0.2943         0.3969      0.9717224      0.9623657
     10901.0000         7.1667        43.5317        -0.0363       135.5179       80.25138        87.7874         0.3195         0.3082          22.08          0.416              0         0.7037              1      0.9666086
     10901.5000         7.1667         43.887        -0.0324       137.9647       83.15549        89.9742         0.3196          0.311          21.72         0.4202              0         0.7163              1      0.9666486
     10902.0000         7.1667        44.0069        -0.0206          140.4       84.44656         90.948         0.3167          0.311          21.36         0.4203        -0.8855        -0.1566              1      0.9540386
     10902.5000         7.2059        43.7725        -0.0129            141       85.47832        91.7268         0.3139         0.3083             21         0.4326        -0.5909         0.1506              1      0.9582857
