#------------------------------------------------------------------------------
# Created by    : vladimir.rabinovich
# Created on    : 09/19/2023 17:20:36
#------------------------------------------------------------------------------
~Version Information Section
VERS.           2.0     :   CWLS log ASCII Standard - VERSION 2.0
WRAP.           NO      :   One line per depth step
~Well Information Section
#MNEM       .UNIT                                         VALUE :DESCRIPTION
#------------------------------------------------------------------------------
STRT        .FT                                             510 :START DEPTH
STOP        .FT                                            7943 :STOP DEPTH
STEP        .FT                                             0.5 :STEP      
NULL        .                                           -999.25 :NULL      
COMP        .                       BLUE DOLPHIN EXPLORATION CO :COMPANY   
WELL        .                                OCS 00709 ST00BP00 :WELL      
FLD         .                                FEDERAL BLOCK 0288 :FIELD     
LOC         .                                                   :LOCATION  
CNTY        .                             GALVESTON LARGE BLOCK :LOCATION  
STAT        .                                             TEXAS :STATE     
CTRY        .                                     UNITED STATES :COUNTRY   
SRVC        .                                                   :SERVICE COMPANY
DATE        .                             9/13/2023 11:19:25 AM :LOG DATE  
API         .                                    42706000400000 :API NUMBER
UWI         .                                    42706000400000 :UNIQUE WELL ID
XCOORD      .                                   1098851.8122004 :SURFACE X 
YCOORD      .                                  10485233.3471489 :SURFACE Y 
LAT         .                                         28.881916 :LATITUDE  
LON         .                                        -94.692672 :LONGITUDE 
ELEV        .FT                                              93 :ELEVATION VALUE
ELEV_TYPE   .                                                KB :ELEVATION REFERENCE TYPE
~Curve Information Section
#MNEM       .UNIT                                      API CODE :CURVE DESCRIPTION
#------------------------------------------------------------------------------
DEPT        .FT                                                 :DEPTH     
ASN         .OHMM                                               :          
GR          .GAPI                                               :          
ILD         .OHMM                                               :          
NEUT        .NAPI                                               :          
SP          .MV                                                 :          
SP_NORM     .MV                                                 :SP Normalized
VSH_SP      .V/V                                                :Volume of Shale from SP
~A        DEPTH            ASN             GR            ILD           NEUT             SP        SP_NORM         VSH_SP
# ...
      7913.5000         2.3566        -999.25         1.3157        -999.25       -80.8776      -39.41419      0.2205377
      7914.0000         2.4041        -999.25         1.2599        -999.25       -83.4874      -42.02398       0.166167
      7914.5000         2.1637        -999.25         1.2038        -999.25       -85.4722      -44.00879       0.124817
      7915.0000          1.995        -999.25          1.154        -999.25       -82.6555      -41.19209      0.1834981
      7915.5000         1.8047        -999.25         1.1115        -999.25       -78.1434      -36.67999      0.2775002
      7916.0000          1.577        -999.25         1.0727        -999.25       -73.1249      -31.66149      0.3820523
      7916.5000         1.4403        -999.25          1.042        -999.25       -63.3502      -21.88679      0.5856919
      7917.0000         1.4046        -999.25         1.0266        -999.25       -57.6083      -16.14489      0.7053149
      7917.5000         1.3892        -999.25         1.0276        -999.25       -54.3339      -12.87049      0.7735315
      7918.0000         1.3767        -999.25         1.0365        -999.25       -53.8541      -12.39069      0.7835274
      7918.5000         1.4142        -999.25         1.0523        -999.25       -52.0563      -10.59289      0.8209815
      7919.0000         1.4055        -999.25         1.0731        -999.25       -47.4176      -5.954185      0.9176211
      7919.5000         1.3839        -999.25         1.0975        -999.25       -45.9872      -4.523788      0.9474211
      7920.0000         1.3556        -999.25         1.1032        -999.25       -47.3181      -5.854687       0.919694
      7920.5000         1.2688        -999.25          1.102        -999.25       -45.4645      -4.001087      0.9583107
      7921.0000         1.2049        -999.25          1.088        -999.25       -44.0132      -2.549786      0.9885461
      7921.5000         1.2362        -999.25         1.0726        -999.25       -43.2123      -1.748886              1
      7922.0000         1.2652        -999.25         1.0541        -999.25       -42.8336      -1.370186              1
      7922.5000         1.2504        -999.25          1.035        -999.25       -42.7348      -1.271385              1
      7923.0000         1.2532        -999.25         1.0086        -999.25       -42.5139      -1.050488              1
      7923.5000          1.266        -999.25         0.9837        -999.25       -42.2985     -0.8350868              1
      7924.0000         1.2678        -999.25         1.0146        -999.25       -42.1188     -0.6553879              1
      7924.5000         1.2426        -999.25         1.0578        -999.25       -41.8517     -0.3882866              1
      7925.0000         1.2227        -999.25         1.0889        -999.25       -42.3991      -0.935688              1
      7925.5000         1.2721        -999.25         1.1161        -999.25       -43.3519      -1.888485              1
      7926.0000         1.3899        -999.25         1.1397        -999.25       -44.4099      -2.946487      0.9802815
      7926.5000         1.4459        -999.25           1.16        -999.25       -45.5323      -4.068886      0.9568982
      7927.0000         1.4557        -999.25         1.1782        -999.25       -46.2252      -4.761787      0.9424627
      7927.5000         1.4508        -999.25         1.1847        -999.25       -46.0149      -4.551487       0.946844
      7928.0000         1.4601        -999.25         1.1817        -999.25       -45.2904      -3.826988      0.9619377
      7928.5000         1.4474        -999.25         1.1848        -999.25       -44.2234      -2.759987      0.9841669
      7929.0000         1.4257        -999.25         1.1895        -999.25       -44.0157      -2.552288       0.988494
      7929.5000         1.4077        -999.25         1.2131        -999.25        -43.767      -2.303585      0.9936753
      7930.0000         1.4136        -999.25         1.2426        -999.25       -43.1841      -1.720688              1
      7930.5000         1.4372        -999.25         1.2883        -999.25       -43.6515      -2.188087      0.9960815
      7931.0000         1.4787        -999.25         1.3609        -999.25       -44.1578      -2.694386      0.9855337
      7931.5000         1.5544        -999.25         1.4317        -999.25       -45.5278      -4.064388      0.9569919
      7932.0000         1.6443        -999.25         1.4833        -999.25       -47.2842      -5.820786      0.9204003
      7932.5000          1.721        -999.25         1.5237        -999.25       -48.7061      -7.242687      0.8907773
      7933.0000         1.7339        -999.25         1.5566        -999.25       -47.8901      -6.426685      0.9077774
      7933.5000         1.7447        -999.25         1.5536        -999.25       -47.4392      -5.975788      0.9171711
      7934.0000         1.7381        -999.25         1.5356        -999.25       -48.1071      -6.643688      0.9032565
      7934.5000         1.7429        -999.25         1.4959        -999.25       -48.4758      -7.012386      0.8955753
      7935.0000         1.7056        -999.25         1.4678        -999.25       -47.7996      -6.336185      0.9096628
      7935.5000         1.6652        -999.25         1.4421        -999.25       -46.8705      -5.407085       0.929019
      7936.0000         1.7268        -999.25         1.4283        -999.25       -46.0081      -4.544685      0.9469857
      7936.5000         1.6492        -999.25         1.4146        -999.25        -45.803      -4.339588      0.9512586
      7937.0000         1.6278        -999.25         1.4113        -999.25       -45.9183      -4.454887      0.9488565
      7937.5000         1.6381        -999.25         1.4089        -999.25       -45.5933      -4.129887      0.9556274
      7938.0000         1.6312        -999.25          1.408        -999.25       -45.2531      -3.789688      0.9627149
      7938.5000         1.6791        -999.25         1.4099        -999.25       -45.2491      -3.785686      0.9627982
      7939.0000         1.7241        -999.25         1.4117        -999.25       -46.2353      -4.771885      0.9422524
      7939.5000         1.7077        -999.25         1.4144        -999.25       -46.1104      -4.646988      0.9448544
      7940.0000         1.6923        -999.25         1.4173        -999.25       -45.4193      -3.955887      0.9592524
      7940.5000         1.6949        -999.25         1.4203        -999.25       -44.2867      -2.823288      0.9828482
      7941.0000          1.671        -999.25         1.4272        -999.25       -45.0858      -3.622387      0.9662003
      7941.5000         1.6388        -999.25         1.4341        -999.25       -45.5718      -4.108387      0.9560753
      7942.0000         1.6129        -999.25         1.4409        -999.25       -46.0183      -4.554886      0.9467732
      7942.5000          1.574        -999.25          1.444        -999.25       -45.0135      -3.550087      0.9677065
      7943.0000         1.4687        -999.25         1.4387        -999.25       -44.2889      -2.825485      0.9828024
