#------------------------------------------------------------------------------
# Created by    : vladimir.rabinovich
# Created on    : 09/19/2023 17:20:57
#------------------------------------------------------------------------------
~Version Information Section
VERS.           2.0     :   CWLS log ASCII Standard - VERSION 2.0
WRAP.           NO      :   One line per depth step
~Well Information Section
#MNEM       .UNIT                                         VALUE :DESCRIPTION
#------------------------------------------------------------------------------
STRT        .FT                                             727 :START DEPTH
STOP        .FT                                            8206 :STOP DEPTH
STEP        .FT                                             0.5 :STEP      
NULL        .                                           -999.25 :NULL      
COMP        .                              PHOENIX RESOURCES CO :COMPANY   
WELL        .                                          BLK 335L :WELL      
FLD         .                                 BRAZOS BLOCK 0309 :FIELD     
LOC         .                                                   :LOCATION  
CNTY        .                                BRAZOS LARGE BLOCK :LOCATION  
STAT        .                                             TEXAS :STATE     
CTRY        .                                     UNITED STATES :COUNTRY   
SRVC        .                                                   :SERVICE COMPANY
DATE        .                             9/13/2023 11:18:52 AM :LOG DATE  
API         .                                    42704300210000 :API NUMBER
UWI         .                                    42704300210000 :UNIQUE WELL ID
XCOORD      .                                  898426.347293712 :SURFACE X 
YCOORD      .                                  10460523.5569112 :SURFACE Y 
LAT         .                                        28.8046676 :LATITUDE  
LON         .                                       -95.3172337 :LONGITUDE 
ELEV        .FT                                              70 :ELEVATION VALUE
ELEV_TYPE   .                                                DF :ELEVATION REFERENCE TYPE
~Curve Information Section
#MNEM       .UNIT                                      API CODE :CURVE DESCRIPTION
#------------------------------------------------------------------------------
DEPT        .FT                                                 :DEPTH     
ASN         .OHMM                                               :          
CALI        .IN                                                 :          
DT          .US/F                                               :          
ILD         .OHMM                                               :          
SP          .MV                                                 :          
SP_NORM     .MV                                                 :SP Normalized
VSH_SP      .V/V                                                :Volume of Shale from SP
~A        DEPTH            ASN           CALI             DT            ILD             SP        SP_NORM         VSH_SP
# ...
      6690.0000         0.7975        10.2473       109.5371          0.753       -39.9103      -1.669453      0.9902978
      6690.5000         0.7928         10.257       109.7963         0.7383       -39.4437      -1.199326      0.9971112
      6691.0000         0.7882        10.2623       108.3018         0.7153       -40.0017      -1.753799      0.9890754
      6691.5000         0.7819        10.2699       107.8939         0.6924       -41.7686       -3.51717      0.9635193
      6692.0000         0.7712        10.2936        107.788         0.6695       -43.5848      -5.329842      0.9372486
      6692.5000         0.7577        10.3404       108.6333         0.6466       -45.2999      -7.041412      0.9124433
      6693.0000         0.7208        10.2607       112.9882         0.6174       -48.1718      -9.909786      0.8708727
      6693.5000          0.698        10.1779        112.575          0.588       -52.5574      -14.29186      0.8073643
      6694.0000         0.6847        10.0927       112.0442         0.5586       -60.0941      -21.82503      0.6981879
      6694.5000         0.6756        10.0457         110.88         0.5235        -70.594       -32.3214      0.5460666
      6695.0000         0.6861        10.0868       104.3428         0.4958       -71.4631      -33.18697      0.5335222
      6695.5000         0.7418        10.0793        100.312         0.4795       -63.0277      -24.74805      0.6558254
      6696.0000         0.8066        10.0673        94.9896         0.4964        -63.324      -25.04082      0.6515823
      6696.5000         0.8763        10.1045        90.9786         0.5133       -68.5542      -30.26749      0.5758335
      6697.0000         0.9005        10.1572         89.979         0.5302       -71.5471      -33.25686      0.5325093
      6697.5000         0.9124        10.1983        91.7581         0.5508       -66.0009      -27.70713      0.6129401
      6698.0000         0.9263        10.1993        94.4922         0.5723       -60.1731       -21.8758      0.6974521
      6698.5000         0.9439        10.1488        97.4392         0.5938       -57.0444      -18.74358      0.7428467
      6699.0000          0.906        10.1282        98.9133         0.6154       -59.3508      -21.04645      0.7094717
      6699.5000         0.8546         10.144        99.0664         0.6372       -59.2224      -20.91452      0.7113837
      6700.0000         0.8336        10.1857       100.9727         0.6591       -53.1501       -14.8387      0.7994392
      6700.5000         0.8143        10.1901       103.5892         0.6777       -44.8578      -6.542866      0.9196686
      6701.0000         0.8018        10.1498       104.8129         0.6932       -40.8994       -2.58094      0.9770878
      6701.5000         0.8015        10.1189       105.6201         0.6886       -40.1684      -1.846413      0.9877331
      6702.0000         0.8029        10.0953       103.7068         0.6823       -42.9811      -4.655582      0.9470205
      6702.5000         0.8044        10.0732       102.0435         0.6721       -49.1694      -10.84035      0.8573862
      6703.0000         0.8056        10.0515       103.1167         0.6619       -55.4615      -17.12893      0.7662475
      6703.5000         0.8022        10.0308       104.0427         0.6517       -58.2914       -19.9553      0.7252855
      6704.0000         0.7919        10.0145       104.7548         0.6417       -56.4789      -18.13927      0.7516047
      6704.5000         0.7796        10.0096         104.54         0.6322       -56.3208      -17.97765      0.7539471
      6705.0000          0.773         10.006       102.5166         0.6226       -61.0127      -22.66602      0.6859998
      6705.5000         0.7888        10.0117       100.9714         0.6139       -64.2402      -25.88998      0.6392756
      6706.0000         0.8054        10.0451        103.155         0.6064       -63.2302      -24.87646      0.6539643
      6706.5000         0.7872        10.0955       106.1985         0.6014       -56.4591      -18.10183      0.7521473
      6707.0000         0.7668        10.1007       109.1405         0.6056       -46.7099      -8.349106      0.8934912
      6707.5000         0.7593        10.0504       111.2982         0.6169       -45.1755      -6.811176      0.9157801
      6708.0000         0.7519        10.0355       112.6298         0.6379       -44.2997       -5.93185      0.9285239
      6708.5000         0.7456        10.0337       112.3704         0.6589       -40.3931      -2.021725      0.9851924
      6709.0000         0.7395        10.0369       112.3346         0.6806       -37.9706      0.4043045              1
      6709.5000         0.7395        10.0402       111.6149         0.7024       -36.7483       1.630135              1
      6710.0000          0.782        10.0766       108.7174         0.7241       -36.0993       2.282661              1
      6710.5000         0.8181        10.1308        105.288         0.7433       -37.3533       1.032192              1
      6711.0000          0.847        10.1603        104.832         0.7589       -38.5497     -0.1606865              1
      6711.5000         0.8731        10.1209       105.3745         0.7745       -38.0046      0.3879433              1
      6712.0000          0.896        10.0329       109.2766         0.7865       -37.5002       0.895874              1
      6712.5000         0.8955         9.9578       112.5824         0.7937       -37.1038       1.295799              1
      6713.0000         0.8901          9.944       112.7631          0.801       -37.0872       1.315929              1
      6713.5000         0.8842         9.9448       111.5184         0.8069       -37.6385      0.7681541              1
      6714.0000         0.8784         9.8786       110.3542         0.8084       -38.3275     0.08268356              1
      6714.5000         0.8727         9.7363       109.0007         0.8096        -38.317     0.09671021              1
      6715.0000         0.8675         9.6523       109.5983         0.8027        -38.125      0.2922401              1
      6715.5000         0.8623          9.681       111.5223         0.7958        -39.051     -0.6302299              1
      6716.0000          0.858         9.7584       111.4377         0.7966       -39.3714     -0.9471054              1
      6716.5000         0.8546         9.8288       111.5079          0.801       -39.0242     -0.5963783              1
      6717.0000         0.8511         9.8747       111.5432         0.8054       -38.7386      -0.307251              1
      6717.5000         0.8477          9.893       110.3258         0.8097       -38.3058      0.1290779              1
      6718.0000          0.842         9.9026       109.2915         0.8141       -37.9027      0.5357094              1
      6718.5000         0.8357         9.8875       109.3917         0.8227       -37.6191       0.822834              1
      6719.0000         0.8251          9.967       110.2849         0.8353       -37.6274      0.8180618              1
      6719.5000         0.8114        10.0375         109.79         0.8479        -38.212      0.2369881              1
      6720.0000         0.8274        10.0932       108.0419         0.8601       -39.3708     -0.9182816              1
      6720.5000         0.8792        10.1538       105.3473         0.8697       -41.0179      -2.561852      0.9773645
      6721.0000         0.9145        10.2354        100.886         0.8794       -42.8045      -4.344929      0.9515228
      6721.5000         0.9394         10.479        98.9968         0.8891       -43.9565      -5.493401      0.9348782
      6722.0000          0.954        10.2664       100.7252         0.8848        -43.491      -5.024372      0.9416758
      6722.5000         0.9626        10.2484       101.9581         0.8783       -42.2069      -3.736744       0.960337
      6723.0000         0.9463        10.2733       102.1913         0.8693       -40.8463      -2.372612      0.9801071
