#------------------------------------------------------------------------------
# Created by    : vladimir.rabinovich
# Created on    : 09/19/2023 17:20:49
#------------------------------------------------------------------------------
~Version Information Section
VERS.           2.0     :   CWLS log ASCII Standard - VERSION 2.0
WRAP.           NO      :   One line per depth step
~Well Information Section
#MNEM       .UNIT                                         VALUE :DESCRIPTION
#------------------------------------------------------------------------------
STRT        .FT                                             507 :START DEPTH
STOP        .FT                                            6530 :STOP DEPTH
STEP        .FT                                             0.5 :STEP      
NULL        .                                           -999.25 :NULL      
COMP        .                                      SHELL OIL CO :COMPANY   
WELL        .                                ST TR 00692-L SE/4 :WELL      
FLD         .                                           WILDCAT :FIELD     
LOC         .                                                   :LOCATION  
CNTY        .                      MATAGORDA ISLAND LARGE BLOCK :LOCATION  
STAT        .                                             TEXAS :STATE     
CTRY        .                                     UNITED STATES :COUNTRY   
SRVC        .                                                   :SERVICE COMPANY
DATE        .                             9/13/2023 11:12:05 AM :LOG DATE  
API         .                                    42703000180000 :API NUMBER
UWI         .                                    42703000180000 :UNIQUE WELL ID
XCOORD      .                                  399042.886430441 :SURFACE X 
YCOORD      .                                  10159669.4462586 :SURFACE Y 
LAT         .                                        27.9430215 :LATITUDE  
LON         .                                       -96.8445442 :LONGITUDE 
ELEV        .FT                                              84 :ELEVATION VALUE
ELEV_TYPE   .                                                DF :ELEVATION REFERENCE TYPE
~Curve Information Section
#MNEM       .UNIT                                      API CODE :CURVE DESCRIPTION
#------------------------------------------------------------------------------
DEPT        .FT                                                 :DEPTH     
ASN         .OHMM                                               :          
CILD        .MMHO                                               :          
ILD         .OHMM                                               :          
SP          .MV                                                 :          
SP_NORM     .MV                                                 :SP Normalized
VSH_SP      .V/V                                                :Volume of Shale from SP
~A        DEPTH            ASN           CILD            ILD             SP        SP_NORM         VSH_SP
# ...
       925.0000         0.8915        1170.25         0.8167       -53.3187        -6.0036      0.1418285
       925.5000         0.8859       1173.578         0.8206       -53.3179        -6.0055      0.1412858
       926.0000         0.8788       1176.908         0.8245       -53.3508         -6.041      0.1311429
       926.5000         0.8714       1178.381         0.8337        -53.382        -6.0749      0.1214571
       927.0000         0.8644       1164.107         0.8437       -53.4093        -6.1049      0.1128858
       927.5000           0.86       1148.232         0.8538       -53.4366        -6.1349      0.1043143
       928.0000         0.8557       1121.283         0.8638       -53.4568        -6.1577     0.09779998
       928.5000         0.8654       1093.141         0.8739       -53.4744         -6.178     0.09200001
       929.0000         0.8768       1063.438         0.8839       -53.4921        -6.1984     0.08617143
       929.5000         0.8882       1033.729          0.894       -53.5098        -6.2188     0.08034284
       930.0000         0.8996       1004.024          0.904       -53.4987        -6.2104     0.08274283
       930.5000         0.9112       979.8867         0.9141       -53.4873        -6.2016     0.08525712
       931.0000         0.9229       957.9229         0.9241       -53.4759        -6.1929     0.08774281
       931.5000         0.9346       942.1387         0.9342       -53.4645        -6.1842     0.09022862
       932.0000         0.9464       929.2988         0.9443       -53.4537        -6.1761     0.09254292
       932.5000         0.9529       940.7275         0.9543       -53.4503        -6.1753      0.0927714
       933.0000          0.958       961.7246         0.9584        -53.447        -6.1747     0.09294292
       933.5000         0.9631       982.7217         0.9622       -53.4709        -6.2013     0.08534282
       934.0000         0.9678       1001.359         0.9659       -53.4982        -6.2313     0.07677146
       934.5000          0.972       1019.658         0.9697       -53.5245        -6.2603     0.06848567
       935.0000         0.9762       1036.973         0.9735       -53.5483        -6.2867     0.06094292
       935.5000         0.9803       1038.418         0.9782       -53.5722        -6.3133     0.05334282
       936.0000         0.9876       1023.135         0.9836       -53.5961        -6.3399     0.04574285
       936.5000         0.9964       1007.852          0.989       -53.6199        -6.3664      0.0381715
       937.0000         1.0062       992.5674         0.9945       -53.6699         -6.419     0.02314281
       937.5000         1.0251       905.1934         0.9999       -53.7209        -6.4727    0.007799966
       938.0000         1.0508       879.7607          1.009       -53.7773        -6.5318              0
       938.5000          1.083       854.3262         1.0251       -53.8353        -6.5925              0
       939.0000         1.1151       822.9023         1.0412       -53.8547        -6.6145              0
       939.5000         1.1473       790.1357         1.0573       -53.7252        -6.4877     0.00351429
       940.0000         1.1795       757.3691         1.0733       -53.2738         -6.039      0.1317143
       940.5000          1.219       724.6025         1.1092       -52.8174        -5.5853      0.2613429
       941.0000         1.2501       690.0322          1.148       -52.5319        -5.3025      0.3421429
       941.5000         1.2812       653.4111         1.1867       -52.4486        -5.2218         0.3652
       942.0000         1.3462        634.418         1.2255       -52.8428        -5.6187         0.2518
       942.5000         1.4621       615.4277         1.2643       -52.8964         -5.675      0.2357142
       943.0000          1.483       613.4541         1.3031         -52.95        -5.7313      0.2196286
       943.5000         1.5009       633.8125         1.3867       -53.0122        -5.7961      0.2011143
       944.0000         1.5129       651.2842         1.4438       -53.0884         -5.875      0.1785714
       944.5000         1.5248       662.7021         1.4624       -53.1577         -5.947          0.158
       945.0000         1.5365       674.1191          1.481       -53.2166        -6.0086      0.1403999
       945.5000         1.5438       685.5371         1.4997       -53.2755        -6.0702         0.1228
       946.0000         1.5512       681.8203         1.5183       -53.3284        -6.1257      0.1069429
       946.5000         1.5585       662.5703          1.537       -53.3613        -6.1613     0.09677137
       947.0000         1.5659       643.0742         1.5556       -53.3986        -6.2013     0.08534282
       947.5000         1.5732       595.5039         1.5884       -53.5192        -6.3246     0.05011422
       948.0000         1.5801        608.541         1.6098       -53.5527        -6.3607     0.03979996
       948.5000         1.5868       621.5781         1.5819       -53.4823         -6.293     0.05914279
       949.0000         1.5935        682.083          1.554       -53.3735        -6.1869      0.0894571
       949.5000         1.6001       734.1084         1.5087       -52.9072        -5.7233      0.2219143
       950.0000         1.6104       778.6963         1.4618       -52.3939        -5.2127         0.3678
       950.5000         1.6271       793.7471         1.4149       -51.8781        -4.6995      0.5144286
       951.0000         1.6871       780.6162          1.368       -51.3192        -4.1433      0.6733428
       951.5000         1.6656       767.4844          1.321       -50.8934        -3.7202      0.7942286
       952.0000         1.5738       754.3535         1.2741       -50.7186        -3.5481         0.8434
       952.5000          1.482       741.2217         1.2336       -50.5438        -3.3759         0.8926
       953.0000         1.3902        737.585         1.1982       -50.2972         -3.132      0.9622857
       953.5000         1.2984       751.7295         1.1627       -50.0343        -2.8718              1
       954.0000         1.2611        765.874         1.1273       -49.8898          -2.73              1
       954.5000         1.2555       780.8926         1.1029       -49.8001        -2.6429              1
       955.0000           1.25       798.5576          1.079       -49.7104        -2.5559              1
       955.5000         1.2444       816.2227         1.0551       -49.5852        -2.4334              1
       956.0000         1.2388       833.8848         1.0313       -49.4576        -2.3085              1
       956.5000         1.2304       851.5498         1.0074       -49.3506        -2.2042              1
       957.0000         1.2117       874.3105         0.9892       -49.2755        -2.1317              1
       957.5000         1.1607        903.915         0.9755       -49.2003        -2.0592              1
       958.0000         1.1148       935.5205         0.9618       -49.2567        -2.1183              1
       958.5000         1.0877       973.0488         0.9481       -49.4471        -2.3114              1
       959.0000         1.0606       1026.605          0.935       -49.7133        -2.5802              1
       959.5000         1.0335       1081.652         0.9289       -49.9594         -2.829              1
       960.0000         1.0062       1138.242         0.9229        -50.209        -3.0813      0.9767714
       960.5000         0.9788       1176.697         0.9168       -50.4841        -3.3591         0.8974
       961.0000         0.9514       1183.385         0.9108       -50.7591        -3.6368      0.8180571
       961.5000         0.9245       1188.178         0.9047       -51.0342        -3.9145      0.7387143
       962.0000         0.9048       1184.412         0.8987       -51.2769        -4.1599         0.6686
       962.5000         0.8898       1153.375         0.8926       -51.3923         -4.278      0.6348572
