#------------------------------------------------------------------------------
# Created by    : vladimir.rabinovich
# Created on    : 09/19/2023 17:20:33
#------------------------------------------------------------------------------
~Version Information Section
VERS.           2.0     :   CWLS log ASCII Standard - VERSION 2.0
WRAP.           NO      :   One line per depth step
~Well Information Section
#MNEM       .UNIT                                         VALUE :DESCRIPTION
#------------------------------------------------------------------------------
STRT        .FT                                             242 :START DEPTH
STOP        .FT                                            8116 :STOP DEPTH
STEP        .FT                                             0.5 :STEP      
NULL        .                                           -999.25 :NULL      
COMP        .                                       HUNT OIL CO :COMPANY   
WELL        .                                     ST TR 00005-L :WELL      
FLD         .                                           WILDCAT :FIELD     
LOC         .                                                   :LOCATION  
CNTY        .                           HIGH ISLAND LARGE BLOCK :LOCATION  
STAT        .                                             TEXAS :STATE     
CTRY        .                                     UNITED STATES :COUNTRY   
SRVC        .                                                   :SERVICE COMPANY
DATE        .                             9/13/2023 11:19:33 AM :LOG DATE  
API         .                                    42708000010000 :API NUMBER
UWI         .                                    42708000010000 :UNIQUE WELL ID
XCOORD      .                                  1328371.56215902 :SURFACE X 
YCOORD      .                                  10754892.1390607 :SURFACE Y 
LAT         .                                        29.6307718 :LATITUDE  
LON         .                                       -93.9824852 :LONGITUDE 
ELEV        .FT                                              11 :ELEVATION VALUE
ELEV_TYPE   .                                                KB :ELEVATION REFERENCE TYPE
~Curve Information Section
#MNEM       .UNIT                                      API CODE :CURVE DESCRIPTION
#------------------------------------------------------------------------------
DEPT        .FT                                                 :DEPTH     
ASN         .OHMM                                               :          
LAT         .OHMM                                               :          
LN          .OHMM                                               :          
SN          .OHMM                                               :          
SP          .MV                                                 :          
SP_NORM     .MV                                                 :SP Normalized
VSH_SP      .V/V                                                :Volume of Shale from SP
~A        DEPTH            ASN            LAT             LN             SN             SP        SP_NORM         VSH_SP
# ...
      3893.5000         0.6842         0.6127         0.6676         0.6275       -51.3188       2.833698              1
      3894.0000         0.6865         0.6103         0.6729         0.6356       -50.4769       3.679897              1
      3894.5000         0.6901         0.6079         0.6784         0.6446       -49.7834       4.377689              1
      3895.0000         0.6962         0.6055         0.6839         0.6537       -49.2703       4.895084              1
      3895.5000         0.7023         0.6031         0.6894         0.6628       -51.0522       3.117481              1
      3896.0000         0.7084         0.6008         0.6948         0.6718       -53.7228      0.4511757              1
      3896.5000         0.7428         0.5984         0.7004         0.6809       -55.3318      -1.153522      0.9974833
      3897.0000         0.7882          0.596          0.705           0.69       -56.7037       -2.52113      0.9750634
      3897.5000         0.8045         0.5937         0.7021         0.7091       -59.2621      -5.075233      0.9331929
      3898.0000         0.8208         0.5913         0.6993         0.7384       -60.7696      -6.578438      0.9085502
      3898.5000         0.8331          0.589         0.6964         0.7678       -61.3307      -7.135242      0.8994222
      3899.0000         0.8123         0.5866         0.6935         0.7971       -60.3287      -6.128948      0.9159189
      3899.5000         0.7836         0.5842         0.6903         0.8264       -58.6614      -4.457352      0.9433221
      3900.0000         0.7481         0.5819          0.681         0.8552       -56.9949      -2.786556      0.9707122
      3900.5000          0.726         0.5853         0.6717         0.8326       -55.1937     -0.9810562              1
      3901.0000         0.7246         0.5892         0.6624           0.81       -53.1155       1.101437              1
      3901.5000         0.7286         0.5931         0.6531         0.7874       -51.9702       2.251034              1
      3902.0000         0.7334          0.597         0.6438         0.7648       -51.0779       3.147629              1
      3902.5000         0.7382         0.6008         0.6345         0.7422       -50.4011       3.828724              1
      3903.0000         0.7296         0.6047         0.6264         0.7196       -49.9889        4.24522              1
      3903.5000         0.7161         0.6086         0.6184          0.697       -51.6911       2.547314              1
      3904.0000         0.7025         0.6125         0.6104         0.6744       -54.0522      0.1905098              1
      3904.5000         0.6889         0.6163         0.6024         0.6521       -56.2753      -2.028294      0.9831427
      3905.0000         0.6777         0.6266         0.5943         0.6472       -57.9575      -3.706196      0.9556361
      3905.5000         0.6665         0.6455         0.5922         0.6422       -59.0775      -4.821899      0.9373459
      3906.0000         0.6867         0.6645         0.5933         0.6373       -59.0732      -4.813305      0.9374868
      3906.5000         0.7051         0.6835         0.5944         0.6323        -59.069       -4.80481      0.9376261
      3907.0000         0.7191         0.7024         0.5956         0.6274        -60.005      -5.736515      0.9223522
      3907.5000          0.733         0.7214         0.5974         0.6335       -61.3353      -7.062519      0.9006144
      3908.0000         0.7318         0.7403         0.5992         0.6622       -62.7697      -8.492622      0.8771701
      3908.5000         0.7249         0.7593         0.6011         0.6908       -64.2456      -9.964226      0.8530455
      3909.0000         0.7204          0.778         0.6029         0.7194       -63.2572      -8.971527      0.8693192
      3909.5000         0.7179         0.7935         0.5946          0.748       -62.0317      -7.741734      0.8894798
      3910.0000          0.744         0.8091         0.5863         0.7905       -61.0541      -6.759838      0.9055764
      3910.5000         0.7894         0.8143         0.5779         0.8511       -60.1481      -5.849545      0.9204993
      3911.0000         0.8363         0.7964         0.5696         0.9116       -65.5518      -11.24895      0.8319844
      3911.5000         1.0277         0.7409         0.5613         0.9721       -83.8817      -29.57455      0.5315648
      3912.0000         1.0746         0.6715         0.5666          1.009       -90.3479      -36.03646      0.4256319
      3912.5000         1.1143         0.6184         0.5735         1.0184       -98.3248      -44.00906      0.2949334
      3913.0000         1.1143         0.5935         0.5805          0.994        -100.24      -45.91996      0.2636071
      3913.5000         1.0456         0.5686          0.585         0.9696       -97.4862      -43.16187      0.3088219
      3914.0000         0.9748         0.5871         0.5887         0.9452       -93.1899      -38.86127      0.3793234
      3914.5000          0.932         0.6162         0.5925         0.9208       -89.3828      -35.04987      0.4418054
      3915.0000         0.8873         0.6421         0.5962         0.8964       -87.4642      -33.12698      0.4733281
      3915.5000         0.8429         0.6564         0.5953          0.872       -85.5458      -31.20428      0.5048478
      3916.0000         0.8988         0.6706         0.5934         0.8517       -83.8269      -29.48109      0.5330969
      3916.5000         0.9599         0.6494         0.5915         0.8321        -84.574      -30.22389      0.5209198
      3917.0000         1.0125         0.5837         0.5897         0.8789       -91.5492       -37.1948      0.4066426
      3917.5000         1.0653         0.5352         0.5878         0.9875       -94.1758       -39.8171      0.3636541
      3918.0000         1.1521         0.4892         0.5915         1.0928       -95.7024      -41.33941      0.3386983
      3918.5000         1.2217         0.5035         0.6055         1.1924       -97.2649      -42.89761       0.313154
      3919.0000         1.3039         0.5431         0.6195         1.2921       -98.3124      -43.94081      0.2960522
      3919.5000         1.4163         0.5954         0.6335         1.3917       -97.2117      -42.83582      0.3141669
      3920.0000         1.4726         0.6528         0.6473         1.4531       -96.1118      -41.73162      0.3322684
      3920.5000         1.5289         0.7102         0.6607         1.4959       -94.5552      -40.17073      0.3578569
      3921.0000         1.5471         0.7676         0.6741         1.5387       -92.9778      -38.58903      0.3837864
      3921.5000         1.5603         0.7899         0.6874         1.5455       -92.1216      -37.72853      0.3978929
      3922.0000         1.5666          0.799         0.7008         1.5395       -93.4519      -39.05453      0.3761552
      3922.5000         1.5725         0.7419          0.694         1.4853       -94.7822      -40.38055      0.3544173
      3923.0000         1.5723          0.662         0.6855         1.4297       -96.1118      -41.70585       0.332691
      3923.5000         1.5678          0.614          0.677         1.3742       -97.4197      -43.00945      0.3113205
      3924.0000         1.5597         0.5748         0.6736          1.298       -98.7267      -44.31216      0.2899646
      3924.5000         1.3078         0.5357         0.6737         1.2098       -97.3663      -42.94746      0.3123367
      3925.0000         1.0159         0.5056         0.6738         1.1215       -94.6376      -40.21447      0.3571398
      3925.5000         0.9814         0.5045         0.6738         1.0478       -92.3596      -37.93217      0.3945546
      3926.0000         0.9622         0.5034         0.6739         0.9812       -90.1133      -35.68157      0.4314497
      3926.5000         0.9453         0.5061          0.681         0.9146       -88.6931      -34.25708       0.454802
