#------------------------------------------------------------------------------
# Created by    : vladimir.rabinovich
# Created on    : 09/19/2023 17:20:33
#------------------------------------------------------------------------------
~Version Information Section
VERS.           2.0     :   CWLS log ASCII Standard - VERSION 2.0
WRAP.           NO      :   One line per depth step
~Well Information Section
#MNEM       .UNIT                                         VALUE :DESCRIPTION
#------------------------------------------------------------------------------
STRT        .FT                                             242 :START DEPTH
STOP        .FT                                            8116 :STOP DEPTH
STEP        .FT                                             0.5 :STEP      
NULL        .                                           -999.25 :NULL      
COMP        .                                       HUNT OIL CO :COMPANY   
WELL        .                                     ST TR 00005-L :WELL      
FLD         .                                           WILDCAT :FIELD     
LOC         .                                                   :LOCATION  
CNTY        .                           HIGH ISLAND LARGE BLOCK :LOCATION  
STAT        .                                             TEXAS :STATE     
CTRY        .                                     UNITED STATES :COUNTRY   
SRVC        .                                                   :SERVICE COMPANY
DATE        .                             9/13/2023 11:19:33 AM :LOG DATE  
API         .                                    42708000010000 :API NUMBER
UWI         .                                    42708000010000 :UNIQUE WELL ID
XCOORD      .                                  1328371.56215902 :SURFACE X 
YCOORD      .                                  10754892.1390607 :SURFACE Y 
LAT         .                                        29.6307718 :LATITUDE  
LON         .                                       -93.9824852 :LONGITUDE 
ELEV        .FT                                              11 :ELEVATION VALUE
ELEV_TYPE   .                                                KB :ELEVATION REFERENCE TYPE
~Curve Information Section
#MNEM       .UNIT                                      API CODE :CURVE DESCRIPTION
#------------------------------------------------------------------------------
DEPT        .FT                                                 :DEPTH     
ASN         .OHMM                                               :          
LAT         .OHMM                                               :          
LN          .OHMM                                               :          
SN          .OHMM                                               :          
SP          .MV                                                 :          
SP_NORM     .MV                                                 :SP Normalized
VSH_SP      .V/V                                                :Volume of Shale from SP
~A        DEPTH            ASN            LAT             LN             SN             SP        SP_NORM         VSH_SP
# ...
      7545.0000         0.8969         0.4846         0.8879         0.9264       -76.7367      -31.98876      0.5922532
      7545.5000         0.8737         0.4944         0.8822         0.9058       -75.3063      -30.55964      0.6110575
      7546.0000         0.8676         0.5163         0.8773         0.8853       -72.6605      -27.91512      0.6458538
      7546.5000         0.8618         0.5415          0.873         0.8647       -61.9461        -17.202      0.7868158
      7547.0000         0.8531         0.5668         0.8687         0.8442       -58.1788      -13.43597      0.8363687
      7547.5000          0.833         0.5969         0.8645         0.8236       -56.9449      -12.20336      0.8525874
      7548.0000         0.8156         0.6283         0.8602          0.803       -56.2355      -11.49524      0.8619047
      7548.5000         0.7969         0.6596         0.8559         0.7825       -55.5548      -10.81581      0.8708445
      7549.0000         0.7775          0.691         0.8518          0.764       -54.8875       -10.1498      0.8796079
      7549.5000         0.7575         0.7222         0.8476         0.7458       -54.2209      -9.484478      0.8883621
      7550.0000         0.7472         0.7531         0.8435         0.7423       -52.9593      -8.224159      0.9049453
      7550.5000         0.7569          0.784         0.8394         0.7415       -51.6296      -6.895737      0.9224245
      7551.0000          0.783         0.8047         0.8353         0.7407        -50.671      -5.938419      0.9350208
      7551.5000         0.7933         0.8129         0.8311         0.7398       -49.7871      -5.055798      0.9466342
      7552.0000         0.8015         0.8162         0.8277         0.7401       -49.3964      -4.666378      0.9517582
      7552.5000         0.8093         0.8062          0.825          0.743       -49.0002      -4.271458      0.9569545
      7553.0000         0.8169         0.7963         0.8223         0.7459       -48.5943      -3.866837      0.9622785
      7553.5000         0.8245         0.7863         0.8195         0.7487        -48.188      -3.461819      0.9676077
      7554.0000         0.8321         0.7757         0.8168         0.7516       -47.6987      -2.973797       0.974029
      7554.5000         0.8385         0.7636         0.8141         0.7545       -47.1421       -2.41848      0.9813358
      7555.0000         0.8449         0.7515         0.8113         0.7578       -46.5864      -1.864056      0.9886308
      7555.5000          0.846         0.7394         0.8084         0.7635       -46.0307      -1.309639      0.9959258
      7556.0000         0.8368         0.7276         0.8056         0.7692       -45.6085     -0.8887215              1
      7556.5000         0.8276         0.7169         0.8028          0.775       -45.1888     -0.4702988              1
      7557.0000         0.8191         0.7062            0.8         0.7807       -44.7695    -0.05228043              1
      7557.5000         0.8119         0.6956         0.7973         0.7996       -44.3514      0.3645439              1
      7558.0000         0.8169          0.692         0.7947         0.8221         -44.04      0.6746597              1
      7558.5000         0.8604         0.6905         0.7921         0.8447       -43.7286      0.9847832              1
      7559.0000         0.9293         0.6985         0.7895          0.884       -43.4172       1.294903              1
      7559.5000         0.9984         0.7206         0.7868         0.9343       -43.0986       1.612225              1
      7560.0000         1.0674         0.7832          0.782         0.9845       -42.6252       2.084343              1
      7560.5000         1.1364         0.8711         0.7742         1.0286       -42.8023        1.90596              1
      7561.0000         1.2055          0.995         0.7664         1.0712       -43.8953      0.8116798              1
      7561.5000         1.2745         1.1027         0.7586         1.1119       -47.1488        -2.4431      0.9810119
      7562.0000         1.2275         1.1561         0.7508         1.1111       -50.7785      -6.074078      0.9332358
      7562.5000         1.1696         1.1841          0.743         1.0876       -54.4048       -9.70166      0.8855045
      7563.0000         1.1117         1.0633         0.7317         1.0641       -58.0344      -13.33254      0.8377298
      7563.5000         1.0537         0.9426         0.7199         1.0357       -61.6607      -16.96012      0.7899984
      7564.0000         0.9958          0.822          0.708         0.9946       -65.2904      -20.59109      0.7422224
      7564.5000         0.9378         0.7012         0.6962         0.9535       -68.9166      -24.21858      0.6944923
      7565.0000         0.8798         0.5805         0.6874         0.9124       -67.0901      -22.39336      0.7185084
      7565.5000         0.8702         0.4598         0.6789         0.8757       -61.6977      -17.00224      0.7894442
      7566.0000         0.9053         0.4516         0.6703          0.843       -59.5504      -14.85622      0.8176813
      7566.5000         0.9389         0.4503         0.6606         0.8671       -61.0463       -16.3534      0.7979816
      7567.0000         0.9747         0.4515           0.65         0.9392       -63.4907      -18.79908      0.7658016
      7567.5000         1.0362         0.4653         0.6381         0.9791       -64.5769      -19.88655      0.7514927
      7568.0000         1.1026         0.4791         0.6199         0.9927       -65.6228      -20.93374      0.7377139
      7568.5000         1.0065         0.4929         0.5946          0.962       -65.1493      -20.46152      0.7439274
      7569.0000         0.8963         0.5257         0.5635         0.9314       -60.5426       -15.8561       0.804525
      7569.5000         0.8557         0.5634         0.5312         0.9032       -54.5928      -9.907581       0.882795
      7570.0000         0.8097         0.6179         0.5065          0.885       -50.9967      -6.312759      0.9300953
      7570.5000         0.8178         0.6833         0.4863         0.8668       -49.6335       -4.95084      0.9480153
      7571.0000         0.8282         0.7421         0.4761         0.8482        -48.533       -3.85162      0.9624787
      7571.5000          0.842         0.7916         0.4678         0.8147       -48.8092      -4.129101      0.9588276
      7572.0000         0.8542         0.8411         0.4624         0.7812       -50.3873      -5.708477      0.9380463
      7572.5000         0.7956         0.8906         0.4583         0.7515       -51.7253       -7.04776      0.9204242
      7573.0000         0.7531         0.9401         0.4697         0.7262       -53.1641      -8.487843      0.9014757
      7573.5000         0.7353         0.9763         0.4832          0.701         -58.34      -13.66502       0.833355
      7574.0000         0.7114         0.6467         0.5081         0.6758       -68.4667        -23.793      0.7000921
      7574.5000         0.6522         0.5207         0.5442         0.6432       -78.5801      -33.90768      0.5670042
      7575.0000         0.5913         0.4318         0.5803         0.6098       -88.7068      -44.03566      0.4337413
      7575.5000         0.5604         0.3538         0.6053         0.5763       -98.8336      -54.16374      0.3004771
      7576.0000         0.5418          0.302         0.5801         0.5436      -108.9603      -64.29172      0.1672142
      7576.5000         0.5209         0.2633         0.5549         0.5153       -114.801       -70.1337     0.09034608
      7577.0000         0.5017         0.2451         0.5296          0.487      -116.6141      -71.94807     0.06647271
      7577.5000         0.4772         0.2548         0.4968         0.4588      -117.7574      -73.09267     0.05141228
      7578.0000         0.4574         0.2729         0.4578         0.4363      -118.6884      -74.02494     0.03914552
