#------------------------------------------------------------------------------
# Created by    : vladimir.rabinovich
# Created on    : 09/19/2023 17:22:43
#------------------------------------------------------------------------------
~Version Information Section
VERS.           2.0     :   CWLS log ASCII Standard - VERSION 2.0
WRAP.           NO      :   One line per depth step
~Well Information Section
#MNEM       .UNIT                                         VALUE :DESCRIPTION
#------------------------------------------------------------------------------
STRT        .FT                                            3600 :START DEPTH
STOP        .FT                                            7940 :STOP DEPTH
STEP        .FT                                             0.5 :STEP      
NULL        .                                           -999.25 :NULL      
COMP        .                          SEAGULL ENERGY E & P INC :COMPANY   
WELL        .                               OCS G09015 ST00BP00 :WELL      
FLD         .                                 BRAZOS BLOCK 0431 :FIELD     
LOC         .                                                   :LOCATION  
CNTY        .                                BRAZOS LARGE BLOCK :LOCATION  
STAT        .                                             TEXAS :STATE     
CTRY        .                                     UNITED STATES :COUNTRY   
SRVC        .                                                   :SERVICE COMPANY
DATE        .                             9/13/2023 11:09:51 AM :LOG DATE  
API         .                                    42704402370000 :API NUMBER
UWI         .                                    42704402370000 :UNIQUE WELL ID
XCOORD      .                                  876086.487249857 :SURFACE X 
YCOORD      .                                  10366258.6106956 :SURFACE Y 
LAT         .                                        28.5443209 :LATITUDE  
LON         .                                       -95.3810825 :LONGITUDE 
ELEV        .FT                                              90 :ELEVATION VALUE
ELEV_TYPE   .                                                KB :ELEVATION REFERENCE TYPE
~Curve Information Section
#MNEM       .UNIT                                      API CODE :CURVE DESCRIPTION
#------------------------------------------------------------------------------
DEPT        .FT                                                 :DEPTH     
DCAL        .IN                                                 :          
DPHI        .%                                                  :          
GR          .GAPI                                               :          
GR_NORM     .GAPI                                               :GammaRay Normalized
ILD         .OHMM                                               :          
ILM         .OHMM                                               :          
NPHI        .%                                                  :          
SGRD        .OHMM                                               :          
SP          .MV                                                 :          
SP_NORM     .MV                                                 :SP Normalized
VSH_GR      .V/V                                                :Volume of Shale from GR
VSH_SP      .V/V                                                :Volume of Shale from SP
~A        DEPTH           DCAL           DPHI             GR        GR_NORM            ILD            ILM           NPHI           SGRD             SP        SP_NORM         VSH_GR         VSH_SP
      3600.0000        -999.25        -999.25         23.789       32.10213        -999.25        -999.25        61.0385        -999.25        -999.25        -999.25              0        -999.25
      3600.5000        -999.25        -999.25         23.028       30.99902        -999.25        -999.25        61.9419        -999.25        -999.25        -999.25              0        -999.25
      3601.0000        -999.25        -999.25        21.9409       29.42321        -999.25        -999.25        62.6138        -999.25        -999.25        -999.25              0        -999.25
      3601.5000        -999.25        -999.25        20.9509       27.98816        -999.25        -999.25        63.1804        -999.25        -999.25        -999.25              0        -999.25
      3602.0000        -999.25        -999.25        20.3682       27.14351        -999.25        -999.25        64.0918        -999.25        -999.25        -999.25              0        -999.25
      3602.5000        -999.25        -999.25        20.4058       27.19801        -999.25        -999.25        65.3367        -999.25        -999.25        -999.25              0        -999.25
      3603.0000        -999.25        -999.25        20.9301       27.95801        -999.25        -999.25        66.3949        -999.25        -999.25        -999.25              0        -999.25
      3603.5000        -999.25        -999.25        21.9188       29.39119        -999.25        -999.25        66.8391        -999.25        -999.25        -999.25              0        -999.25
      3604.0000        -999.25        -999.25        22.9947       30.95075        -999.25        -999.25         67.113        -999.25        -999.25        -999.25              0        -999.25
      3604.5000        -999.25        -999.25         24.057        32.4906        -999.25        -999.25        67.1427        -999.25        -999.25        -999.25              0        -999.25
      3605.0000        -999.25        -999.25        25.1519       34.07772        -999.25        -999.25        65.8025        -999.25        -999.25        -999.25     0.02293015        -999.25
      3605.5000        -999.25        -999.25        26.8101       36.48136        -999.25        -999.25        63.6661        -999.25        -999.25        -999.25     0.07407152        -999.25
      3606.0000        -999.25        -999.25        29.3476        40.1596        -999.25        -999.25         60.802        -999.25        -999.25        -999.25      0.1523318        -999.25
      3606.5000        -999.25        -999.25        32.4765       44.69508        -999.25        -999.25        59.5869        -999.25        -999.25        -999.25      0.2488316        -999.25
      3607.0000        -999.25        -999.25        34.9997       48.35258        -999.25        -999.25         54.751        -999.25        -999.25        -999.25      0.3266507        -999.25
      3607.5000        -999.25        -999.25        37.0188       51.27937        -999.25        -999.25        52.2499        -999.25        -999.25        -999.25      0.3889228        -999.25
      3608.0000        -999.25        -999.25        36.9908       51.23878        -999.25        -999.25         49.938        -999.25        -999.25        -999.25      0.3880593        -999.25
      3608.5000        -999.25        -999.25        35.5494        49.1494        -999.25        -999.25        48.3605        -999.25        -999.25        -999.25      0.3436043        -999.25
      3609.0000        -999.25        -999.25        33.8417       46.67402        -999.25        -999.25        47.3793        -999.25        -999.25        -999.25      0.2909365        -999.25
      3609.5000        -999.25        -999.25        32.8563       45.24562        -999.25        -999.25        46.8325        -999.25        -999.25        -999.25      0.2605451        -999.25
      3610.0000        -999.25        -999.25        33.3558       45.96967        -999.25        -999.25        47.1125        -999.25        -999.25        -999.25      0.2759504        -999.25
      3610.5000        -999.25        -999.25        36.9315       51.15282        -999.25        -999.25        48.0887        -999.25        -999.25        -999.25      0.3862303        -999.25
      3611.0000        -999.25        -999.25        39.9641       55.54873        -999.25        -999.25        49.4146        -999.25        -999.25        -999.25      0.4797601        -999.25
      3611.5000        -999.25        -999.25        42.9327       59.85185        -999.25        -999.25        49.3595        -999.25        -999.25        -999.25       0.571316        -999.25
      3612.0000           0.98        25.6298        45.5745       63.68127       19885.84          0.686        48.6242         0.3844       -59.4513      -5.116043       0.652793      0.7603044
      3612.5000         1.4368        27.2113        46.0544       64.37691       10318.45         1.1948        47.9119           0.47       -64.4352      -10.09995       0.667594      0.3769273
      3613.0000         1.8038        28.7993         44.873       62.66443         2.2274          1.372         47.645         0.5881       -67.4116      -13.07634      0.6311581      0.1479739
      3613.5000         2.0869        31.5505        43.8882        61.2369         1.0188         1.0303        47.7524          0.664       -68.8497      -14.51444      0.6007852     0.03735058
      3614.0000         2.1492        33.2928        42.9901       59.93506         0.3522         0.4809        47.5662          0.679       -69.2939      -14.95864      0.5730864    0.003181458
      3614.5000         2.1538        33.7832        42.1218       58.67643          0.261         0.3451         47.918         0.6715       -69.5834      -15.24814      0.5463069              0
      3615.0000         2.1435        33.9924        41.9138       58.37491         0.2484         0.3259        47.8129         0.6644       -69.8744      -15.53914      0.5398917              0
      3615.5000         2.1324        34.0596        42.3553       59.01489         0.2687         0.3229        47.4492          0.664       -70.2465      -15.91124      0.5535083              0
      3616.0000         2.1222        33.5618        42.2114        58.8063         0.3127         0.3385        46.8718         0.6694       -70.6721      -16.33684      0.5490702              0
      3616.5000         2.1117        32.6591        43.1711       60.19742         0.3506         0.3722        46.1644         0.6803       -71.0909      -16.75564      0.5786685              0
      3617.0000          2.102        33.0018         44.449       62.04982         0.3735         0.4126        45.4165         0.6909       -71.4866      -17.15134      0.6180813              0
      3617.5000         2.0958        33.6516        45.3563       63.36497         0.3916          0.451        44.8495         0.7029       -71.8835      -17.54824      0.6460633              0
      3618.0000         2.0995        34.3013        43.4212       60.55997         0.3911         0.4733        44.3756         0.7121       -72.4127      -18.07744      0.5863823              0
      3618.5000         2.1073        34.7502        39.7191       55.19359         0.3795         0.4516        43.7359         0.7146       -72.9872      -18.65194       0.472204              0
      3619.0000         2.1204        34.5269        37.4578       51.91573         0.3659         0.4257        43.1379         0.7131       -73.5636      -19.22834      0.4024622              0
      3619.5000         2.1275        33.6648        36.5964       50.66708         0.3512         0.4027        42.7587         0.7059       -73.9302      -19.59494      0.3758953              0
      3620.0000         1.9008        32.9794        36.5055       50.53532         0.3378         0.3853        42.4771         0.6926       -74.0941      -19.75884      0.3730919              0
