#------------------------------------------------------------------------------
# Created by    : vladimir.rabinovich
# Created on    : 09/19/2023 17:22:28
#------------------------------------------------------------------------------
~Version Information Section
VERS.           2.0     :   CWLS log ASCII Standard - VERSION 2.0
WRAP.           NO      :   One line per depth step
~Well Information Section
#MNEM       .UNIT                                         VALUE :DESCRIPTION
#------------------------------------------------------------------------------
STRT        .FT                                            2981 :START DEPTH
STOP        .FT                                           10477 :STOP DEPTH
STEP        .FT                                             0.5 :STEP      
NULL        .                                           -999.25 :NULL      
COMP        .                          SEAGULL ENERGY E & P INC :COMPANY   
WELL        .                               OCS G13783 ST00BP00 :WELL      
FLD         .                                           WILDCAT :FIELD     
LOC         .                                                   :LOCATION  
CNTY        .                             GALVESTON LARGE BLOCK :LOCATION  
STAT        .                                             TEXAS :STATE     
CTRY        .                                     UNITED STATES :COUNTRY   
SRVC        .                                                   :SERVICE COMPANY
DATE        .                             9/13/2023 11:19:39 AM :LOG DATE  
API         .                                    42706403890000 :API NUMBER
UWI         .                                    42706403890000 :UNIQUE WELL ID
XCOORD      .                                  1047250.65699841 :SURFACE X 
YCOORD      .                                  10470150.2239286 :SURFACE Y 
LAT         .                                         28.838318 :LATITUDE  
LON         .                                         -94.85315 :LONGITUDE 
ELEV        .FT                                              94 :ELEVATION VALUE
ELEV_TYPE   .                                                KB :ELEVATION REFERENCE TYPE
~Curve Information Section
#MNEM       .UNIT                                      API CODE :CURVE DESCRIPTION
#------------------------------------------------------------------------------
DEPT        .FT                                                 :DEPTH     
CILD        .MMHO                                               :          
CNC         .%                                                  :          
DT24        .US/F                                               :          
GR          .GAPI                                               :          
GR_NORM     .GAPI                                               :GammaRay Normalized
PORZ        .%                                                  :          
RFOC        .OHMM                                               :          
RILD        .OHMM                                               :          
RILM        .OHMM                                               :          
RWAZ        .OHMM                                               :          
SP          .MV                                                 :          
SP_NORM     .MV                                                 :SP Normalized
TEN         .LBF                                                :          
VSH_GR      .V/V                                                :Volume of Shale from GR
VSH_SP      .V/V                                                :Volume of Shale from SP
ZCOR        .G/C3                                               :          
ZDEN        .G/C3                                               :          
~A        DEPTH           CILD            CNC           DT24             GR        GR_NORM           PORZ           RFOC           RILD           RILM           RWAZ             SP        SP_NORM            TEN         VSH_GR         VSH_SP           ZCOR           ZDEN
# ...
      5456.0000       1316.816        -999.25       126.1349        91.7889       84.30422        -999.25          0.897          0.759          0.718        -999.25         -6.613      -4.908842          -3.15              1      0.9298737        -999.25        -999.25
      5456.5000       1222.832        -999.25       128.4258        89.7119       81.81055        -999.25          0.916          0.818          0.751        -999.25         -5.767      -4.063362         14.888              1       0.941952        -999.25        -999.25
      5457.0000       1180.619        -999.25       129.7168         87.625       79.30502        -999.25          0.927          0.847          0.772        -999.25         -5.568      -3.864882         13.534      0.9852133      0.9447874        -999.25        -999.25
      5457.5000       1169.219        -999.25       128.1479        87.6949       79.38765        -999.25           0.94          0.855          0.781        -999.25         -6.447      -4.744402         -7.405      0.9869713      0.9322228        -999.25        -999.25
      5458.0000        1176.26        -999.25        124.355        88.7749       80.68239        -999.25          0.942           0.85          0.784        -999.25         -7.992      -6.289922        -29.281              1       0.910144        -999.25        -999.25
      5458.5000        1215.82        -999.25       121.1139        88.2909       80.10033        -999.25          0.919          0.822          0.784        -999.25        -10.337      -8.635443        -33.606              1      0.8766365        -999.25        -999.25
      5459.0000       1320.793        -999.25       118.1029         86.724       78.21879        -999.25          0.905          0.757          0.767        -999.25        -14.462      -12.76096        -20.058      0.9621019      0.8177006        -999.25        -999.25
      5459.5000       1515.865        -999.25        115.157         85.804       77.11353        -999.25          0.944           0.66           0.71        -999.25        -20.829      -19.12848         -7.681      0.9385858      0.7267359        -999.25        -999.25
      5460.0000       1800.494        -999.25        112.319         83.512       74.36189        -999.25          1.035          0.555           0.62        -999.25        -29.482        -27.782        -10.704      0.8800401      0.6031142        -999.25        -999.25
      5460.5000       2152.129        -999.25        108.845         77.063       66.62182        -999.25          1.119          0.465          0.525        -999.25        -40.211      -38.51152        -22.605      0.7153578      0.4498354        -999.25        -999.25
      5461.0000       2525.793        -999.25       107.3569         69.174       57.15377        -999.25          1.121          0.396          0.446        -999.25        -51.237      -49.53804        -27.431      0.5139099      0.2923137        -999.25        -999.25
      5461.5000       2849.445        -999.25        109.579         63.746        50.6389        -999.25           1.03          0.351          0.394        -999.25        -59.848      -58.14956        -25.558      0.3752957       0.169292        -999.25        -999.25
      5462.0000       3054.078        -999.25        111.933         60.848       47.16004        -999.25          0.912          0.327          0.367        -999.25        -64.501      -62.80308        -26.653      0.3012775      0.1028131        -999.25        -999.25
      5462.5000       3130.051        -999.25        113.136         59.883       46.00079        -999.25          0.827          0.319          0.366        -999.25       -64.9399       -63.2425        -31.986      0.2766126     0.09653565        -999.25        -999.25
      5463.0000       3114.258        -999.25        114.271         61.197       47.57632        -999.25           0.78          0.321          0.385        -999.25        -60.688      -58.99112        -34.278      0.3101346      0.1572697        -999.25        -999.25
      5463.5000       3023.641        -999.25        114.512        64.4839       51.51936        -999.25          0.769          0.331          0.418        -999.25        -51.503      -49.80664        -31.774      0.3940288      0.2884766        -999.25        -999.25
      5464.0000       2843.973        -999.25       114.8569        68.5359       56.38049        -999.25          0.804          0.352          0.462        -999.25        -40.043      -38.34716         -29.87      0.4974571      0.4521834        -999.25        -999.25
      5464.5000       2578.313        -999.25       116.3469         73.476       62.30735        -999.25          0.866          0.388          0.515        -999.25        -31.149      -29.45368         -32.27      0.6235607      0.5792331        -999.25        -999.25
      5465.0000       2273.602        -999.25        117.188        79.1959       69.16998        -999.25          0.905           0.44           0.57        -999.25        -28.033       -26.3382        -35.463      0.7695739        0.62374        -999.25        -999.25
      5465.5000       2006.135        -999.25       116.8839        82.8829       73.59311        -999.25          0.928          0.498          0.611        -999.25        -30.587      -28.89272        -39.748      0.8636832      0.5872468        -999.25        -999.25
      5466.0000       1848.885        -999.25       116.6299        80.5969       70.84866        -999.25          0.978          0.541          0.625        -999.25       -37.1219      -35.42814        -46.022      0.8052907      0.4938837        -999.25        -999.25
      5466.5000       1849.578        -999.25        115.934        74.0709        63.0162        -999.25          1.038          0.541           0.61        -999.25        -45.193      -43.49976        -45.457      0.6386425      0.3785748        -999.25        -999.25
      5467.0000       2025.842        -999.25       114.7319         67.578       55.22347        -999.25          1.074          0.494          0.568        -999.25        -52.461      -50.76828        -33.465      0.4728398      0.2747388        -999.25        -999.25
      5467.5000        2345.43        -999.25        114.121        63.3539       50.15329        -999.25          1.117          0.426          0.505        -999.25        -58.395       -56.7028        -22.161      0.3649637      0.1899599        -999.25        -999.25
      5468.0000       2730.512        -999.25         113.83         61.283       47.66695        -999.25          1.168          0.366          0.438        -999.25        -63.897      -62.20532        -21.356      0.3120627      0.1113525        -999.25        -999.25
      5468.5000       3087.629        -999.25       113.4309         60.456       46.67329        -999.25          1.148          0.324          0.386        -999.25       -68.8799      -67.18874        -27.925      0.2909212      0.0401608        -999.25        -999.25
      5469.0000       3338.797        -999.25        113.069         59.082       45.02323        -999.25          1.053          0.299          0.353        -999.25         -71.87      -70.17937        -35.424      0.2558134              0        -999.25        -999.25
      5469.5000       3452.781        -999.25         112.59         56.517       41.94397        -999.25          0.962           0.29           0.34        -999.25       -72.3119      -70.62178        -36.363      0.1902973              0        -999.25        -999.25
      5470.0000        3453.41        -999.25        111.948         55.619       40.86512        -999.25          0.889           0.29          0.344        -999.25       -70.7729      -69.08331        -28.403       0.167343     0.01309564        -999.25        -999.25
      5470.5000        3372.23        -999.25       111.5459        57.8979       43.59854        -999.25          0.826          0.296          0.365        -999.25       -66.7839      -65.09482        -23.798      0.2255008     0.07007403        -999.25        -999.25
