#------------------------------------------------------------------------------
# Created by    : vladimir.rabinovich
# Created on    : 09/19/2023 17:20:32
#------------------------------------------------------------------------------
~Version Information Section
VERS.           2.0     :   CWLS log ASCII Standard - VERSION 2.0
WRAP.           NO      :   One line per depth step
~Well Information Section
#MNEM       .UNIT                                         VALUE :DESCRIPTION
#------------------------------------------------------------------------------
STRT        .FT                                             530 :START DEPTH
STOP        .FT                                           15895 :STOP DEPTH
STEP        .FT                                             0.5 :STEP      
NULL        .                                           -999.25 :NULL      
COMP        .                                      SHELL OIL CO :COMPANY   
WELL        .                                OCS 00708 ST00BP00 :WELL      
FLD         .                                FEDERAL BLOCK 0288 :FIELD     
LOC         .                                                   :LOCATION  
CNTY        .                             GALVESTON LARGE BLOCK :LOCATION  
STAT        .                                             TEXAS :STATE     
CTRY        .                                     UNITED STATES :COUNTRY   
SRVC        .                                                   :SERVICE COMPANY
DATE        .                             9/13/2023 11:19:24 AM :LOG DATE  
API         .                                    42706000930000 :API NUMBER
UWI         .                                    42706000930000 :UNIQUE WELL ID
XCOORD      .                                  1077631.85251343 :SURFACE X 
YCOORD      .                                  10490946.9562601 :SURFACE Y 
LAT         .                                         28.896779 :LATITUDE  
LON         .                                        -94.759235 :LONGITUDE 
ELEV        .FT                                              76 :ELEVATION VALUE
ELEV_TYPE   .                                                KB :ELEVATION REFERENCE TYPE
~Curve Information Section
#MNEM       .UNIT                                      API CODE :CURVE DESCRIPTION
#------------------------------------------------------------------------------
DEPT        .FT                                                 :DEPTH     
ASN         .OHMM                                               :          
CILD        .MMHO                                               :          
SP          .MV                                                 :          
SP_NORM     .MV                                                 :SP Normalized
VSH_SP      .V/V                                                :Volume of Shale from SP
~A        DEPTH            ASN           CILD             SP        SP_NORM         VSH_SP
# ...
      3610.0000         0.9355       1149.359        -56.097      -1.551544       0.990151
      3610.5000         0.9297       1169.734       -56.0305      -1.485043      0.9913386
      3611.0000         0.9239       1181.438       -55.9638      -1.418343      0.9925296
      3611.5000          0.918       1193.141       -55.8972      -1.351746      0.9937188
      3612.0000         0.9122       1204.836       -55.8306      -1.285145      0.9949082
      3612.5000         0.9089       1216.539        -55.764      -1.218544      0.9960974
      3613.0000         0.9106       1234.344       -55.6974      -1.151943      0.9972867
      3613.5000         0.9123       1228.344       -55.6428      -1.097343      0.9982617
      3614.0000         0.9179       1204.516       -55.5883      -1.042843       0.999235
      3614.5000         0.9268       1180.688       -55.7731      -1.227646      0.9959349
      3615.0000         0.9415       1156.859       -56.0264      -1.480946      0.9914117
      3615.5000         0.9566       1133.031       -57.0684      -2.522945      0.9728045
      3616.0000         0.9718       1110.156       -58.1099      -3.564445      0.9542063
      3616.5000         0.9872       1090.219        -58.937      -4.391544      0.9394367
      3617.0000          1.005       1070.281       -59.6562      -5.110744      0.9265938
      3617.5000         1.0229       1050.344       -60.3755      -5.830044      0.9137492
      3618.0000         1.0411       1030.859       -60.7136      -6.168144      0.9077117
      3618.5000         1.0633       1013.266       -60.8998      -6.354343      0.9043867
      3619.0000         1.0502       1039.781       -60.9263      -6.380844      0.9039135
      3619.5000         1.0315         1077.5       -59.9155      -5.370045      0.9219635
      3620.0000         1.0129       1115.219       -58.9048      -4.359344      0.9400117
      3620.5000         0.9943       1139.734       -58.0984      -3.552944      0.9544117
      3621.0000           0.98       1161.891       -57.8083      -3.262844       0.959592
      3621.5000         0.9699       1184.047       -57.5183      -2.972843      0.9647707
      3622.0000         0.9599       1206.188       -57.2283      -2.682842      0.9699492
      3622.5000         0.9498       1228.344       -56.9382      -2.392746      0.9751295
      3623.0000         0.9397       1241.531       -56.8365      -2.291042      0.9769457
      3623.5000         0.9296       1250.766       -56.7625      -2.217045      0.9782671
      3624.0000         0.9196           1260       -56.6885      -2.143044      0.9795885
      3624.5000         0.9101       1269.234       -56.6144      -2.068943      0.9809117
      3625.0000         0.9043       1278.477       -56.5405      -1.995045      0.9822313
      3625.5000         0.8985       1287.711       -56.4636      -1.918144      0.9836046
      3626.0000         0.8927       1295.391       -56.3837      -1.838245      0.9850313
      3626.5000         0.8869       1302.461       -56.3037      -1.758244      0.9864599
      3627.0000         0.8811       1309.527       -56.2238      -1.678345      0.9878867
      3627.5000         0.8753       1316.598       -56.1438      -1.598343      0.9893153
      3628.0000         0.8695       1323.668       -56.1183      -1.572845      0.9897706
      3628.5000          0.864       1332.414       -56.1502      -1.604744       0.989201
      3629.0000         0.8602       1341.789       -56.1821      -1.636642      0.9886314
      3629.5000         0.8563        1345.18        -56.214      -1.668545      0.9880617
      3630.0000         0.8525       1330.672       -56.3365      -1.791042      0.9858742
      3630.5000         0.8487       1292.125       -56.4978      -1.952343      0.9829939
      3631.0000         0.8491       1259.281       -56.6591      -2.113644      0.9801135
      3631.5000         0.8527       1233.656       -56.8596      -2.314144      0.9765331
      3632.0000         0.8639       1214.297       -57.0758      -2.530346      0.9726724
      3632.5000          0.888       1201.523       -57.2919      -2.746445      0.9688135
      3633.0000          0.912       1188.742       -57.1488      -2.603344      0.9713688
      3633.5000         0.9307       1173.867       -56.9823      -2.436844       0.974342
      3634.0000         0.9323       1158.703       -56.8484      -2.302944      0.9767331
      3634.5000         0.9286       1160.438       -56.7427      -2.197243      0.9786206
      3635.0000         0.9248       1181.906       -56.6368      -2.091343      0.9805117
      3635.5000          0.921       1203.391       -56.5484      -2.002945      0.9820903
      3636.0000         0.9156       1222.742       -56.5653      -2.019844      0.9817885
      3636.5000         0.9096       1239.867       -56.5823      -2.036842      0.9814849
      3637.0000         0.9036           1257       -56.4226      -1.877144      0.9843367
      3637.5000         0.8976       1274.125        -56.204      -1.658543      0.9882403
      3638.0000         0.8917       1291.258       -55.9854      -1.439945      0.9921438
      3638.5000         0.8857         1308.5       -55.7667      -1.221245      0.9960492
      3639.0000         0.8797       1326.609       -55.5585      -1.013042      0.9997671
      3639.5000         0.8738       1344.703       -55.3588      -0.813343              1
      3640.0000         0.8678       1362.813       -55.3247     -0.7792435              1
      3640.5000         0.8618       1374.453       -55.6108      -1.065346      0.9988331
      3641.0000         0.8559       1359.289        -55.897      -1.351543      0.9937224
      3641.5000         0.8528       1344.125       -55.8961      -1.350643      0.9937385
      3642.0000         0.8507       1328.969       -55.8838      -1.338345      0.9939581
      3642.5000         0.8485       1311.945       -55.8715      -1.326042      0.9941778
      3643.0000         0.8463       1294.242       -55.8406      -1.295143      0.9947296
      3643.5000         0.8442       1276.531       -55.8044      -1.258945       0.995376
      3644.0000         0.8478       1258.828       -55.9988      -1.453342      0.9919046
      3644.5000         0.8557       1241.125       -56.3628      -1.817345      0.9854046
      3645.0000         0.8636       1227.477       -56.4076      -1.862144      0.9846045
      3645.5000         0.8715       1215.609       -56.2365      -1.691044      0.9876599
      3646.0000          0.881       1214.258       -56.0652      -1.519745      0.9907188
      3646.5000         0.8911       1224.148       -55.8939      -1.348446      0.9937778
      3647.0000         0.8927       1234.031       -55.7227      -1.177242      0.9968349
      3647.5000         0.8875       1246.758       -55.5514      -1.005943      0.9998938
      3648.0000         0.8822       1259.813       -55.3693     -0.8238449              1
      3648.5000         0.8794       1272.867       -55.1869     -0.6414452              1
      3649.0000         0.8766        1285.93       -55.0045     -0.4590454              1
      3649.5000         0.8738       1298.984       -54.8221     -0.2766457              1
      3650.0000         0.8711       1312.039       -54.8376     -0.2921448              1
      3650.5000         0.8683         1328.5       -55.1122     -0.5667458              1
      3651.0000         0.8656           1348       -55.3138     -0.7683449              1
      3651.5000         0.8628         1367.5       -55.5092     -0.9637451              1
      3652.0000         0.8601       1381.477       -55.3394     -0.7939453              1
      3652.5000         0.8573       1388.684       -55.1696     -0.6241455              1
      3653.0000         0.8546       1395.367       -54.9998     -0.4543457              1
      3653.5000         0.8573       1401.895       -54.8379     -0.2924423              1
