#------------------------------------------------------------------------------
# Created by    : vladimir.rabinovich
# Created on    : 09/19/2023 17:22:16
#------------------------------------------------------------------------------
~Version Information Section
VERS.           2.0     :   CWLS log ASCII Standard - VERSION 2.0
WRAP.           NO      :   One line per depth step
~Well Information Section
#MNEM       .UNIT                                         VALUE :DESCRIPTION
#------------------------------------------------------------------------------
STRT        .FT                                              10 :START DEPTH
STOP        .FT                                            7932 :STOP DEPTH
STEP        .FT                                             0.5 :STEP      
NULL        .                                           -999.25 :NULL      
COMP        .                                       ALLIED CORP :COMPANY   
WELL        .                               OCS G04069 ST00BP00 :WELL      
FLD         .                                           WILDCAT :FIELD     
LOC         .                                                   :LOCATION  
CNTY        .                             GALVESTON LARGE BLOCK :LOCATION  
STAT        .                                             TEXAS :STATE     
CTRY        .                                     UNITED STATES :COUNTRY   
SRVC        .                                                   :SERVICE COMPANY
DATE        .                             9/13/2023 11:18:53 AM :LOG DATE  
API         .                                    42706400790000 :API NUMBER
UWI         .                                    42706400790000 :UNIQUE WELL ID
XCOORD      .                                  993545.470392299 :SURFACE X 
YCOORD      .                                  10396443.6120929 :SURFACE Y 
LAT         .                                         28.633244 :LATITUDE  
LON         .                                        -95.016955 :LONGITUDE 
ELEV        .FT                                              82 :ELEVATION VALUE
ELEV_TYPE   .                                                KB :ELEVATION REFERENCE TYPE
~Curve Information Section
#MNEM       .UNIT                                      API CODE :CURVE DESCRIPTION
#------------------------------------------------------------------------------
DEPT        .FT                                                 :DEPTH     
CALI        .IN                                                 :          
CILD        .MMHO                                               :          
DPHI        .B                                                  :          
DRHO        .G/C3                                               :          
DT          .US/F                                               :          
GR          .GAPI                                               :          
GR_1        .GAPI                                               :          
GR_NORM     .GAPI                                               :GammaRay Normalized
ILD         .OHMM                                               :          
ILM         .OHMM                                               :          
NPHI        .%                                                  :          
SFL         .OHMM                                               :          
SP          .MV                                                 :          
SP_NORM     .MV                                                 :SP Normalized
VSH_GR      .V/V                                                :Volume of Shale from GR
VSH_SP      .V/V                                                :Volume of Shale from SP
~A        DEPTH           CALI           CILD           DPHI           DRHO             DT             GR           GR_1        GR_NORM            ILD            ILM           NPHI            SFL             SP        SP_NORM         VSH_GR         VSH_SP
# ...
      3866.0000        15.9848        975.876        33.6289        -0.0499       139.6714        76.4746        89.5719       71.98059         1.0349         1.0259        43.0735         1.2391         -61.86      0.4025345      0.8293743              1
      3866.5000        15.9847       985.4053        34.1487        -0.0472       140.7139        75.4773        88.3258       70.73022         1.0239         1.0237         45.313         1.2118       -61.5596      0.6969032      0.8027706              1
      3867.0000        15.9841       994.9346        35.2422        -0.0524       141.7812        78.1548        87.2441       74.07334         1.0088          1.013        44.7837         1.1992       -61.9841      0.2663727      0.8739009              1
      3867.5000        15.9752       1004.457        35.8409        -0.0598       142.9441        81.9678        87.3596       78.83584         0.9744         0.9968        41.1868         1.1964       -62.4279     -0.1834564      0.9752306      0.9973792
      3868.0000        15.9665       1018.019        35.8612        -0.0615       144.7969         84.453        89.1389       81.93861         0.9411         0.9665        46.1884         1.1974       -62.8773     -0.6388893              1       0.990873
      3868.5000        15.9632       1032.889        35.5145        -0.0434       146.2686        86.2898        91.1371       84.23087         0.9113         0.9332        49.5969         1.1842       -63.3361      -1.103722              1      0.9842325
      3869.0000        15.9723       1047.771        35.3529        -0.0373       147.7053        86.7388        91.6545       84.78836           0.89         0.9073        52.6827         1.1671        -63.795      -1.568649              1      0.9775907
      3869.5000        15.9817        1089.48        36.5662        -0.0519         148.98        84.4431        92.6171       81.91499         0.8692          0.891        51.1769          1.147       -63.2606      -1.040283              1      0.9851388
      3870.0000        15.9855       1125.912        38.1607        -0.0677       149.7263        81.3218        96.6586       78.00961         0.8489         0.8851        50.0775         1.1333       -62.6717     -0.4574089      0.9576513      0.9934656
      3870.5000        15.9986       1147.225        39.0105         -0.074       149.8171        80.2141        99.4844       76.62125         0.8433         0.8825        50.2415         1.1425       -62.1086     0.09965897      0.9281116              1
      3871.0000        16.0102       1155.732        38.7002        -0.0621       149.3433        81.3501        98.0857        78.0375         0.8396         0.8805        49.7969         1.1465       -61.5455      0.6567268      0.9582446              1
      3871.5000        16.0113       1164.232        38.1358        -0.0457       148.7231        84.4504        96.7748       81.90913         0.8359         0.8792        45.7579          1.148       -60.9221       1.274097              1              1
      3872.0000        16.0125       1169.406        38.1843        -0.0422       148.3254        87.7272        97.5908       86.00139         0.8323         0.8795        42.0644         1.1464       -60.4232       1.766968              1              1
      3872.5000        16.0137       1172.156        38.4949        -0.0471       147.7737        88.9044        95.1166       87.46914         0.8315          0.884          40.72         1.1332       -60.6814       1.502735              1              1
      3873.0000        16.0148       1174.908        37.8488        -0.0496       146.9846        86.6448        90.6908       84.64088         0.8307         0.8895        40.2007         1.1284       -61.0891       1.089005              1              1
      3873.5000         16.016       1177.654        36.7632        -0.0448        146.251          84.58        90.4736       82.05615         0.8298         0.8939        40.3041         1.1426       -61.3884      0.7836723              1              1
      3874.0000        16.0172       1180.383        36.4185         -0.046       145.5447        86.9727        90.3097       85.04327          0.829         0.8855         41.085         1.1546       -61.1702       0.995842              1              1
      3874.5000        16.0183       1183.107        36.4868        -0.0521       145.3196        89.9382        90.0555       88.74641         0.8264         0.8783        41.5716         1.1667       -60.4879       1.672115              1              1
      3875.0000        16.0195       1185.836        36.9959        -0.0559       145.6436        89.5806        90.6024       88.29565         0.8236         0.8724        41.8615         1.1584         -60.41       1.743984              1              1
      3875.5000        16.0207       1190.305          37.94        -0.0677       146.2014        88.7694        91.7843       87.27791         0.8208         0.8686        42.2175          1.149       -60.4858       1.662151              1              1
      3876.0000        16.0229       1198.811        38.2282        -0.0739       146.9375        89.1128        92.8716       87.70341          0.818         0.8648        43.8123         1.1332       -60.7418       1.400124              1              1
      3876.5000        16.0559       1207.318        37.9688         -0.066       147.6257        89.7821        91.0862       88.53629         0.8076         0.8611        47.4622         1.0952       -60.9977       1.138191              1              1
      3877.0000        16.0826        1215.18        36.5949         -0.051       147.9631          88.64         88.568       87.10492         0.7971         0.8606        51.3412          1.104       -60.1803       1.949558              1              1
      3877.5000        16.0895       1222.504        36.3575        -0.0456       147.6902        87.4978        87.7114       85.67343         0.7868         0.8605        51.5353         1.1158       -59.4547       2.669128              1              1
      3878.0000        16.0859        1229.82        38.3214        -0.0529       147.0474        88.8193        90.1594       87.32155         0.7824         0.8618        51.9861         1.1199        -59.168       2.949799              1              1
      3878.5000        16.0919       1221.369        39.3284        -0.0726       146.3442         95.025        91.2882       95.07493         0.7823          0.863        52.0944          1.124       -59.0998       3.011967              1              1
      3879.0000        16.1311       1212.393        39.1597        -0.0858       146.0767         95.767        90.2224       95.99869         0.7822         0.8682        47.3837         1.1093       -59.5818       2.523937              1              1
      3879.5000        16.1398       1185.713        38.2944        -0.0878       146.5432        95.1409        89.1747       95.21232         0.7923          0.877        44.8796         1.0936       -60.0638       2.035908              1              1
      3880.0000        16.1172        1157.15        38.2716        -0.0833       146.9314        92.6581        91.5409       92.10506         0.8193         0.8899        44.1072         1.0892       -60.4388       1.654877              1              1
      3880.5000        16.1104        1145.41        38.6013        -0.0842       147.2996        88.0403        94.5803       86.32907         0.8472         0.9084        44.1499         1.1242       -60.7739       1.313747              1              1
      3881.0000        16.1116       1133.662        38.7031        -0.0907       146.6755        85.6044        93.7946       83.28045         0.8692         0.9206        45.3959         1.1708       -60.9824       1.099216              1              1
      3881.5000        16.1109       1126.063        38.8901        -0.0963       145.7583        84.1324         89.559       81.43671         0.8909         0.9239        47.8025          1.213       -60.9484       1.127186              1              1
