#------------------------------------------------------------------------------
# Created by    : vladimir.rabinovich
# Created on    : 09/19/2023 17:21:35
#------------------------------------------------------------------------------
~Version Information Section
VERS.           2.0     :   CWLS log ASCII Standard - VERSION 2.0
WRAP.           NO      :   One line per depth step
~Well Information Section
#MNEM       .UNIT                                         VALUE :DESCRIPTION
#------------------------------------------------------------------------------
STRT        .FT                                            4200 :START DEPTH
STOP        .FT                                            8641 :STOP DEPTH
STEP        .FT                                             0.5 :STEP      
NULL        .                                           -999.25 :NULL      
COMP        .                                       HUNT OIL CO :COMPANY   
WELL        .                               OCS G25526 ST00BP00 :WELL      
FLD         .                                           WILDCAT :FIELD     
LOC         .                                                   :LOCATION  
CNTY        .                             GALVESTON LARGE BLOCK :LOCATION  
STAT        .                                             TEXAS :STATE     
CTRY        .                                     UNITED STATES :COUNTRY   
SRVC        .                                                   :SERVICE COMPANY
DATE        .                             9/13/2023 11:19:33 AM :LOG DATE  
API         .                                    42706404520000 :API NUMBER
UWI         .                                    42706404520000 :UNIQUE WELL ID
XCOORD      .                                  1090250.84236946 :SURFACE X 
YCOORD      .                                  10532258.5226608 :SURFACE Y 
LAT         .                                         29.010895 :LATITUDE  
LON         .                                        -94.721682 :LONGITUDE 
ELEV        .FT                                             108 :ELEVATION VALUE
ELEV_TYPE   .                                                KB :ELEVATION REFERENCE TYPE
~Curve Information Section
#MNEM       .UNIT                                      API CODE :CURVE DESCRIPTION
#------------------------------------------------------------------------------
DEPT        .FT                                                 :DEPTH     
CALI        .IN                                                 :          
DCAL        .IN                                                 :          
DFL         .OHMM                                               :          
DLOD        .LB                                                 :          
DPHI        .DEC                                                :          
DRHO        .G/C3                                               :          
GR          .GAPI                                               :          
GR_NORM     .GAPI                                               :GammaRay Normalized
HDCN        .MMHO                                               :          
HO24        .OHMM                                               :          
HO30        .OHMM                                               :          
HO40        .OHMM                                               :          
HO60        .OHMM                                               :          
HO90        .OHMM                                               :          
HT24        .OHMM                                               :          
HT30        .OHMM                                               :          
HT40        .OHMM                                               :          
HT60        .OHMM                                               :          
HT90        .OHMM                                               :          
NPHI        .DEC                                                :          
RHOB        .G/C3                                               :          
RWA         .OHMM                                               :          
SP_NORM     .MV                                                 :SP Normalized
SPA         .MV                                                 :          
TENS        .LBS                                                :          
VSH_GR      .V/V                                                :Volume of Shale from GR
VSH_SP      .V/V                                                :Volume of Shale from SP
~A        DEPTH           CALI           DCAL            DFL           DLOD           DPHI           DRHO             GR        GR_NORM           HDCN           HO24           HO30           HO40           HO60           HO90           HT24           HT30           HT40           HT60           HT90           NPHI           RHOB            RWA        SP_NORM            SPA           TENS         VSH_GR         VSH_SP
      4200.0000        12.9221         0.6721         0.0255       1455.135         1.6349        -2.9389        20.2867       58.71404          6.422        10.5265        13.7329        17.9965         29.953       159.3372        29.9971        37.5828        46.7846        68.2784       155.7144         0.5246        -0.0477         88.619      -9.183198       113.9091       2729.617      0.5471072      0.8810924
      4200.5000        12.9182         0.6682          0.019       1479.594         1.6028        -3.0043        20.2345       58.65327         7.8793        26.2962        33.0602        41.3284        60.9162       144.7894       105.1734       109.8792        113.841       119.3748       126.9151         0.4914         0.0054        30.9926      -9.531031       113.6784       2739.342      0.5458143      0.8744032
      4201.0000        12.9182         0.6682         0.0067       1467.365         1.5469        -2.9434        21.4966       60.12253         9.0208        39.5619        48.2943        58.3035        79.4836       142.9561       219.4705       176.2888       152.8916       130.6051       110.8551         0.4971         0.0976         9.2836      -9.611389       113.6251        2750.09      0.5770751      0.8728579
      4201.5000        12.9182         0.6682         0.0254       1451.058         1.5509        -2.8542         22.623       61.43381         9.8638        14.6659        18.9189        24.4288        39.0519       145.5114        43.7003        50.9468        58.4905        72.2441       101.3804         0.5094         0.0911        34.4257      -9.816587        113.489        2750.09      0.6049747      0.8689118
      4202.0000        12.9294         0.6794         0.0137       1451.058         1.6122        -2.7983        23.0768        61.9621        10.6389         6.4452         8.4637         11.189        19.0941       139.8938        16.0649        20.2653        25.4386         37.867        93.9946         0.5111        -0.0102        33.4965      -10.49445       113.0394       2748.725       0.616215       0.855876
      4202.5000        12.9317         0.6817         0.0068       1459.212         1.6059        -2.6865        24.8134       63.98375         11.162         4.4378         5.8492         7.7715        13.4581       127.3691        10.1461         13.036        16.7457        26.4082        89.5894         0.5136         0.0002         63.218      -11.70768       112.2347       2744.801      0.6592288      0.8325446
      4203.0000        12.9333         0.6833           0.01       1467.365         1.5503        -2.5693        27.1289       66.67931        10.8844         4.7661         6.2697         8.3084        14.2772        117.091        10.1978        13.1119         16.859        26.6514         91.875          0.519          0.092        91.2981      -13.16155       111.2704       2738.147      0.7165812      0.8045856
      4203.5000        12.9311         0.6811         0.0095       1451.058         1.5091        -2.5174        28.3648       68.11806         9.6125         8.0175        10.4435        13.6579        22.6019       113.2295        16.2158        20.5532        25.9522        39.1874       104.0312         0.5165           0.16       106.0724      -14.85649       110.1462       2738.489      0.7471929      0.7719905
      4204.0000        12.9266         0.6766         0.0068       1463.288          1.508        -2.5386        27.7077       67.35311         7.7893        22.1146        27.7323        34.5605        50.5693       116.5581        43.2011        51.7921        61.2683        80.1149       128.3818         0.5122         0.1619       130.3049      -16.81891       108.8446       2740.707      0.7309173      0.7342516
      4204.5000        12.9266         0.6766         0.0169       1469.403         1.5227        -2.5712        26.1589       65.55009         6.0944       141.9927       138.0393       135.1134        131.529       127.3982       313.5275       255.3804       223.1864       192.0575       164.0859         0.5114         0.1375        158.902      -19.40566       107.1289       2740.707      0.6925552      0.6845065
      4205.0000        12.9266         0.6766          0.001       1463.288         1.5495        -2.5965        24.7299       63.88655         4.9343          20000          20000       820.2485       267.8002       146.8861          20000          20000       1263.872       376.5611       202.6624         0.5141         0.0934       182.3111      -21.76957        105.561       2736.953      0.6571606      0.6390467
      4205.5000        12.9244         0.6744         0.0032       1457.173         1.5498        -2.5775        24.2919       63.37664         4.3298          20000          20000        7739.43       388.1817       179.6373          20000          20000       11135.73       500.5513       230.9579         0.5272         0.0929       189.5119      -23.46437       104.4369       2729.446      0.6463114      0.6064544
      4206.0000        12.9266         0.6766         0.0096       1446.982         1.5186        -2.5236        25.1054       64.32368         4.1848          20000          20000          20000       515.3828       235.2566          20000          20000          20000       523.3835       238.9619         0.5367         0.1443       222.6896      -25.07896        103.366        2724.84      0.6664612      0.5754047
      4206.5000        12.9249         0.6749         0.0085       1451.058         1.4906        -2.4836        26.7795       66.27254         4.4362          20000          20000          20000       679.2874       311.4982          20000          20000          20000       494.1213       225.4176         0.5287         0.1905       223.6404      -26.69354       102.2951       2723.987      0.7079265      0.5443549
      4207.0000        12.9244         0.6744         0.0144       1457.173         1.5098         -2.503        27.5513       67.17104         4.9699          20000          20000          20000       779.1385       358.2892          20000          20000          20000        441.701       201.2095          0.528         0.1588       183.2378      -28.42407       101.1473       2721.086      0.7270434      0.5110756
      4207.5000        12.9221         0.6721         0.0171       1451.058         1.5468        -2.5469        26.4301        65.8658         5.6025          20000          20000          20000       749.0931       344.1821          20000          20000          20000       392.3709       178.4929         0.5414         0.0977       152.7045      -29.88683       100.1771       2722.622      0.6992723      0.4829456
      4208.0000        12.9199         0.6699         0.0123       1438.829         1.5693        -2.5783        24.6934       63.84405         6.1259          20000          20000          20000       671.8483       308.0227          20000          20000          20000       359.1734       163.2404         0.5471         0.0606        149.989      -30.92171        99.4907       2726.887      0.6562564       0.463044
      4208.5000        12.9244         0.6744         0.0131       1432.714         1.6052        -2.6321        24.4014       63.50412          6.348          20000          20000          20000       576.9507       263.8135          20000          20000          20000       346.7283       157.5298         0.5414         0.0013         90.426      -31.81366        98.8991       2732.005      0.6490238      0.4458911
      4209.0000        12.9221         0.6721         0.0122       1451.058         1.6574        -2.7018        25.5487       64.83975         6.2241          20000          20000          20000       463.9702        211.485          20000          20000          20000       353.5635       160.6657         0.5377        -0.0848        43.7658      -33.19637         97.982       2735.247      0.6774415      0.4193007
      4209.5000        12.9182         0.6682         0.0154       1446.982         1.6999        -2.7517        26.7951       66.29072         5.8949          20000          20000          20000       365.7054       166.2393          20000          20000          20000       373.1064       169.6385         0.5499        -0.1549        37.3637      -34.64134        97.0236       2735.929      0.7083132      0.3915127
