#------------------------------------------------------------------------------
# Created by    : vladimir.rabinovich
# Created on    : 09/19/2023 17:20:10
#------------------------------------------------------------------------------
~Version Information Section
VERS.           2.0     :   CWLS log ASCII Standard - VERSION 2.0
WRAP.           NO      :   One line per depth step
~Well Information Section
#MNEM       .UNIT                                         VALUE :DESCRIPTION
#------------------------------------------------------------------------------
STRT        .FT                                            1664 :START DEPTH
STOP        .FT                                            5300 :STOP DEPTH
STEP        .FT                                             0.5 :STEP      
NULL        .                                           -999.25 :NULL      
COMP        .                       CORPUS CHRISTI OIL & GAS CO :COMPANY   
WELL        .                                ST TR 00597-L NE/4 :WELL      
FLD         .                                           WILDCAT :FIELD     
LOC         .                                                   :LOCATION  
CNTY        .                      MATAGORDA ISLAND LARGE BLOCK :LOCATION  
STAT        .                                             TEXAS :STATE     
CTRY        .                                     UNITED STATES :COUNTRY   
SRVC        .                                                   :SERVICE COMPANY
DATE        .                             9/13/2023 11:12:01 AM :LOG DATE  
API         .                                    42703301570000 :API NUMBER
UWI         .                                    42703301570000 :UNIQUE WELL ID
XCOORD      .                                   499677.54355151 :SURFACE X 
YCOORD      .                                  10240770.6634848 :SURFACE Y 
LAT         .                                        28.1741034 :LATITUDE  
LON         .                                       -96.5406837 :LONGITUDE 
ELEV        .FT                                              79 :ELEVATION VALUE
ELEV_TYPE   .                                                KB :ELEVATION REFERENCE TYPE
~Curve Information Section
#MNEM       .UNIT                                      API CODE :CURVE DESCRIPTION
#------------------------------------------------------------------------------
DEPT        .FT                                                 :DEPTH     
ASFL        .OHMM                                               :          
CILD        .MMHO                                               :          
ILD         .OHMM                                               :          
SP          .MV                                                 :          
SP_NORM     .MV                                                 :SP Normalized
VSH_SP      .V/V                                                :Volume of Shale from SP
~A        DEPTH           ASFL           CILD            ILD             SP        SP_NORM         VSH_SP
      1664.0000         0.1591        -999.25        -999.25      -105.5422      0.1902847              1
      1664.5000         0.2782        -999.25        -999.25      -105.5413       0.191185              1
      1665.0000         0.3973        -999.25        -999.25      -105.2418      0.4906845              1
      1665.5000         0.5164        -999.25        -999.25      -104.9414      0.7910843              1
      1666.0000         0.6355        -999.25        -999.25       -104.342       1.075447              1
      1666.5000         0.7546        -999.25        -999.25      -103.7426       1.318153              1
      1667.0000          0.921       1703.294          0.592      -103.4423       1.261749              1
      1667.5000          0.917       1602.571          0.644      -103.1419       1.205452              1
      1668.0000         0.8869       1501.848          0.692      -104.9336     -0.9429474              1
      1668.5000         0.8568       1401.125          0.752      -107.0268      -3.392845      0.9502555
      1669.0000         0.8266       1327.667         0.7532      -124.4063      -21.12904      0.3168199
      1669.5000         0.7965       1426.819         0.7009      -127.4136      -24.49303      0.1966773
      1670.0000         0.7664       1525.971         0.6553      -130.4209      -27.85703     0.07653455
      1670.5000         0.7363       1625.123         0.6153      -132.7372      -30.53003              0
      1671.0000         0.7061       1724.275           0.58       -81.0045       20.84597              1
      1671.5000          0.676       1822.776         0.5486       -88.0404       13.45338              1
      1672.0000         0.6367       1838.754         0.5438       -95.0762       6.060875              1
      1672.5000         0.6207       1838.716         0.5439      -104.9218      -4.141418      0.9235207
      1673.0000         0.6127       1846.667         0.5415      -104.3238      -3.900116      0.9321387
      1673.5000         0.6047       1862.606         0.5369       -99.5673      0.4996872              1
      1674.0000         0.6047       1870.557         0.5346       -99.8663     -0.1560211              1
      1674.5000         0.6007       1886.498         0.5301       -100.762      -1.408417              1
      1675.0000         0.6007       1894.449         0.5279      -101.9567      -2.959816      0.9657208
      1675.5000         0.6007       1886.421         0.5301      -102.5534      -3.913208      0.9316711
      1676.0000         0.6007       1878.394         0.5324      -101.3262      -3.042709      0.9627604
      1676.5000         0.6007       1846.359         0.5416       -100.129      -2.202202      0.9927785
      1677.0000         0.6047       1830.342         0.5463       -99.8288      -2.258698      0.9907608
      1677.5000         0.6047       1798.345         0.5561       -99.8276      -2.614197      0.9780644
      1678.0000         0.6047       1758.358         0.5687       -99.2284      -2.371696      0.9867252
      1678.5000         0.6047       1710.381         0.5847       -98.6292      -2.129196      0.9953858
      1679.0000         0.6088       1662.403         0.6015        -98.329      -2.185692      0.9933681
      1679.5000         0.6168       1558.497         0.6416        -97.431      -1.644386              1
      1680.0000         0.6408       1518.507         0.6585       -96.8318      -1.401886              1
      1680.5000         0.6648       1446.559         0.6913       -96.8306      -1.757378              1
      1681.0000         0.6648       1406.568          0.711       -96.8294      -2.112885      0.9959684
      1681.5000         0.7129       1382.557         0.7233       -96.2303      -1.870483              1
      1682.0000          0.761       1374.526         0.7275       -95.3323      -1.329178              1
      1682.5000         0.8371       1374.484         0.7275       -94.7333      -1.086876              1
      1683.0000         0.8401       1350.473         0.7405       -94.7321      -1.442375              1
      1683.5000         0.8611       1366.411         0.7318        -94.432       -1.49897              1
      1684.0000         0.8731       1382.351         0.7234         -97.42      -4.843666      0.8984405
      1684.5000         0.8731       1518.144         0.6587       -97.4188      -5.199165      0.8857441
      1685.0000         0.8571       1590.016         0.6289       -96.8198      -4.956863      0.8943977
      1685.5000          0.777       1645.909         0.6076       -95.9218      -4.415558      0.9137301
      1686.0000          0.757       1733.764         0.5768       -95.3228      -4.173256      0.9223837
      1686.5000          0.749        1805.64         0.5538       -94.7238      -3.930954      0.9310374
      1687.0000          0.745       1869.526         0.5349       -94.4238      -3.987648      0.9290126
      1687.5000          0.741       1917.431         0.5215       -94.4226      -4.343147      0.9163162
      1688.0000          0.745       1917.393         0.5215        -95.617      -5.894249      0.8609197
      1688.5000          0.749       1949.319          0.513       -95.3169      -5.950851      0.8588982
      1689.0000          0.749       1941.329         0.5151      -100.9945      -11.98515      0.6433877
      1689.5000          0.753        1937.26         0.5162      -100.6944      -12.04174      0.6413664
      1690.0000          0.757       1941.252         0.5151      -100.6931      -12.39714      0.6286736
      1690.5000          0.761       1709.441          0.585       -97.7031       -9.76384        0.72272
      1691.0000         0.7611       1637.483         0.6107       -93.8166      -6.234032      0.8487846
      1691.5000          0.709        1613.47         0.6198       -93.5166      -6.290733      0.8467595
      1692.0000         0.6449       1589.457         0.6291       -91.4234       -4.55423      0.9087775
      1692.5000         0.6449       1549.462         0.6454       -89.6291      -3.116623      0.9601206
      1693.0000         0.6089       1549.422         0.6454       -86.3395     -0.1837234              1
      1693.5000         0.6008       1557.373         0.6421       -82.4544       3.344681              1
      1694.0000         0.6009       1629.253         0.6138       -81.5568       3.885582              1
      1694.5000         0.6049       1637.205         0.6108       -81.5558       3.712746              1
      1695.0000         0.6089       1653.148         0.6049       -82.7502       2.408134              1
      1695.5000         0.6129       1653.108         0.6049       -83.3468       1.701317              1
      1696.0000         0.6129        1661.06          0.602       -82.7481       2.189804              1
      1696.5000         0.6089       1661.021          0.602       -81.2529       3.574791              1
      1697.0000         0.6049       1676.964         0.5963       -81.2519       3.465569              1
      1697.5000         0.6009       1692.908         0.5907       -81.8485       2.758751              1
      1698.0000         0.5929       1716.843         0.5825       -82.4452       2.051842              1
      1698.5000         0.5849       1748.771         0.5718       -82.7429       1.643929              1
      1699.0000         0.5809       1764.715         0.5667       -82.1443       2.132309              1
      1699.5000         0.5729       1828.611         0.5469       -81.8445       2.321892              1
      1700.0000         0.5608       1868.531         0.5352       -81.5446       2.511574              1
      1700.5000         0.5553        1909.02         0.5238       -81.8165       2.129463              1
      1701.0000         0.5508       1945.245         0.5141       -82.7386       1.097145              1
      1701.5000         0.5488       1980.403         0.5049       -83.9335     -0.2079697              1
