#------------------------------------------------------------------------------
# Created by    : vladimir.rabinovich
# Created on    : 09/19/2023 17:19:49
#------------------------------------------------------------------------------
~Version Information Section
VERS.           2.0     :   CWLS log ASCII Standard - VERSION 2.0
WRAP.           NO      :   One line per depth step
~Well Information Section
#MNEM       .UNIT                                         VALUE :DESCRIPTION
#------------------------------------------------------------------------------
STRT        .FT                                             790 :START DEPTH
STOP        .FT                                           12500 :STOP DEPTH
STEP        .FT                                             0.5 :STEP      
NULL        .                                           -999.25 :NULL      
COMP        .                                 CHEVRON U S A INC :COMPANY   
WELL        .                               OCS G04596 ST00BP00 :WELL      
FLD         .                                           WILDCAT :FIELD     
LOC         .                                                   :LOCATION  
CNTY        .                        MUSTANG ISLAND LARGE BLOCK :LOCATION  
STAT        .                                             TEXAS :STATE     
CTRY        .                                     UNITED STATES :COUNTRY   
SRVC        .                                                   :SERVICE COMPANY
DATE        .                             9/13/2023 11:19:13 AM :LOG DATE  
API         .                                    42702401310000 :API NUMBER
UWI         .                                    42702401310000 :UNIQUE WELL ID
XCOORD      .                                  486632.184756912 :SURFACE X 
YCOORD      .                                  10088502.2555927 :SURFACE Y 
LAT         .                                          27.75488 :LATITUDE  
LON         .                                        -96.567316 :LONGITUDE 
ELEV        .FT                                              90 :ELEVATION VALUE
ELEV_TYPE   .                                                KB :ELEVATION REFERENCE TYPE
~Curve Information Section
#MNEM       .UNIT                                      API CODE :CURVE DESCRIPTION
#------------------------------------------------------------------------------
DEPT        .FT                                                 :DEPTH     
ASFL        .OHMM                                               :          
CILD        .MMHO                                               :          
GR          .GAPI                                               :          
GR_NORM     .GAPI                                               :GammaRay Normalized
ILD         .OHMM                                               :          
SP          .MV                                                 :          
SP_NORM     .MV                                                 :SP Normalized
VSH_GR      .V/V                                                :Volume of Shale from GR
VSH_SP      .V/V                                                :Volume of Shale from SP
~A        DEPTH           ASFL           CILD             GR        GR_NORM            ILD             SP        SP_NORM         VSH_GR         VSH_SP
# ...
      1770.5000         0.6194       1892.416        54.6462       70.74161         0.6052       -94.3835      -3.045479      0.8030129      0.7954521
      1771.0000         0.6124       1872.117        58.2256       76.27468         0.6017       -94.1421      -2.806862      0.9207379      0.8193138
      1771.5000         0.6054       1852.988        59.5502       78.33067         0.5983       -93.9005      -2.568054      0.9644824      0.8431946
      1772.0000         0.5984       1833.867        60.3587       79.59081         0.5948       -93.5541      -2.224442      0.9912939      0.8775558
      1772.5000         0.5914       1818.947        61.1675        80.8514           0.59       -92.9313      -1.604431              1      0.9395569
      1773.0000         0.5844       1833.637        61.7293       81.73111         0.5828       -92.3086       -0.98452              1              1
      1773.5000         0.5774       1865.346         62.233       82.52124         0.5757       -91.6868      -0.365509              1              1
      1774.0000         0.5704       1897.053        62.7365       83.31103         0.5685       -91.1874      0.1311035              1              1
      1774.5000         0.5638       1930.408        63.2617        84.1343         0.5614        -90.688      0.6277161              1              1
      1775.0000         0.5581       1975.166        63.0594       83.83569         0.5542       -90.1887       1.124229              1              1
      1775.5000         0.5523        2020.27         62.161       82.46367         0.5471       -89.7953       1.514839              1              1
      1776.0000         0.5466       2068.395        61.2626       81.09165         0.5401       -89.4839       1.823448              1              1
      1776.5000         0.5409       2115.121        59.8267       78.89074          0.535       -89.1725       2.132065      0.9763987              1
      1777.0000         0.5352       2160.707        61.0748       80.82878         0.5299       -88.8611       2.440674              1              1
      1777.5000         0.5298       2200.141         62.323       82.76696         0.5248        -88.532       2.766991              1              1
      1778.0000         0.5243       2227.461        63.4493       84.51717         0.5196       -88.1888       3.107407              1              1
      1778.5000         0.5188       2252.938        64.2631       85.78548         0.5145       -87.8458       3.447609              1              1
      1779.0000         0.5134       2282.746        65.0768       87.05363         0.5094       -87.5203       3.770325              1              1
      1779.5000         0.5065       2281.484        65.8901       88.32116         0.5074       -87.2974       3.990433              1              1
      1780.0000         0.4983       2203.531         66.407       89.13164         0.5062       -87.6207       3.664352              1              1
      1780.5000         0.4902       2164.051        66.8331       89.80208          0.505       -88.4801       2.802162              1              1
      1781.0000         0.4783       2136.395        64.8346       86.73362         0.5042       -89.8347       1.444771              1              1
      1781.5000         0.5021       2115.293        60.6471       80.28956          0.514        -92.478      -1.201309              1      0.9894048
      1782.0000         0.5259       2094.188        58.8724        77.5662         0.5238       -93.6066      -2.332703       0.948217      0.9298577
      1782.5000          0.554       2082.336        57.4205       75.34064         0.5335       -95.0621      -3.790993      0.9008648      0.8531057
      1783.0000         0.5912       2071.051         56.227       73.51356         0.5418       -97.2013      -5.932983      0.8619906      0.7403693
      1783.5000           0.63       2071.656        54.0798       70.21578         0.5314        -98.223      -6.957466      0.7918252      0.6864492
      1784.0000         0.6717        2088.82         51.215       65.81141         0.5209        -99.162      -7.899254      0.6981151      0.6368814
      1784.5000         0.7037       2105.988        50.2712       64.36937         0.5105       -99.7172      -8.457245      0.6674334      0.6075134
      1785.0000         0.7344       2130.758        49.3271       62.92687            0.5       -99.9955      -8.738327      0.6367419      0.5927196
      1785.5000         0.7469       2159.684        49.0341       62.48843         0.4896      -100.2737      -9.019318      0.6274133      0.5779306
      1786.0000         0.7414       2188.621        48.7436       62.05383         0.4791      -100.6863      -9.434708      0.6181665       0.556068
      1786.5000         0.7363       2207.328         48.502       61.69462         0.4811      -101.1946      -9.945801      0.6105238      0.5291684
      1787.0000         0.7312       2224.043        48.2836        61.3712         0.4834      -102.1066      -10.86058      0.6036425      0.4810221
      1787.5000         0.7262       2221.621        48.0652       61.04777         0.4856      -103.1763      -11.93307      0.5967611      0.4245754
      1788.0000         0.7211       2176.555        47.6263       60.38433         0.4879      -103.8441      -12.60366      0.5826454       0.389281
      1788.5000         0.7161       2131.488        47.1218       59.61972         0.4911       -103.533      -12.29534       0.566377      0.4055083
      1789.0000          0.711       1826.592        46.6172       58.85496         0.5175      -102.9084      -11.67354      0.5501056      0.4382348
      1789.5000         0.7058       1768.896        45.4065       57.00135         0.5439      -102.2841      -11.05202      0.5106671      0.4709461
      1790.0000         0.7003        1735.82        44.9131       56.25385         0.5703      -101.6597      -10.43041      0.4947628      0.5036625
      1790.5000         0.6948        1712.52        48.3815       61.61576          0.596      -101.0352      -9.808701      0.6088459      0.5363842
      1791.0000         0.6893       1707.783        50.2298       64.47932         0.6214      -100.4108       -9.18708      0.6697729       0.569101
      1791.5000         0.6996       1730.385        52.0437       67.28988         0.6233       -99.5743      -8.353378      0.7295719      0.6129801
      1792.0000         0.7215       1753.271        53.5539       69.63208         0.6118       -99.9634      -8.745262       0.779406      0.5923546
      1792.5000         0.7433       1790.131        54.1985       70.63948         0.6004      -100.4426      -9.227249        0.80084      0.5669869
      1793.0000         0.7651       1830.281        54.1811       70.62601         0.5889      -100.9219      -9.709335      0.8005533      0.5416139
      1793.5000         0.7861       1882.715        52.6488       68.27647         0.5774      -101.4011      -10.19133      0.7505631      0.5162458
      1794.0000         0.8066       1955.516        50.7864       65.41787         0.5659       -101.684      -10.47701      0.6897419      0.5012099
      1794.5000         0.8053       2032.625        48.6515       62.13908         0.5558      -101.8972        -10.693      0.6199803      0.4898421
      1795.0000         0.7958       2097.203        47.5871       60.51108         0.5461      -102.1106      -10.90919      0.5853421      0.4784634
      1795.5000         0.7862       2151.051        46.7452       59.22615         0.5365      -102.3239      -11.12527      0.5580031      0.4670908
      1796.0000         0.7766       2190.457        47.2173       59.96756         0.5268      -102.4972      -11.30137      0.5737778      0.4578227
      1796.5000          0.767       2213.766        47.6604       60.66419         0.5171      -102.2355      -11.04245      0.5885999        0.47145
