#------------------------------------------------------------------------------
# Created by    : vladimir.rabinovich
# Created on    : 09/19/2023 17:19:44
#------------------------------------------------------------------------------
~Version Information Section
VERS.           2.0     :   CWLS log ASCII Standard - VERSION 2.0
WRAP.           NO      :   One line per depth step
~Well Information Section
#MNEM       .UNIT                                         VALUE :DESCRIPTION
#------------------------------------------------------------------------------
STRT        .FT                                            2932 :START DEPTH
STOP        .FT                                           14530 :STOP DEPTH
STEP        .FT                                             0.5 :STEP      
NULL        .                                           -999.25 :NULL      
COMP        .                                 MESA PETROLEUM CO :COMPANY   
WELL        .                                 ST TR 00022-L W/2 :WELL      
FLD         .                                           WILDCAT :FIELD     
LOC         .                                                   :LOCATION  
CNTY        .                           HIGH ISLAND LARGE BLOCK :LOCATION  
STAT        .                                             TEXAS :STATE     
CTRY        .                                     UNITED STATES :COUNTRY   
SRVC        .                                                   :SERVICE COMPANY
DATE        .                             9/13/2023 11:19:15 AM :LOG DATE  
API         .                                    42708300770000 :API NUMBER
UWI         .                                    42708300770000 :UNIQUE WELL ID
XCOORD      .                                  1307803.37781852 :SURFACE X 
YCOORD      .                                  10713200.3443699 :SURFACE Y 
LAT         .                                         29.515602 :LATITUDE  
LON         .                                       -94.0460534 :LONGITUDE 
ELEV        .FT                                              85 :ELEVATION VALUE
ELEV_TYPE   .                                                KB :ELEVATION REFERENCE TYPE
~Curve Information Section
#MNEM       .UNIT                                      API CODE :CURVE DESCRIPTION
#------------------------------------------------------------------------------
DEPT        .FT                                                 :DEPTH     
ASFL        .OHMM                                               :          
CILD        .MMHO                                               :          
ILD         .OHMM                                               :          
SP          .MV                                                 :          
SP_NORM     .MV                                                 :SP Normalized
VSH_SP      .V/V                                                :Volume of Shale from SP
~A        DEPTH           ASFL           CILD            ILD             SP        SP_NORM         VSH_SP
# ...
     12166.0000          0.934       1352.938         0.8369       -45.4141      -1.388943       0.980158
     12166.5000         0.9456       1337.594         0.8385       -45.3923      -1.367142      0.9804694
     12167.0000         0.9572        1322.25         0.8402       -45.2378      -1.212643      0.9826765
     12167.5000         0.9685       1306.906         0.8419       -45.0833      -1.058144      0.9848837
     12168.0000         0.9778       1291.563         0.8437       -45.0806      -1.055443      0.9849222
     12168.5000         0.9872           1277         0.8488       -45.4165      -1.391342      0.9801237
     12169.0000         0.9998       1266.266          0.854       -45.4509      -1.425743      0.9796323
     12169.5000         1.0133       1255.516         0.8592       -45.3291      -1.303944      0.9813722
     12170.0000         1.0267       1244.781         0.8657       -45.2075      -1.182343      0.9831094
     12170.5000          1.039       1234.047         0.8731       -45.1675      -1.142342      0.9836808
     12171.0000         1.0513       1225.063         0.8804       -45.3408      -1.315643      0.9812051
     12171.5000         1.0636       1217.094         0.8878        -45.541      -1.515842      0.9783451
     12172.0000         1.0762       1209.125         0.8952       -45.8223      -1.797142      0.9743266
     12172.5000         1.0888       1201.156         0.9026       -46.1035      -2.078342      0.9703094
     12173.0000         1.1059       1193.188         0.8938       -46.0679      -2.042744      0.9708179
     12173.5000         1.0576       1185.219         0.8818       -45.7959      -1.770741      0.9747037
     12174.0000         1.0038       1177.047         0.8698       -45.5239      -1.498741      0.9785894
     12174.5000          0.978       1189.875         0.8578        -45.252      -1.226841      0.9824737
     12175.0000         0.9554        1211.75         0.8459         -44.98     -0.9548416      0.9863594
     12175.5000         0.9364       1233.625         0.8339       -44.8125     -0.7873421      0.9887522
     12176.0000         0.9212       1253.188          0.822       -44.6995     -0.6743431      0.9903665
     12176.5000         0.9124       1270.938         0.8101       -44.7695     -0.7443428      0.9893665
     12177.0000         0.9113       1288.688         0.7982       -45.0479      -1.022743      0.9853894
     12177.5000         0.9121       1306.438         0.7863       -45.3916      -1.366444      0.9804794
     12178.0000         0.9182       1324.219         0.7744       -45.7744      -1.749241      0.9750109
     12178.5000         0.9243       1341.969         0.7625       -46.1572      -2.132042      0.9695423
     12179.0000         0.9304       1360.188          0.763       -46.2751      -2.249943       0.967858
     12179.5000         0.9365       1378.719         0.7651       -46.1448       -2.11964      0.9697194
     12180.0000         0.9426        1394.25         0.7672       -46.0142       -1.98904      0.9715852
     12180.5000         0.9487       1380.156         0.7693       -45.8838      -1.858643       0.973448
     12181.0000         0.9543       1366.031         0.7714       -45.7534      -1.728241      0.9753109
     12181.5000          0.958       1351.938         0.7735       -45.6228      -1.597641      0.9771765
     12182.0000         0.9598       1337.844         0.7756       -45.4924      -1.467243      0.9790394
     12182.5000         0.9542       1327.969         0.7777       -45.3618      -1.336643      0.9809051
     12183.0000         0.9486       1324.906         0.7798       -45.1812       -1.15604      0.9834852
     12183.5000         0.9372       1325.438         0.7819        -44.998     -0.9728432      0.9861022
     12184.0000         0.9254       1341.938          0.784       -44.8149     -0.7897415       0.988718
     12184.5000         0.9125       1358.406         0.7861       -44.6055     -0.5803413      0.9917094
     12185.0000         0.8979       1381.813         0.7786        -44.356     -0.3308411      0.9952737
     12185.5000         0.8834       1421.813         0.7661       -44.1069    -0.08174133      0.9988323
     12186.0000         0.8695       1461.813         0.7536       -43.8574      0.1677589              1
     12186.5000         0.8563       1496.563         0.7411       -43.6284       0.396759              1
     12187.0000          0.843       1525.938         0.7285       -43.4097      0.6154594              1
     12187.5000         0.8304       1555.313          0.716       -43.1909       0.834259              1
     12188.0000         0.8221        1584.75         0.7043       -43.0893      0.9358597              1
     12188.5000         0.8139       1609.875         0.6968       -43.1058      0.9193573              1
     12189.0000         0.8077       1633.313         0.6892       -43.0215       1.003658              1
     12189.5000          0.804        1656.75         0.6816       -42.8301       1.195057              1
     12190.0000         0.8003       1670.109          0.674       -42.6392        1.38596              1
     12190.5000         0.7967       1680.656         0.6664       -42.3755       1.649658              1
     12191.0000         0.7935       1688.289         0.6589       -42.0835       1.941658              1
     12191.5000          0.793       1693.414         0.6513       -42.0898       1.935356              1
     12192.0000         0.7924       1698.539          0.651        -42.627       1.398159              1
     12192.5000         0.7919       1703.664         0.6537        -43.165       0.860157              1
     12193.0000         0.7914       1708.789         0.6565       -43.3394      0.6857567              1
     12193.5000         0.7914       1717.141         0.6592        -43.447      0.5781593              1
     12194.0000         0.7951       1727.031          0.662       -43.5547       0.470459              1
     12194.5000         0.7987       1736.922         0.6647       -43.4487       0.576458              1
     12195.0000         0.8024       1746.828         0.6675       -43.2031      0.8220596              1
     12195.5000         0.8061       1756.719          0.671        -42.958       1.067158              1
     12196.0000         0.8097       1767.469         0.6749       -42.7124       1.312759              1
     12196.5000         0.8053       1778.813         0.6788       -42.4668       1.558357              1
     12197.0000         0.8008       1790.125         0.6827        -42.375       1.650158              1
     12197.5000         0.7963       1787.906         0.6866       -42.4478       1.577358              1
     12198.0000         0.7918       1772.281         0.6906       -42.5206       1.504559              1
     12198.5000         0.7873       1756.688         0.6843         -42.56       1.465157              1
     12199.0000         0.7827       1741.063         0.6767       -42.5939       1.431259              1
     12199.5000         0.7782       1720.844         0.6692       -42.6277       1.397457              1
     12200.0000         0.7737         1700.5         0.6616       -42.5859       1.439259              1
     12200.5000         0.7789       1680.188          0.654       -42.5012       1.523956              1
     12201.0000         0.7862       1659.844         0.6492       -42.5557        1.46946              1
     12201.5000         0.7935         1639.5         0.6498        -43.042      0.9831581              1
     12202.0000         0.8009       1622.469         0.6504       -43.1958      0.8293571              1
     12202.5000         0.8082       1609.969          0.651       -43.1317      0.8934593              1
     12203.0000         0.8097       1597.469         0.6516       -43.0879      0.9372597              1
     12203.5000         0.8103       1584.969         0.6521       -43.4658      0.5593567              1
