#------------------------------------------------------------------------------
# Created by    : vladimir.rabinovich
# Created on    : 09/19/2023 17:19:56
#------------------------------------------------------------------------------
~Version Information Section
VERS.           2.0     :   CWLS log ASCII Standard - VERSION 2.0
WRAP.           NO      :   One line per depth step
~Well Information Section
#MNEM       .UNIT                                         VALUE :DESCRIPTION
#------------------------------------------------------------------------------
STRT        .FT                                            3966 :START DEPTH
STOP        .FT                                           12200 :STOP DEPTH
STEP        .FT                                             0.5 :STEP      
NULL        .                                           -999.25 :NULL      
COMP        .                       HOUSTON OIL & MINERALS CORP :COMPANY   
WELL        .                                ST TR 00526-L SW/4 :WELL      
FLD         .                                           CAVALLO :FIELD     
LOC         .                                                   :LOCATION  
CNTY        .                      MATAGORDA ISLAND LARGE BLOCK :LOCATION  
STAT        .                                             TEXAS :STATE     
CTRY        .                                     UNITED STATES :COUNTRY   
SRVC        .                                                   :SERVICE COMPANY
DATE        .                             9/13/2023 11:19:05 AM :LOG DATE  
API         .                                    42703302090000 :API NUMBER
UWI         .                                    42703302090000 :UNIQUE WELL ID
XCOORD      .                                  601997.830501628 :SURFACE X 
YCOORD      .                                  10286578.1750905 :SURFACE Y 
LAT         .                                        28.3077871 :LATITUDE  
LON         .                                       -96.2273179 :LONGITUDE 
ELEV        .FT                                             113 :ELEVATION VALUE
ELEV_TYPE   .                                                KB :ELEVATION REFERENCE TYPE
~Curve Information Section
#MNEM       .UNIT                                      API CODE :CURVE DESCRIPTION
#------------------------------------------------------------------------------
DEPT        .FT                                                 :DEPTH     
ASFL        .OHMM                                               :          
CILD        .MMHO                                               :          
ILD         .OHMM                                               :          
SP          .MV                                                 :          
SP_NORM     .MV                                                 :SP Normalized
VSH_SP      .V/V                                                :Volume of Shale from SP
~A        DEPTH           ASFL           CILD            ILD             SP        SP_NORM         VSH_SP
# ...
      7804.0000         0.8598           1992           0.44       -91.7647       -43.0832      0.4313081
      7804.5000         0.9323           2064           0.42       -92.9412       -44.2623      0.4153743
      7805.0000          1.004           2136            0.4       -94.4118       -45.7355      0.3954663
      7805.5000         1.1482           2208           0.36       -97.3529       -48.6792      0.3556865
      7806.0000         1.0797           2344           0.32      -100.2471        -51.576      0.3165405
      7806.5000          1.012           2448           0.28         -104.4       -55.7315      0.2603851
      7807.0000         0.9442           2440           0.28        -108.75       -60.0841      0.2015662
      7807.5000         0.8757           2296           0.32         -110.5       -61.8367      0.1778824
      7808.0000          0.745           2184           0.36      -105.6206       -56.9599      0.2437851
      7808.5000         0.7729           2184           0.42       -97.5735      -48.91541      0.3524945
      7809.0000         0.7841           2184           0.46       -90.8823      -42.22681      0.4428809
      7809.5000            0.8           2072           0.52          -83.7      -35.04711      0.5399039
      7810.0000         0.8279           1960           0.56          -76.8      -28.14972       0.633112
      7810.5000          0.792           1840           0.62          -69.6      -20.95231      0.7303742
      7811.0000         0.7291           1728           0.66          -62.7      -14.05492      0.8235822
      7811.5000         0.7179           1616           0.72          -55.5      -6.857517      0.9208444
      7812.0000         0.7179           1504           0.76          -48.3      0.3398819              1
      7812.5000          0.749           1392           0.82          -47.7      0.9372787              1
      7813.0000         0.7801           1272           0.82          -47.1       1.534679              1
      7813.5000          0.796           1264           0.82          -47.1       1.532078              1
      7814.0000          0.812           1256           0.82          -47.1       1.529476              1
      7814.5000         0.8438           1256           0.82          -47.1       1.526878              1
      7815.0000         0.8797           1256            0.8          -47.4       1.224274              1
      7815.5000         0.8797           1256           0.78          -47.7      0.9216728              1
      7816.0000         0.8797           1256           0.74            -48       0.619072              1
      7816.5000         0.8757           1264           0.72          -48.3      0.3164711              1
      7817.0000         0.8598           1280            0.7          -48.6     0.01387024              1
      7817.5000         0.8438           1304           0.68          -49.2     -0.5887337              1
      7818.0000         0.8239           1320           0.66          -49.5     -0.8913345              1
      7818.5000          0.792           1344           0.64          -49.5     -0.8939362              1
      7819.0000         0.7729           1360           0.62          -49.5     -0.8965378              1
      7819.5000         0.7729           1384            0.6          -49.5     -0.8991394              1
      7820.0000          0.757           1400           0.58          -49.2     -0.6017418              1
      7820.5000          0.757           1424           0.56          -48.9     -0.3043442              1
      7821.0000          0.753           1440           0.54          -48.6   -0.006942749              1
      7821.5000          0.749           1464           0.52            -48      0.5904541              1
      7822.0000         0.7371           1480           0.52          -47.1       1.487854              1
      7822.5000         0.7139           1504            0.5          -46.5       2.085251              1
      7823.0000           0.69           1520            0.5          -46.5       2.082649              1
      7823.5000           0.69           1544           0.48          -46.2       2.380051              1
      7824.0000           0.69           1560           0.48          -46.2       2.377449              1
      7824.5000         0.6669           1584           0.48          -45.9       2.674847              1
      7825.0000          0.643           1592           0.48          -45.9       2.672245              1
      7825.5000          0.643           1608           0.48          -45.6       2.969646              1
      7826.0000          0.643           1616           0.48          -45.6       2.967045              1
      7826.5000          0.647           1600           0.48          -45.6       2.964443              1
      7827.0000           0.71           1576           0.48          -45.6       2.961842              1
      7827.5000          0.757           1544            0.5          -45.6        2.95924              1
      7828.0000          0.788           1520           0.52          -45.6       2.956638              1
      7828.5000          0.796           1488           0.54          -45.6       2.954037              1
      7829.0000          0.796           1464           0.56          -45.6       2.951435              1
      7829.5000          0.792           1432           0.58          -45.9        2.64883              1
      7830.0000          0.753           1408            0.6          -46.2        2.34623              1
      7830.5000          0.741           1376           0.62          -46.2       2.343628              1
      7831.0000          0.741           1376           0.64          -46.2       2.341026              1
      7831.5000          0.761           1368           0.66          -46.5       2.038425              1
      7832.0000         0.7841           1360           0.68          -46.5       2.035824              1
      7832.5000          0.796           1360           0.72          -48.9     -0.3667755              1
      7833.0000          0.808           1352           0.74          -49.5     -0.9693756              1
      7833.5000         0.8319           1344           0.76          -50.7      -2.171978      0.9841624
      7834.0000         0.8558           1328           0.76          -51.6      -3.074577      0.9719652
      7834.5000         0.8797           1312           0.76          -52.5       -3.97718      0.9597678
      7835.0000         0.9044           1296           0.76          -53.7      -5.179783      0.9435164
      7835.5000         0.9163           1280           0.74          -55.5      -6.982384       0.919157
      7836.0000         0.9323           1264           0.72          -57.6      -9.084984      0.8907434
      7836.5000         1.0956           1240            0.7          -57.6      -9.087585      0.8907083
      7837.0000         1.0956           1232           0.68          -57.6      -9.090187      0.8906732
      7837.5000         1.0916           1240           0.66          -55.5       -6.99279      0.9190164
      7838.0000         1.0876           1248           0.64            -54      -5.495392      0.9392515
      7838.5000         0.9801           1304            0.6          -53.7      -5.197994      0.9432703
      7839.0000          0.761           1368           0.58          -53.4      -4.900597      0.9472892
      7839.5000          0.651           1432           0.56          -53.1      -4.603195      0.9513082
      7840.0000          0.651           1496           0.52          -53.1      -4.605797       0.951273
      7840.5000          0.651           1560            0.5          -53.7      -5.208401      0.9431297
      7841.0000          0.639           1624           0.46          -60.9        -12.411      0.8457972
      7841.5000         0.8319           1688           0.42          -68.1       -19.6136      0.7484649
