#------------------------------------------------------------------------------
# Created by    : vladimir.rabinovich
# Created on    : 09/19/2023 17:22:25
#------------------------------------------------------------------------------
~Version Information Section
VERS.           2.0     :   CWLS log ASCII Standard - VERSION 2.0
WRAP.           NO      :   One line per depth step
~Well Information Section
#MNEM       .UNIT                                         VALUE :DESCRIPTION
#------------------------------------------------------------------------------
STRT        .FT                                            3984 :START DEPTH
STOP        .FT                                           14348 :STOP DEPTH
STEP        .FT                                             0.5 :STEP      
NULL        .                                           -999.25 :NULL      
COMP        .                                  CNG PRODUCING CO :COMPANY   
WELL        .                               OCS G07292 ST00BP00 :WELL      
FLD         .                                           WILDCAT :FIELD     
LOC         .                                                   :LOCATION  
CNTY        .                           HIGH ISLAND LARGE BLOCK :LOCATION  
STAT        .                                             TEXAS :STATE     
CTRY        .                                     UNITED STATES :COUNTRY   
SRVC        .                                                   :SERVICE COMPANY
DATE        .                             9/13/2023 11:19:59 AM :LOG DATE  
API         .                                    42708402890000 :API NUMBER
UWI         .                                    42708402890000 :UNIQUE WELL ID
XCOORD      .                                  1158246.84135722 :SURFACE X 
YCOORD      .                                  10525039.0147689 :SURFACE Y 
LAT         .                                         28.993597 :LATITUDE  
LON         .                                        -94.508673 :LONGITUDE 
ELEV        .FT                                             101 :ELEVATION VALUE
ELEV_TYPE   .                                                KB :ELEVATION REFERENCE TYPE
~Curve Information Section
#MNEM       .UNIT                                      API CODE :CURVE DESCRIPTION
#------------------------------------------------------------------------------
DEPT        .FT                                                 :DEPTH     
CALX        .IN                                                 :          
DTL         .US/F                                               :          
GR          .GAPI                                               :          
GR_NORM     .GAPI                                               :GammaRay Normalized
ILD         .OHMM                                               :          
ILM         .OHMM                                               :          
LL3         .OHMM                                               :          
SP          .MV                                                 :          
SP_NORM     .MV                                                 :SP Normalized
VSH_GR      .V/V                                                :Volume of Shale from GR
VSH_SP      .V/V                                                :Volume of Shale from SP
~A        DEPTH           CALX            DTL             GR        GR_NORM            ILD            ILM            LL3             SP        SP_NORM         VSH_GR         VSH_SP
# ...
     10239.0000        -999.25        116.481        44.5201       82.98351         0.4808         0.5133         0.6854       -45.1907       2.281166              1              1
     10239.5000        -999.25       117.8053        43.7001       81.42159          0.475         0.5053         0.6864       -45.1802       3.080735              1              1
     10240.0000        -999.25       119.4563        44.1022        82.1875         0.4721         0.4952         0.6769       -45.1101       1.301162              1              1
     10240.5000        -999.25       121.0643        46.4025       86.56904          0.473         0.4931         0.6555       -45.1998       3.099027              1              1
     10241.0000        -999.25        122.609        49.3058       92.09914         0.4793         0.4935         0.6485       -45.2699       3.117558              1              1
     10241.5000        -999.25        124.046         48.506       90.57571         0.4865         0.5026         0.6497       -45.3226     -0.2088365              1      0.9970166
     10242.0000        -999.25       122.9534        46.2359       86.25169         0.4916         0.5157         0.6946       -45.9437      -0.826129              1      0.9881982
     10242.5000        -999.25       115.3794         42.822       79.74904         0.4972         0.5259         0.7179       -46.3781      0.5936498      0.9946604              1
     10243.0000        -999.25       114.8477        40.7059       75.71835         0.5025         0.5315         0.7396       -46.5023     -0.9166923      0.9089012      0.9869044
     10243.5000        -999.25       118.5118        39.7018       73.80581         0.5129         0.5328         0.6935        -46.644     -0.7388903      0.8682087      0.9894444
     10244.0000        -999.25       119.1968        40.3802       75.09798         0.5136         0.5363         0.6714       -46.6321      -1.116742      0.8957018      0.9840465
     10244.5000        -999.25       118.3472        42.3775       78.90236           0.51         0.5362         0.6934       -46.5845       2.386632      0.9766459              1
     10245.0000        -999.25       116.7697        45.3218       84.51056         0.5071         0.5334            0.7        -45.962      0.2327683              1              1
     10245.5000        -999.25       116.8412         46.645       87.03093         0.5011         0.5328         0.6745       -46.1047      0.4205107              1              1
     10246.0000        -999.25       117.1152        46.5541        86.8578          0.496         0.5289         0.6543       -45.9879       3.044945              1              1
     10246.5000        -999.25       117.0884        44.0289       82.04789         0.4917         0.5249         0.6634        -45.438        1.82803              1              1
     10247.0000        -999.25       117.6761        41.3751       76.99303         0.4881         0.5192         0.6641       -45.2717       2.865373       0.936022              1
     10247.5000        -999.25       117.9231        40.6137       75.54276         0.4904         0.5118         0.6821       -45.4826      0.5170826       0.905165              1
     10248.0000        -999.25       116.3391        40.7766       75.85303         0.4904         0.5052         0.6717       -45.5085      0.1822048      0.9117667              1
     10248.5000        -999.25       115.4807        42.0316       78.24352         0.4895         0.5049         0.6427       -45.2822      -0.273094       0.962628      0.9960986
     10249.0000        -999.25       115.3512        42.4703       79.07912         0.4878         0.5079         0.6394       -44.9993     0.02434585      0.9804069              1
     10249.5000        -999.25       115.6832        42.1023       78.37818         0.4847         0.5069         0.6835       -45.2645       2.067264      0.9654932              1
     10250.0000        -999.25       116.5519         42.095       78.36427         0.4828         0.5085         0.6956       -45.7764      0.6044289      0.9651973              1
     10250.5000        -999.25       117.9116        42.8068       79.72009         0.4855          0.509         0.6606       -46.0826       1.783274      0.9940444              1
     10251.0000        -999.25       117.5939        45.0693        84.0296         0.4888          0.508         0.6571       -46.2288      0.2068405              1              1
     10251.5000        -999.25       116.7367        46.2757       86.32751         0.4897         0.5082         0.6681       -46.1988     0.08751918              1              1
     10252.0000        -999.25        115.473        45.5591       84.96257         0.4919         0.5094         0.6664       -46.7019       3.019184              1              1
     10252.5000        -999.25       114.2753        42.7159       79.54694         0.4947         0.5157         0.6529         -46.79       2.642485      0.9903605              1
     10253.0000        -999.25       113.7404        40.3246       74.99208         0.4967         0.5174         0.6646       -46.3768       2.317896      0.8934485              1
     10253.5000        -999.25       113.7588        40.2198       74.79245         0.4985         0.5238         0.6894       -45.9968      0.8231967       0.889201              1
     10254.0000        -999.25       114.6627        42.0392       78.25799         0.4986         0.5287         0.6742       -45.3932    0.004630632      0.9629359              1
     10254.5000        -999.25       116.2809        43.5069       81.05362            0.5         0.5336         0.6975       -45.0003      -1.174602              1        0.98322
     10255.0000        -999.25       117.3406        42.9507       79.99418          0.501         0.5321         0.6979       -44.8201      0.7198982      0.9998761              1
     10255.5000        -999.25       117.7419          42.75       79.61189         0.5004         0.5238         0.6883       -44.5467       1.921379      0.9917424              1
     10256.0000        -999.25       118.0946        43.8799       81.76409          0.499         0.5147         0.6644       -44.5491       1.926289              1              1
     10256.5000        -999.25       118.2152        47.1803       88.05056         0.4872         0.5063         0.6544       -44.4545       2.028194              1              1
     10257.0000        -999.25       118.0398        49.0855       91.67951         0.4764         0.4917         0.6542       -44.5227         1.9673              1              1
     10257.5000        -999.25       117.6274        48.2939        90.1717         0.4713          0.473         0.6571       -44.6957       1.801609              1              1
     10258.0000        -999.25       117.2209        46.1198       86.03056         0.4695         0.4713         0.6604       -44.8096       1.695019              1              1
     10258.5000        -999.25       116.9374        43.6704       81.36504         0.4703         0.4721         0.6647       -44.8834       1.628525              1              1
     10259.0000        -999.25       116.5227        43.2941       80.64828         0.4767         0.4728         0.6655        -44.975       1.544235              1              1
     10259.5000        -999.25       115.3743        44.5693       83.07722         0.4855         0.4864         0.6668       -45.2714       1.255142              1              1
     10260.0000        -999.25       113.7258        45.9179       85.64598          0.495         0.5036         0.6658       -45.6716      0.8622513              1              1
     10260.5000        -999.25       112.9427        44.6072       83.14941         0.5043         0.5129         0.6618       -45.8661      0.6750565              1              1
     10261.0000        -999.25       112.6853        43.0012       80.09036         0.5141         0.5245         0.6832       -46.1783      0.3701668              1              1
