#------------------------------------------------------------------------------
# Created by    : vladimir.rabinovich
# Created on    : 09/19/2023 17:21:24
#------------------------------------------------------------------------------
~Version Information Section
VERS.           2.0     :   CWLS log ASCII Standard - VERSION 2.0
WRAP.           NO      :   One line per depth step
~Well Information Section
#MNEM       .UNIT                                         VALUE :DESCRIPTION
#------------------------------------------------------------------------------
STRT        .FT                                             682 :START DEPTH
STOP        .FT                                            8542 :STOP DEPTH
STEP        .FT                                             0.5 :STEP      
NULL        .                                           -999.25 :NULL      
COMP        .                       CORPUS CHRISTI OIL & GAS CO :COMPANY   
WELL        .                               OCS G08551 ST00BP00 :WELL      
FLD         .                                           WILDCAT :FIELD     
LOC         .                                                   :LOCATION  
CNTY        .                             GALVESTON LARGE BLOCK :LOCATION  
STAT        .                                             TEXAS :STATE     
CTRY        .                                     UNITED STATES :COUNTRY   
SRVC        .                                                   :SERVICE COMPANY
DATE        .                             9/13/2023 11:19:36 AM :LOG DATE  
API         .                                    42706401950000 :API NUMBER
UWI         .                                    42706401950000 :UNIQUE WELL ID
XCOORD      .                                   976199.22633255 :SURFACE X 
YCOORD      .                                  10415950.2633902 :SURFACE Y 
LAT         .                                         28.686063 :LATITUDE  
LON         .                                        -95.072067 :LONGITUDE 
ELEV        .FT                                              81 :ELEVATION VALUE
ELEV_TYPE   .                                                KB :ELEVATION REFERENCE TYPE
~Curve Information Section
#MNEM       .UNIT                                      API CODE :CURVE DESCRIPTION
#------------------------------------------------------------------------------
DEPT        .FT                                                 :DEPTH     
CALI        .IN                                                 :          
DPHI        .%                                                  :          
DRHO        .G/C3                                               :          
DT          .US/F                                               :          
GR          .GAPI                                               :          
GR_1        .GAPI                                               :          
GR_NORM     .GAPI                                               :GammaRay Normalized
ILD         .OHMM                                               :          
ILM         .OHMM                                               :          
NPHI        .%                                                  :          
SFL         .OHMM                                               :          
SP_NORM     .MV                                                 :SP Normalized
SPS         .MV                                                 :          
VSH_GR      .V/V                                                :Volume of Shale from GR
VSH_SP      .V/V                                                :Volume of Shale from SP
~A        DEPTH           CALI           DPHI           DRHO             DT             GR           GR_1        GR_NORM            ILD            ILM           NPHI            SFL        SP_NORM            SPS         VSH_GR         VSH_SP
# ...
      6258.0000        -999.25        -999.25        -999.25       102.9637        35.2275        -999.25       28.69095         0.2745         0.3174        -999.25         0.5969      -55.53596      -115.1559              0     0.07566167
      6258.5000        -999.25        -999.25        -999.25       103.4814        40.5515        -999.25       38.68744         0.2847         0.3256        -999.25         0.4596      -48.16668      -107.7837      0.1210094      0.2005647
      6259.0000        -999.25        -999.25        -999.25       104.0066        42.8663        -999.25       43.03378         0.2943         0.3487        -999.25         0.3753      -41.04651      -100.6606      0.2134846      0.3212456
      6259.5000        -999.25        -999.25        -999.25       104.6328        43.7042        -999.25       44.60704         0.3054         0.3727        -999.25          0.491      -37.52433       -97.1355      0.2469584      0.3809436
      6260.0000        -999.25        -999.25        -999.25       105.4084        44.7296        -999.25       46.53237         0.3372         0.3945        -999.25         0.6417      -32.43716       -92.0454      0.2879227      0.4671668
      6260.5000        -999.25        -999.25        -999.25        106.035        46.2983        -999.25       49.47781         0.3908         0.4198        -999.25         0.7082      -27.20918       -86.8145      0.3505916      0.5557767
      6261.0000        -999.25        -999.25        -999.25       106.1567        48.4597        -999.25       53.53611         0.4652         0.4596        -999.25         0.7229       -24.2985       -83.9009      0.4369386      0.6051101
      6261.5000        -999.25        -999.25        -999.25        105.635         51.094        -999.25       58.48235         0.5247         0.5318        -999.25         0.7165      -21.99163       -81.5911      0.5421777      0.6442097
      6262.0000        -999.25        -999.25        -999.25       104.3862        52.9761        -999.25       62.01624         0.5611         0.5873        -999.25         0.7219      -22.21595       -81.8125      0.6173669      0.6404077
      6262.5000        -999.25        -999.25        -999.25       103.2391        54.3725        -999.25       64.63817         0.5831         0.6244        -999.25         0.7606      -26.16908       -85.7627      0.6731525      0.5734055
      6263.0000        -999.25        -999.25        -999.25       102.3168        54.2618        -999.25       64.43031          0.597         0.6414        -999.25         0.8148      -28.09809       -87.6888      0.6687299      0.5407103
      6263.5000        -999.25        -999.25        -999.25       102.1038        52.7672        -999.25       61.62401         0.6014          0.653        -999.25         0.8708      -29.52652       -89.1143      0.6090215      0.5164996
      6264.0000        -999.25        -999.25        -999.25       102.5439         51.445        -999.25        59.1414         0.5837         0.6415        -999.25         0.9136      -30.38485       -89.9697      0.5562001      0.5019518
      6264.5000        -999.25        -999.25        -999.25       103.1224         50.187        -999.25       56.77935         0.5588         0.6194        -999.25         0.8794      -30.94066       -90.5226      0.5059435      0.4925312
      6265.0000        -999.25        -999.25        -999.25       103.6947        49.5822        -999.25       55.64375         0.5393         0.6002        -999.25         0.8381      -31.76129       -91.3403      0.4817819      0.4786222
      6265.5000        -999.25        -999.25        -999.25       104.1692        49.5126        -999.25       55.51307         0.5308         0.5908        -999.25          0.791      -32.47572       -92.0518      0.4790014      0.4665133
      6266.0000        -999.25        -999.25        -999.25       104.4014        50.1127        -999.25       56.63984         0.5263         0.5785        -999.25         0.8166      -32.78184        -92.355      0.5029752      0.4613248
      6266.5000        -999.25        -999.25        -999.25       104.5792        50.9651        -999.25       58.24032         0.5206         0.5697        -999.25         0.8854      -29.50876        -89.079      0.5370281      0.5168007
      6267.0000        -999.25        -999.25        -999.25       104.7019        51.5048        -999.25       59.25368         0.5141         0.5633        -999.25         0.8757      -25.45559       -85.0229       0.558589      0.5854986
      6267.5000        -999.25        -999.25        -999.25       104.8329        52.5156        -999.25       61.15159         0.5171         0.5678        -999.25         0.8467        -22.145       -81.7094        0.59897      0.6416101
      6268.0000        -999.25        -999.25        -999.25       105.0426        54.0505        -999.25       64.03357         0.5358         0.5778        -999.25         0.8156      -18.90463       -78.4661      0.6602887      0.6965317
      6268.5000        -999.25        -999.25        -999.25       105.6676        55.6935        -999.25       67.11852         0.5591         0.5925        -999.25         0.8038      -16.64555       -76.2041      0.7259259      0.7348211
      6269.0000        -999.25        -999.25        -999.25       106.3409        57.5705        -999.25       70.64283         0.5852         0.6121        -999.25         0.8062      -14.19778       -73.7534      0.8009112      0.7763089
      6269.5000        -999.25        -999.25        -999.25       107.0575        58.2009        -999.25       71.82648          0.613         0.6331        -999.25         0.8098       -12.3438       -71.8965      0.8260954      0.8077323
      6270.0000        -999.25        -999.25        -999.25       107.7207        56.1791        -999.25        68.0303         0.6422         0.6515        -999.25         0.8174      -10.73392       -70.2837      0.7453254      0.8350183
      6270.5000        -999.25        -999.25        -999.25       108.0719        54.4656        -999.25       64.81297          0.671         0.6689        -999.25         0.8181      -9.167942       -68.7148      0.6768718      0.8615603
      6271.0000        -999.25        -999.25        -999.25       108.3909        53.0302        -999.25       62.11783         0.6991          0.686        -999.25         0.8294      -8.366268       -67.9102      0.6195284       0.875148
      6271.5000        -999.25        -999.25        -999.25       107.9379        54.1674        -999.25       64.25306         0.7218         0.6986        -999.25         0.8164      -8.156788       -67.6978      0.6649587      0.8786985
      6272.0000        -999.25        -999.25        -999.25       107.4917        56.0231        -999.25       67.73737         0.7395         0.7114        -999.25         0.8111      -7.710617       -67.2487      0.7390931      0.8862607
      6272.5000        -999.25        -999.25        -999.25       107.0505        57.9052        -999.25       71.27128         0.7539         0.7225        -999.25         0.8342      -7.471436       -67.0066      0.8142825      0.8903146
      6273.0000        -999.25        -999.25        -999.25       106.9332        58.4756        -999.25       72.34227         0.7666         0.7321        -999.25         0.8713       -7.13826       -66.6705      0.8370696      0.8959617
      6273.5000        -999.25        -999.25        -999.25       107.0349        57.8108        -999.25         71.094         0.7751         0.7421        -999.25         0.9079      -6.661282       -66.1906      0.8105107      0.9040461
      6274.0000        -999.25        -999.25        -999.25       107.6022        57.4365        -999.25       70.39121         0.7828         0.7534        -999.25         0.9253      -6.234005       -65.7604      0.7955577       0.911288
      6274.5000        -999.25        -999.25        -999.25       108.0778        58.1429        -999.25       71.71758         0.7899         0.7646        -999.25         0.9093      -5.996326       -65.5198      0.8237783      0.9153165
