#------------------------------------------------------------------------------
# Created by    : vladimir.rabinovich
# Created on    : 09/19/2023 17:22:28
#------------------------------------------------------------------------------
~Version Information Section
VERS.           2.0     :   CWLS log ASCII Standard - VERSION 2.0
WRAP.           NO      :   One line per depth step
~Well Information Section
#MNEM       .UNIT                                         VALUE :DESCRIPTION
#------------------------------------------------------------------------------
STRT        .FT                                            2000 :START DEPTH
STOP        .FT                                            7372 :STOP DEPTH
STEP        .FT                                             0.5 :STEP      
NULL        .                                           -999.25 :NULL      
COMP        .                       CORPUS CHRISTI OIL & GAS CO :COMPANY   
WELL        .                                ST TR 00596-L SE/4 :WELL      
FLD         .                                           WILDCAT :FIELD     
LOC         .                                                   :LOCATION  
CNTY        .                      MATAGORDA ISLAND LARGE BLOCK :LOCATION  
STAT        .                                             TEXAS :STATE     
CTRY        .                                     UNITED STATES :COUNTRY   
SRVC        .                                                   :SERVICE COMPANY
DATE        .                             9/13/2023 11:19:13 AM :LOG DATE  
API         .                                    42703300520000 :API NUMBER
UWI         .                                    42703300520000 :UNIQUE WELL ID
XCOORD      .                                  480173.649028781 :SURFACE X 
YCOORD      .                                  10231220.1013933 :SURFACE Y 
LAT         .                                        28.1462983 :LATITUDE  
LON         .                                       -96.6002451 :LONGITUDE 
ELEV        .FT                                              82 :ELEVATION VALUE
ELEV_TYPE   .                                                GL :ELEVATION REFERENCE TYPE
~Curve Information Section
#MNEM       .UNIT                                      API CODE :CURVE DESCRIPTION
#------------------------------------------------------------------------------
DEPT        .FT                                                 :DEPTH     
CILD        .MMHO                                               :          
ILD         .OHMM                                               :          
SN          .OHMM                                               :          
SP          .MV                                                 :          
SP_NORM     .MV                                                 :SP Normalized
VSH_SP      .V/V                                                :Volume of Shale from SP
~A        DEPTH           CILD            ILD             SN             SP        SP_NORM         VSH_SP
# ...
      3786.0000       1270.749         0.7202         1.0791       -26.3283      -1.620428              1
      3786.5000       1283.755         0.7202         1.0791       -28.5752       -3.85932      0.9834746
      3787.0000       1296.761         0.7202         1.0791        -30.822      -6.098114      0.9404209
      3787.5000       1309.767         0.7201         1.0791        -35.512      -10.78011      0.8503826
      3788.0000       1322.772         0.7201         1.0871       -33.6025      -8.862602      0.8872576
      3788.5000       1337.709         0.7201         1.0911       -31.6931      -6.945194      0.9241309
      3789.0000       1317.736           0.72          1.099       -29.7836      -5.027687       0.961006
      3789.5000       1281.772           0.74          1.107       -27.8742      -3.110283      0.9978791
      3790.0000       1241.819         0.7599          1.111       -25.9647      -1.192776              1
      3790.5000       1233.833         0.8198          1.127       -23.3409       1.439032              1
      3791.0000       1229.844         0.8198          1.131       -23.1951       1.592836              1
      3791.5000       1221.859         0.8198          1.147       -22.9424       1.853544              1
      3792.0000       1205.881         0.8135          1.155       -22.7434       2.060551              1
      3792.5000       1201.892         0.8072         1.1709       -22.5445       2.267456              1
      3793.0000       1193.907          0.801         1.2069       -25.0855     -0.2655373              1
      3793.5000       1255.285         0.7797         1.2055       -27.6266       -2.79863              1
      3794.0000       1267.635         0.7597         1.2042       -30.1677      -5.331724      0.9551591
      3794.5000       1279.994         0.7397         1.2029       -32.7088      -7.864819      0.9064458
      3795.0000       1292.337         0.6997         1.1709       -35.2498      -10.39781      0.8577344
      3795.5000       1304.688         0.6996         1.1589       -37.7909      -12.93091      0.8090211
      3796.0000       1317.828         0.6996         1.1489        -40.332        -15.464      0.7603077
      3796.5000       1277.875         0.7195          1.139       -44.1074      -19.23139      0.6878579
      3797.0000       1277.881         0.7395          1.129       -43.9078      -19.02378      0.6918503
      3797.5000       1273.886         0.7594         1.1191       -37.7206      -12.82858      0.8109888
      3798.0000       1269.896         0.7594         1.1091       -29.5385      -4.638472       0.968491
      3798.5000       1265.907         0.7594         1.0992       -31.7665      -6.858465      0.9257988
      3799.0000       1261.918         0.7394         1.0892       -33.9946      -9.078558      0.8831047
      3799.5000       1257.928         0.6994         1.0793       -36.2226      -11.29855      0.8404125
      3800.0000       1295.406         0.6594         1.0693       -38.4506      -13.51855      0.7977203
      3800.5000       1332.884         0.6225         1.0594       -40.6787      -15.73864      0.7550262
      3801.0000       1369.589         0.5994         1.0489        -42.996      -18.04793      0.7106167
      3801.5000       1406.295         0.6193         1.0384       -45.3133      -20.35723      0.6662072
      3802.0000           1443         0.6193         1.0279       -46.1083      -21.14422      0.6510727
      3802.5000       1505.746         0.6392         1.0174       -44.3128      -19.34072      0.6857555
      3803.0000       1486.023         0.6392         1.0069       -42.5173      -17.53721      0.7204384
      3803.5000       1466.301         0.6392         0.9964       -40.7218       -15.7337      0.7551211
      3804.0000       1446.578         0.6391         0.9859       -38.9262       -13.9301      0.7898058
      3804.5000       1426.855         0.6191         0.9789       -37.1307      -12.12659      0.8244887
      3805.0000       1409.898         0.6191          0.959       -35.3352      -10.32308      0.8591715
      3805.5000       1413.904         0.5591          0.943        -33.135      -8.114874       0.901637
      3806.0000       1476.097         0.5391          0.939       -32.9354      -7.907267      0.9056295
      3806.5000       1538.289         0.4991          0.931       -32.9355      -7.899364      0.9057814
      3807.0000       1600.481          0.499          0.927       -41.3447      -16.30056      0.7442201
      3807.5000       1662.673          0.479         0.9309       -52.8969      -27.84475      0.5222164
      3808.0000       1724.866          0.499         0.9309       -51.6992      -26.63904      0.5454031
      3808.5000       1817.562         0.5389         0.9469       -46.2022      -21.13404      0.6512685
      3809.0000        1693.11         0.5588         0.9509       -40.7051      -15.62893      0.7571359
      3809.5000       1568.659         0.5788         0.9589       -35.2081      -10.12392      0.8630015
      3810.0000       1444.207         0.6187         0.9669        -29.711      -4.618818      0.9688689
      3810.5000       1319.756         0.6386         0.9948       -23.7541       1.346088              1
      3811.0000       1198.249         0.6786         1.0348       -23.7542       1.353996              1
      3811.5000        1185.77         0.6785         1.1307       -23.1554       1.960802              1
      3812.0000       1174.297         0.6785         1.1506       -22.9558       2.168409              1
      3812.5000       1098.388         0.6785         1.1409       -21.9579       3.174316              1
      3813.0000       1127.315         0.6585         1.1067       -20.7603       4.379921              1
      3813.5000       1156.242         0.6384         1.1027       -20.3611       4.787128              1
      3814.0000       1185.169         0.6184         1.0667       -20.3612       4.795034              1
      3814.5000       1214.096         0.5984         1.0667       -20.6701       4.494141              1
      3815.0000       1243.023         0.5784         1.0707       -23.3556       1.816647              1
      3815.5000        1271.95         0.5384         1.0747        -25.174    0.006254196              1
      3816.0000       1300.877         0.5384         1.0866       -26.9924       -1.80414              1
      3816.5000       1329.804         0.6582         1.0906       -28.8108      -3.614534       0.988182
      3817.0000       1350.223         0.6981         1.0984       -30.6292      -5.424927      0.9533668
      3817.5000       1332.821         0.7181         1.1026       -32.4475       -7.23522      0.9185535
      3818.0000        1315.42          0.718         1.1545       -34.2659      -9.045614      0.8837382
      3818.5000       1298.019          0.738         1.1622       -36.0843      -10.85601      0.8489229
      3819.0000       1280.618          0.738         1.1905        -37.929       -12.6927      0.8136019
      3819.5000       1263.217         0.7579         1.2025       -34.9512      -9.706894      0.8710213
      3820.0000       1245.815         0.7778         1.2464       -31.3746      -6.122288       0.939956
      3820.5000       1228.414         0.7978         1.2624       -28.3472      -3.086882      0.9983292
      3821.0000       1211.013         0.8177         1.3463       -30.7629      -5.494576      0.9520274
      3821.5000       1193.612         0.8177         1.3862       -33.1786      -7.902269      0.9057256
      3822.0000       1176.211         0.8376         1.4022       -35.5944      -10.31006      0.8594219
      3822.5000        1158.81          0.863         1.3702       -38.0101      -12.71776        0.81312
      3823.0000       1141.408         0.8761         1.3502       -39.7266      -14.42625      0.7802644
      3823.5000       1124.007         0.8897         1.3428        -36.596      -11.28764      0.8406222
