#------------------------------------------------------------------------------
# Created by    : vladimir.rabinovich
# Created on    : 09/19/2023 17:22:56
#------------------------------------------------------------------------------
~Version Information Section
VERS.           2.0     :   CWLS log ASCII Standard - VERSION 2.0
WRAP.           NO      :   One line per depth step
~Well Information Section
#MNEM       .UNIT                                         VALUE :DESCRIPTION
#------------------------------------------------------------------------------
STRT        .FT                                             671 :START DEPTH
STOP        .FT                                           10000 :STOP DEPTH
STEP        .FT                                             0.5 :STEP      
NULL        .                                           -999.25 :NULL      
COMP        .                                    MOBIL OIL CORP :COMPANY   
WELL        .                                     ST TR 00565-L :WELL      
FLD         .                                           WILDCAT :FIELD     
LOC         .                                                   :LOCATION  
CNTY        .                      MATAGORDA ISLAND LARGE BLOCK :LOCATION  
STAT        .                                             TEXAS :STATE     
CTRY        .                                     UNITED STATES :COUNTRY   
SRVC        .                                                   :SERVICE COMPANY
DATE        .                             9/13/2023 11:12:05 AM :LOG DATE  
API         .                                    42703000150000 :API NUMBER
UWI         .                                    42703000150000 :UNIQUE WELL ID
XCOORD      .                                  584511.465629887 :SURFACE X 
YCOORD      .                                  10263641.5286434 :SURFACE Y 
LAT         .                                         28.243485 :LATITUDE  
LON         .                                       -96.2796592 :LONGITUDE 
ELEV        .FT                                              11 :ELEVATION VALUE
ELEV_TYPE   .                                                KB :ELEVATION REFERENCE TYPE
~Curve Information Section
#MNEM       .UNIT                                      API CODE :CURVE DESCRIPTION
#------------------------------------------------------------------------------
DEPT        .FT                                                 :DEPTH     
SP          .MV                                                 :          
SP_NORM     .MV                                                 :SP Normalized
VSH_SP      .V/V                                                :Volume of Shale from SP
~A        DEPTH             SP        SP_NORM         VSH_SP
# ...
      3113.0000        12.2762        -3.6387      0.9287522
      3113.5000        12.4303        -3.7955      0.9219348
      3114.0000        12.6126        -3.9806       0.913887
      3114.5000        12.8285        -4.1992      0.9043826
      3115.0000        13.0444        -4.4179      0.8948739
      3115.5000        13.2059        -4.5821      0.8877348
      3116.0000        13.2381        -4.6171      0.8862131
      3116.5000        13.1451        -4.5268      0.8901391
      3117.0000        12.8029        -4.1874      0.9048957
      3117.5000        12.7049        -4.0921      0.9090391
      3118.0000        13.1134        -4.5034      0.8911566
      3118.5000        13.6976        -5.0903      0.8656392
      3119.0000        14.0891        -5.4845         0.8485
      3119.5000        14.4809        -5.8791      0.8313435
      3120.0000        14.8198        -6.2207      0.8164913
      3120.5000        15.1168        -6.5205      0.8034565
      3121.0000        15.3514        -6.7578      0.7931391
      3121.5000        15.3955        -6.8047         0.7911
      3122.0000        15.4396        -6.8515      0.7890652
      3122.5000        15.3352        -6.7499      0.7934826
      3123.0000        15.2135        -6.6309      0.7986565
      3123.5000        15.0847        -6.5049      0.8041348
      3124.0000        14.9035        -6.3264      0.8118957
      3124.5000        14.7224        -6.1481      0.8196478
      3125.0000        14.5412        -5.9696      0.8274087
      3125.5000        14.3601        -5.7912      0.8351652
      3126.0000        14.1565        -5.5904      0.8438956
      3126.5000        13.9515        -5.3881      0.8526913
      3127.0000        13.7464        -5.1858       0.861487
      3127.5000        13.5413        -4.9834      0.8702869
      3128.0000        13.5421         -4.987      0.8701304
      3128.5000        13.5528        -5.0004      0.8695478
      3129.0000        14.3371        -5.7875      0.8353261
      3129.5000        14.4573        -5.9104      0.8299826
      3130.0000        14.1707        -5.6266      0.8423218
      3130.5000        13.8842        -5.3428      0.8546609
      3131.0000          13.61        -5.0713      0.8664652
      3131.5000        13.4676        -4.9317      0.8725348
      3132.0000        13.3252         -4.792      0.8786087
      3132.5000        13.1829        -4.6525      0.8846739
      3133.0000        13.0596        -4.5319      0.8899174
      3133.5000        12.9785        -4.4536      0.8933218
      3134.0000        12.8973        -4.3751      0.8967348
      3134.5000        12.8112        -4.2918      0.9003565
      3135.0000        12.6967          -4.18      0.9052174
      3135.5000        12.7784        -4.2645      0.9015435
      3136.0000        12.9205        -4.4093      0.8952478
      3136.5000        12.9074        -4.3989         0.8957
      3137.0000        12.8005        -4.2948      0.9002261
      3137.5000        12.6937        -4.1907      0.9047522
      3138.0000        12.5489        -4.0487      0.9109261
      3138.5000        12.3839        -3.8864      0.9179826
      3139.0000         12.219        -3.7243      0.9250304
      3139.5000         12.146         -3.654      0.9280869
      3140.0000        12.3155        -3.8263      0.9205956
      3140.5000        12.6611        -4.1746      0.9054522
      3141.0000        13.0745        -4.5908      0.8873565
      3141.5000        13.3446        -4.8636      0.8754957
      3142.0000         13.426        -4.9477      0.8718391
      3142.5000        13.5073        -5.0318      0.8681826
      3143.0000        13.5887        -5.1159      0.8645261
      3143.5000        13.6265        -5.1565      0.8627609
      3144.0000        13.6602        -5.1929      0.8611783
      3144.5000         13.694        -5.2295       0.859587
      3145.0000        13.7936        -5.3318      0.8551391
      3145.5000        14.9833        -6.5243      0.8032913
      3146.0000        16.3192        -7.8629      0.7450913
      3146.5000        17.7669        -9.3134      0.6820261
      3147.0000        18.7527       -10.3019      0.6390478
      3147.5000        19.7253       -11.2773      0.5966392
      3148.0000        20.5944       -12.1491      0.5587348
      3148.5000        22.5421       -14.0995      0.4739348
      3149.0000        26.9879       -18.5481      0.2805174
      3149.5000        27.4648       -19.0277      0.2596652
      3150.0000         27.673       -19.2387      0.2504913
      3150.5000        27.8669       -19.4353      0.2419434
      3151.0000        28.0418        -19.613      0.2342174
      3151.5000        28.1556       -19.7295      0.2291522
      3152.0000        28.2137       -19.7904      0.2265044
      3152.5000        28.2307       -19.8101      0.2256478
      3153.0000        28.6479       -20.2301      0.2073869
      3153.5000        29.1292       -20.7141      0.1863435
      3154.0000        29.4053       -20.9929      0.1742217
      3154.5000        29.6816        -21.272       0.162087
      3155.0000        29.2839        -20.877      0.1792608
      3155.5000        28.7656       -20.3615      0.2016739
      3156.0000        27.6631       -19.2617      0.2494913
      3156.5000        26.0234       -17.6248      0.3206609
      3157.0000         24.385       -15.9891      0.3917782
      3157.5000        22.9964       -14.6033      0.4520304
      3158.0000        21.0826       -12.6922      0.5351217
      3158.5000        19.0306        -10.643      0.6242174
      3159.0000        17.8892        -9.5043      0.6737261
      3159.5000        16.9486        -8.5664      0.7145044
      3160.0000        16.3497        -7.9703      0.7404217
      3160.5000        15.7711        -7.3944      0.7654608
      3161.0000        15.2955        -6.9216      0.7860174
      3161.5000        14.9294        -6.5582      0.8018174
      3162.0000         14.563        -6.1946      0.8176261
      3162.5000        14.3686        -6.0029      0.8259609
      3163.0000        14.2018        -5.8389      0.8330913
      3163.5000        14.0349        -5.6747      0.8402305
      3164.0000        13.8648        -5.5074      0.8475043
      3164.5000        13.6868        -5.3321      0.8551261
      3165.0000        13.5089        -5.1569      0.8627435
      3165.5000        13.3309        -4.9817      0.8703609
      3166.0000         12.983        -4.6365      0.8853696
      3166.5000        12.5629        -4.2192       0.903513
      3167.0000        12.0827        -3.7417      0.9242739
      3167.5000        11.4405        -3.1023      0.9520739
      3168.0000        11.0386        -2.7031      0.9694304
      3168.5000        11.5562        -3.2235      0.9468043
      3169.0000        12.1583        -3.8283      0.9205087
      3169.5000        12.9615        -4.6343      0.8854652
      3170.0000        14.5497        -6.2252      0.8162956
      3170.5000        15.6974        -7.3756      0.7662783
      3171.0000        17.2887        -8.9697      0.6969696
      3171.5000        18.7696       -10.4533      0.6324652
      3172.0000        19.8138       -11.5003      0.5869434
      3172.5000        20.7293       -12.4185      0.5470217
      3173.0000        21.8926       -13.5846      0.4963217
      3173.5000        23.1351       -14.8298      0.4421826
      3174.0000        24.3041       -16.0016      0.3912348
      3174.5000        25.2817       -16.9819      0.3486131
      3175.0000        26.8116       -18.5146      0.2819739
      3175.5000        28.0797       -19.7854      0.2267217
      3176.0000        28.8566       -20.5651      0.1928218
      3176.5000        29.4433       -21.1545      0.1671957
      3177.0000        30.2992       -22.0131      0.1298652
      3177.5000        30.8724       -22.5891      0.1048217
      3178.0000        31.1852       -22.9046     0.09110434
      3178.5000         31.197       -22.9192     0.09046952
