#------------------------------------------------------------------------------
# Created by    : vladimir.rabinovich
# Created on    : 09/19/2023 17:20:38
#------------------------------------------------------------------------------
~Version Information Section
VERS.           2.0     :   CWLS log ASCII Standard - VERSION 2.0
WRAP.           NO      :   One line per depth step
~Well Information Section
#MNEM       .UNIT                                         VALUE :DESCRIPTION
#------------------------------------------------------------------------------
STRT        .FT                                             495 :START DEPTH
STOP        .FT                                            8683 :STOP DEPTH
STEP        .FT                                             0.5 :STEP      
NULL        .                                           -999.25 :NULL      
COMP        .                                      SHELL OIL CO :COMPANY   
WELL        .                                OCS 00706 ST00BP00 :WELL      
FLD         .                                           WILDCAT :FIELD     
LOC         .                                                   :LOCATION  
CNTY        .                             GALVESTON LARGE BLOCK :LOCATION  
STAT        .                                             TEXAS :STATE     
CTRY        .                                     UNITED STATES :COUNTRY   
SRVC        .                                                   :SERVICE COMPANY
DATE        .                             9/13/2023 11:19:25 AM :LOG DATE  
API         .                                    42706000290000 :API NUMBER
UWI         .                                    42706000290000 :UNIQUE WELL ID
XCOORD      .                                  1097630.70361638 :SURFACE X 
YCOORD      .                                  10500448.3193905 :SURFACE Y 
LAT         .                                          28.92371 :LATITUDE  
LON         .                                        -94.697168 :LONGITUDE 
ELEV        .FT                                              92 :ELEVATION VALUE
ELEV_TYPE   .                                                KB :ELEVATION REFERENCE TYPE
~Curve Information Section
#MNEM       .UNIT                                      API CODE :CURVE DESCRIPTION
#------------------------------------------------------------------------------
DEPT        .FT                                                 :DEPTH     
ASN         .OHMM                                               :          
CILD        .MMHO                                               :          
ILD         .OHMM                                               :          
SP          .MV                                                 :          
SP_NORM     .MV                                                 :SP Normalized
VSH_SP      .V/V                                                :Volume of Shale from SP
~A        DEPTH            ASN           CILD            ILD             SP        SP_NORM         VSH_SP
# ...
      2661.0000         0.7838       1739.855         0.7541       -42.2449      -6.561054      0.7260727
      2661.5000         0.7872       1729.877         0.7544        -42.664      -6.988605      0.6931842
      2662.0000         0.7892       1736.738         0.7546       -43.0829      -7.415951      0.6603115
      2662.5000         0.7912       1745.109         0.7548        -43.502      -7.843498      0.6274232
      2663.0000         0.7932       1753.479          0.755       -43.9209      -8.270844      0.5945505
      2663.5000         0.7951       1763.338         0.7554       -44.2661      -8.624496      0.5673465
      2664.0000         0.7971       1778.852         0.7595       -44.3029      -8.669739      0.5638663
      2664.5000         0.7991       1794.367         0.7636       -43.9122      -8.287491      0.5932699
      2665.0000         0.8033       1810.701         0.7677       -43.5889      -7.972641      0.6174892
      2665.5000         0.8088       1809.156         0.7718       -43.2656      -7.657784       0.641709
      2666.0000         0.8144       1771.639         0.7759       -42.9422      -7.342834      0.6659358
      2666.5000         0.8215       1737.705         0.7799        -42.619       -7.02808      0.6901477
      2667.0000         0.8286       1714.758          0.784       -42.2955      -6.713032      0.7143822
      2667.5000         0.8358       1687.301         0.7881       -41.9723      -6.398277      0.7385941
      2668.0000          0.843       1647.729         0.7922       -41.7477      -6.182125      0.7552211
      2668.5000          0.848       1587.834         0.7963       -41.5806      -6.023476      0.7674249
      2669.0000         0.8526       1538.354         0.8004       -41.4135      -5.864822      0.7796291
      2669.5000         0.8571       1482.846         0.8045       -41.2464      -5.706169      0.7918332
      2670.0000         0.8617       1438.303         0.8085       -41.0793      -5.547516      0.8040372
      2670.5000         0.8662       1407.855         0.8126       -40.9111      -5.387764      0.8163258
      2671.0000         0.8706       1384.533         0.8167       -40.6893      -5.174412      0.8327376
      2671.5000          0.875       1363.201         0.8216       -40.4677      -4.961262      0.8491337
      2672.0000         0.8794       1348.008         0.8267        -40.246      -4.748005      0.8655381
      2672.5000         0.8838       1343.535         0.8319       -40.0244      -4.534855      0.8819342
      2673.0000         0.8882       1340.186         0.8371       -39.8026      -4.321507      0.8983456
      2673.5000         0.8926        1343.51         0.8423       -39.5945      -4.121853      0.9137036
      2674.0000          0.897       1346.832         0.8475       -39.3867      -3.922501      0.9290384
      2674.5000         0.9005       1357.297         0.8527       -39.3835      -3.927746      0.9286349
      2675.0000         0.9032       1372.559         0.8579       -39.3862      -3.938896      0.9277772
      2675.5000         0.9058       1381.971          0.863       -39.2382      -3.799343      0.9385121
      2676.0000         0.9084         1390.9         0.8682       -38.9895       -3.55909      0.9569931
      2676.5000         0.9111         1395.1         0.8734       -38.7407      -3.318741      0.9754815
      2677.0000         0.9137       1399.301         0.8786       -38.4333      -3.019787      0.9984779
      2677.5000         0.9164       1387.393         0.8838       -38.0258      -2.620735              1
      2678.0000          0.919       1369.633         0.8888       -37.6183      -2.221684              1
      2678.5000         0.9216       1351.875         0.8932       -37.2624      -1.874233              1
      2679.0000         0.9243        1327.51         0.8976       -37.3699      -1.990177              1
      2679.5000           0.93       1302.252          0.902       -37.4775      -2.106228              1
      2680.0000         0.9356       1281.502         0.9063       -37.5616      -2.198772              1
      2680.5000         0.9406       1263.602         0.9107       -37.6376      -2.283222              1
      2681.0000         0.9423        1253.82         0.9151       -37.7137      -2.367771              1
      2681.5000         0.9439       1244.035         0.9195       -37.7897      -2.452217              1
      2682.0000         0.9456       1234.637         0.9239       -37.7887      -2.459667              1
      2682.5000         0.9472       1227.043         0.9282       -37.6808      -2.360214              1
      2683.0000         0.9489       1219.451         0.9326       -37.5729      -2.260761              1
      2683.5000         0.9506       1211.861          0.937        -37.465      -2.161308              1
      2684.0000         0.9525       1204.602         0.9398       -37.3571      -2.061859              1
      2684.5000         0.9543       1197.588         0.9421       -37.1052      -1.818409              1
      2685.0000         0.9562       1190.576         0.9444       -36.7689      -1.490555              1
      2685.5000          0.958       1182.678         0.9468       -36.4326      -1.162701              1
      2686.0000         0.9599        1170.49         0.9491       -36.0962     -0.8347473              1
      2686.5000         0.9618       1166.199         0.9515       -35.7894      -0.536396              1
      2687.0000         0.9632       1168.205         0.9538       -35.5343     -0.2897453              1
      2687.5000         0.9637       1170.211         0.9561       -35.2793    -0.04319382              1
      2688.0000         0.9643       1172.369         0.9585       -35.0243      0.2033615              1
      2688.5000         0.9648       1195.428         0.9608       -35.3239     -0.1046867              1
      2689.0000         0.9654       1240.588          0.963       -36.1228     -0.9120369              1
      2689.5000         0.9632       1284.746         0.9603       -36.9215      -1.719185              1
      2690.0000         0.9602       1310.646         0.9576       -37.7205      -2.526634              1
      2690.5000         0.9572       1323.869          0.955       -38.3289      -3.143478      0.9889632
      2691.0000         0.9542       1334.354         0.9523       -38.8906      -3.713627      0.9451056
      2691.5000         0.9512       1339.156         0.9496       -39.4144      -4.245872      0.9041637
      2692.0000         0.9476       1343.959          0.947       -39.9056      -4.745525      0.8657288
      2692.5000         0.9433       1335.852         0.9443       -39.9616      -4.809975      0.8607712
      2693.0000         0.9391       1327.352         0.9417       -39.4507      -4.307518      0.8994217
      2693.5000         0.9397       1316.502          0.939       -38.8098      -3.675068      0.9480717
      2694.0000         0.9417       1293.555         0.9363       -38.0748      -2.948513              1
      2694.5000         0.9441       1271.486         0.9342       -37.3397      -2.221863              1
      2695.0000         0.9474       1256.459         0.9325       -36.6047      -1.495308              1
      2695.5000         0.9506       1241.428         0.9308       -35.9968     -0.8958588              1
      2696.0000         0.9539       1229.961         0.9291       -35.4203     -0.3278046              1
      2696.5000         0.9571        1220.18         0.9274       -34.8441      0.2399445              1
      2697.0000         0.9603       1216.506         0.9257       -34.4427      0.6328964              1
      2697.5000         0.9636       1215.861          0.924       -34.1731      0.8940506              1
      2698.0000         0.9663       1215.219         0.9223       -34.6669      0.3917999              1
      2698.5000         0.9686       1219.234         0.9206       -35.1606     -0.1103439              1
