#------------------------------------------------------------------------------
# Created by    : vladimir.rabinovich
# Created on    : 09/19/2023 17:20:37
#------------------------------------------------------------------------------
~Version Information Section
VERS.           2.0     :   CWLS log ASCII Standard - VERSION 2.0
WRAP.           NO      :   One line per depth step
~Well Information Section
#MNEM       .UNIT                                         VALUE :DESCRIPTION
#------------------------------------------------------------------------------
STRT        .FT                                             495 :START DEPTH
STOP        .FT                                            7007 :STOP DEPTH
STEP        .FT                                             0.5 :STEP      
NULL        .                                           -999.25 :NULL      
COMP        .                                      SHELL OIL CO :COMPANY   
WELL        .                                OCS 00718 ST00BP00 :WELL      
FLD         .                                           WILDCAT :FIELD     
LOC         .                                                   :LOCATION  
CNTY        .                             GALVESTON LARGE BLOCK :LOCATION  
STAT        .                                             TEXAS :STATE     
CTRY        .                                     UNITED STATES :COUNTRY   
SRVC        .                                                   :SERVICE COMPANY
DATE        .                             9/13/2023 11:19:25 AM :LOG DATE  
API         .                                    42706000330000 :API NUMBER
UWI         .                                    42706000330000 :UNIQUE WELL ID
XCOORD      .                                  1012682.17104467 :SURFACE X 
YCOORD      .                                  10442833.5651685 :SURFACE Y 
LAT         .                                         28.761679 :LATITUDE  
LON         .                                        -94.959691 :LONGITUDE 
ELEV        .FT                                              75 :ELEVATION VALUE
ELEV_TYPE   .                                                KB :ELEVATION REFERENCE TYPE
~Curve Information Section
#MNEM       .UNIT                                      API CODE :CURVE DESCRIPTION
#------------------------------------------------------------------------------
DEPT        .FT                                                 :DEPTH     
ASN         .OHMM                                               :          
CILD        .MMHO                                               :          
DT          .US/F                                               :          
ILD         .OHMM                                               :          
LAT         .OHMM                                               :          
LN          .OHMM                                               :          
SP          .MV                                                 :          
SP_NORM     .MV                                                 :SP Normalized
VSH_SP      .V/V                                                :Volume of Shale from SP
~A        DEPTH            ASN           CILD             DT            ILD            LAT             LN             SP        SP_NORM         VSH_SP
# ...
      3092.0000         1.0139       1335.637       120.0027         0.8109        -999.25        -999.25       -62.5584      -3.496593      0.9462063
      3092.5000         0.9933       1323.984       119.8341         0.8261        -999.25        -999.25       -61.8275      -2.654496      0.9591616
      3093.0000         0.9908       1303.379       119.1915         0.8363        -999.25        -999.25         -61.26      -2.001899      0.9692016
      3093.5000         1.0094       1272.352       118.4561          0.856        -999.25        -999.25       -60.9237      -1.617441      0.9751163
      3094.0000         1.0297       1245.078       117.5413         0.8667        -999.25        -999.25       -60.7886       -1.46633      0.9774411
      3094.5000         1.0561       1228.904       116.6008          0.878        -999.25        -999.25       -60.9138      -1.617105      0.9751214
      3095.0000         1.0651        1212.73       115.3254         0.8811        -999.25        -999.25       -60.8142      -1.507165      0.9768128
      3095.5000         1.0414       1196.557       114.1644         0.8825        -999.25        -999.25       -60.4526      -1.093361       0.983179
      3096.0000          1.062         1179.4       113.4348         0.8872        -999.25        -999.25       -60.9121      -1.631846      0.9748947
      3096.5000         1.0863        1161.65       112.9315         0.8914        -999.25        -999.25       -61.6899      -2.539482      0.9609311
      3097.0000          1.096           1144       112.3135         0.8976        -999.25        -999.25       -62.1314      -3.057089      0.9529679
      3097.5000          1.086        1131.84       112.3258         0.8941        -999.25        -999.25       -62.3764        -3.3468      0.9485108
      3098.0000         1.0733       1119.678       112.4044         0.8938        -999.25        -999.25       -62.8129      -3.858607      0.9406368
      3098.5000         1.0913       1107.518       111.9678         0.8935        -999.25        -999.25       -63.0023       -4.08384      0.9371717
      3099.0000         1.0855       1095.357       111.4189         0.8932        -999.25        -999.25       -62.6303      -3.657977      0.9437234
      3099.5000         1.0713        1091.34       110.8268          0.893        -999.25        -999.25       -62.1957      -3.159517      0.9513921
      3100.0000         1.0659       1089.367       110.0297         0.8857        -999.25        -999.25       -61.8118       -2.71985      0.9581562
      3100.5000         1.0677       1094.754       109.0891         0.8877        -999.25        -999.25       -61.7856      -2.695039      0.9585379
      3101.0000         1.0684       1104.443        108.147         0.8938        -999.25        -999.25       -61.5841      -2.466917      0.9620475
      3101.5000         1.0806       1114.129        107.368         0.8986        -999.25        -999.25       -61.0856      -1.894349      0.9708562
      3102.0000         1.0839       1170.145       107.5209         0.8973        -999.25        -999.25       -60.5623      -1.293014      0.9801075
      3102.5000         1.0675       1219.359       107.9806         0.8871        -999.25        -999.25       -60.0562     -0.7116239      0.9890519
      3103.0000         1.0501        1241.68       109.2045         0.8701        -999.25        -999.25       -60.1161     -0.7866707      0.9878974
      3103.5000         1.0328       1265.945       110.1772         0.8483        -999.25        -999.25       -60.1035     -0.7776277      0.9880365
      3104.0000         1.0248       1295.711       110.8431         0.8316        -999.25        -999.25       -59.9362      -0.589168      0.9909359
      3104.5000         1.0105        1323.84       111.5826         0.8241        -999.25        -999.25       -59.2991      0.1441475              1
      3105.0000         0.9992       1331.445       112.8252          0.814        -999.25        -999.25       -59.5358     -0.1359452      0.9979085
      3105.5000          1.003       1339.057        114.135          0.812        -999.25        -999.25       -59.8447     -0.4997648      0.9923113
      3106.0000         1.0029       1346.293       115.4968         0.8133        -999.25        -999.25        -60.061     -0.7561927      0.9883662
      3106.5000         0.9988       1348.234       116.3437          0.817        -999.25        -999.25       -59.8329     -0.4972209      0.9923505
      3107.0000          0.989       1350.174       116.5803         0.8206        -999.25        -999.25       -59.4991     -0.1156649      0.9982206
      3107.5000         1.0234       1341.125       116.7202          0.825        -999.25        -999.25       -59.2966      0.1136165              1
      3108.0000         1.0466       1330.182       116.6907         0.8302        -999.25        -999.25       -59.2874      0.1187175              1
      3108.5000          1.027       1284.646       116.2798         0.8366        -999.25        -999.25       -59.8665     -0.5584732      0.9914081
      3109.0000         1.0093       1249.168       115.8553         0.8439        -999.25        -999.25        -60.564      -1.372981      0.9788772
      3109.5000         0.9966       1221.057        115.817         0.8496        -999.25        -999.25       -61.2433       -2.16638       0.966671
      3110.0000         0.9977       1198.289       116.3047         0.8498        -999.25        -999.25       -62.2482      -3.337394      0.9486555
      3110.5000         1.0045       1177.152       116.8599         0.8466        -999.25        -999.25       -63.3594      -4.631696      0.9287431
      3111.0000          0.997        1168.34       117.3462         0.8436        -999.25        -999.25       -63.6359      -4.957942       0.923724
      3111.5000         0.9886       1190.174       117.7622         0.8382        -999.25        -999.25       -63.5161      -4.824575      0.9257758
      3112.0000         0.9905       1220.979       118.1555         0.8324        -999.25        -999.25        -63.054      -4.294218      0.9339351
      3112.5000          0.998       1246.475        118.368         0.8268        -999.25        -999.25       -62.3469      -3.479719      0.9464658
      3113.0000         1.0135        1270.16       118.1484         0.8244        -999.25        -999.25       -61.6529      -2.680413      0.9587629
      3113.5000         1.0036        1283.08        117.813          0.827        -999.25        -999.25       -61.0078      -1.937825      0.9701873
      3114.0000         1.0036       1292.426       117.8221         0.8289        -999.25        -999.25       -60.2243      -1.034719      0.9840813
      3114.5000         1.0251       1301.775       118.2361         0.8295        -999.25        -999.25        -59.464     -0.1585216      0.9975612
      3115.0000         1.0207       1311.119        118.757         0.8291        -999.25        -999.25       -58.9443      0.4386364              1
      3115.5000         1.0352       1318.715       119.1536         0.8286        -999.25        -999.25       -58.8545      0.5372108              1
      3116.0000          1.034       1318.133       118.9934          0.838        -999.25        -999.25       -58.7529      0.6494735              1
      3116.5000         1.0429       1277.984       118.3314         0.8471        -999.25        -999.25       -57.9276       1.601054              1
      3117.0000          1.056       1244.529       117.2478         0.8606        -999.25        -999.25       -57.5525        2.03051              1
      3117.5000         1.0752       1220.936       116.2892          0.882        -999.25        -999.25       -57.6414       1.921836              1
      3118.0000         1.0994       1192.947       115.5132         0.9046        -999.25        -999.25       -58.0105       1.488194              1
