#------------------------------------------------------------------------------
# Created by    : vladimir.rabinovich
# Created on    : 09/19/2023 17:20:23
#------------------------------------------------------------------------------
~Version Information Section
VERS.           2.0     :   CWLS log ASCII Standard - VERSION 2.0
WRAP.           NO      :   One line per depth step
~Well Information Section
#MNEM       .UNIT                                         VALUE :DESCRIPTION
#------------------------------------------------------------------------------
STRT        .FT                                            3532 :START DEPTH
STOP        .FT                                           13690 :STOP DEPTH
STEP        .FT                                             0.5 :STEP      
NULL        .                                           -999.25 :NULL      
COMP        .                              VASTAR RESOURCES INC :COMPANY   
WELL        .                                     ST TR 00023-L :WELL      
FLD         .                          HIGH ISLAND BLOCK 0024-L :FIELD     
LOC         .                                                   :LOCATION  
CNTY        .                           HIGH ISLAND LARGE BLOCK :LOCATION  
STAT        .                                             TEXAS :STATE     
CTRY        .                                     UNITED STATES :COUNTRY   
SRVC        .                                                   :SERVICE COMPANY
DATE        .                             9/13/2023 11:19:15 AM :LOG DATE  
API         .                                    42708300330000 :API NUMBER
UWI         .                                    42708300330000 :UNIQUE WELL ID
XCOORD      .                                  1290562.53578251 :SURFACE X 
YCOORD      .                                  10712997.1214806 :SURFACE Y 
LAT         .                                        29.5146054 :LATITUDE  
LON         .                                       -94.1002609 :LONGITUDE 
ELEV        .FT                                              79 :ELEVATION VALUE
ELEV_TYPE   .                                                KB :ELEVATION REFERENCE TYPE
~Curve Information Section
#MNEM       .UNIT                                      API CODE :CURVE DESCRIPTION
#------------------------------------------------------------------------------
DEPT        .FT                                                 :DEPTH     
ASN         .OHMM                                               :          
CILD        .MMHO                                               :          
ILD         .OHMM                                               :          
SP          .MV                                                 :          
SP_NORM     .MV                                                 :SP Normalized
VSH_SP      .V/V                                                :Volume of Shale from SP
~A        DEPTH            ASN           CILD            ILD             SP        SP_NORM         VSH_SP
# ...
      7560.0000          0.685       1851.584         0.6205       -60.9139       3.692944              1
      7560.5000         0.6829       1842.326         0.6229       -57.9724       6.631634              1
      7561.0000         0.6808       1831.172         0.6253       -58.3185       6.282734              1
      7561.5000         0.6786       1814.844         0.6276       -58.6651       5.933327              1
      7562.0000         0.6765       1798.488           0.63       -59.0117        5.58392              1
      7562.5000         0.6743        1782.16         0.6324       -59.3583        5.23452              1
      7563.0000         0.6722       1765.805         0.6347       -59.7049       4.885113              1
      7563.5000           0.67       1749.104         0.6371       -60.2249       4.362305              1
      7564.0000         0.6679       1731.434         0.6395       -60.7687       3.815697              1
      7564.5000         0.6657       1713.766         0.6418       -61.3116       3.269997              1
      7565.0000         0.6636       1695.848         0.6442       -61.8555       2.723289              1
      7565.5000         0.6614       1701.059         0.6466       -62.3994       2.176582              1
      7566.0000         0.6661        1733.32         0.6542       -62.9432       1.629982              1
      7566.5000         0.6735       1829.063          0.653       -63.6014      0.9689751              1
      7567.0000         0.6809       1918.898         0.6355       -64.6597    -0.09213257              1
      7567.5000         0.6883           2036         0.6181       -65.7179      -1.153145      0.9984531
      7568.0000         0.6957           2429         0.6006       -66.7761      -2.214142      0.9877359
      7568.5000         0.7031         2822.5         0.5832       -68.5479      -3.988747      0.9698107
      7569.0000         0.7105         3215.5         0.5657       -72.1318      -7.575455      0.9335813
      7569.5000         0.7185           3609         0.5483       -75.6348      -11.08126      0.8981691
      7570.0000         0.7285           4002         0.5167       -78.5735      -14.02277      0.8684569
      7570.5000         0.7386       4394.266         0.4842      -135.2058      -70.65787      0.2963852
      7571.0000         0.7371       4627.836         0.4517      -145.4712      -80.92609      0.1926658
      7571.5000         0.7319       4742.492         0.4192      -153.8191      -89.27679      0.1083153
      7572.0000         0.7266       4814.906         0.3868      -156.8057      -92.26618     0.07811937
      7572.5000         0.7214       4859.133         0.3543      -158.8208       -94.2841     0.05773641
      7573.0000         0.7161       4903.305         0.3276      -160.2405       -95.7066     0.04336771
      7573.5000         0.7109       4947.773         0.3083      -161.2026      -96.67151     0.03362112
      7574.0000         0.7056       4992.297         0.2891      -161.7244      -97.19611     0.02832216
      7574.5000         0.6975       5065.305         0.2801      -162.2454      -97.71992     0.02303106
      7575.0000         0.6864        5149.68         0.2773      -162.1965      -97.67382     0.02349676
      7575.5000         0.6752       5145.609         0.2746      -161.5374      -97.01752     0.03012601
      7576.0000          0.664       5068.484         0.2718      -160.8792      -96.36213     0.03674617
      7576.5000         0.6528       4991.352          0.269        -160.22      -95.70574     0.04337635
      7577.0000         0.6416       4946.734         0.2662       -159.562      -95.05054     0.04999457
      7577.5000         0.6304       4905.391         0.2665      -158.9028      -94.39415     0.05662475
      7578.0000         0.6192       4892.453           0.27      -157.6667      -93.16086     0.06908224
      7578.5000         0.6113       4889.578         0.2735      -156.4148      -91.91175     0.08169949
      7579.0000         0.6055       4886.695          0.277      -155.1631      -90.66286      0.0943145
      7579.5000         0.6307        4883.82         0.2805      -153.9094      -89.41196      0.1069499
      7580.0000         0.6793       4851.039          0.284      -152.6575      -88.16288      0.1195669
      7580.5000         0.7277       4812.969         0.2875      -151.4038      -86.91197      0.1322023
      7581.0000         0.7701       4774.906          0.291      -150.1521      -85.66309      0.1448173
      7581.5000         0.7557       4698.813         0.2945      -149.3962      -84.90999      0.1524244
      7582.0000         0.7413       4582.375          0.298      -150.4709       -85.9875      0.1415405
      7582.5000         0.7269       4522.719         0.3015      -151.5735       -87.0929      0.1303747
      7583.0000         0.7116       4463.055          0.305      -152.8418      -88.36401      0.1175353
      7583.5000         0.6942       4390.992         0.3085      -154.1121      -89.63712      0.1046755
      7584.0000         0.6768       4360.766         0.3106      -155.3823      -90.91011     0.09181707
      7584.5000         0.6594       4442.805         0.3111      -155.8342      -91.36482     0.08722401
      7585.0000          0.642       4533.539         0.3115      -155.6873      -91.22073     0.08867946
      7585.5000         0.6246       4624.266          0.312      -155.5405      -91.07674     0.09013397
      7586.0000         0.6071        4894.57         0.3124      -155.6125      -91.15154     0.08937836
      7586.5000         0.5897       5079.398         0.3129      -155.8013      -91.34315     0.08744296
      7587.0000         0.5723       5225.719         0.3121        -155.99      -91.53466     0.08550848
      7587.5000         0.5552       5281.008         0.3102      -156.1785      -91.72595     0.08357624
      7588.0000         0.5395       5336.305         0.3083      -155.2053      -90.75557     0.09337809
      7588.5000         0.5238        5259.07         0.3064      -146.0833      -81.63637      0.1854912
      7589.0000         0.5081       5127.047         0.3045      -140.0876      -75.64348      0.2460255
      7589.5000         0.4924       4127.125         0.3026       -135.051      -70.60967       0.296872
      7590.0000         0.4792        4005.25         0.3007      -130.4934      -66.05488        0.34288
      7590.5000         0.4919        3532.18          0.312      -126.8708      -62.43509      0.3794436
      7591.0000         0.5052       3546.352         0.3269       -129.697       -65.2641      0.3508677
      7591.5000         0.5204       3664.676         0.3419      -136.0464       -71.6163       0.286704
      7592.0000         0.5356       3816.355         0.3568      -152.4658      -88.03851      0.1208231
      7592.5000         0.5508           4072         0.3718      -155.2017      -90.77722     0.09315938
      7593.0000         0.5661         4408.5         0.3775      -156.5134      -92.09171     0.07988169
      7593.5000         0.5813           4745         0.3624      -157.1753      -92.75642     0.07316751
      7594.0000         0.5965       5239.766         0.3473      -157.8362      -93.42013     0.06646335
      7594.5000         0.6083         5282.5         0.3322      -158.4299      -94.01663     0.06043806
      7595.0000         0.6085       5325.234         0.3171      -158.8037      -94.39323       0.056634
      7595.5000         0.6018       5359.578          0.302       -159.177      -94.76935     0.05283487
      7596.0000         0.5951        5391.25         0.2869      -159.5508      -95.14595      0.0490308
      7596.5000         0.5883       5411.352         0.2718      -159.8997      -95.49766     0.04547821
      7597.0000         0.5816       5306.023         0.2567      -159.5413      -95.14207     0.04907003
      7597.5000         0.5716       5161.789         0.2604      -159.1826      -94.78617     0.05266494
