#------------------------------------------------------------------------------
# Created by    : vladimir.rabinovich
# Created on    : 09/19/2023 17:21:25
#------------------------------------------------------------------------------
~Version Information Section
VERS.           2.0     :   CWLS log ASCII Standard - VERSION 2.0
WRAP.           NO      :   One line per depth step
~Well Information Section
#MNEM       .UNIT                                         VALUE :DESCRIPTION
#------------------------------------------------------------------------------
STRT        .FT                                            3400 :START DEPTH
STOP        .FT                                            8653 :STOP DEPTH
STEP        .FT                                             0.5 :STEP      
NULL        .                                           -999.25 :NULL      
COMP        .                          KING RANCH OIL & GAS INC :COMPANY   
WELL        .                               OCS G13784 ST00BP00 :WELL      
FLD         .                                           WILDCAT :FIELD     
LOC         .                                                   :LOCATION  
CNTY        .                             GALVESTON LARGE BLOCK :LOCATION  
STAT        .                                             TEXAS :STATE     
CTRY        .                                     UNITED STATES :COUNTRY   
SRVC        .                                                   :SERVICE COMPANY
DATE        .                             9/13/2023 11:19:54 AM :LOG DATE  
API         .                                    42706403430000 :API NUMBER
UWI         .                                    42706403430000 :UNIQUE WELL ID
XCOORD      .                                   967589.17441186 :SURFACE X 
YCOORD      .                                  10424680.8833423 :SURFACE Y 
LAT         .                                         28.709654 :LATITUDE  
LON         .                                        -95.099391 :LONGITUDE 
ELEV        .FT                                             106 :ELEVATION VALUE
ELEV_TYPE   .                                                KB :ELEVATION REFERENCE TYPE
~Curve Information Section
#MNEM       .UNIT                                      API CODE :CURVE DESCRIPTION
#------------------------------------------------------------------------------
DEPT        .FT                                                 :DEPTH     
CALI        .IN                                                 :          
DPHI        .%                                                  :          
DRHO        .G/C3                                               :          
DTLN        .US/F                                               :          
GR          .GAPI                                               :          
GR_1        .GAPI                                               :          
GR_NORM     .GAPI                                               :GammaRay Normalized
ILD         .OHMM                                               :          
ILM         .OHMM                                               :          
NPHI        .%                                                  :          
SFL         .OHMM                                               :          
SP          .MV                                                 :          
SP_NORM     .MV                                                 :SP Normalized
VSH_GR      .V/V                                                :Volume of Shale from GR
VSH_SP      .V/V                                                :Volume of Shale from SP
~A        DEPTH           CALI           DPHI           DRHO           DTLN             GR           GR_1        GR_NORM            ILD            ILM           NPHI            SFL             SP        SP_NORM         VSH_GR         VSH_SP
# ...
      6188.0000        -999.25        -999.25        -999.25       115.9659        -999.25        59.3811       63.07729         0.3384          0.361        -999.25          0.473       -80.9399      -32.46165      0.6399424      0.4747991
      6188.5000        -999.25        -999.25        -999.25       114.9592        -999.25        58.5316       62.01564         0.3683         0.3945        -999.25         0.4704       -80.2883      -31.81475       0.617354      0.4859526
      6189.0000        -999.25        -999.25        -999.25       110.4515        -999.25         57.778       61.07384         0.4062         0.4262        -999.25         0.4671       -80.2096      -31.74075      0.5973158      0.4872285
      6189.5000        -999.25        -999.25        -999.25       103.5221        -999.25        57.1186       60.24982          0.448         0.4662        -999.25         0.4855       -80.1213      -31.65714      0.5797833        0.48867
      6190.0000        -999.25        -999.25        -999.25        98.5511        -999.25        56.5538       59.54403          0.494         0.5385        -999.25         0.6418       -75.6495      -27.19004      0.5647665       0.565689
      6190.5000        -999.25        -999.25        -999.25         94.377        -999.25        56.0015       58.85386         0.5449         0.6232        -999.25         0.8556       -70.0197      -21.56494      0.5500821      0.6626735
      6191.0000        -999.25        -999.25        -999.25        92.5134        -999.25        55.7554       58.54646         0.6009         0.7118        -999.25         1.0659       -64.3896      -15.93954      0.5435416      0.7596632
      6191.5000        -999.25        -999.25        -999.25        95.7434        -999.25        57.5714       60.81667         0.6513         0.7948        -999.25         1.2054       -58.9714      -10.52604       0.591844      0.8529994
      6192.0000        -999.25        -999.25        -999.25       100.9941        -999.25        61.3878       65.58738         0.7056         0.8513        -999.25         1.0673       -57.3597      -8.919029      0.6933485      0.8807064
      6192.5000        -999.25        -999.25        -999.25       105.2957        -999.25        65.3186        70.5011          0.764         0.8777        -999.25         0.8843       -56.6209      -8.184925      0.7978957      0.8933634
      6193.0000        -999.25        -999.25        -999.25       108.2845        -999.25        66.5779       72.07544         0.8132         0.8869        -999.25         0.7661       -56.0919      -7.660625      0.8313923       0.902403
      6193.5000        -999.25        -999.25        -999.25       108.8297        -999.25        66.1577        71.5504         0.8374         0.8918        -999.25         0.7152       -55.6028       -7.17622      0.8202212      0.9107548
      6194.0000        -999.25        -999.25        -999.25       106.3348        -999.25        62.9626       67.55675         0.8436         0.8984        -999.25          0.791       -55.3606      -6.938721      0.7352499      0.9148496
      6194.5000        -999.25        -999.25        -999.25       103.7345        -999.25        60.2165       64.12433         0.8215          0.906        -999.25          0.909       -55.8784      -7.461216      0.6622198      0.9058411
      6195.0000        -999.25        -999.25        -999.25       103.5022        -999.25        59.6776       63.45092          0.792         0.8981        -999.25         1.0055       -57.2453      -8.832817       0.647892      0.8821928
      6195.5000        -999.25        -999.25        -999.25       105.3357        -999.25        60.1919         64.094         0.7594         0.8816        -999.25         1.0155       -58.5445      -10.13671      0.6615745      0.8597119
      6196.0000        -999.25        -999.25        -999.25       107.1842        -999.25        61.6658        65.9366         0.7264         0.8477        -999.25         0.9738       -59.7957      -11.39261      0.7007787      0.8380584
      6196.5000        -999.25        -999.25        -999.25       108.4703        -999.25        64.1757       69.07418         0.6927         0.8084        -999.25          0.886       -60.9965      -12.59811      0.7675357       0.817274
      6197.0000        -999.25        -999.25        -999.25       108.4941        -999.25        66.4395       71.90415         0.6582         0.7672        -999.25         0.8038       -61.8615      -13.46781      0.8277479      0.8022792
      6197.5000        -999.25        -999.25        -999.25       108.9403        -999.25         68.376       74.32499         0.6303         0.7233        -999.25         0.7406       -62.7128       -14.3238      0.8792551      0.7875206
      6198.0000        -999.25        -999.25        -999.25       109.5067        -999.25        67.8973       73.72684         0.6065         0.6772        -999.25         0.7418       -63.7893        -15.405      0.8665285      0.7688793
      6198.5000        -999.25        -999.25        -999.25       110.4666        -999.25        66.3976       71.85242         0.5826         0.6312        -999.25         0.7565       -66.3065       -17.9269      0.8266472      0.7253982
      6199.0000        -999.25        -999.25        -999.25       111.6843        -999.25         64.589       69.59189         0.5576         0.5829        -999.25         0.7545       -69.5521       -21.1772      0.7785508      0.6693586
      6199.5000        -999.25        -999.25        -999.25       112.4856        -999.25        62.3892       66.84235          0.542         0.5435        -999.25         0.6473       -72.5812      -24.21099      0.7200499      0.6170518
      6200.0000        -999.25        -999.25        -999.25       111.7106        -999.25        61.4025       65.60918         0.5306         0.5152        -999.25         0.5177       -73.9542       -25.5887      0.6938124      0.5932984
      6200.5000        -999.25        -999.25        -999.25        110.188        -999.25        64.8646       69.93703         0.5296         0.5226        -999.25         0.4442       -70.4084      -22.04759      0.7858942      0.6543518
      6201.0000        -999.25        -999.25        -999.25       109.1002        -999.25        65.7345       71.02461         0.5345         0.5558        -999.25         0.5988       -65.4576      -17.10149      0.8090343      0.7396295
      6201.5000        -999.25        -999.25        -999.25       108.5656        -999.25         66.536       72.02671         0.5504         0.5887        -999.25         0.7834       -60.4675      -12.11609      0.8303555      0.8255848
      6202.0000        -999.25        -999.25        -999.25       110.5515        -999.25        67.6611        73.4333          0.572         0.6165        -999.25         0.8114       -56.6412      -8.294483      0.8602829      0.8914744
      6202.5000        -999.25        -999.25        -999.25       112.2802        -999.25         70.812       77.37213          0.599         0.6414        -999.25         0.7354       -54.9132      -6.571182      0.9440879      0.9211865
      6203.0000        -999.25        -999.25        -999.25       113.6753        -999.25        73.1372       80.27885         0.6267         0.6764        -999.25         0.6757       -54.3257      -5.988377              1      0.9312349
      6203.5000        -999.25        -999.25        -999.25       113.5591        -999.25         73.777       81.07881          0.654         0.7156        -999.25          0.626       -53.8967      -5.564079              1      0.9385504
      6204.0000        -999.25        -999.25        -999.25       108.0635        -999.25        71.6289        78.3939         0.6784         0.7443        -999.25          0.601       -53.9395      -5.611572      0.9658276      0.9377315
      6204.5000        -999.25        -999.25        -999.25        93.6801        -999.25        67.3474       73.04224         0.6892         0.7694        -999.25         0.6197        -54.482      -6.158772      0.8519624       0.928297
