#------------------------------------------------------------------------------
# Created by    : vladimir.rabinovich
# Created on    : 09/19/2023 17:22:18
#------------------------------------------------------------------------------
~Version Information Section
VERS.           2.0     :   CWLS log ASCII Standard - VERSION 2.0
WRAP.           NO      :   One line per depth step
~Well Information Section
#MNEM       .UNIT                                         VALUE :DESCRIPTION
#------------------------------------------------------------------------------
STRT        .FT                                            4012 :START DEPTH
STOP        .FT                                            9352 :STOP DEPTH
STEP        .FT                                             0.5 :STEP      
NULL        .                                           -999.25 :NULL      
COMP        .                                   KERR-MCGEE CORP :COMPANY   
WELL        .                                ST TR 00007-L SE/4 :WELL      
FLD         .                                           WILDCAT :FIELD     
LOC         .                                                   :LOCATION  
CNTY        .                           HIGH ISLAND LARGE BLOCK :LOCATION  
STAT        .                                             TEXAS :STATE     
CTRY        .                                     UNITED STATES :COUNTRY   
SRVC        .                                                   :SERVICE COMPANY
DATE        .                             9/13/2023 11:19:15 AM :LOG DATE  
API         .                                    42708302700000 :API NUMBER
UWI         .                                    42708302700000 :UNIQUE WELL ID
XCOORD      .                                   1285759.2062487 :SURFACE X 
YCOORD      .                                  10728779.4927599 :SURFACE Y 
LAT         .                                        29.5578886 :LATITUDE  
LON         .                                       -94.1158411 :LONGITUDE 
ELEV        .FT                                             125 :ELEVATION VALUE
ELEV_TYPE   .                                                KB :ELEVATION REFERENCE TYPE
~Curve Information Section
#MNEM       .UNIT                                      API CODE :CURVE DESCRIPTION
#------------------------------------------------------------------------------
DEPT        .FT                                                 :DEPTH     
CALI        .IN                                                 :          
CILD        .MMHO                                               :          
DPHI        .%                                                  :          
ILD         .OHMM                                               :          
ILM         .OHMM                                               :          
SFL         .OHMM                                               :          
SP          .MV                                                 :          
SP_NORM     .MV                                                 :SP Normalized
VSH_SP      .V/V                                                :Volume of Shale from SP
~A        DEPTH           CALI           CILD           DPHI            ILD            ILM            SFL             SP        SP_NORM         VSH_SP
# ...
      6503.0000        12.5358       1839.807        17.1562         0.5241          0.594         0.7105       -72.6575        -7.3877      0.8944615
      6503.5000        12.5327       1851.779        17.5768         0.5364         0.5533         0.7364       -73.7297         -8.462      0.8791143
      6504.0000        12.5297       1865.887        17.9978         0.5314         0.5456         0.7593       -77.3152       -12.0495      0.8278643
      6504.5000        12.5267       1855.852        18.5315          0.522         0.5432         0.7813       -84.0405       -18.7769      0.7317586
      6505.0000        12.5237       1829.932        18.9122         0.5168         0.5456         0.7829       -88.0861       -22.8245      0.6739357
      6505.5000        12.5207         1798.6        18.9663         0.5212         0.5481         0.7723       -88.4618       -23.2023      0.6685386
      6506.0000        12.5224       1765.135        18.4549         0.5271         0.5505         0.7482       -86.3215        -21.064      0.6990857
      6506.5000        12.5261       1752.371        17.6607         0.5316          0.553         0.7332       -82.9246       -17.6692      0.7475829
      6507.0000        12.5299       1802.574        17.2007         0.5307         0.5323         0.7316       -79.1262       -13.8728      0.8018171
      6507.5000        12.5337       1915.533        16.9792         0.5086         0.5024         0.7352       -77.5452       -12.2939      0.8243729
      6508.0000        12.5356       2059.598        17.7866         0.4669         0.4656         0.7293       -76.6556       -11.4063      0.8370529
      6508.5000        12.5357       2257.055        18.9598         0.3971         0.4184         0.7093       -81.0939       -15.8467      0.7736186
      6509.0000        12.5357       2555.395        20.1508         0.3513         0.3749         0.6736       -85.2692       -20.0241      0.7139415
      6509.5000        12.5276       3148.152        20.8507         0.2975         0.3467         0.6375       -95.2986       -30.0555      0.5706357
      6510.0000        12.5164       3508.324        22.0203         0.2644         0.3233         0.6032      -102.8953       -37.6543      0.4620814
      6510.5000        12.5051       3651.016        23.8162         0.2481         0.3155         0.5787      -108.2991       -43.0601      0.3848557
      6511.0000        12.4775       3732.766        25.3089         0.2499         0.3154         0.5641      -108.8662       -43.6293      0.3767243
      6511.5000        12.4488       3658.672        25.4993         0.2564         0.3232         0.5801      -108.5278       -43.2929        0.38153
      6512.0000        12.4026       3517.547         24.804         0.2671         0.3363         0.6529      -107.3103       -42.0775      0.3988929
      6512.5000        12.3466        3369.75        23.5822         0.2787          0.348         0.7208       -106.067       -40.8362      0.4166257
      6513.0000        12.2776        3233.34        21.7391          0.292         0.3578         0.7787      -105.8235       -40.5948      0.4200743
      6513.5000        12.2764       3087.504        20.6778         0.3059         0.3612         0.7566      -107.2344       -42.0077        0.39989
      6514.0000        12.4988       2955.898        20.2321         0.3191         0.3626         0.6921      -108.6147       -43.3901      0.3801414
      6514.5000        12.9491       2827.828        19.9027         0.3312         0.3668         0.6491      -107.9467       -42.7241      0.3896557
      6515.0000        13.2545       2705.844        19.1784          0.346         0.3778         0.6778      -106.3412       -41.1207      0.4125614
      6515.5000        13.4395       2566.582        18.3401          0.368         0.3926         0.7074      -103.8839       -38.6654      0.4476371
      6516.0000        13.5819       2407.012        17.6195          0.395         0.4214         0.6816       -99.5717       -34.3553        0.50921
      6516.5000        13.6552       2241.746        17.4266         0.4418         0.4637         0.6274       -90.1542       -24.9398      0.6437171
      6517.0000        13.7076       1971.668        17.4649         0.5004         0.5187         0.5878       -84.7307       -19.5184      0.7211657
      6517.5000        13.7263       1720.824        16.8599         0.5966         0.5911         0.6162       -79.5668       -14.3566      0.7949057
      6518.0000        13.7421       1492.555        16.3027         0.7074         0.6809         0.6523       -67.9417        -2.7335        0.96095
      6518.5000         13.739       1329.645        15.8335         0.7545         0.7291         0.6719       -65.1406         0.0655              1
      6519.0000         13.736       1258.248        15.6306         0.7697         0.7588         0.6734       -64.4362         0.7679              1
      6519.5000        13.7382       1259.377         15.319         0.7358           0.76         0.6782       -65.7977        -0.5957        0.99149
      6520.0000         13.744       1367.623        14.8373         0.6713         0.7143         0.6866       -68.3186        -3.1186      0.9554486
      6520.5000        13.7499       1555.166        15.6918         0.5809         0.6301         0.7211       -73.9377        -8.7398      0.8751457
      6521.0000        13.7604       1812.684        17.3979         0.4987         0.5182         0.7573       -81.4757       -16.2798      0.7674314
      6521.5000        13.7748       2336.742        18.3878          0.391         0.4437         0.7538       -88.6123       -23.4185        0.66545
      6522.0000        13.7929       2664.133        18.2433         0.3264         0.3722         0.7325       -95.8663       -30.6745      0.5617929
      6522.5000        13.8169       3289.082        18.2444         0.2979         0.3333         0.7024       -101.231       -36.0413      0.4851243
      6523.0000        13.8545       3567.797        19.5605         0.2806          0.307         0.6863      -108.4312       -43.2435      0.3822357
      6523.5000        13.9031       3911.086        20.3473         0.2623         0.2979          0.668      -112.6284       -47.4428      0.3222457
      6524.0000        13.9914       4003.938        20.5543         0.2438         0.2966         0.6363      -114.3269       -49.1433      0.2979529
      6524.5000        14.0797       4127.344        20.3861         0.2336         0.2981         0.6408      -113.6466       -48.4651      0.3076414
      6525.0000        14.1643       4178.078        19.9079         0.2314         0.3017         0.6433      -109.6108       -44.4313      0.3652671
      6525.5000        14.2406       4088.383        19.3904         0.2378          0.308         0.6278      -102.7777       -37.6003      0.4628529
      6526.0000        14.2682       3798.617        20.0786          0.259         0.3145         0.6206       -97.2614        -32.086      0.5416286
      6526.5000        14.2901       3512.641          20.56         0.2819         0.3294         0.6361       -97.3302       -32.1569      0.5406157
      6527.0000         14.318        3139.52        19.5325         0.3049         0.3462         0.6419       -97.4312       -32.2599      0.5391443
      6527.5000        14.3508       2968.559         18.558         0.3267         0.3719         0.6447       -96.5883       -31.4191      0.5511557
      6528.0000        14.3741       2764.332        17.6416          0.347         0.3964         0.6412       -88.5682       -23.4011      0.6656986
      6528.5000        14.4134       2648.531        17.0038          0.366         0.4192         0.6533       -84.3734       -19.2083      0.7255957
      6529.0000        14.4555       2533.805         17.391         0.3855         0.4315          0.667       -86.7816       -21.6186      0.6911628
