#------------------------------------------------------------------------------
# Created by    : vladimir.rabinovich
# Created on    : 09/19/2023 17:21:23
#------------------------------------------------------------------------------
~Version Information Section
VERS.           2.0     :   CWLS log ASCII Standard - VERSION 2.0
WRAP.           NO      :   One line per depth step
~Well Information Section
#MNEM       .UNIT                                         VALUE :DESCRIPTION
#------------------------------------------------------------------------------
STRT        .FT                                            1005 :START DEPTH
STOP        .FT                                            8973 :STOP DEPTH
STEP        .FT                                             0.5 :STEP      
NULL        .                                           -999.25 :NULL      
COMP        .                            MARITECH RESOURCES INC :COMPANY   
WELL        .                               OCS G06113 ST00BP00 :WELL      
FLD         .                              GALVESTON BLOCK 0343 :FIELD     
LOC         .                                                   :LOCATION  
CNTY        .                             GALVESTON LARGE BLOCK :LOCATION  
STAT        .                                             TEXAS :STATE     
CTRY        .                                     UNITED STATES :COUNTRY   
SRVC        .                                                   :SERVICE COMPANY
DATE        .                             9/13/2023 11:19:36 AM :LOG DATE  
API         .                                    42706402140000 :API NUMBER
UWI         .                                    42706402140000 :UNIQUE WELL ID
XCOORD      .                                  914498.553138379 :SURFACE X 
YCOORD      .                                  10427492.1426863 :SURFACE Y 
LAT         .                                         28.714711 :LATITUDE  
LON         .                                        -95.265111 :LONGITUDE 
ELEV        .FT                                              84 :ELEVATION VALUE
ELEV_TYPE   .                                                KB :ELEVATION REFERENCE TYPE
~Curve Information Section
#MNEM       .UNIT                                      API CODE :CURVE DESCRIPTION
#------------------------------------------------------------------------------
DEPT        .FT                                                 :DEPTH     
CALI        .IN                                                 :          
DPHI        .%                                                  :          
DRHO        .G/C3                                               :          
DT          .US/F                                               :          
GR          .GAPI                                               :          
ILD         .OHMM                                               :          
ILM         .OHMM                                               :          
NPHI        .%                                                  :          
SGRD        .OHMM                                               :          
SP          .MV                                                 :          
SP_NORM     .MV                                                 :SP Normalized
VSH_SP      .V/V                                                :Volume of Shale from SP
~A        DEPTH           CALI           DPHI           DRHO             DT             GR            ILD            ILM           NPHI           SGRD             SP        SP_NORM         VSH_SP
# ...
      8426.0000          9.478        14.0304        -0.0092       105.2291        74.9148         0.7501         0.7745        31.4634          0.867       -88.5037      -2.443092      0.9629976
      8426.5000         9.4777        13.3645        -0.0042       102.5732        76.8098         0.7796         0.8209        30.1131          0.877       -87.2908      -1.230194      0.9940976
      8427.0000         9.4727        13.5302         0.0031        96.0598        76.6467         0.8043         0.8632        29.0112         0.8811       -86.4905     -0.4298935              1
      8427.5000         9.4619        13.7222         0.0077         93.483        72.7762         0.8261         0.8958        27.9093         0.8987       -86.0259     0.03470612              1
      8428.0000         9.4583        13.5276          0.008        94.2583          68.73         0.8513         0.9206         27.184         0.9305        -86.304     -0.2433929              1
      8428.5000         9.4549        14.1621         0.0056         95.415        66.3455         0.8599         0.9444        27.0528         0.9522       -86.6775       -0.61689              1
      8429.0000         9.4586        14.3506         0.0035        96.8131        65.0051         0.8515          0.966        26.9914           0.94       -87.0818      -1.021194      0.9994565
      8429.5000         9.4697        13.9272         0.0014        96.0698        63.6171          0.833         0.9818        27.1062         0.9038       -87.4861      -1.425491        0.98909
      8430.0000         9.4808        13.2313         -0.001        93.2648        64.0538         0.8136         0.9661        27.5965         0.8848       -88.5137      -2.453094      0.9627412
      8430.5000         9.4975        12.3604        -0.0049        95.1415        65.8937         0.7967          0.932        28.5201         0.8809       -91.0498      -4.989189      0.8977131
      8431.0000          9.516        11.5898        -0.0068         99.442        64.5256         0.7823         0.8957        29.3033         0.8863       -91.5831      -5.522491      0.8840387
      8431.5000         9.5384        11.3495        -0.0056       102.5231        63.4163         0.7794         0.8626        29.6912         0.8774       -90.1359      -4.075294      0.9211463
      8432.0000         9.5588        11.7431        -0.0023       101.5997        64.9242         0.7714         0.8331        29.8187         0.8553       -86.6681     -0.6074905              1
      8432.5000         9.5774        11.4723         0.0021       104.6056        65.2649         0.7572         0.8085        29.8909         0.8272       -86.0673   -0.006690979              1
      8433.0000         9.5891        11.0417         0.0062       109.3075        66.8324         0.7496         0.7889        29.9674         0.7976       -86.0458     0.01480865              1
      8433.5000          9.589         11.017         0.0095       110.7928        69.7968         0.7436         0.7752        30.2003         0.7745        -86.132    -0.07139587              1
      8434.0000         9.5763        11.0893         0.0131       108.6451        70.9282         0.7395         0.7678        31.2031         0.7638       -86.4254     -0.3647919              1
      8434.5000         9.5514        11.3451         0.0158       106.0382        66.2601         0.7358         0.7609        32.4692         0.7829        -87.233      -1.172394      0.9955797
      8435.0000         9.5238        12.8812          0.005       110.7928         62.736         0.7322         0.7545        33.2568         0.8128       -88.8075      -2.746895      0.9552078
      8435.5000         9.4921        13.6937         -0.004       115.1058        60.2034         0.7273         0.7513        33.8007         0.8352       -89.8142      -3.753593       0.929395
      8436.0000         9.5236        13.4363        -0.0109       109.3376        60.0396         0.7231         0.7502        34.0428          0.834        -89.679      -3.618393      0.9328617
      8436.5000         9.5158        13.2972        -0.0152       104.6432        61.0192         0.7199           0.75        33.8757          0.828       -89.0247      -2.964088      0.9496388
      8437.0000         9.5064        13.4386        -0.0186       104.1715         63.238         0.7164         0.7514        33.4911         0.8169       -88.2324      -2.171791      0.9699541
      8437.5000         9.5301        12.6687        -0.0272       103.3185        60.8234         0.7127         0.7536        33.0807         0.8047       -87.4885      -1.427895      0.9890283
      8438.0000         9.5651        12.5778        -0.0322       102.6272        58.7802         0.7127         0.7578        32.8967         0.7916       -87.1056      -1.044991      0.9988464
      8438.5000          9.541        13.2104        -0.0327       104.0887        58.4634         0.7138           0.76        32.9567         0.7826       -86.9772     -0.9165955              1
      8439.0000         9.4912         12.136        -0.0321       106.5802        57.6607         0.7117         0.7523        32.8018         0.7798       -86.9353     -0.8746948              1
      8439.5000         9.4428        11.4551        -0.0279       105.4536        54.8168         0.7079         0.7414        32.9313         0.8234       -87.0981      -1.037491      0.9990387
      8440.0000         9.4378        13.3181        -0.0309        100.014        54.8143         0.7016         0.7304        33.3714         0.9013       -87.2896      -1.228989      0.9941285
      8440.5000         9.4386        13.5123        -0.0346       101.6399        57.4247         0.6947         0.7205        33.8743         0.9747       -87.5806      -1.519989       0.986667
      8441.0000          9.445        14.2803        -0.0383       106.9189        59.3751         0.6877         0.7117        34.1177         0.9578       -87.8737      -1.813095      0.9791514
      8441.5000         9.4377        14.0858        -0.0443        106.855        60.0817         0.6898         0.7044        34.0462         0.8718       -88.2162      -2.155594      0.9703694
      8442.0000         9.4231        14.0783         -0.049       106.6216        61.0693           0.71         0.6994        33.4512         0.8083       -87.7114      -1.650795       0.983313
      8442.5000         9.4204        13.5067        -0.0468       107.4734        63.5945         0.7495         0.7051        31.9663         0.7785       -87.0059     -0.9452896              1
      8443.0000         9.4259        12.7345        -0.0335       105.0547        63.4539         0.7885         0.7065        29.4401         0.7738       -86.6191     -0.5584946              1
      8443.5000          9.445        14.0588        -0.0316       107.6365        63.1703         0.8182         0.7065        27.0352         0.8396       -86.4496     -0.3889923              1
      8444.0000         9.4988        14.9342         -0.034       111.6459        61.7471         0.8348          0.719        24.8462         0.8991       -86.6741     -0.6134949              1
      8444.5000         9.5281        12.7495        -0.0337       113.9568        58.9785         0.8445         0.7497        24.1954         0.9429       -86.9264     -0.8657913              1
      8445.0000         9.4586        11.0077        -0.0313       113.5779        57.2867         0.8546         0.7984        23.9736         1.0303        -87.074       -1.01339      0.9996567
      8445.5000         9.3412         9.8091        -0.0271        98.5287        55.6677          0.869         0.8542        23.8065         1.3093       -86.9785     -0.9178925              1
      8446.0000         9.2416          8.894        -0.0254        89.5865        54.1542         0.8904         0.8858        23.7625         1.3143       -86.8477     -0.7870941              1
