#------------------------------------------------------------------------------
# Created by    : vladimir.rabinovich
# Created on    : 09/19/2023 17:20:04
#------------------------------------------------------------------------------
~Version Information Section
VERS.           2.0     :   CWLS log ASCII Standard - VERSION 2.0
WRAP.           NO      :   One line per depth step
~Well Information Section
#MNEM       .UNIT                                         VALUE :DESCRIPTION
#------------------------------------------------------------------------------
STRT        .FT                                             627 :START DEPTH
STOP        .FT                                            8077 :STOP DEPTH
STEP        .FT                                             0.5 :STEP      
NULL        .                                           -999.25 :NULL      
COMP        .                                    MOBIL OIL CORP :COMPANY   
WELL        .                               OCS G02338 ST00BP00 :WELL      
FLD         .                                           WILDCAT :FIELD     
LOC         .                                                   :LOCATION  
CNTY        .                             GALVESTON LARGE BLOCK :LOCATION  
STAT        .                                             TEXAS :STATE     
CTRY        .                                     UNITED STATES :COUNTRY   
SRVC        .                                                   :SERVICE COMPANY
DATE        .                             9/13/2023 11:18:53 AM :LOG DATE  
API         .                                    42706400220000 :API NUMBER
UWI         .                                    42706400220000 :UNIQUE WELL ID
XCOORD      .                                  948421.875172236 :SURFACE X 
YCOORD      .                                   10402667.405867 :SURFACE Y 
LAT         .                                         28.648189 :LATITUDE  
LON         .                                        -95.157922 :LONGITUDE 
ELEV        .FT                                              76 :ELEVATION VALUE
ELEV_TYPE   .                                                KB :ELEVATION REFERENCE TYPE
~Curve Information Section
#MNEM       .UNIT                                      API CODE :CURVE DESCRIPTION
#------------------------------------------------------------------------------
DEPT        .FT                                                 :DEPTH     
ASFL        .OHMM                                               :          
CALI        .IN                                                 :          
CILD        .MMHO                                               :          
DT          .US/F                                               :          
DT_1        .US/F                                               :          
GR          .GAPI                                               :          
GR_NORM     .GAPI                                               :GammaRay Normalized
ILD         .OHMM                                               :          
SFL         .OHMM                                               :          
SP          .MV                                                 :          
SP_NORM     .MV                                                 :SP Normalized
VSH_GR      .V/V                                                :Volume of Shale from GR
VSH_SP      .V/V                                                :Volume of Shale from SP
~A        DEPTH           ASFL           CALI           CILD             DT           DT_1             GR        GR_NORM            ILD            SFL             SP        SP_NORM         VSH_GR         VSH_SP
# ...
      7068.0000          0.804        10.5851        1515.34       121.2068        -999.25       109.3181       81.92739         0.6343         0.7789       -46.0496      -1.201115              1      0.9965913
      7068.5000          0.799        10.6075       1530.033       122.6608        -999.25       108.6202       81.09415         0.6422         0.7616       -45.3668     -0.5183144              1              1
      7069.0000         0.7965        10.5984       1544.713       121.0748        -999.25         107.83       80.14978         0.6525         0.7901       -44.3336      0.5148849              1              1
      7069.5000         0.7978        10.5547       1537.359       116.8723        -999.25       107.1262       79.30943         0.6643         0.8335       -43.6616       1.186886      0.9853071              1
      7070.0000         0.7991         10.421       1502.947       114.1886        -999.25       106.5924       78.67377         0.6757         0.8796       -43.4455       1.402985      0.9717823              1
      7070.5000         0.8005        10.3077       1469.984       113.2922        -999.25        106.193       78.19991         0.6814         0.8819       -43.3274       1.521084      0.9617003              1
      7071.0000         0.8018        10.2726       1436.971       113.0981        -999.25       106.0072       77.98322         0.6864         0.8488       -43.3102       1.538284      0.9570898              1
      7071.5000         0.8031        10.2397       1423.166        114.707        -999.25       106.0249       78.01154         0.6927         0.8281        -43.327       1.521484      0.9576924              1
      7072.0000         0.8088        10.1469       1413.037       115.4197        -999.25       106.1936       78.22168         0.7002         0.8298       -43.4786       1.369884      0.9621634              1
      7072.5000         0.8155        10.0928       1402.908        114.196        -999.25       106.5131       78.61334         0.7065           0.85       -43.5713       1.277184      0.9704967              1
      7073.0000         0.8223        10.0877       1392.779       113.2675        -999.25       107.1779       79.42076          0.711         0.8854       -43.6104       1.238083      0.9876758              1
      7073.5000         0.8291        10.1127       1386.096       113.7018        -999.25       108.0126       80.43272         0.7133         0.8783       -43.8146       1.033882              1              1
      7074.0000         0.8359        10.1181       1379.943       114.0625        -999.25       109.3481       82.04764         0.7158          0.837       -44.0411      0.8073845              1              1
      7074.5000         0.8411        10.0577       1373.791       114.2053        -999.25       110.0931       82.95161         0.7184          0.829       -44.2296       0.618885              1              1
      7075.0000         0.8411         9.9875       1367.639        111.928        -999.25       109.7997       82.60536         0.7216         0.8516       -44.3971      0.4513855              1              1
      7075.5000         0.8411          9.998        1361.48       108.7986        -999.25       109.1553       81.83654         0.7257         0.8873        -44.504      0.3444824              1              1
      7076.0000         0.8411        10.0145       1355.328       109.1895        -999.25       109.6232        82.4069           0.73         0.8849       -44.6159      0.2325859              1              1
      7076.5000         0.8411        10.0118       1349.176       111.2758        -999.25       110.5575       83.53878         0.7349         0.8533       -44.7333      0.1151848              1              1
      7077.0000         0.8411         9.9554       1342.998       115.0151        -999.25       111.3778        84.5334         0.7424         0.8421       -44.7422      0.1062851              1              1
      7077.5000         0.8426          9.884       1336.789       117.8981        -999.25       111.7958       85.04367         0.7504         0.8308       -44.8012     0.04728317              1              1
      7078.0000         0.8444         9.8221       1330.586       118.5665        -999.25       110.1743       83.09845         0.7599         0.8238       -44.6791       0.169384              1              1
      7078.5000         0.8462         9.7866       1324.385       116.9918        -999.25       108.1879       80.71388         0.7708         0.8736       -44.5849      0.2635841              1              1
      7079.0000          0.848         9.8118       1318.182       114.9766        -999.25       105.5481       77.54266         0.7689         0.9086       -44.4488      0.3996849      0.9477161              1
      7079.5000         0.8498         9.8652       1311.973       114.1768        -999.25       103.6024        75.2071         0.7617          0.914       -44.3684      0.4800835      0.8980234              1
      7080.0000         0.8516         9.9361       1305.771       114.4935        -999.25       102.3378       73.69155         0.7521         0.9076       -44.3188      0.5296822      0.8657777              1
      7080.5000         0.8533        10.0123       1299.568       114.8938        -999.25       101.5896       72.79776         0.7418         0.8922       -44.2178      0.6306839      0.8467609              1
      7081.0000         0.8551        10.0981       1294.416       114.6777        -999.25       101.5715       72.78299         0.7316         0.8736        -44.371      0.4774857      0.8464466              1
      7081.5000         0.8568        10.1805       1297.992       113.5892        -999.25       102.1469       73.48274         0.7185         0.8824       -44.6671       0.181385      0.8613349              1
      7082.0000         0.8585        10.2125       1317.477       113.0271        -999.25       104.3951       76.19653         0.7086         0.8914       -45.0317     -0.1832161      0.9190752              1
      7082.5000         0.8603        10.2139       1336.982        112.889        -999.25       107.3688       79.78381         0.7012         0.8925       -45.2478     -0.3993149      0.9954001              1
      7083.0000         0.8597        10.2045       1356.465       114.6155        -999.25       110.5371       83.60535         0.6957         0.8542       -45.2935      -0.445015              1              1
      7083.5000         0.8589        10.1911       1379.775       115.5834        -999.25       112.5223       86.00249         0.6924         0.8115       -45.3937     -0.5452156              1              1
      7084.0000          0.858        10.1896       1404.359       115.6824        -999.25       113.4468       87.12257         0.6904         0.8294       -45.5341     -0.6856155              1              1
      7084.5000         0.8572        10.1911       1421.059       115.2379        -999.25       113.2238       86.86109         0.6885         0.8839       -45.7169     -0.8684158              1              1
      7085.0000         0.8564        10.1925       1423.004       114.1288        -999.25       112.6182       86.13898         0.6859         0.8749        -45.982      -1.133514              1      0.9977371
      7085.5000         0.8555        10.2083       1424.945       112.9817        -999.25        112.422       85.90977         0.6848         0.8746       -46.1243      -1.275814              1      0.9953252
      7086.0000         0.8547        10.2342       1427.021       113.3483        -999.25         112.61       86.14314         0.6845         0.8803        -46.193      -1.344517              1      0.9941607
      7086.5000         0.8538        10.2601       1429.766       113.7566        -999.25       113.1469       86.79655         0.6859         0.8608       -46.0291      -1.180614              1      0.9969388
