#------------------------------------------------------------------------------
# Created by    : vladimir.rabinovich
# Created on    : 09/19/2023 17:20:23
#------------------------------------------------------------------------------
~Version Information Section
VERS.           2.0     :   CWLS log ASCII Standard - VERSION 2.0
WRAP.           NO      :   One line per depth step
~Well Information Section
#MNEM       .UNIT                                         VALUE :DESCRIPTION
#------------------------------------------------------------------------------
STRT        .FT                                            3532 :START DEPTH
STOP        .FT                                           13690 :STOP DEPTH
STEP        .FT                                             0.5 :STEP      
NULL        .                                           -999.25 :NULL      
COMP        .                              VASTAR RESOURCES INC :COMPANY   
WELL        .                                     ST TR 00023-L :WELL      
FLD         .                          HIGH ISLAND BLOCK 0024-L :FIELD     
LOC         .                                                   :LOCATION  
CNTY        .                           HIGH ISLAND LARGE BLOCK :LOCATION  
STAT        .                                             TEXAS :STATE     
CTRY        .                                     UNITED STATES :COUNTRY   
SRVC        .                                                   :SERVICE COMPANY
DATE        .                             9/13/2023 11:19:15 AM :LOG DATE  
API         .                                    42708300330000 :API NUMBER
UWI         .                                    42708300330000 :UNIQUE WELL ID
XCOORD      .                                  1290562.53578251 :SURFACE X 
YCOORD      .                                  10712997.1214806 :SURFACE Y 
LAT         .                                        29.5146054 :LATITUDE  
LON         .                                       -94.1002609 :LONGITUDE 
ELEV        .FT                                              79 :ELEVATION VALUE
ELEV_TYPE   .                                                KB :ELEVATION REFERENCE TYPE
~Curve Information Section
#MNEM       .UNIT                                      API CODE :CURVE DESCRIPTION
#------------------------------------------------------------------------------
DEPT        .FT                                                 :DEPTH     
ASN         .OHMM                                               :          
CILD        .MMHO                                               :          
ILD         .OHMM                                               :          
SP          .MV                                                 :          
SP_NORM     .MV                                                 :SP Normalized
VSH_SP      .V/V                                                :Volume of Shale from SP
~A        DEPTH            ASN           CILD            ILD             SP        SP_NORM         VSH_SP
# ...
      9612.0000         0.6651       1731.314         0.5974       -57.0688      -3.568256      0.9564703
      9612.5000         0.6649       1736.314         0.5951       -57.1317       -3.63377      0.9553598
      9613.0000         0.6648       1741.313         0.5929       -57.1946      -3.699287      0.9542494
      9613.5000         0.6646       1746.318         0.5906       -57.2576        -3.7649      0.9531373
      9614.0000         0.6645       1745.961         0.5884       -57.3205      -3.830418      0.9520268
      9614.5000         0.6647        1742.23         0.5861       -57.3835      -3.896034      0.9509147
      9615.0000         0.6655       1738.494         0.5838       -57.2826      -3.797752      0.9525805
      9615.5000         0.6663       1734.764         0.5816       -57.1645      -3.682266      0.9545379
      9616.0000         0.6671       1730.109         0.5802       -57.0463      -3.566681       0.956497
      9616.5000         0.6679         1724.1         0.5792       -56.9282      -3.451199      0.9584543
      9617.0000         0.6653       1718.092         0.5782       -56.8099      -3.335514       0.960415
      9617.5000         0.6612       1726.008         0.5773       -56.8281      -3.356327      0.9600623
      9618.0000         0.6571       1737.582         0.5763       -57.0936      -3.624447      0.9555178
      9618.5000         0.6531       1749.182         0.5754       -57.3448      -3.878262      0.9512159
      9619.0000          0.649       1760.756         0.5744       -57.5748      -4.110874      0.9472733
      9619.5000         0.6463        1772.33         0.5734       -57.8048      -4.343491      0.9433306
      9620.0000         0.6484        1783.93         0.5725       -58.0052      -4.546509      0.9398897
      9620.5000         0.6505       1795.504         0.5715       -58.1287      -4.672626      0.9377521
      9621.0000         0.6526       1786.885         0.5706        -58.252      -4.798538       0.935618
      9621.5000         0.6547       1774.498         0.5733       -58.3755      -4.924656      0.9334804
      9622.0000         0.6568       1762.086          0.576        -58.382      -4.933773      0.9333259
      9622.5000         0.6589       1751.752         0.5787       -58.1711      -4.725487      0.9368562
      9623.0000         0.6611       1752.209         0.5815       -57.9602      -4.517204      0.9403864
      9623.5000          0.661       1752.666         0.5842       -57.7827      -4.342319      0.9433505
      9624.0000         0.6606       1753.123         0.5869       -57.8236      -4.385838      0.9426129
      9624.5000         0.6603        1753.58         0.5897       -58.2151      -4.779949      0.9359331
      9625.0000         0.6599       1754.039         0.5924       -58.6067      -5.174168      0.9292514
      9625.5000         0.6596       1755.525         0.5951       -58.9982      -5.568283      0.9225715
      9626.0000         0.6618        1757.25         0.5979       -59.3898      -5.962502      0.9158898
      9626.5000         0.6657       1758.977         0.6006       -59.2042      -5.779514      0.9189913
      9627.0000         0.6696       1760.701         0.6033       -58.9594      -5.537331      0.9230961
      9627.5000         0.6674       1749.133         0.6075       -58.8259      -5.406448      0.9253144
      9628.0000         0.6653       1730.736         0.6117       -58.7972       -5.38036      0.9257566
      9628.5000         0.6631        1712.34         0.6159       -58.7684      -5.354176      0.9262004
      9629.0000         0.6689       1693.945         0.6201       -58.7396      -5.327995      0.9266441
      9629.5000         0.6788       1661.932         0.6244       -58.7108      -5.301811       0.927088
      9630.0000         0.6887       1616.619         0.6286        -58.682      -5.275623      0.9275318
      9630.5000         0.6985       1565.691         0.6328       -58.6532      -5.249439      0.9279756
      9631.0000         0.7084       1505.703         0.6378       -58.6237      -5.222557      0.9284312
      9631.5000         0.7183       1509.199          0.643       -58.5386      -5.140072      0.9298293
      9632.0000         0.7281       1534.959         0.6481       -58.4533      -5.057388      0.9312307
      9632.5000         0.7298       1560.717         0.6533       -58.3681      -4.974804      0.9326304
      9633.0000         0.7204       1586.428         0.6584        -58.283      -4.892323      0.9340284
      9633.5000          0.711       1637.207          0.655       -58.1978      -4.809734      0.9354282
      9634.0000         0.7016       1689.709         0.6481       -58.1125      -4.727051      0.9368296
      9634.5000         0.6922       1742.113         0.6412       -57.9457       -4.56287      0.9396124
      9635.0000         0.6827       1796.883         0.6343       -57.5721      -4.191887      0.9459002
      9635.5000         0.6733       1853.227         0.6235       -57.1984      -3.820797      0.9521899
      9636.0000         0.6631       1883.615         0.6101       -56.8248      -3.449814      0.9584777
      9636.5000          0.651       1908.883         0.5967       -56.4517       -3.07933      0.9647571
      9637.0000         0.6388       1920.559         0.5832       -56.0781      -2.708344       0.971045
      9637.5000         0.6267       1918.904         0.5698       -55.7044      -2.337261      0.9773346
      9638.0000         0.6152       1902.381         0.5563        -55.575       -2.21048      0.9794834
      9638.5000         0.6191       1885.881         0.5429       -55.5623      -2.200397      0.9796543
      9639.0000         0.6234       1869.357         0.5428       -55.5646      -2.205311       0.979571
      9639.5000         0.6286       1843.229         0.5477        -55.688      -2.331326      0.9774352
      9640.0000         0.6339       1807.176         0.5525       -55.8114      -2.457344      0.9752992
      9640.5000         0.6391       1771.172         0.5574       -55.9347      -2.583256      0.9731652
      9641.0000         0.6443       1747.039         0.5623       -56.0582      -2.709373      0.9710276
      9641.5000         0.6496       1737.275         0.5672       -56.1318      -2.785591      0.9697357
      9642.0000         0.6548        1727.51          0.572       -56.0084      -2.664806      0.9717829
      9642.5000           0.66       1717.734         0.5769       -55.8849      -2.543919      0.9738319
      9643.0000         0.6653       1707.969         0.5818       -55.7614      -2.423035      0.9758807
      9643.5000         0.6701       1694.412         0.5867       -55.6378      -2.302052      0.9779313
      9644.0000         0.6731       1679.785         0.5906       -55.5143      -2.181171      0.9799802
      9644.5000         0.6675       1687.689         0.5941       -55.3909      -2.060383      0.9820274
      9645.0000         0.6619       1716.453         0.5975       -55.2674      -1.939499      0.9840763
      9645.5000         0.6563       1745.217          0.601       -55.1402      -1.814919      0.9861878
      9646.0000         0.6507       1774.029         0.6045       -54.9642      -1.641529      0.9891266
      9646.5000         0.6451       1807.914         0.6079       -54.7881      -1.468048       0.992067
      9647.0000         0.6367       1848.449         0.6114       -54.6121      -1.294662      0.9950057
      9647.5000         0.6276       1887.803         0.6129       -54.4361      -1.121281      0.9979444
      9648.0000         0.6186       1913.363         0.6038         -54.26     -0.9477921              1
      9648.5000         0.6096       1938.975         0.5948       -54.0846     -0.7750092              1
      9649.0000         0.6006       2018.428         0.5858       -53.9169     -0.6099281              1
      9649.5000         0.5917        2032.49         0.5767       -54.2591     -0.9547424              1
