#------------------------------------------------------------------------------
# Created by    : vladimir.rabinovich
# Created on    : 09/19/2023 17:20:45
#------------------------------------------------------------------------------
~Version Information Section
VERS.           2.0     :   CWLS log ASCII Standard - VERSION 2.0
WRAP.           NO      :   One line per depth step
~Well Information Section
#MNEM       .UNIT                                         VALUE :DESCRIPTION
#------------------------------------------------------------------------------
STRT        .FT                                            2010 :START DEPTH
STOP        .FT                                            7000 :STOP DEPTH
STEP        .FT                                             0.5 :STEP      
NULL        .                                           -999.25 :NULL      
COMP        .                                    TEXAS GULF INC :COMPANY   
WELL        .                                ST OF TEX TR 693-L :WELL      
FLD         .                                           WILDCAT :FIELD     
LOC         .                                                   :LOCATION  
CNTY        .                      MATAGORDA ISLAND LARGE BLOCK :LOCATION  
STAT        .                                             TEXAS :STATE     
CTRY        .                                     UNITED STATES :COUNTRY   
SRVC        .                                                   :SERVICE COMPANY
DATE        .                             9/13/2023 11:12:01 AM :LOG DATE  
API         .                                    42703300330000 :API NUMBER
UWI         .                                    42703300330000 :UNIQUE WELL ID
XCOORD      .                                  377893.250269135 :SURFACE X 
YCOORD      .                                  10151490.3803449 :SURFACE Y 
LAT         .                                        27.9187241 :LATITUDE  
LON         .                                       -96.9091122 :LONGITUDE 
ELEV        .FT                                              70 :ELEVATION VALUE
ELEV_TYPE   .                                                KB :ELEVATION REFERENCE TYPE
~Curve Information Section
#MNEM       .UNIT                                      API CODE :CURVE DESCRIPTION
#------------------------------------------------------------------------------
DEPT        .FT                                                 :DEPTH     
ASN         .OHMM                                               :          
CILD        .MMHO                                               :          
ILD         .OHMM                                               :          
SP          .MV                                                 :          
SP_NORM     .MV                                                 :SP Normalized
VSH_SP      .V/V                                                :Volume of Shale from SP
~A        DEPTH            ASN           CILD            ILD             SP        SP_NORM         VSH_SP
# ...
      3986.0000         0.9318        1491.01           0.64       -56.3867        -7.3301      0.9179984
      3986.5000         0.9509       1509.404         0.6666       -57.4207        -8.3641      0.9020908
      3987.0000         0.9729       1514.045         0.6936       -58.4546         -9.398      0.8861846
      3987.5000         0.9968       1453.182         0.7207       -59.4886        -10.432      0.8702769
      3988.0000         1.0207       1392.318         0.7477       -60.3703       -11.3137      0.8567123
      3988.5000         1.0446        1320.23         0.7747       -61.0979       -12.0413      0.8455185
      3989.0000         1.0685       1238.963         0.8048       -61.8262       -12.7696      0.8343139
      3989.5000         1.0981       1157.646         0.8426       -62.5538       -13.4972        0.82312
      3990.0000         1.1342       1090.074         0.8805       -62.6548       -13.5982      0.8215662
      3990.5000         1.1704        1045.25         0.9182       -62.2092       -13.1526      0.8284215
      3991.0000         1.2065       1000.426          0.956       -61.7634       -12.7068        0.83528
      3991.5000         1.2426        969.832         0.9939       -61.3179       -12.2613      0.8421338
      3992.0000         1.2806       953.0703         1.0317       -60.8721       -11.8155      0.8489923
      3992.5000         1.3187       941.7578         1.0623       -60.4265       -11.3699      0.8558477
      3993.0000         1.3543       931.6563         1.0911       -59.9807       -10.9241      0.8627062
      3993.5000         1.3872       921.5596           1.12       -59.5352       -10.4786        0.86956
      3994.0000         1.4101       898.2813         1.1489       -58.9443        -9.8877      0.8786508
      3994.5000          1.431       870.1943         1.1778       -58.3095        -9.2529      0.8884169
      3995.0000         1.4518       842.1074         1.2067       -57.6748        -8.6182      0.8981816
      3995.5000         1.4855       813.8711         1.2323         -57.04        -7.9834      0.9079477
      3996.0000         1.5359       889.9502         1.2562       -56.4053        -7.3487      0.9177123
      3996.5000         1.4123       994.4648         1.2801        -55.897        -6.8404      0.9255323
      3997.0000         1.2991       1097.432         1.2239       -55.5615        -6.5049      0.9306939
      3997.5000         1.2599       1183.439         1.1622       -55.2263        -6.1697      0.9358507
      3998.0000          1.228       1269.494         1.1005       -54.9131        -5.8565      0.9406692
      3998.5000          1.196       1355.551         1.0388       -55.2576         -6.201      0.9353693
      3999.0000         1.1641       1421.402          0.977       -55.6025        -6.5459      0.9300631
      3999.5000         1.1321       1483.164         0.9159       -55.9474        -6.8908      0.9247569
      4000.0000         1.0911       1544.926         0.8559       -55.7505        -6.6939      0.9277862
      4000.5000           1.04       1590.049          0.796       -55.5463        -6.4897       0.933975
      4001.0000          0.999       1573.611         0.7361       -55.3422        -6.2856      0.9369765
      4001.5000         0.9862       1527.789         0.6903       -55.1807        -6.1241      0.9393514
      4002.0000         1.0136       1481.967         0.7302       -55.0491        -5.9925      0.9412867
      4002.5000         1.0431       1424.146         0.7701       -55.7305        -6.6739      0.9312662
      4003.0000         1.0724       1357.646           0.81       -57.0167        -7.9601      0.9123515
      4003.5000         1.1018       1291.146         0.8499       -57.8997        -8.8431      0.8993662
      4004.0000         1.1311       1224.646         0.8898       -58.6404        -9.5838      0.8884735
      4004.5000         1.1604       1165.279         0.9297        -57.896        -8.8394      0.8994206
      4005.0000         1.1897       1123.148         0.9696       -57.0634        -8.0068      0.9116647
      4005.5000         1.2133       1080.994         1.0048        -56.222        -7.1654      0.9240382
      4006.0000         1.2355        1038.84         1.0385       -55.3807        -6.3241      0.9364103
      4006.5000         1.2577       1004.841         1.0721       -54.5394        -5.4828      0.9487823
      4007.0000          1.244       976.3301         1.1057       -54.3109        -5.2543      0.9521427
      4007.5000         1.1777       989.5254         1.0688       -54.0903        -5.0337      0.9553868
      4008.0000         1.1154       1038.416         1.0113       -54.7195        -5.6629      0.9461339
      4008.5000         1.0674        1087.33         0.9538       -57.8289        -8.7723      0.9004074
      4009.0000         1.0194       1136.221         0.8962       -62.4395       -13.3829      0.8326044
      4009.5000         0.9841       1220.854         0.8361       -71.8793       -22.8227      0.6937838
      4010.0000         0.9731       1326.117         0.7723       -78.8585       -29.8019      0.5911485
      4010.5000         0.9621       1431.281         0.7085       -80.9868       -31.9302        0.55985
      4011.0000          0.951       1550.813         0.6447       -81.9747       -32.9181      0.5453221
      4011.5000         0.9453       1691.295         0.5809       -82.8912       -33.8346      0.5318441
      4012.0000         0.9691       1831.879         0.5171       -84.1147       -35.0581      0.5138515
      4012.5000         0.9929       2781.539         0.4574       -84.9872       -35.9306      0.5010206
      4013.0000          1.062       2663.406         0.4299       -85.5035       -36.4469       0.493428
      4013.5000          1.133       2495.484         0.4023        -85.501       -36.4444      0.4934647
      4014.0000         1.2039       2327.563         0.4357       -85.3002       -36.2436      0.4964177
      4014.5000         1.2435       2159.641         0.5022       -85.0991       -36.0425       0.499375
      4015.0000         1.2764       2012.771         0.5687       -84.8094       -35.7528      0.5036353
      4015.5000         1.3093        1880.57         0.6352       -84.6385       -35.5819      0.5061485
      4016.0000         1.3421       1748.467         0.7017       -86.0752       -37.0186      0.4850206
      4016.5000          1.375       1614.768         0.7604        -87.687       -38.6304      0.4613176
      4017.0000          1.407        1462.51         0.8169       -89.3535       -40.2969      0.4368103
      4017.5000         1.4379       1314.742         0.8735       -91.2189       -42.1623      0.4093779
      4018.0000         1.4688       1201.398         0.9084       -93.3875       -44.3309      0.3774868
      4018.5000         1.4998       1256.375         0.7434       -95.4268       -46.3702       0.347497
      4019.0000          1.531       1423.998         0.7027       -97.3518       -48.2952      0.3191882
      4019.5000         1.5718       1720.729          0.662        -99.421       -50.3644      0.2887588
      4020.0000         1.6125       2062.559         0.6213       -101.387       -52.3304      0.2598471
      4020.5000         1.6459       2283.512         0.5873      -104.3124       -55.2558      0.2168265
      4021.0000         1.6688       2377.949         0.5614      -107.4913       -58.4347      0.1700779
      4021.5000         1.5726       2472.336         0.5356      -110.3459       -61.2893      0.1280985
      4022.0000         1.4846       2566.523         0.5097      -112.4512       -63.3946     0.09713823
      4022.5000         1.4315       2654.176         0.4838      -113.9083       -64.8517      0.0757103
      4023.0000         1.3784       2741.781          0.458      -115.3828       -66.3262     0.05402644
      4023.5000         1.3282       2804.414         0.4321      -116.5125       -67.4559     0.03741321
