#------------------------------------------------------------------------------
# Created by    : vladimir.rabinovich
# Created on    : 09/19/2023 17:22:28
#------------------------------------------------------------------------------
~Version Information Section
VERS.           2.0     :   CWLS log ASCII Standard - VERSION 2.0
WRAP.           NO      :   One line per depth step
~Well Information Section
#MNEM       .UNIT                                         VALUE :DESCRIPTION
#------------------------------------------------------------------------------
STRT        .FT                                            2981 :START DEPTH
STOP        .FT                                           10477 :STOP DEPTH
STEP        .FT                                             0.5 :STEP      
NULL        .                                           -999.25 :NULL      
COMP        .                          SEAGULL ENERGY E & P INC :COMPANY   
WELL        .                               OCS G13783 ST00BP00 :WELL      
FLD         .                                           WILDCAT :FIELD     
LOC         .                                                   :LOCATION  
CNTY        .                             GALVESTON LARGE BLOCK :LOCATION  
STAT        .                                             TEXAS :STATE     
CTRY        .                                     UNITED STATES :COUNTRY   
SRVC        .                                                   :SERVICE COMPANY
DATE        .                             9/13/2023 11:19:39 AM :LOG DATE  
API         .                                    42706403890000 :API NUMBER
UWI         .                                    42706403890000 :UNIQUE WELL ID
XCOORD      .                                  1047250.65699841 :SURFACE X 
YCOORD      .                                  10470150.2239286 :SURFACE Y 
LAT         .                                         28.838318 :LATITUDE  
LON         .                                         -94.85315 :LONGITUDE 
ELEV        .FT                                              94 :ELEVATION VALUE
ELEV_TYPE   .                                                KB :ELEVATION REFERENCE TYPE
~Curve Information Section
#MNEM       .UNIT                                      API CODE :CURVE DESCRIPTION
#------------------------------------------------------------------------------
DEPT        .FT                                                 :DEPTH     
CILD        .MMHO                                               :          
CNC         .%                                                  :          
DT24        .US/F                                               :          
GR          .GAPI                                               :          
GR_NORM     .GAPI                                               :GammaRay Normalized
PORZ        .%                                                  :          
RFOC        .OHMM                                               :          
RILD        .OHMM                                               :          
RILM        .OHMM                                               :          
RWAZ        .OHMM                                               :          
SP          .MV                                                 :          
SP_NORM     .MV                                                 :SP Normalized
TEN         .LBF                                                :          
VSH_GR      .V/V                                                :Volume of Shale from GR
VSH_SP      .V/V                                                :Volume of Shale from SP
ZCOR        .G/C3                                               :          
ZDEN        .G/C3                                               :          
~A        DEPTH           CILD            CNC           DT24             GR        GR_NORM           PORZ           RFOC           RILD           RILM           RWAZ             SP        SP_NORM            TEN         VSH_GR         VSH_SP           ZCOR           ZDEN
# ...
      3971.0000       1678.617        -999.25        148.679         90.454       82.75729        -999.25           0.89          0.596          0.621        -999.25         -4.168     -0.9193156         25.668              1      0.9868669        -999.25        -999.25
      3971.5000       1646.615        -999.25       148.7659         91.892       84.48439        -999.25           0.89          0.607          0.632        -999.25         -3.936     -0.6878355         14.686              1      0.9901738        -999.25        -999.25
      3972.0000       1593.373        -999.25       148.4399        90.3529       82.63896        -999.25          0.897          0.628          0.648        -999.25          -3.76     -0.5123553         -3.296              1      0.9926806        -999.25        -999.25
      3972.5000       1524.818        -999.25       147.4609        88.5249       80.44686        -999.25          0.903          0.656          0.673        -999.25         -3.845     -0.5978756        -14.912              1      0.9914589        -999.25        -999.25
      3973.0000       1453.301        -999.25       145.9189         87.231       78.89568        -999.25          0.909          0.688          0.707        -999.25         -4.263      -1.016396        -16.087      0.9765039      0.9854801        -999.25        -999.25
      3973.5000       1389.904        -999.25       143.9749        85.3879       76.68546        -999.25          0.936           0.72          0.744        -999.25         -5.034      -1.787915         -8.405      0.9294778      0.9744583        -999.25        -999.25
      3974.0000       1340.322        -999.25       141.4829        81.4619       71.97575        -999.25          0.994          0.746          0.771        -999.25         -5.966      -2.720436         -2.682      0.8292712      0.9611366        -999.25        -999.25
      3974.5000        1305.58        -999.25       138.7078         76.787       66.36736        -999.25          1.058          0.766           0.78        -999.25         -6.527      -3.281956         -5.739      0.7099439      0.9531149        -999.25        -999.25
      3975.0000         1284.6        -999.25       136.8909        72.8719       61.67075        -999.25          1.082          0.779          0.775        -999.25         -6.358      -3.113476        -15.002      0.6100159      0.9555218        -999.25        -999.25
      3975.5000       1280.154        -999.25       136.0979        72.0089       60.63664        -999.25          1.053          0.781          0.758        -999.25         -5.772      -2.527996         -25.17      0.5880136      0.9638858        -999.25        -999.25
      3976.0000       1297.982        -999.25        136.729         74.798       63.98505        -999.25          1.004           0.77          0.734        -999.25         -5.289      -2.045516        -33.871      0.6592563      0.9707783        -999.25        -999.25
      3976.5000       1337.357        -999.25       139.3328        78.2749       68.15884        -999.25          0.968          0.748          0.706        -999.25         -5.092      -1.849036        -32.167      0.7480603      0.9735852        -999.25        -999.25
      3977.0000       1388.873        -999.25       142.3799        80.5659       70.90953        -999.25          0.946           0.72          0.679        -999.25         -5.042      -1.799556        -18.702      0.8065857       0.974292        -999.25        -999.25
      3977.5000        1440.76        -999.25       145.2568        83.0979       73.94942        -999.25          0.921          0.694           0.66        -999.25         -4.919      -1.677076         -6.623      0.8712643      0.9760418        -999.25        -999.25
      3978.0000       1485.637        -999.25       147.6838           85.6       76.95343        -999.25          0.895          0.673          0.651        -999.25          -4.68      -1.438596         -9.078      0.9351794      0.9794486        -999.25        -999.25
      3978.5000       1521.689        -999.25        147.845        86.0559       77.50201        -999.25          0.882          0.657          0.649        -999.25          -4.42      -1.179116        -15.045      0.9468514      0.9831555        -999.25        -999.25
      3979.0000       1549.596        -999.25       146.8679          84.86       76.06844        -999.25          0.889          0.645          0.648        -999.25         -4.131      -0.890636         -8.045      0.9163497      0.9872766        -999.25        -999.25
      3979.5000       1569.457        -999.25          145.7        83.5289        74.4726        -999.25          0.908          0.637          0.647        -999.25         -3.754     -0.5141561           2.55      0.8823958      0.9926549        -999.25        -999.25
      3980.0000       1581.738        -999.25       144.1758         83.224       74.10822        -999.25          0.924          0.632          0.644        -999.25          -3.34     -0.1006761         -5.007       0.874643      0.9985618        -999.25        -999.25
      3980.5000        1589.67        -999.25        143.646         83.424       74.34972        -999.25          0.927          0.629           0.64        -999.25          -2.92      0.3188038        -23.286      0.8797814              1        -999.25        -999.25
      3981.0000       1597.904        -999.25       143.4019        82.9409        73.7715        -999.25          0.918          0.626          0.635        -999.25         -2.575      0.6632838        -24.636      0.8674787              1        -999.25        -999.25
      3981.5000       1608.229        -999.25       143.2019        82.4419       73.17419        -999.25          0.907          0.622           0.63        -999.25         -2.475      0.7627637         -8.278      0.8547701              1        -999.25        -999.25
      3982.0000       1618.318        -999.25       143.4189        83.5309       74.48249        -999.25          0.899          0.618          0.625        -999.25         -2.527      0.7102437          -2.53      0.8826062              1        -999.25        -999.25
      3982.5000       1622.984        -999.25        143.605        85.5669       76.92719        -999.25          0.894          0.616          0.623        -999.25         -2.371      0.8657236        -15.901      0.9346211              1        -999.25        -999.25
      3983.0000       1615.781        -999.25       143.7539        86.8009       78.40948        -999.25           0.89          0.619          0.627        -999.25         -1.816       1.420204        -28.476      0.9661591              1        -999.25        -999.25
      3983.5000       1595.471        -999.25       143.7339        86.6429       78.22138        -999.25          0.887          0.627          0.637        -999.25         -1.278       1.957684        -30.734      0.9621571              1        -999.25        -999.25
      3984.0000        1571.34        -999.25       143.0159         86.235       77.73339        -999.25          0.888          0.636          0.654        -999.25         -1.258       1.977163        -29.576      0.9517743              1        -999.25        -999.25
      3984.5000       1554.111        -999.25       142.0078         85.751       77.15409        -999.25          0.902          0.643           0.67        -999.25         -1.776       1.458643        -27.563      0.9394487              1        -999.25        -999.25
      3985.0000       1543.135        -999.25       140.7058        83.8459       74.86947        -999.25          0.936          0.648           0.68        -999.25         -2.694      0.5401235        -24.764      0.8908398              1        -999.25        -999.25
      3985.5000       1528.436        -999.25       139.9709        82.0409       72.70497        -999.25          0.973          0.654          0.682        -999.25         -3.848     -0.6143966        -23.903      0.8447866      0.9912229        -999.25        -999.25
