#------------------------------------------------------------------------------
# Created by    : vladimir.rabinovich
# Created on    : 09/19/2023 17:20:35
#------------------------------------------------------------------------------
~Version Information Section
VERS.           2.0     :   CWLS log ASCII Standard - VERSION 2.0
WRAP.           NO      :   One line per depth step
~Well Information Section
#MNEM       .UNIT                                         VALUE :DESCRIPTION
#------------------------------------------------------------------------------
STRT        .FT                                             504 :START DEPTH
STOP        .FT                                            9361 :STOP DEPTH
STEP        .FT                                             0.5 :STEP      
NULL        .                                           -999.25 :NULL      
COMP        .                                      SHELL OIL CO :COMPANY   
WELL        .                                OCS 00704 ST00BP00 :WELL      
FLD         .                                           WILDCAT :FIELD     
LOC         .                                                   :LOCATION  
CNTY        .                             GALVESTON LARGE BLOCK :LOCATION  
STAT        .                                             TEXAS :STATE     
CTRY        .                                     UNITED STATES :COUNTRY   
SRVC        .                                                   :SERVICE COMPANY
DATE        .                             9/13/2023 11:19:25 AM :LOG DATE  
API         .                                    42706000430000 :API NUMBER
UWI         .                                    42706000430000 :UNIQUE WELL ID
XCOORD      .                                  1136254.96267488 :SURFACE X 
YCOORD      .                                  10526383.5552877 :SURFACE Y 
LAT         .                                         28.996505 :LATITUDE  
LON         .                                        -94.577519 :LONGITUDE 
ELEV        .FT                                              42 :ELEVATION VALUE
ELEV_TYPE   .                                                KB :ELEVATION REFERENCE TYPE
~Curve Information Section
#MNEM       .UNIT                                      API CODE :CURVE DESCRIPTION
#------------------------------------------------------------------------------
DEPT        .FT                                                 :DEPTH     
ASN         .OHMM                                               :          
DT          .US/F                                               :          
LN          .OHMM                                               :          
SP          .MV                                                 :          
SP_NORM     .MV                                                 :SP Normalized
VSH_SP      .V/V                                                :Volume of Shale from SP
~A        DEPTH            ASN             DT             LN             SP        SP_NORM         VSH_SP
# ...
      6964.0000         1.0279       110.7029        -999.25       -58.7701      -2.792881      0.9381765
      6964.5000         1.0338        105.877        -999.25       -58.4385      -2.430305      0.9506791
      6965.0000         1.0232       105.2252        -999.25       -58.1071      -2.067932      0.9631748
      6965.5000         1.0125       107.5164        -999.25       -57.7755      -1.705357      0.9756774
      6966.0000         0.9975       112.5315        -999.25       -57.4443      -1.347759      0.9880083
      6966.5000         0.9732       117.5466        -999.25       -57.0546     -0.9669075              1
      6967.0000         0.9508       119.5883        -999.25       -56.6536     -0.5747566              1
      6967.5000         0.9387       118.3567        -999.25        -56.252     -0.1820068              1
      6968.0000         0.9325       118.4303        -999.25       -55.8511       0.210041              1
      6968.5000         0.9358       118.1424        -999.25       -55.6321      0.4201927              1
      6969.0000         0.9457        116.493        -999.25       -55.5902      0.4532433              1
      6969.5000         0.9665       113.8936        -999.25       -55.9495     0.08509064              1
      6970.0000         0.9873       111.2942        -999.25       -56.4747     -0.4489594              1
      6970.5000         1.0119       108.6948        -999.25       -56.9995     -0.9826088              1
      6971.0000         1.0577       107.2698        -999.25       -57.5241       -1.51606      0.9822049
      6971.5000         1.0877       108.0108        -999.25       -57.8741      -1.874908      0.9698308
      6972.0000          1.123       109.8103        -999.25       -57.9655      -1.975159      0.9663739
      6972.5000         1.1135       110.1739        -999.25       -58.0569      -2.075409      0.9629169
      6973.0000         1.0901       109.4501        -999.25       -58.1484      -2.175758      0.9594566
      6973.5000         1.0689       105.4514        -999.25       -58.2397      -2.275909      0.9560031
      6974.0000         1.0495       105.6851        -999.25       -58.0106       -2.05566      0.9635979
      6974.5000         1.0356        108.564        -999.25       -57.6914      -1.745308      0.9742997
      6975.0000         1.0258       113.4462        -999.25       -57.3726       -1.43536      0.9849876
      6975.5000         1.0161       115.1118        -999.25       -57.0534      -1.125008      0.9956894
      6976.0000         1.0303       111.9987        -999.25       -56.7969     -0.8773613              1
      6976.5000         1.0467       108.7685        -999.25        -56.738     -0.8273087              1
      6977.0000         1.0632       105.5383        -999.25       -56.6791     -0.7772598              1
      6977.5000         1.0776        103.583        -999.25       -56.6202      -0.727211              1
      6978.0000         1.0919       103.6535        -999.25       -56.6544     -0.7702599              1
      6978.5000         1.1063       105.7191        -999.25       -56.8046     -0.9293098              1
      6979.0000         1.1137       109.1014        -999.25       -56.9547      -1.088261      0.9969565
      6979.5000         1.1188       108.9576        -999.25       -57.1049      -1.247311      0.9914721
      6980.0000         1.1336       107.3634        -999.25        -57.255      -1.406261       0.985991
      6980.5000         1.1655       103.6454        -999.25       -57.4052      -1.565311      0.9805065
      6981.0000         1.1866       101.9829        -999.25       -57.5475      -1.716461      0.9752945
      6981.5000         1.2038       101.2843        -999.25       -57.6898      -1.867611      0.9700824
      6982.0000         1.2053        98.8109        -999.25       -57.8322       -2.01886      0.9648669
      6982.5000         1.2056        98.9324        -999.25       -57.9744       -2.16991      0.9596583
      6983.0000         1.2059        99.5386        -999.25       -58.1167       -2.32106      0.9544462
      6983.5000         1.2053       101.9423        -999.25       -57.9734      -2.186611      0.9590824
      6984.0000         1.2047       105.7049        -999.25       -57.7429      -1.964962      0.9667255
      6984.5000          1.204       105.7058        -999.25       -57.5123       -1.74321      0.9743721
      6985.0000         1.2034       105.7795        -999.25       -57.2817      -1.521461      0.9820186
      6985.5000         1.2028       105.8532        -999.25       -57.0509      -1.299511      0.9896721
      6986.0000         1.2022       103.3889        -999.25       -56.8494      -1.106861      0.9963151
      6986.5000         1.1994        103.865        -999.25        -56.689     -0.9553108              1
      6987.0000         1.1931       103.9711        -999.25       -56.5286     -0.8037605              1
      6987.5000         1.1867       103.4049        -999.25       -56.3682     -0.6522102              1
      6988.0000         1.1768       102.5993        -999.25       -56.2078     -0.5006676              1
      6988.5000         1.1659       102.0168        -999.25       -56.0473     -0.3490143              1
      6989.0000         1.1601       102.2875        -999.25       -55.9039     -0.2144661              1
      6989.5000         1.1736       104.9864        -999.25       -56.0649     -0.3843155              1
      6990.0000         1.1871        109.417        -999.25       -56.2259     -0.5541649              1
      6990.5000         1.2006       109.7081        -999.25       -56.3868     -0.7239151              1
      6991.0000         1.2294       109.6874        -999.25       -56.5479     -0.8938675              1
      6991.5000         1.2589       109.2283        -999.25       -56.6378     -0.9926147              1
      6992.0000         1.2916       107.2856        -999.25       -56.6276     -0.9912682              1
      6992.5000         1.3214       101.3314        -999.25       -56.6175     -0.9900169              1
      6993.0000         1.3457        95.0657        -999.25       -56.6074     -0.9887657              1
      6993.5000         1.3689        94.8491        -999.25       -56.5942      -0.984417              1
      6994.0000         1.3838         95.603        -999.25         -56.36     -0.7590675              1
      6994.5000         1.3812        99.5654        -999.25       -56.1255     -0.5334167              1
      6995.0000         1.3716        99.7838        -999.25        -55.891      -0.307766              1
      6995.5000          1.362        99.5675        -999.25       -55.6567    -0.08231735              1
      6996.0000         1.3524       101.0018        -999.25       -55.4395      0.1260338              1
      6996.5000         1.3427       102.4869        -999.25       -55.5048      0.0518837              1
      6997.0000         1.3349       101.6012        -999.25         -55.57    -0.02216721              1
      6997.5000         1.3286       102.7629        -999.25       -55.6353    -0.09631729              1
      6998.0000         1.3222       103.9245        -999.25       -55.7005     -0.1703682              1
      6998.5000         1.3245       103.7483        -999.25       -55.8007     -0.2794189              1
      6999.0000         1.3271       103.0988        -999.25       -56.0119     -0.4994698              1
      6999.5000         1.3296        99.5768        -999.25       -56.2233     -0.7197189              1
      7000.0000         1.3439       100.5932        -999.25       -56.4348     -0.9400673              1
      7000.5000         1.3612       100.7395        -999.25       -56.6426      -1.156719      0.9945959
      7001.0000         1.3798        99.1235        -999.25       -56.5093      -1.032269      0.9988873
      7001.5000          1.398         94.227        -999.25        -56.376     -0.9078178              1
