#------------------------------------------------------------------------------
# Created by    : vladimir.rabinovich
# Created on    : 09/19/2023 17:20:36
#------------------------------------------------------------------------------
~Version Information Section
VERS.           2.0     :   CWLS log ASCII Standard - VERSION 2.0
WRAP.           NO      :   One line per depth step
~Well Information Section
#MNEM       .UNIT                                         VALUE :DESCRIPTION
#------------------------------------------------------------------------------
STRT        .FT                                             504 :START DEPTH
STOP        .FT                                            9762 :STOP DEPTH
STEP        .FT                                             0.5 :STEP      
NULL        .                                           -999.25 :NULL      
COMP        .                                      SHELL OIL CO :COMPANY   
WELL        .                                OCS 00703 ST00BP00 :WELL      
FLD         .                                           WILDCAT :FIELD     
LOC         .                                                   :LOCATION  
CNTY        .                             GALVESTON LARGE BLOCK :LOCATION  
STAT        .                                             TEXAS :STATE     
CTRY        .                                     UNITED STATES :COUNTRY   
SRVC        .                                                   :SERVICE COMPANY
DATE        .                             9/13/2023 11:19:25 AM :LOG DATE  
API         .                                    42706000420000 :API NUMBER
UWI         .                                    42706000420000 :UNIQUE WELL ID
XCOORD      .                                  1132503.99790541 :SURFACE X 
YCOORD      .                                  10523078.0194322 :SURFACE Y 
LAT         .                                         28.987276 :LATITUDE  
LON         .                                        -94.589113 :LONGITUDE 
ELEV        .FT                                              83 :ELEVATION VALUE
ELEV_TYPE   .                                                KB :ELEVATION REFERENCE TYPE
~Curve Information Section
#MNEM       .UNIT                                      API CODE :CURVE DESCRIPTION
#------------------------------------------------------------------------------
DEPT        .FT                                                 :DEPTH     
ASN         .OHMM                                               :          
CILD        .MMHO                                               :          
DT          .US/F                                               :          
ILD         .OHMM                                               :          
LAT         .OHMM                                               :          
LN          .OHMM                                               :          
SP          .MV                                                 :          
SP_NORM     .MV                                                 :SP Normalized
VSH_SP      .V/V                                                :Volume of Shale from SP
~A        DEPTH            ASN           CILD             DT            ILD            LAT             LN             SP        SP_NORM         VSH_SP
# ...
      4187.5000           0.88       1443.645       139.7297         0.6158        -999.25         0.6158       -42.8354      -1.787277              1
      4188.0000         0.8674       1450.814       141.6333         0.6116        -999.25         0.6116        -43.039      -1.992386              1
      4188.5000         0.8549       1450.381       143.5368         0.6074        -999.25         0.6074       -43.2695      -2.224392      0.9932002
      4189.0000         0.8572       1449.895       145.4404         0.6032        -999.25         0.6032       -43.5002      -2.456596      0.9861637
      4189.5000          0.864       1439.217       147.3439         0.6026        -999.25         0.6026       -43.7307      -2.688606      0.9791331
      4190.0000         0.8705       1428.547       149.2475         0.6045        -999.25         0.6045       -43.9612      -2.920612      0.9721026
      4190.5000          0.877       1411.182        151.151         0.6064        -999.25         0.6064        -43.771      -2.731918      0.9778206
      4191.0000         0.8803       1395.332       153.2999         0.6082        -999.25         0.6082       -43.5422      -2.504627      0.9847082
      4191.5000         0.8797       1393.014       153.4721         0.6135        -999.25         0.6135       -43.3132      -2.277138      0.9916019
      4192.0000          0.879       1392.369       153.7039         0.6195        -999.25         0.6195       -43.0844      -2.049843      0.9984896
      4192.5000         0.8765        1390.41         154.84         0.6255        -999.25         0.6255        -42.777       -1.74395              1
      4193.0000         0.8736       1388.455       156.2194         0.6317        -999.25         0.6317       -42.4268      -1.395256              1
      4193.5000         0.8724       1386.498       157.5987         0.6533        -999.25         0.6533       -42.0549      -1.024864              1
      4194.0000         0.8749       1372.199       157.9203         0.6748        -999.25         0.6748       -41.8238      -0.795269              1
      4194.5000         0.8844       1356.744       156.4112         0.6963        -999.25         0.6963       -42.0526      -1.025578              1
      4195.0000         0.8968        1322.41       154.9021          0.721        -999.25          0.721       -42.2814      -1.255882              1
      4195.5000         0.9115       1267.268       153.3931         0.7511        -999.25         0.7511       -42.5103       -1.48629              1
      4196.0000         0.9274       1212.174        151.884         0.7812        -999.25         0.7812       -42.7391      -1.716599              1
      4196.5000         0.9429       1157.031       150.1656         0.8119        -999.25         0.8119       -42.9556      -1.934605              1
      4197.0000         0.9579       1101.938       149.5702         0.8472        -999.25         0.8472       -43.0171      -1.997612              1
      4197.5000         0.9819       1061.348       142.1156         0.8824        -999.25         0.8824       -43.0786      -2.060619       0.998163
      4198.0000         1.0126        1037.15        134.661         0.9094        -999.25         0.9094       -43.1401      -2.123623      0.9962538
      4198.5000         1.0777       1006.414       130.7392         0.9323        -999.25         0.9323       -43.2016      -2.186634      0.9943444
      4199.0000         1.0967       985.8291       131.0677         0.9335        -999.25         0.9335       -43.2079      -2.194443      0.9941078
      4199.5000         1.0819       990.8486       131.4027         0.9067        -999.25         0.9067        -43.096      -2.084049       0.997453
      4200.0000         1.0685       1015.613       131.8322           0.88        -999.25           0.88       -42.9842      -1.973755              1
      4200.5000         1.0604       1065.043        132.148         0.8532        -999.25         0.8532       -42.8723      -1.863361              1
      4201.0000         1.0565       1154.756        132.489         0.8261        -999.25         0.8261       -42.7639       -1.75647              1
      4201.5000         1.0537       1180.053       132.9071          0.799        -999.25          0.799       -42.6721      -1.666176              1
      4202.0000          1.051       1205.793       133.3252         0.7719        -999.25         0.7719       -42.5804      -1.575981              1
      4202.5000         1.0362       1250.773       133.7434         0.7448        -999.25         0.7448       -42.4886      -1.485691              1
      4203.0000         0.9994        1289.15       134.1615          0.717        -999.25          0.717       -42.3969      -1.395496              1
      4203.5000         0.9713       1313.371        134.627         0.6877        -999.25         0.6877        -42.265      -1.265102              1
      4204.0000         0.9485       1332.883       134.8104         0.6583        -999.25         0.6583       -42.1324       -1.13401              1
      4204.5000         0.9235       1346.352       135.1635          0.667        -999.25          0.667            -42      -1.003117              1
      4205.0000         0.8997       1340.139        135.458         0.7035        -999.25         0.7035       -41.8641     -0.8687248              1
      4205.5000          0.903       1252.232       134.6154         0.7317        -999.25         0.7317       -41.7122     -0.7183304              1
      4206.0000         0.9294       1184.355       132.5994         0.7526        -999.25         0.7526       -41.5605     -0.5681419              1
      4206.5000         0.9569       1151.664       130.5835         0.7734        -999.25         0.7734       -41.4088     -0.4179459              1
      4207.0000          0.993       1127.197       128.5675         0.7927        -999.25         0.7927        -41.257     -0.2676544              1
      4207.5000         1.0311       1108.602       126.5515         0.8121        -999.25         0.8121       -41.3448     -0.3569603              1
      4208.0000         1.0535       1098.352       124.5356         0.8292        -999.25         0.8292       -41.6212     -0.6348686              1
      4208.5000         1.0661       1093.688       122.5196         0.8309        -999.25         0.8309       -41.8973     -0.9124756              1
      4209.0000          1.075       1090.893       120.5037         0.8181        -999.25         0.8181       -42.3315      -1.348183              1
      4209.5000         1.0761       1092.059       120.0186         0.7914        -999.25         0.7914       -42.8464       -1.86459              1
      4210.0000         1.0576       1106.512        121.374         0.7637        -999.25         0.7637       -43.3613      -2.380997      0.9884546
      4210.5000          1.039       1131.438       122.7294         0.7359        -999.25         0.7359       -43.8657      -2.886902      0.9731242
      4211.0000         1.0188       1209.676       124.0847         0.7121        -999.25         0.7121       -43.7924      -2.815109      0.9752997
      4211.5000         0.9977       1273.547       125.4401         0.6908        -999.25         0.6908       -43.2068      -2.231014      0.9929996
      4212.0000         0.9756       1307.672       125.8838         0.6694        -999.25         0.6694       -42.7526      -1.778324              1
      4212.5000         0.9578       1332.598       124.8679         0.6481        -999.25         0.6481       -42.2986      -1.325829              1
      4213.0000         0.9548       1361.975       123.7992         0.6268        -999.25         0.6268       -41.8444     -0.8731346              1
      4213.5000         0.9518       1389.174       122.4047         0.6165        -999.25         0.6165       -41.3904     -0.4206429              1
