#------------------------------------------------------------------------------
# Created by    : vladimir.rabinovich
# Created on    : 09/19/2023 17:22:15
#------------------------------------------------------------------------------
~Version Information Section
VERS.           2.0     :   CWLS log ASCII Standard - VERSION 2.0
WRAP.           NO      :   One line per depth step
~Well Information Section
#MNEM       .UNIT                                         VALUE :DESCRIPTION
#------------------------------------------------------------------------------
STRT        .FT                                             712 :START DEPTH
STOP        .FT                                            8940 :STOP DEPTH
STEP        .FT                                             0.5 :STEP      
NULL        .                                           -999.25 :NULL      
COMP        .                                      SHELL OIL CO :COMPANY   
WELL        .                               OCS G03086 ST00BP00 :WELL      
FLD         .                                           WILDCAT :FIELD     
LOC         .                                                   :LOCATION  
CNTY        .                      MATAGORDA ISLAND LARGE BLOCK :LOCATION  
STAT        .                                             TEXAS :STATE     
CTRY        .                                     UNITED STATES :COUNTRY   
SRVC        .                                                   :SERVICE COMPANY
DATE        .                             9/13/2023 11:19:05 AM :LOG DATE  
API         .                                    42703400050000 :API NUMBER
UWI         .                                    42703400050000 :UNIQUE WELL ID
XCOORD      .                                  597395.628989583 :SURFACE X 
YCOORD      .                                    10217429.66268 :SURFACE Y 
LAT         .                                         28.117488 :LATITUDE  
LON         .                                        -96.235866 :LONGITUDE 
ELEV        .FT                                              93 :ELEVATION VALUE
ELEV_TYPE   .                                                KB :ELEVATION REFERENCE TYPE
~Curve Information Section
#MNEM       .UNIT                                      API CODE :CURVE DESCRIPTION
#------------------------------------------------------------------------------
DEPT        .FT                                                 :DEPTH     
CALI        .IN                                                 :          
DRHO        .G/C3                                               :          
DT          .US/F                                               :          
GR          .GAPI                                               :          
GR_1        .GAPI                                               :          
GR_NORM     .GAPI                                               :GammaRay Normalized
ILD         .OHMM                                               :          
NPHI        .%                                                  :          
RHOB        .G/C3                                               :          
SFL         .OHMM                                               :          
SP          .MV                                                 :          
SP_NORM     .MV                                                 :SP Normalized
VSH_GR      .V/V                                                :Volume of Shale from GR
VSH_SP      .V/V                                                :Volume of Shale from SP
~A        DEPTH           CALI           DRHO             DT             GR           GR_1        GR_NORM            ILD           NPHI           RHOB            SFL             SP        SP_NORM         VSH_GR         VSH_SP
# ...
      1270.0000        14.8489         0.0093       169.0315        68.9564        51.2461       74.32474         0.7831        -999.25         2.0325         0.5229        -77.191      -1.741898      0.8792498              1
      1270.5000        14.9021         0.0104       169.6155        69.0732         50.654       73.46646         0.7746        -999.25         2.0215         0.5053       -77.2239      -1.774796      0.8609886              1
      1271.0000        15.0773         0.0028       170.7957          69.55        51.0212       73.99874         0.7657        -999.25         1.9998         0.5074        -77.146      -1.696899      0.8723136              1
      1271.5000        15.4106         0.0059       172.4507        70.7997        52.1824       75.68195         0.7561        -999.25         1.9933          0.516       -77.1815      -1.732399      0.9081265              1
      1272.0000        16.1002         0.0097       174.5527        72.0564        53.1927       77.14642         0.7458        -999.25         1.9837         0.5145        -77.261      -1.811897      0.9392856              1
      1272.5000        16.1389         0.0057       177.3469         72.939         53.945       78.23694         0.7346        -999.25           1.98         0.4946       -77.1421      -1.692993      0.9624881              1
      1273.0000        15.8282        -0.0025       179.2197        73.3154        55.1972       80.05205         0.7249        -999.25         1.9676         0.4785       -77.1931      -1.743996              1              1
      1273.5000         15.763        -0.0019       181.0542        73.6575        57.1167       82.83447         0.7157        -999.25         1.9457         0.4737       -77.4559      -2.006798              1      0.9990289
      1274.0000        15.1921         0.0093       182.6316        75.2742        58.5651       84.93398         0.7067        -999.25           1.94          0.475        -77.319      -1.869896              1              1
      1274.5000        15.4336         0.0019       183.9878        76.5608        59.2017       85.85676         0.6988        -999.25         1.9284         0.4816       -77.0986      -1.649498              1              1
      1275.0000        16.2943         -0.012       185.2996        76.1531        59.1552       85.78937         0.6904        -999.25         1.9262         0.4784       -77.0859      -1.636795              1              1
      1275.5000        15.3747        -0.0141       186.5164        74.7068        58.7125       85.14765         0.6831        -999.25         1.9378         0.4799       -77.5208      -2.071693              1      0.9897581
      1276.0000        15.7825        -0.0053       187.4551        73.1715        57.7203        83.7094         0.6767        -999.25         1.9504         0.4892       -77.6649      -2.215797              1      0.9691718
      1276.5000        14.3349        -0.0052       188.3857        72.4716        56.7673       82.32797         0.6736        -999.25         1.9585         0.4782       -77.6821      -2.232994              1      0.9667152
      1277.0000        15.0677         0.0103       188.9761        72.5974        55.8176       80.95135         0.6712        -999.25         1.9644         0.4746       -77.5002      -2.051094              1      0.9927009
      1277.5000        16.0188         0.0071       188.4517        73.0258         55.392       80.33441          0.675        -999.25          1.941         0.4844       -77.2793      -1.830193              1              1
      1278.0000        15.8002         0.0003       187.2168        72.8655        56.2699       81.60699         0.6787        -999.25         1.9328         0.4985       -77.1858      -1.736694              1              1
      1278.5000        14.4945        -0.0084       186.2869        73.2122        56.6453       82.15114         0.6824        -999.25         1.9175         0.4956       -77.1752      -1.726097              1              1
      1279.0000        14.3572        -0.0145       185.8201        74.3727        56.6641       82.17839         0.6873        -999.25         1.9279           0.49       -77.0776      -1.628494              1              1
      1279.5000        15.9466        -0.0129       185.4561        75.0319        56.4419       81.85631         0.6923        -999.25         1.9325         0.4928       -76.9027      -1.453598              1              1
      1280.0000        16.0017        -0.0144        185.252        74.0702        55.6672       80.73334         0.7012        -999.25         1.9306         0.5015       -76.9451      -1.495995              1              1
      1280.5000        15.5822        -0.0077        184.873         72.495        54.8821       79.59529         0.7152        -999.25         1.9439         0.5133       -76.8303      -1.381195      0.9913892              1
      1281.0000        14.8839        -0.0075       184.2556         72.545        54.1683        78.5606         0.7338        -999.25         1.9641         0.5247       -76.9186      -1.469498      0.9693745              1
      1281.5000        14.6587        -0.0073       183.3662        72.9907         54.144       78.52539         0.7553        -999.25         1.9842         0.5263       -77.0907      -1.641594      0.9686253              1
      1282.0000        14.8201         0.0049       182.2358        72.6923        54.5434       79.10435         0.7815        -999.25         1.9876         0.5107       -77.2069      -1.757797      0.9809436              1
      1282.5000        14.7932         0.0059        180.769        71.6389        54.8814       79.59428         0.8049        -999.25         1.9784         0.5161       -77.3151      -1.865997      0.9913678              1
      1283.0000        14.9391         -0.003       179.6787        69.7207        54.8921       79.60978          0.824        -999.25         1.9713         0.5394       -77.2847      -1.835594      0.9916974              1
      1283.5000        14.9012        -0.0182       179.1477        68.4404        54.2274       78.64629         0.8381        -999.25         1.9821         0.5583       -76.9963      -1.547195      0.9711975              1
      1284.0000        14.7782        -0.0016       177.2815        67.6582         53.325        77.3382         0.8498        -999.25         2.0137         0.5659       -77.1073      -1.658195      0.9433661              1
      1284.5000        14.6348          0.005       175.2986        66.7383        52.6047        76.2941         0.8583        -999.25         2.0334         0.5595       -77.3119      -1.862793       0.921151              1
      1285.0000        14.5514         0.0028       173.4504        65.6998        52.1535       75.64005         0.8644        -999.25         2.0291         0.5512       -77.4725      -2.023399      0.9072351      0.9966573
      1285.5000        14.5576        -0.0023       173.4104        64.8032        51.8865       75.25302         0.8603        -999.25         2.0327         0.5425       -77.6067      -2.157593      0.8990005      0.9774867
      1286.0000        14.5992         -0.009       173.8979        64.0203        51.7939        75.1188         0.8514        -999.25         2.0236          0.512       -77.5297      -2.080597      0.8961446      0.9884862
      1286.5000        14.7623        -0.0113       173.4529        63.5984        51.8958       75.26651         0.8417        -999.25         2.0142         0.5092       -77.5537      -2.104599      0.8992875      0.9850573
      1287.0000        15.7834        -0.0062       172.8328        63.0889        52.1695       75.66325          0.835        -999.25         2.0058         0.5214       -77.5742      -2.125099      0.9077286      0.9821287
      1287.5000        15.0858        -0.0009       172.6462         62.675        52.8474        76.6459         0.8236        -999.25         2.0065         0.5365        -77.527      -2.077896      0.9286363       0.988872
