#------------------------------------------------------------------------------
# Created by    : vladimir.rabinovich
# Created on    : 09/19/2023 17:20:45
#------------------------------------------------------------------------------
~Version Information Section
VERS.           2.0     :   CWLS log ASCII Standard - VERSION 2.0
WRAP.           NO      :   One line per depth step
~Well Information Section
#MNEM       .UNIT                                         VALUE :DESCRIPTION
#------------------------------------------------------------------------------
STRT        .FT                                            2010 :START DEPTH
STOP        .FT                                            7000 :STOP DEPTH
STEP        .FT                                             0.5 :STEP      
NULL        .                                           -999.25 :NULL      
COMP        .                                    TEXAS GULF INC :COMPANY   
WELL        .                                ST OF TEX TR 693-L :WELL      
FLD         .                                           WILDCAT :FIELD     
LOC         .                                                   :LOCATION  
CNTY        .                      MATAGORDA ISLAND LARGE BLOCK :LOCATION  
STAT        .                                             TEXAS :STATE     
CTRY        .                                     UNITED STATES :COUNTRY   
SRVC        .                                                   :SERVICE COMPANY
DATE        .                             9/13/2023 11:12:01 AM :LOG DATE  
API         .                                    42703300330000 :API NUMBER
UWI         .                                    42703300330000 :UNIQUE WELL ID
XCOORD      .                                  377893.250269135 :SURFACE X 
YCOORD      .                                  10151490.3803449 :SURFACE Y 
LAT         .                                        27.9187241 :LATITUDE  
LON         .                                       -96.9091122 :LONGITUDE 
ELEV        .FT                                              70 :ELEVATION VALUE
ELEV_TYPE   .                                                KB :ELEVATION REFERENCE TYPE
~Curve Information Section
#MNEM       .UNIT                                      API CODE :CURVE DESCRIPTION
#------------------------------------------------------------------------------
DEPT        .FT                                                 :DEPTH     
ASN         .OHMM                                               :          
CILD        .MMHO                                               :          
ILD         .OHMM                                               :          
SP          .MV                                                 :          
SP_NORM     .MV                                                 :SP Normalized
VSH_SP      .V/V                                                :Volume of Shale from SP
~A        DEPTH            ASN           CILD            ILD             SP        SP_NORM         VSH_SP
# ...
      4632.0000         0.9134        1558.27         0.6341       -49.4528        -3.9661      0.9710867
      4632.5000         0.9191       1573.535         0.6506       -49.4469        -3.9798      0.9708853
      4633.0000         0.9144       1588.789         0.6632        -49.152        -3.7045      0.9749338
      4633.5000         0.9019       1604.041         0.6617       -48.8569         -3.429      0.9789853
      4634.0000          0.887       1619.295         0.6601       -48.5621        -3.1538      0.9830323
      4634.5000         0.8888       1634.549         0.6585       -48.2672        -2.8785      0.9870809
      4635.0000         0.9102       1636.244         0.6555       -48.8308        -3.4617      0.9785044
      4635.5000         0.9037       1629.984         0.6505       -49.4304        -4.0809      0.9693985
      4636.0000         0.8956       1623.723         0.6455       -50.0294        -4.6995      0.9603015
      4636.5000         0.8979       1617.461         0.6404       -50.1111        -4.8008      0.9588118
      4637.0000         0.9084       1611.195         0.6354       -49.6252        -4.3344      0.9656706
      4637.5000         0.9189       1618.396         0.6304       -49.1393        -3.8681      0.9725279
      4638.0000         0.9097       1630.844         0.6254       -48.6534        -3.4018      0.9793853
      4638.5000         0.8927       1643.279         0.6204       -48.4151        -3.1831      0.9826015
      4639.0000         0.8759       1655.727         0.6239       -48.4236        -3.2112      0.9821882
      4639.5000          0.862       1634.773         0.6358       -48.5613        -3.3685       0.979875
      4640.0000         0.8918       1611.002         0.6477       -48.6989        -3.5257      0.9775633
      4640.5000         0.9216        1587.23         0.6595       -48.8366         -3.683        0.97525
      4641.0000         0.9496       1563.459         0.6713       -48.7404        -3.6064      0.9763765
      4641.5000         0.9626       1536.668         0.6782       -48.5422        -3.4278       0.979003
      4642.0000         0.9756       1508.781         0.6852       -48.3439        -3.2491      0.9816309
      4642.5000         0.9886       1480.895         0.6922       -48.1458        -3.0706      0.9842559
      4643.0000         1.0016       1452.982         0.6991       -48.0215        -2.9659      0.9857956
      4643.5000         1.0146       1425.094         0.6997       -47.9478        -2.9118      0.9865912
      4644.0000         1.0186       1397.807         0.6986       -47.9431        -2.9267      0.9863721
      4644.5000         1.0076       1375.381         0.6975       -47.9887        -2.9919      0.9854133
      4645.0000         0.9965       1359.006         0.6964       -48.0343         -3.057      0.9844559
      4645.5000         0.9971       1379.297         0.6952       -47.7944        -2.8367      0.9876956
      4646.0000         1.0089       1396.684         0.6941       -47.4784        -2.5403      0.9920544
      4646.5000         1.0267       1414.082         0.6946       -47.9239        -3.0054      0.9852147
      4647.0000         1.0304        1431.48         0.7008       -48.3698        -3.4709      0.9783691
      4647.5000         1.0255        1441.77          0.707       -49.0483         -4.169      0.9681029
      4648.0000         1.0207       1436.139         0.7133       -49.9573        -5.0976       0.954447
      4648.5000         1.0159       1430.514         0.7195        -50.867        -6.0269      0.9407809
      4649.0000         1.0306       1397.008         0.7257        -50.721        -5.9005      0.9426397
      4649.5000         1.0587       1358.969          0.732       -50.0916        -5.2907      0.9516073
      4650.0000         1.0859        1320.93         0.7371       -49.4621        -4.6808      0.9605765
      4650.5000         1.1122       1282.891         0.7418       -49.4618        -4.7001      0.9602926
      4651.0000         1.0953       1244.551         0.7466       -49.8551         -5.113      0.9542206
      4651.5000         1.0776       1273.936         0.7336       -50.2485         -5.526      0.9481471
      4652.0000           1.06       1392.168         0.7143       -50.6421        -5.9392      0.9420706
      4652.5000         1.0394       1485.559         0.6951       -51.0354        -6.3521      0.9359986
      4653.0000         1.0125        1578.85         0.6758       -51.4288        -6.7651       0.929925
      4653.5000         0.9856       1672.139         0.6569       -51.1075        -6.4633      0.9343632
      4654.0000         0.9588       1727.539          0.642       -50.5747        -5.9501      0.9419103
      4654.5000         0.9343       1771.266         0.6272       -50.0416        -5.4366      0.9494618
      4655.0000         0.9175       1814.992         0.6123       -50.1582        -5.5728      0.9474588
      4655.5000         0.9007       1821.066         0.5974       -49.6709        -5.1051      0.9543368
      4656.0000         0.9063       1812.137         0.5825       -49.0191        -4.4729      0.9636338
      4656.5000         0.9201       1803.213         0.5677       -48.2181        -3.6915       0.975125
      4657.0000          0.934       1794.289         0.5599       -47.7106        -3.2036         0.9823
      4657.5000         0.9478       1785.365         0.5603       -47.9826        -3.4952      0.9780118
      4658.0000         0.9616       1776.441         0.5608       -48.4185        -3.9507      0.9713132
      4658.5000         0.9754       1767.137         0.5612       -48.8544        -4.4062      0.9646147
      4659.0000          0.977       1754.229         0.5616       -49.2903        -4.8617      0.9579162
      4659.5000          0.966        1741.32         0.5621       -49.7262        -5.3172      0.9512177
      4660.0000         0.9552         1728.4         0.5625       -50.1621        -5.7727      0.9445191
      4660.5000         0.9445       1739.424         0.5629        -50.598        -6.2282      0.9378206
      4661.0000         0.9527        1752.01          0.564       -50.2854        -5.9352      0.9421294
      4661.5000         0.9522       1762.473         0.5727       -49.6771        -5.3465      0.9507868
      4662.0000          0.938       1752.041         0.5815       -49.1098        -4.7987      0.9588426
      4662.5000         0.9364       1741.607         0.5903         -49.03        -4.7385      0.9597279
      4663.0000          0.959       1731.174         0.5991       -49.5693        -5.2974      0.9515088
      4663.5000         0.9692       1720.742         0.6078       -50.1086        -5.8563      0.9432897
      4664.0000         0.9776       1705.414         0.6166       -50.6477         -6.415      0.9350736
      4664.5000         0.9862       1678.898         0.6254        -51.187        -6.9739      0.9268544
      4665.0000         0.9968       1652.383         0.6342       -50.9897        -6.7962      0.9294677
      4665.5000         1.0073       1625.867         0.6472       -50.6312        -6.4573      0.9344515
      4666.0000         1.0179       1599.377         0.6603       -50.2916        -6.1373      0.9391574
      4666.5000         1.0259       1572.861         0.6735       -50.1503        -6.0156      0.9409471
      4667.0000         1.0192       1546.348         0.6866        -50.009        -5.8939      0.9427367
      4667.5000         1.0124       1522.164         0.6998       -49.8678        -5.7723       0.944525
      4668.0000         1.0056       1501.822         0.6958       -50.2438        -6.1679      0.9387074
      4668.5000         0.9989        1481.48         0.6716       -50.7577        -6.7014      0.9308618
      4669.0000         1.0159       1461.139         0.6474       -51.4536        -7.4169      0.9203397
      4669.5000         1.0243       1440.871         0.6232       -50.6272        -6.6101      0.9322044
