#------------------------------------------------------------------------------
# Created by    : vladimir.rabinovich
# Created on    : 09/19/2023 17:20:25
#------------------------------------------------------------------------------
~Version Information Section
VERS.           2.0     :   CWLS log ASCII Standard - VERSION 2.0
WRAP.           NO      :   One line per depth step
~Well Information Section
#MNEM       .UNIT                                         VALUE :DESCRIPTION
#------------------------------------------------------------------------------
STRT        .FT                                             396 :START DEPTH
STOP        .FT                                           11006 :STOP DEPTH
STEP        .FT                                             0.5 :STEP      
NULL        .                                           -999.25 :NULL      
COMP        .                                 CALIFORNIA CO THE :COMPANY   
WELL        .                                OCS 00507 ST00BP00 :WELL      
FLD         .                            HIGH ISLAND BLOCK 0052 :FIELD     
LOC         .                                                   :LOCATION  
CNTY        .                           HIGH ISLAND LARGE BLOCK :LOCATION  
STAT        .                                             TEXAS :STATE     
CTRY        .                                     UNITED STATES :COUNTRY   
SRVC        .                                                   :SERVICE COMPANY
DATE        .                             9/13/2023 11:19:15 AM :LOG DATE  
API         .                                    42708000170000 :API NUMBER
UWI         .                                    42708000170000 :UNIQUE WELL ID
XCOORD      .                                  1293108.02889945 :SURFACE X 
YCOORD      .                                   10685731.628563 :SURFACE Y 
LAT         .                                         29.439677 :LATITUDE  
LON         .                                        -94.091453 :LONGITUDE 
ELEV        .FT                                              70 :ELEVATION VALUE
ELEV_TYPE   .                                                KB :ELEVATION REFERENCE TYPE
~Curve Information Section
#MNEM       .UNIT                                      API CODE :CURVE DESCRIPTION
#------------------------------------------------------------------------------
DEPT        .FT                                                 :DEPTH     
ASN         .OHMM                                               :          
CILD        .MMHO                                               :          
ILM         .OHMM                                               :          
SP          .MV                                                 :          
SP_NORM     .MV                                                 :SP Normalized
VSH_SP      .V/V                                                :Volume of Shale from SP
~A        DEPTH            ASN           CILD            ILM             SP        SP_NORM         VSH_SP
# ...
      5336.0000         0.4403       3208.789         0.3541      -119.0287       -63.7072              0
      5336.5000         0.4282       3208.789         0.3504      -119.1171       -63.8002              0
      5337.0000         0.4232       3215.676         0.3467      -119.1543       -63.8421              0
      5337.5000         0.4232       3225.855         0.3431      -118.8828       -63.5752              0
      5338.0000         0.4232       3236.043         0.3394      -118.6117       -63.3088              0
      5338.5000         0.4232        3257.82         0.3358      -117.4998       -62.2015              0
      5339.0000         0.4277       3286.629         0.3428      -115.6039       -60.3103              0
      5339.5000         0.4406       3316.699         0.3542      -112.8649       -57.5759     0.04179481
      5340.0000         0.4535       3353.125         0.3656       -107.765       -52.4807      0.1296431
      5340.5000         0.4665       3389.504          0.377      -102.6874       -47.4077      0.2171086
      5341.0000         0.4794       3450.965         0.3884       -97.6631       -42.3881      0.3036534
      5341.5000         0.4939       3508.891         0.4002       -91.8779       -36.6075       0.403319
      5342.0000         0.5099       3560.461         0.4169       -85.2294       -29.9637      0.5178673
      5342.5000         0.5259       3597.242         0.4335       -76.9165       -21.6554      0.6611138
      5343.0000         0.5418       3631.082         0.4502       -70.0632       -14.8068      0.7791931
      5343.5000         0.5578       3683.074         0.4668       -66.1649       -10.9131      0.8463259
      5344.0000         0.5738        3732.48         0.4835       -63.0988        -7.8517      0.8991086
      5344.5000         0.5906       3767.715         0.5002       -64.4304        -9.1879      0.8760707
      5345.0000         0.6085       3798.398         0.5154       -65.4696       -10.2318      0.8580724
      5345.5000         0.6263       3818.645         0.5248       -66.4797       -11.2466      0.8405759
      5346.0000         0.6441       3838.887         0.5342       -67.2257       -11.9972      0.8276345
      5346.5000         0.6575       3854.207         0.5436       -67.7587       -12.5349      0.8183638
      5347.0000         0.6683       3866.855          0.553       -68.0651       -12.8459      0.8130018
      5347.5000         0.6791       3879.508         0.5624       -67.0839       -11.8694      0.8298379
      5348.0000         0.6775       3892.797         0.5719       -66.1025       -10.8926      0.8466793
      5348.5000         0.6677       3908.801         0.5765       -65.1213        -9.9161      0.8635155
      5349.0000          0.658       3924.797         0.5718       -64.1412        -8.9406      0.8803345
      5349.5000          0.648       3939.301         0.5671         -63.16        -7.9641      0.8971707
      5350.0000         0.6379       3952.547         0.5624       -62.4045        -7.2132      0.9101173
      5350.5000         0.6278       3911.516         0.5577       -65.9246        -10.738      0.8493448
      5351.0000         0.6178        3345.84          0.553        -73.472         -18.29      0.7191379
      5351.5000         0.6077       2222.492         0.5483       -78.6075       -23.4302      0.6305138
      5352.0000         0.5976       2200.141         0.5437       -83.4983       -28.3256      0.5461103
      5352.5000         0.5876       2189.094          0.539       -88.0975       -32.9295      0.4667327
      5353.0000         0.5784       2178.055         0.5342         -90.04       -34.8766      0.4331621
      5353.5000         0.5765        2173.34         0.5294       -91.6332       -36.4745      0.4056121
      5354.0000         0.5746        2170.09         0.5246       -88.4268       -33.2727      0.4608155
      5354.5000         0.5728       2166.844         0.5197       -85.2227       -30.0733      0.5159776
      5355.0000         0.5709        2166.09         0.5149       -79.0081       -23.8633      0.6230465
      5355.5000         0.5691        2166.09         0.5101       -70.5884       -15.4483      0.7681327
      5356.0000         0.5672        2166.09         0.5052       -63.3279        -8.1924      0.8932345
      5356.5000         0.5654        2166.09         0.5004       -61.5435        -6.4127       0.923919
      5357.0000         0.5635        2168.16         0.4956       -59.7612         -4.635       0.954569
      5357.5000         0.5618        2172.27         0.4907       -57.9789        -2.8574      0.9852172
      5358.0000         0.5639       2176.379         0.4859        -57.145        -2.0282      0.9995138
      5358.5000          0.566       2180.488         0.4811       -56.4057        -1.2935              1
      5359.0000         0.5681       2184.738         0.4815       -55.6664        -0.5589              1
      5359.5000         0.5702       2192.973         0.4821        -54.963         0.1399              1
      5360.0000         0.5723       2201.203         0.4827       -54.8666         0.2316              1
      5360.5000         0.5744        2209.43         0.4833       -54.7703         0.3233              1
      5361.0000         0.5765       2217.664          0.484        -54.674         0.4149              1
      5361.5000         0.5786       2225.895         0.4846       -54.5776         0.5067              1
      5362.0000         0.5807       2226.844         0.4852       -54.6546          0.425              1
      5362.5000         0.5828       2221.617         0.4858       -54.8373         0.2377              1
      5363.0000         0.5849       2216.391         0.4865       -55.0201         0.0502              1
      5363.5000         0.5873       2211.164         0.4871       -55.2028        -0.1371              1
      5364.0000         0.5897       2205.938         0.4877       -55.3857        -0.3247              1
      5364.5000          0.592       2199.699         0.4883       -55.5684         -0.512              1
      5365.0000         0.5944       2192.984          0.489        -55.573        -0.5213              1
      5365.5000         0.5968       2186.266         0.4901        -55.296        -0.2489              1
      5366.0000         0.5991       2179.543         0.4932       -55.0189         0.0235              1
      5366.5000         0.6015       2172.828         0.4962       -54.7416         0.2962              1
      5367.0000         0.6039       2166.105         0.4993       -54.4646         0.5685              1
      5367.5000         0.6062       2167.738         0.5023       -54.1876         0.8409              1
      5368.0000         0.6074       2169.398         0.5053       -53.8786         1.1452              1
      5368.5000         0.6069       2171.051         0.5084       -53.5582          1.461              1
      5369.0000         0.6065       2172.707         0.5114       -53.2378         1.7767              1
      5369.5000         0.6061       2173.152         0.5144       -52.9171         2.0928              1
      5370.0000         0.6056       2173.152         0.5175       -52.8148         2.1904              1
      5370.5000         0.6052       2173.152         0.5205       -53.2469         1.7537              1
      5371.0000         0.6051       2173.152         0.5236       -53.6789          1.317              1
      5371.5000         0.6066       2173.152         0.5262       -54.1111         0.8801              1
      5372.0000         0.6081       2172.656         0.5263        -54.543         0.4436              1
      5372.5000         0.6096       2171.555         0.5264       -55.0785        -0.0966              1
      5373.0000         0.6156       2170.457         0.5265        -55.662        -0.6847              1
      5373.5000         0.6297       2169.359         0.5267       -56.2455        -1.2729              1
