#------------------------------------------------------------------------------
# Created by    : vladimir.rabinovich
# Created on    : 09/19/2023 17:21:15
#------------------------------------------------------------------------------
~Version Information Section
VERS.           2.0     :   CWLS log ASCII Standard - VERSION 2.0
WRAP.           NO      :   One line per depth step
~Well Information Section
#MNEM       .UNIT                                         VALUE :DESCRIPTION
#------------------------------------------------------------------------------
STRT        .FT                                            2893 :START DEPTH
STOP        .FT                                           11505 :STOP DEPTH
STEP        .FT                                             0.5 :STEP      
NULL        .                                           -999.25 :NULL      
COMP        .                               SEAGULL ENERGY CORP :COMPANY   
WELL        .                               OCS G06105 ST00BP00 :WELL      
FLD         .                              GALVESTON BLOCK 0343 :FIELD     
LOC         .                                                   :LOCATION  
CNTY        .                             GALVESTON LARGE BLOCK :LOCATION  
STAT        .                                             TEXAS :STATE     
CTRY        .                                     UNITED STATES :COUNTRY   
SRVC        .                                                   :SERVICE COMPANY
DATE        .                             9/13/2023 11:19:54 AM :LOG DATE  
API         .                                    42706403720000 :API NUMBER
UWI         .                                    42706403720000 :UNIQUE WELL ID
XCOORD      .                                  915246.934514234 :SURFACE X 
YCOORD      .                                  10428990.3748243 :SURFACE Y 
LAT         .                                         28.718869 :LATITUDE  
LON         .                                        -95.262866 :LONGITUDE 
ELEV        .FT                                              96 :ELEVATION VALUE
ELEV_TYPE   .                                                KB :ELEVATION REFERENCE TYPE
~Curve Information Section
#MNEM       .UNIT                                      API CODE :CURVE DESCRIPTION
#------------------------------------------------------------------------------
DEPT        .FT                                                 :DEPTH     
CAL         .IN                                                 :          
CNCSS       .%                                                  :          
CORR        .G/CM3                                              :          
DT24        .US/FT                                              :          
GR_NORM     .GAPI                                               :GammaRay Normalized
GRR         .GAPI                                               :          
ILD         .OHMM                                               :          
ILM         .OHMM                                               :          
PORDSS      .%                                                  :          
RFOC        .OHMM                                               :          
SP          .MV                                                 :          
SP_NORM     .MV                                                 :SP Normalized
VSH_GR      .V/V                                                :Volume of Shale from GR
VSH_SP      .V/V                                                :Volume of Shale from SP
~A        DEPTH            CAL          CNCSS           CORR           DT24        GR_NORM            GRR            ILD            ILM         PORDSS           RFOC             SP        SP_NORM         VSH_GR         VSH_SP
# ...
      4117.0000          15.33        40.6531        -0.0118          119.8        46.0179        41.7647         0.4145         0.4868        28.3529         0.8601       -36.7647       -36.1795      0.2769766      0.4692771
      4117.5000          15.29        39.7959        -0.0118          121.4        49.8653        43.7255         0.4413         0.5233        25.6471         0.8759       -34.7059       -34.1132      0.3588362      0.4988257
      4118.0000          15.25        39.4286        -0.0078            123       54.09801        45.8824         0.4655         0.5629        24.4706          0.924       -35.2941       -34.6939      0.4488939        0.49056
      4118.5000          15.25        38.5714        -0.0039            117       53.32221        45.4902         0.4956         0.6055        24.4706         1.0467       -37.9412       -37.3336      0.4323874      0.4528814
      4119.0000          15.21        35.2653              0          110.2       49.46438        43.5294         0.5233         0.6451          23.04         1.3147       -42.0588       -41.4437      0.3503059      0.3941971
      4119.5000          15.17        31.7143        -0.0039             99       44.45086        40.9804         0.5428         0.6393          19.44         1.4402          -47.5       -46.8774      0.2436352      0.3166029
      4120.0000          15.13        26.5882        -0.0157           94.8       38.98267           38.2         0.5527         0.6165        17.0588         1.5352       -52.8125       -52.1824      0.1272909      0.2408471
      4120.5000        15.4093        26.8271        -0.0314        98.4059       34.26191           35.8         0.5527            0.6        19.3239         1.3028        -58.125       -57.4875     0.02684922      0.1650914
      4121.0000        15.7276        28.8329        -0.0431       112.0155        35.4356           36.4         0.5046         0.5681        22.6893         1.1259          -60.6        -59.955     0.05182128      0.1298714
      4121.5000        15.5267        32.4644        -0.0471       124.0156       36.21631           36.8         0.4614         0.5186        25.6624         1.1362          -60.9       -60.2475      0.0684321      0.1257228
      4122.0000        15.0073         33.696        -0.0549         127.21       36.60406             37         0.4183         0.4573        26.9624         1.1677          -60.9         -60.24     0.07668215        0.12586
      4122.5000        14.7676        32.9676        -0.0588       123.8284       37.77774           37.6         0.3819          0.422        27.0859         1.1259          -60.3       -59.6326      0.1016541      0.1345686
      4123.0000        14.5682        31.7482        -0.0627       119.4561       38.95143           38.2          0.348         0.4036        26.7388         1.0467          -60.3       -59.6251      0.1266262      0.1347072
      4123.5000        14.5679        30.4077        -0.0627       116.0665       40.12511           38.8         0.3113         0.3819        26.8624         1.0277          -60.3       -59.6176      0.1515981      0.1348443
      4124.0000        14.5676        29.6918         -0.051       113.6768       39.33398           38.4         0.2946         0.3612        27.2212         1.0659            -60       -59.3101      0.1347656      0.1392671
      4124.5000        14.5673        28.9918        -0.0431       114.2866       37.75692           37.6         0.2817         0.3448        27.6976         1.1055       -59.6875       -58.9902       0.101211      0.1438686
      4125.0000         14.567        29.7035        -0.0392       114.2966       38.53763             38         0.2766         0.3448        27.8212              1       -59.0625       -58.3577       0.117822      0.1529343
      4125.5000        14.5666         31.534        -0.0392       115.5064       41.28318           39.4         0.2868         0.3545        28.0624         0.9404       -57.1875       -56.4752      0.1762379      0.1798571
      4126.0000         14.685        33.9898        -0.0353       118.7161       45.53886        41.5686         0.2946         0.3679        27.7153         0.9079         -53.75       -53.0302      0.2667843      0.2291014
      4126.5000        14.8425        35.8323        -0.0275       121.3095       49.77156        43.7255         0.3085         0.3854        26.8976         0.8759       -49.0625       -48.3353      0.3568417      0.2962028
      4127.0000        14.9998        37.1691        -0.0275       124.6725       53.61895        45.6863         0.3142            0.4        26.1976         0.8447       -44.1176       -43.3829      0.4387012      0.3669829
      4127.5000        15.1962        38.6218        -0.0275       126.6489       55.92515        46.8627         0.3142         0.4036        25.9682         0.8838       -41.1765       -40.4343      0.4877692      0.4091357
      4128.0000        15.3528        40.6742        -0.0275       125.6676       49.37063        43.5294         0.3172         0.3926          26.68         0.9487       -41.4706       -40.7209      0.3483113      0.4050714
      4128.5000        15.5091        42.8372        -0.0275       122.7208       40.85896           39.2         0.3322         0.3854        27.8624         0.9913       -42.3529       -41.5958       0.167212      0.3926043
      4129.0000        15.6258        43.9155        -0.0235       120.7626       34.56634             36         0.3578         0.3854        28.8094         0.8919       -41.7647       -41.0001     0.03332641      0.4011443
      4129.5000        15.7815        44.0373        -0.0157       121.9497       35.34706           36.4         0.3854         0.4109        28.9329            0.8       -35.5882       -34.8161     0.04993755      0.4895172
      4130.0000        15.8977        44.0393        -0.0118       123.3307       40.84333           39.2         0.4145         0.4532        28.2329         0.7483       -27.9412       -27.1616      0.1668794      0.5988972
      4130.5000        15.9755           44.4        -0.0039       124.7059       50.88561        44.3137         0.4413         0.4956        26.7059         0.7774       -18.2353       -17.4483       0.380545      0.7376914
      4131.0000        15.9755          44.52              0       125.4902       60.89723        49.4118         0.4868         0.5578        24.8235         0.8447          -14.4       -13.6055      0.5935581      0.7926186
      4131.5000        15.9755          43.92              0       124.7059       60.89202        49.4118         0.5428         0.6335          22.68          0.924          -12.6        -11.798      0.5934473        0.81847
      4132.0000        15.9755           42.6         0.0041       123.7255        58.9605        48.4314            0.6         0.7135          20.16         0.9826          -12.3       -11.4905      0.5523511      0.8228928
      4132.5000        15.9755          41.28              0       122.3529       55.10268        46.4706         0.6812         0.7342          17.76         1.0659          -12.3       -11.4831      0.4702699        0.82303
      4133.0000        15.9755          40.08         0.0041       120.9804       53.17116        45.4902         0.7555         0.7203          17.16         1.0659          -12.6       -11.7756      0.4291736      0.8188815
      4133.5000        16.0147          40.56         0.0082       121.9608       54.70699        46.2745         0.7924         0.7067          18.96         0.9913          -13.2       -12.3681      0.4618508      0.8104472
      4134.0000        16.0931           41.4         0.0204       121.5686       57.39867        47.6471         0.7701         0.6937          21.12         0.9322          -14.4       -13.5606      0.5191206      0.7934414
      4134.5000        16.1324          42.24         0.0286       120.5882       60.09018        49.0196         0.7203         0.6874          22.44          0.924       -15.5882       -14.7414      0.5763867      0.7766057
