#------------------------------------------------------------------------------
# Created by    : vladimir.rabinovich
# Created on    : 09/19/2023 17:19:38
#------------------------------------------------------------------------------
~Version Information Section
VERS.           2.0     :   CWLS log ASCII Standard - VERSION 2.0
WRAP.           NO      :   One line per depth step
~Well Information Section
#MNEM       .UNIT                                         VALUE :DESCRIPTION
#------------------------------------------------------------------------------
STRT        .FT                                            9400 :START DEPTH
STOP        .FT                                           17100 :STOP DEPTH
STEP        .FT                                             0.5 :STEP      
NULL        .                                           -999.25 :NULL      
COMP        .                                   FOREST OIL CORP :COMPANY   
WELL        .                               OCS G18937 ST00BP00 :WELL      
FLD         .                            HIGH ISLAND BLOCK 0116 :FIELD     
LOC         .                                                   :LOCATION  
CNTY        .                           HIGH ISLAND LARGE BLOCK :LOCATION  
STAT        .                                             TEXAS :STATE     
CTRY        .                                     UNITED STATES :COUNTRY   
SRVC        .                                                   :SERVICE COMPANY
DATE        .                             9/13/2023 11:19:48 AM :LOG DATE  
API         .                                    42708405250000 :API NUMBER
UWI         .                                    42708405250000 :UNIQUE WELL ID
XCOORD      .                                  1337259.97993026 :SURFACE X 
YCOORD      .                                  10628189.4209318 :SURFACE Y 
LAT         .                                         29.282461 :LATITUDE  
LON         .                                        -93.951246 :LONGITUDE 
ELEV        .FT                                              93 :ELEVATION VALUE
ELEV_TYPE   .                                                KB :ELEVATION REFERENCE TYPE
~Curve Information Section
#MNEM       .UNIT                                      API CODE :CURVE DESCRIPTION
#------------------------------------------------------------------------------
DEPT        .FT                                                 :DEPTH     
AHT10       .OHMM                                               :          
AHT20       .OHMM                                               :          
AHT30       .OHMM                                               :          
AHT60       .OHMM                                               :          
AHT90       .OHMM                                               :          
CALI        .IN                                                 :          
COND        .MMHO                                               :          
DTCO        .US/F                                               :          
GR          .GAPI                                               :          
GR_NORM     .GAPI                                               :GammaRay Normalized
HDRA        .G/CC                                               :          
NPOR        .FRAC                                               :          
RHOZ        .G/CC                                               :          
VSH_GR      .V/V                                                :Volume of Shale from GR
~A        DEPTH          AHT10          AHT20          AHT30          AHT60          AHT90           CALI           COND           DTCO             GR        GR_NORM           HDRA           NPOR           RHOZ         VSH_GR
      9400.0000           1950          0.465           1950        118.999         58.962          8.399        16.9601         109.35          39.78       53.41994         -0.396          0.454          2.534      0.4344667
      9400.5000           1950          0.453           1950        126.151         59.339          8.388        16.8523        109.367         41.136       54.84374         -0.399          0.489          2.525      0.4647605
      9401.0000           1950           0.45           1950        115.565         54.907          8.411        18.2126        109.384         43.085       56.89019           -0.4          0.508          2.519      0.5083019
      9401.5000           1950          0.459           1950         91.263         46.207          8.399        21.6417        109.401         44.149       58.00739         -0.416          0.561          2.485       0.532072
      9402.0000           1950          0.462           1950         73.219         40.208          8.399        24.8707        109.419         45.354       59.27264         -0.411          0.618          2.498      0.5589924
      9402.5000           1950          0.459           1950         59.765         36.183          8.388        27.6373        109.436           44.3       58.16594         -0.408          0.557          2.506      0.5354455
      9403.0000           1950          0.461           1950         40.942         26.034          8.399        38.4113        109.453         43.688       57.52334          -0.39          0.523          2.535      0.5217732
      9403.5000           1950          0.451           1950         35.229          22.52          8.411         44.405         109.47         42.342       56.11003         -0.377          0.491          2.555      0.4917029
      9404.0000           1950          0.433           1950         37.546         24.815          8.388        40.2982        109.487         40.082       53.73704         -0.376          0.504          2.552      0.4412136
      9404.5000           1950          0.423           1950         36.041         24.431          8.411        40.9316        109.505         39.178       52.78784         -0.383          0.528           2.54      0.4210178
      9405.0000           1950          0.424           1950         31.398         21.178          8.399        47.2188        109.522         37.662       51.19604         -0.401          0.521           2.51      0.3871497
      9405.5000           1950          0.438           1950         35.513          24.15          8.411        41.4079        109.539         40.383       54.05309         -0.395          0.471          2.525       0.447938
      9406.0000           1950          0.471           1950         43.909         29.161          8.388        34.2924        109.556         40.685       54.37019         -0.392          0.443          2.531       0.454685
      9406.5000           1950          0.476           1950         49.524           31.7          8.411        31.5457        109.573         40.685       54.37019          -0.38          0.523          2.551       0.454685
      9407.0000           1950          0.452           1950         69.069         44.332          8.399        22.5571        109.591          37.21       50.72144         -0.366          0.551          2.575      0.3770518
      9407.5000           1950          0.454           1950         92.744         52.233          8.399         19.145        109.608         35.707       49.14329          -0.36          0.604          2.585      0.3434742
      9408.0000           1950          0.441           1950        113.204         49.551          8.399        20.1812        109.625         34.092       47.44754         -0.361           0.53          2.584      0.3073945
      9408.5000           1950           0.41           1950        119.257         50.134          8.411        19.9465        109.642          34.23       47.59244         -0.359           0.51          2.585      0.3104774
      9409.0000           1950          0.414           1950        103.859         45.025          8.388        22.2099        109.659         35.432       48.85454         -0.355          0.512          2.589      0.3373306
      9409.5000           1950          0.442           1950          78.87         35.255          8.411        28.3648        109.677         35.089       48.49438         -0.374          0.522          2.551      0.3296677
      9410.0000           1950          0.464           1950         66.614         42.434          8.388         23.566        109.694         36.085       49.54018         -0.391          0.531          2.525      0.3519188
      9410.5000           1950          0.471           1950          59.55         44.948          8.388        22.2479        109.711         34.578       47.95784         -0.391          0.514          2.529      0.3182518
      9411.0000           1950          0.478           1950         50.484          34.88          8.411        28.6697        109.728         36.847       50.34029          -0.38          0.514          2.556      0.3689423
      9411.5000           1950          0.481           1950         39.352         26.944          8.411         37.114        109.745          35.18       48.58994         -0.385          0.536          2.552      0.3317007
      9412.0000           1950          0.467           1950         28.143         20.591          8.435        48.5649        109.762         36.846       50.33924         -0.401          0.507          2.528        0.36892
      9412.5000           1950          0.481       1935.172         40.552         27.486          8.411        36.3822         109.78         36.156       49.61473          -0.42          0.508          2.495       0.353505
      9413.0000           1950          0.504       1858.135         58.649         41.103          8.399        24.3291        109.797         36.696       50.18174         -0.416          0.465          2.496      0.3655688
      9413.5000           1950          0.514       1691.402         68.835         51.953          8.399        19.2482        109.814         38.495       52.07069         -0.415          0.487          2.491      0.4057594
      9414.0000           1950          0.524         1460.6         67.378         46.226          8.435        21.6328        109.831         39.929       53.57639          -0.41          0.484          2.498      0.4377955
      9414.5000           1950          0.491       1222.803         61.997         36.719          8.423        27.2339        109.848         38.415       51.98669         -0.408          0.491          2.511      0.4039721
      9415.0000           1950          0.462       1038.188          54.51         33.093          8.411        30.2179        109.866         38.124       51.68114         -0.397          0.457          2.533       0.397471
      9415.5000           1950          0.469        933.489         41.613         25.996          8.423        38.4675        109.883         37.069       50.57339         -0.381          0.487          2.565      0.3739018
      9416.0000           1950          0.457        920.676         41.287         26.954          8.399        37.1002          109.9         39.479       53.10389         -0.387          0.509          2.547      0.4277423
      9416.5000           1950          0.434        999.721         36.314         24.746          8.423        40.4106        109.917         39.168       52.77734           -0.4          0.482          2.525      0.4207944
      9417.0000           1950          0.434       1161.739         30.353         21.575          8.399        46.3499        109.934         38.875       52.46969         -0.407          0.469          2.512      0.4142487
      9417.5000           1950          0.458       1389.091          34.19         24.537          8.423        40.7548        109.952         41.888       55.63334         -0.412          0.483          2.503      0.4815604
