#------------------------------------------------------------------------------
# Created by    : vladimir.rabinovich
# Created on    : 09/19/2023 17:21:46
#------------------------------------------------------------------------------
~Version Information Section
VERS.           2.0     :   CWLS log ASCII Standard - VERSION 2.0
WRAP.           NO      :   One line per depth step
~Well Information Section
#MNEM       .UNIT                                         VALUE :DESCRIPTION
#------------------------------------------------------------------------------
STRT        .FT                                            2869 :START DEPTH
STOP        .FT                                           10002 :STOP DEPTH
STEP        .FT                                             0.5 :STEP      
NULL        .                                           -999.25 :NULL      
COMP        .                          SEAGULL ENERGY E & P INC :COMPANY   
WELL        .                               OCS G06145 ST00BP00 :WELL      
FLD         .                                           WILDCAT :FIELD     
LOC         .                                                   :LOCATION  
CNTY        .                           HIGH ISLAND LARGE BLOCK :LOCATION  
STAT        .                                             TEXAS :STATE     
CTRY        .                                     UNITED STATES :COUNTRY   
SRVC        .                                                   :SERVICE COMPANY
DATE        .                             9/13/2023 11:19:59 AM :LOG DATE  
API         .                                    42708402850000 :API NUMBER
UWI         .                                    42708402850000 :UNIQUE WELL ID
XCOORD      .                                  1277324.30822617 :SURFACE X 
YCOORD      .                                   10672684.104362 :SURFACE Y 
LAT         .                                         29.403374 :LATITUDE  
LON         .                                        -94.140646 :LONGITUDE 
ELEV        .FT                                              88 :ELEVATION VALUE
ELEV_TYPE   .                                                KB :ELEVATION REFERENCE TYPE
~Curve Information Section
#MNEM       .UNIT                                      API CODE :CURVE DESCRIPTION
#------------------------------------------------------------------------------
DEPT        .FT                                                 :DEPTH     
CALI        .IN                                                 :          
DPHI        .%                                                  :          
DRHO        .G/C3                                               :          
GR          .GAPI                                               :          
GR_NORM     .GAPI                                               :GammaRay Normalized
ILD         .OHMM                                               :          
ILM         .OHMM                                               :          
NPHI        .%                                                  :          
SFL         .OHMM                                               :          
SP          .MV                                                 :          
SP_NORM     .MV                                                 :SP Normalized
VSH_GR      .V/V                                                :Volume of Shale from GR
VSH_SP      .V/V                                                :Volume of Shale from SP
~A        DEPTH           CALI           DPHI           DRHO             GR        GR_NORM            ILD            ILM           NPHI            SFL             SP        SP_NORM         VSH_GR         VSH_SP
# ...
      5320.0000        11.2582        14.8725         0.0045        40.7896        43.8611         1.4382         1.2464        21.1239         3.4759        -34.371      -12.08965      0.2310872      0.8272907
      5320.5000         11.303        15.6167         0.0057        46.6097       50.32787         1.4887         1.2671        25.1583         2.2664       -29.4745      -7.793308      0.3686782       0.888667
      5321.0000        11.2663        17.3726         0.0078         54.574        59.1771         1.4202         1.1998         28.384         1.5909       -25.4336      -4.251907      0.5569595      0.9392585
      5321.5000        11.2618        19.6474         0.0097        65.9696       71.83887         1.2556         1.0538        31.4794         0.9565       -22.7034      -1.867006       0.826359      0.9733285
      5322.0000        11.2912        20.7795         0.0107        72.7505       79.37321         1.0781         0.9218        33.1652         0.6994       -19.7828       0.685895       0.986664              1
      5322.5000        11.3232        20.7525         0.0123        76.8423       83.91965         0.8907         0.8106        33.3839         0.6243       -18.5046        1.78962              1              1
      5323.0000        11.3157        19.7986         0.0138        74.4495       81.26099         0.7586         0.7478        32.5172         0.6168       -19.2783       1.082845              1              1
      5323.5000        11.2708        18.7792         0.0137        67.2605        73.2732         0.6697         0.7192        31.0346         0.7434       -21.8552      -1.214989      0.8568766       0.982643
      5324.0000        11.1999        18.4959         0.0113        62.3083       67.77077         0.6244            0.7        29.8755          0.866       -23.9319       -3.07147      0.7398036      0.9561219
      5324.5000        11.1574        18.5601          0.008        59.9834       65.18754         0.6135         0.6874        29.8621         0.9957       -24.2721      -3.395745      0.6848412      0.9514894
      5325.0000        11.2089        17.6856          0.006        59.0621       64.16388         0.6239         0.6819        30.5075         0.9443       -23.7909      -2.995255      0.6630613      0.9572107
      5325.5000        11.2695        15.9829         0.0064        58.0276       63.01443         0.6318         0.6873        29.8591         0.8426       -23.2178      -2.513678      0.6386049      0.9640903
      5326.0000        11.2969         14.579          0.008        56.7745        61.6221          0.631          0.708        27.8299         0.9851       -24.1823      -3.388806      0.6089809      0.9515885
      5326.5000        11.2843        14.3963         0.0092        58.1277       63.12565         0.6237         0.7226        25.7932         1.1791       -27.9412       -6.72958      0.6409713      0.9038631
      5327.0000        11.2952        15.5516          0.008        63.2357        68.8012         0.6121         0.7084         24.978         1.2612       -31.0362      -9.484562      0.7617277      0.8645062
      5327.5000        11.2832        16.9728         0.0062        66.6057       72.54565         0.6096         0.6819        25.2654         1.1809       -32.2881      -10.61328      0.8413969      0.8483817
      5328.0000        11.3217        18.0345         0.0055        68.2787       74.40454         0.6035         0.6545         26.232         1.0527       -32.0773      -10.45138      0.8809477      0.8506946
      5328.5000        11.4057        18.5157         0.0053        68.2327       74.35342         0.5892         0.6274        27.5888         0.9046       -30.9719      -9.500124      0.8798601      0.8642839
      5329.0000        11.4354        18.4272          0.005        68.8314       75.01865         0.5725         0.6101        28.7209         0.7477       -29.9283      -8.603399      0.8940139      0.8770943
      5329.5000        11.3701        18.3862         0.0051        70.3468       76.70243         0.5499         0.6047        29.5468         0.6849       -30.2838      -8.941173       0.929839       0.872269
      5330.0000        11.3047        18.5789         0.0045        69.4658       75.72353         0.5357         0.6028        29.7492         0.6996       -30.4859      -9.143596      0.9090114      0.8693772
      5330.5000        11.2821        18.9974         0.0036        67.5925       73.64209         0.5364         0.6008        30.0081         0.7463       -28.6806      -7.574782      0.8647253      0.8917888
      5331.0000        11.2921        19.3276          0.003        67.6597       73.71677         0.5424         0.5978        30.7816         0.7895       -25.8169      -5.072087      0.8663142      0.9275416
      5331.5000        11.3233        19.6837          0.003        67.8512       73.92953         0.5516            0.6        31.6778         0.8087       -22.6094      -2.266038      0.8708411       0.967628
      5332.0000        11.3523        20.0685         0.0034        66.4889       72.41588          0.566         0.6068        32.2971         0.7681       -19.6579      0.3141285      0.8386357              1
      5332.5000        11.3747        20.3581         0.0037        62.5494       68.03865         0.5861         0.6196        31.9391          0.717       -19.0981      0.7839691      0.7455032              1
      5333.0000         11.387        20.2848         0.0041        59.8471       65.03609          0.613           0.64        30.9777         0.7219       -20.9031     -0.8327748       0.681619      0.9881032
      5333.5000         11.385        19.5463         0.0043        57.6455       62.58987         0.6479          0.665        29.7468         0.7861       -22.6589      -2.406109      0.6295718       0.965627
      5334.0000        11.3672        18.9413         0.0046        55.6108        60.3291         0.6885         0.6989        28.8565         0.8464       -23.5034      -3.175355      0.5814702      0.9546378
      5334.5000        11.4099        18.3235          0.005        54.8845       59.52209         0.7276         0.7334        27.6307         0.8618       -23.4546      -3.156395      0.5642999      0.9549087
      5335.0000        11.4962        17.4422         0.0055        55.3382       60.02621         0.7694         0.7724        26.1354         0.8738       -22.7961      -2.599465      0.5750257      0.9628648
      5335.5000        11.6035         16.522         0.0059        55.9781       60.73721         0.8142         0.8151        25.1875         0.9027       -21.5349       -1.51074      0.5901534       0.978418
      5336.0000        11.6801        15.8904         0.0062        56.0147       60.77787         0.8519         0.8541        25.4503         0.9679       -19.8891       -0.08266      0.5910186      0.9988192
      5336.5000        11.6286        16.3123         0.0062        55.7997       60.53899         0.8842         0.8879        27.4915         1.0184        -18.226       1.360681      0.5859359              1
      5337.0000        11.5721        17.3569         0.0061        59.1776       64.29221         0.9102         0.9075        30.2949         1.0395       -16.7608       2.629406      0.6657916              1
      5337.5000        11.5603        18.2112         0.0063        63.2839       68.85476         0.9249         0.9122        32.8152         1.0126       -16.0337       3.246866      0.7628672              1
      5338.0000        11.5729        18.8151         0.0071        67.7465       73.81321         0.9239         0.9023        34.3547         0.9396       -15.7906       3.437268      0.8683662              1
      5338.5000        11.6017        19.0708         0.0085        70.1511       76.48499         0.8994         0.8803        34.8728         0.8468       -15.8936       3.322285      0.9252124              1
