#------------------------------------------------------------------------------
# Created by    : vladimir.rabinovich
# Created on    : 09/19/2023 17:21:39
#------------------------------------------------------------------------------
~Version Information Section
VERS.           2.0     :   CWLS log ASCII Standard - VERSION 2.0
WRAP.           NO      :   One line per depth step
~Well Information Section
#MNEM       .UNIT                                         VALUE :DESCRIPTION
#------------------------------------------------------------------------------
STRT        .FT                                             930 :START DEPTH
STOP        .FT                                           10010 :STOP DEPTH
STEP        .FT                                             0.5 :STEP      
NULL        .                                           -999.25 :NULL      
COMP        .                 FAIRWAYS SPEC SALES & SERVICE INC :COMPANY   
WELL        .                               OCS G02357 ST00BP00 :WELL      
FLD         .                            HIGH ISLAND BLOCK 0154 :FIELD     
LOC         .                                                   :LOCATION  
CNTY        .                           HIGH ISLAND LARGE BLOCK :LOCATION  
STAT        .                                             TEXAS :STATE     
CTRY        .                                     UNITED STATES :COUNTRY   
SRVC        .                                                   :SERVICE COMPANY
DATE        .                             9/13/2023 11:20:04 AM :LOG DATE  
API         .                                    42708400540000 :API NUMBER
UWI         .                                    42708400540000 :UNIQUE WELL ID
XCOORD      .                                  1183911.52517142 :SURFACE X 
YCOORD      .                                  10615048.6542629 :SURFACE Y 
LAT         .                                         29.242029 :LATITUDE  
LON         .                                        -94.431816 :LONGITUDE 
ELEV        .FT                                              73 :ELEVATION VALUE
ELEV_TYPE   .                                                KB :ELEVATION REFERENCE TYPE
~Curve Information Section
#MNEM       .UNIT                                      API CODE :CURVE DESCRIPTION
#------------------------------------------------------------------------------
DEPT        .FT                                                 :DEPTH     
CALI        .IN                                                 :          
DRHO        .G/C3                                               :          
DT          .US/F                                               :          
GR          .GAPI                                               :          
GR_1        .GAPI                                               :          
GR_NORM     .GAPI                                               :GammaRay Normalized
ILD         .OHMM                                               :          
NPHI        .%                                                  :          
RHOB        .G/C3                                               :          
SFL         .OHMM                                               :          
SP          .MV                                                 :          
SP_NORM     .MV                                                 :SP Normalized
VSH_GR      .V/V                                                :Volume of Shale from GR
VSH_SP      .V/V                                                :Volume of Shale from SP
~A        DEPTH           CALI           DRHO             DT             GR           GR_1        GR_NORM            ILD           NPHI           RHOB            SFL             SP        SP_NORM         VSH_GR         VSH_SP
# ...
      7338.0000         11.476         0.1901        82.6217        83.2404        -999.25       55.41114         1.6428        37.1169         2.1791         1.5662        56.1295       -14.5367      0.4768328      0.8061774
      7338.5000        11.6608         0.1853        86.9026        84.5017        -999.25       56.97132         1.5232        32.7576         2.2312         1.5486        56.7189      -13.97484      0.5100281      0.8136688
      7339.0000        11.3493         0.1853        88.2131        86.5938        -999.25       59.55719         1.3718        31.2101           2.26         1.4316        55.9401      -14.78119      0.5650466      0.8029175
      7339.5000        11.0935         0.1917        89.0419        88.6735        -999.25       62.12774         1.2193           37.3         2.2716         1.2597        54.9894      -15.75944      0.6197391      0.7898741
      7340.0000        11.0539         0.2001        91.0403        89.8807        -999.25       63.62112         1.1051        39.7218         2.2678         1.0645        54.3148      -16.46159      0.6515133      0.7805122
      7340.5000         11.813         0.1756        96.1488        89.7688        -999.25         63.486         1.0196        41.6888         2.1675         0.9592        54.2982      -16.50574      0.6486382      0.7799234
      7341.0000        11.7993         0.1556       105.6444        87.8662        -999.25       61.14014         0.9793        43.4549         2.1832         0.9098        55.6301      -15.20139      0.5987263      0.7973148
      7341.5000        11.6665         0.1585       111.0741        86.8829        -999.25        59.9292         0.9673        46.6505         2.2221         0.8846        57.5045      -13.35454      0.5729617      0.8219395
      7342.0000        11.5754         0.1681       107.8875        85.0924        -999.25       57.72174          0.969        50.2478         2.2282         0.8909        57.4091      -13.47748      0.5259944      0.8203002
      7342.5000        12.0163         0.1669       104.3303         83.495        -999.25       55.75267         0.9867        54.7592          2.228         0.9272        57.1007      -13.81343      0.4840993      0.8158209
      7343.0000        12.7605         0.1707       103.9894         82.934        -999.25       55.06309         1.0186         53.978         2.2149         0.9967        57.3154      -13.62628      0.4694274      0.8183162
      7343.5000        13.2735         0.1765       105.2887        85.8456        -999.25       58.66067         1.0614        54.4003         2.1512         1.1024        58.0382      -12.93103      0.5459716      0.8275862
      7344.0000           13.3         0.1729       102.3738        89.2125        -999.25       62.82037         1.0721        56.8531         2.1325         1.2772        59.3246      -11.67218      0.6344759      0.8443709
      7344.5000        12.2634         0.1335        97.7693         92.609        -999.25        67.0166          1.036        56.6685          2.149         1.4402        60.2691      -10.75523      0.7237575      0.8565969
      7345.0000        11.2887          0.081        95.6671        96.5519        -999.25       71.88741         0.9977        53.8066         2.2633          1.485        61.5015      -9.550381      0.8273916      0.8726616
      7345.5000        10.3776          0.053        95.2518       100.5194        -999.25       76.78857         0.9638        52.0494         2.3016         1.2556        63.3536      -7.725822      0.9316716       0.896989
      7346.0000        10.1307         0.0549       101.1584       103.7831        -999.25       80.82085         0.9247        51.0068          2.306         0.8959        65.1049      -6.002075              1      0.9199724
      7346.5000        10.0303         0.0603       108.2579        104.068        -999.25       81.17561         0.8718        50.0972         2.2981         0.7398          66.09      -5.044525              1      0.9327397
      7347.0000        10.1089         0.0716        111.079       104.4218        -999.25        81.6154         0.8215        49.2082         2.3095         0.6836        65.6312      -5.530869              1      0.9262551
      7347.5000        10.0546         0.0718       111.1803        105.592        -999.25       83.06313         0.7726         50.803         2.3058          0.677        65.0815      -6.108124              1      0.9185584
      7348.0000          9.966         0.0648       111.5063       106.8436        -999.25       84.61133         0.7289        53.4316         2.2898         0.7094         64.557      -6.660172              1      0.9111977
      7348.5000         9.9252         0.0619       112.3542       107.6226        -999.25       85.57608         0.6943        56.1517         2.2933         0.7672        64.1124      -7.132324              1      0.9049023
      7349.0000         9.9141         0.0614       112.8878       107.5706        -999.25       85.51492         0.6728        58.5099         2.2988         0.7804        64.1204      -7.151863              1      0.9046418
      7349.5000         9.9649         0.0624       114.1211       107.1882        -999.25       85.04584         0.6601        58.0005         2.3032         0.7077        65.4713      -5.828514              1      0.9222865
      7350.0000        10.0781          0.067       114.8983       106.0696        -999.25       83.66788         0.6454        56.1014         2.3051         0.6664        65.6847      -5.642662              1      0.9247645
      7350.5000        10.0222         0.0715       115.4471       106.4006        -999.25       84.07952         0.6377        54.4667         2.2968         0.6939        68.7284        -2.6175              1         0.9651
      7351.0000         9.9168         0.0739        114.829        106.812        -999.25       84.59045         0.6287        55.7471         2.2868          0.731        71.4442     0.09585571              1              1
      7351.5000         9.8241         0.0751       113.7646       106.5212        -999.25       84.23447         0.6202        56.8885         2.2832         0.7302        71.6844      0.3336258              1              1
      7352.0000         9.7442         0.0744       113.2448       105.6044        -999.25       83.10564         0.6202        57.2407         2.2763         0.7091         71.114     -0.2392197              1      0.9968104
      7352.5000         9.6933         0.0775       115.9948       104.0243        -999.25       81.15791         0.6233         57.793         2.2671         0.6778        70.1381       -1.21756              1      0.9837658
      7353.0000         9.6621         0.0841       119.0048       102.3162        -999.25       79.05218         0.6277        58.5513           2.28         0.6426        69.2311      -2.126999      0.9798335        0.97164
      7353.5000         9.6551         0.0903        121.079       101.6006        -999.25       78.17175         0.6281         59.016         2.2877         0.6337         68.757      -2.603539      0.9611009      0.9652861
      7354.0000         9.7045         0.0784       121.3068       101.5952        -999.25       78.16809         0.6213        58.6326         2.2763         0.6697        68.5338      -2.829185      0.9610232      0.9622775
      7354.5000         9.7755         0.0746       118.6681       101.7333        -999.25       78.34161         0.6108        57.5782         2.2741         0.7295        68.5562      -2.809227       0.964715      0.9625437
      7355.0000         9.7346         0.0729       115.7028       103.1948        -999.25       80.14895         0.5984        57.2016         2.2784         0.7918        69.3075      -2.060356              1      0.9725286
      7355.5000         9.6329         0.0733       113.6038       105.2474        -999.25       82.68605          0.583        58.2641         2.2528         0.7345        70.6063     -0.7639999              1      0.9898133
