#------------------------------------------------------------------------------
# Created by    : vladimir.rabinovich
# Created on    : 09/19/2023 17:20:36
#------------------------------------------------------------------------------
~Version Information Section
VERS.           2.0     :   CWLS log ASCII Standard - VERSION 2.0
WRAP.           NO      :   One line per depth step
~Well Information Section
#MNEM       .UNIT                                         VALUE :DESCRIPTION
#------------------------------------------------------------------------------
STRT        .FT                                             510 :START DEPTH
STOP        .FT                                            7943 :STOP DEPTH
STEP        .FT                                             0.5 :STEP      
NULL        .                                           -999.25 :NULL      
COMP        .                       BLUE DOLPHIN EXPLORATION CO :COMPANY   
WELL        .                                OCS 00709 ST00BP00 :WELL      
FLD         .                                FEDERAL BLOCK 0288 :FIELD     
LOC         .                                                   :LOCATION  
CNTY        .                             GALVESTON LARGE BLOCK :LOCATION  
STAT        .                                             TEXAS :STATE     
CTRY        .                                     UNITED STATES :COUNTRY   
SRVC        .                                                   :SERVICE COMPANY
DATE        .                             9/13/2023 11:19:25 AM :LOG DATE  
API         .                                    42706000400000 :API NUMBER
UWI         .                                    42706000400000 :UNIQUE WELL ID
XCOORD      .                                   1098851.8122004 :SURFACE X 
YCOORD      .                                  10485233.3471489 :SURFACE Y 
LAT         .                                         28.881916 :LATITUDE  
LON         .                                        -94.692672 :LONGITUDE 
ELEV        .FT                                              93 :ELEVATION VALUE
ELEV_TYPE   .                                                KB :ELEVATION REFERENCE TYPE
~Curve Information Section
#MNEM       .UNIT                                      API CODE :CURVE DESCRIPTION
#------------------------------------------------------------------------------
DEPT        .FT                                                 :DEPTH     
ASN         .OHMM                                               :          
GR          .GAPI                                               :          
ILD         .OHMM                                               :          
NEUT        .NAPI                                               :          
SP          .MV                                                 :          
SP_NORM     .MV                                                 :SP Normalized
VSH_SP      .V/V                                                :Volume of Shale from SP
~A        DEPTH            ASN             GR            ILD           NEUT             SP        SP_NORM         VSH_SP
# ...
      2989.0000         1.0617        -999.25         1.0002        -999.25       -52.2559       -2.25354       0.992317
      2989.5000         1.0454        -999.25         0.9858        -999.25       -52.1216      -2.117691      0.9964336
      2990.0000         1.0314        -999.25         0.9669        -999.25       -52.1843      -2.178844      0.9945804
      2990.5000         1.0242        -999.25          0.945        -999.25       -52.7441      -2.737095      0.9776638
      2991.0000         1.0122        -999.25         0.9232        -999.25       -53.4105      -3.401947      0.9575167
      2991.5000         0.9881        -999.25         0.9041        -999.25       -53.9481      -3.938004      0.9412726
      2992.0000         0.9794        -999.25         0.8854        -999.25       -53.7021      -3.690453      0.9487742
      2992.5000         0.9794        -999.25          0.875        -999.25       -53.6603      -3.647106      0.9500877
      2993.0000          0.981        -999.25         0.8776        -999.25       -53.9103      -3.895561      0.9425588
      2993.5000         0.9766        -999.25         0.8802        -999.25       -53.9179      -3.901611      0.9423754
      2994.0000          0.968        -999.25         0.8827        -999.25       -53.7306      -3.712761      0.9480982
      2994.5000         0.9625        -999.25         0.8852        -999.25       -53.6182      -3.598816       0.951551
      2995.0000          0.959        -999.25         0.8876        -999.25       -53.9462       -3.92527      0.9416585
      2995.5000         0.9588        -999.25         0.8899        -999.25       -54.0143      -3.991821      0.9396418
      2996.0000         0.9544        -999.25         0.8924        -999.25       -53.8835      -3.859474      0.9436523
      2996.5000         0.9452        -999.25         0.8949        -999.25       -53.6755      -3.649925      0.9500023
      2997.0000         0.9377        -999.25         0.8989        -999.25       -53.1915      -3.164379      0.9647158
      2997.5000         0.9341        -999.25         0.9029        -999.25       -52.7303      -2.701633      0.9787384
      2998.0000         0.9313        -999.25         0.9043        -999.25       -52.6117      -2.581482      0.9823793
      2998.5000         0.9299        -999.25          0.905        -999.25       -52.4961      -2.464336      0.9859292
      2999.0000          0.928        -999.25         0.8999        -999.25       -51.8812      -1.847889              1
      2999.5000         0.9263        -999.25         0.8902        -999.25       -52.2869      -2.252041      0.9923624
      3000.0000         0.9266        -999.25          0.884        -999.25       -53.3188      -3.282394      0.9611396
      3000.5000          0.923        -999.25         0.8815        -999.25       -53.7784      -3.740448      0.9472591
      3001.0000         0.9172        -999.25         0.8802        -999.25       -54.0414        -4.0019      0.9393364
      3001.5000         0.9111        -999.25         0.8808        -999.25       -53.7499      -3.708851      0.9482166
      3002.0000         0.9097        -999.25         0.8816        -999.25       -53.3086      -3.266006      0.9616362
      3002.5000         0.9087        -999.25         0.8869        -999.25       -53.4573      -3.413155      0.9571772
      3003.0000          0.909        -999.25         0.8922        -999.25       -54.2377      -4.192009      0.9335755
      3003.5000         0.9118        -999.25         0.8955        -999.25       -54.9442      -4.896961      0.9122133
      3004.0000         0.9177        -999.25         0.8979        -999.25       -55.5233      -5.474514      0.8947117
      3004.5000         0.9197        -999.25         0.8995        -999.25        -55.517      -5.466663      0.8949496
      3005.0000         0.9138        -999.25            0.9        -999.25       -55.3458      -5.293919      0.9001843
      3005.5000         0.9079        -999.25         0.9006        -999.25        -54.717       -4.66357      0.9192858
      3006.0000         0.9157        -999.25         0.8998        -999.25       -54.0806      -4.025623      0.9386175
      3006.5000         0.9273        -999.25         0.8989        -999.25       -53.4825      -3.425976      0.9567886
      3007.0000         0.9347        -999.25          0.898        -999.25        -53.079      -3.020927      0.9690628
      3007.5000         0.9333        -999.25         0.8972        -999.25       -53.4029      -3.343281      0.9592945
      3008.0000          0.931        -999.25         0.8963        -999.25       -53.5884      -3.527237      0.9537201
      3008.5000         0.9293        -999.25         0.8967        -999.25       -53.7279      -3.665188      0.9495398
      3009.0000         0.9331        -999.25         0.8976        -999.25       -53.6923      -3.628036      0.9506655
      3009.5000         0.9368        -999.25         0.8998        -999.25       -53.8714      -3.805592      0.9452851
      3010.0000         0.9416        -999.25         0.9025        -999.25       -54.3944      -4.327045      0.9294835
      3010.5000         0.9419        -999.25         0.9016        -999.25       -55.1387      -5.069794      0.9069759
      3011.0000         0.9367        -999.25         0.8989        -999.25       -55.3609      -5.290451      0.9002894
      3011.5000         0.9291        -999.25         0.8975        -999.25       -55.1274      -5.055401      0.9074121
      3012.0000         0.9237        -999.25         0.8966        -999.25       -54.2801      -4.206554      0.9331347
      3012.5000          0.926        -999.25         0.8947        -999.25       -53.5755      -3.500408      0.9545331
      3013.0000         0.9325        -999.25         0.8921        -999.25       -53.8466      -3.769958      0.9463649
      3013.5000          0.943        -999.25         0.9028        -999.25       -54.3661       -4.28791      0.9306694
      3014.0000         0.9578        -999.25         0.9276        -999.25       -54.4227      -4.342964      0.9290011
      3014.5000         0.9747        -999.25         0.9487        -999.25       -54.0131      -3.931816      0.9414601
      3015.0000         0.9907        -999.25         0.9487        -999.25       -53.3529      -3.270069       0.961513
      3015.5000         0.9974        -999.25         0.9334        -999.25       -53.1798      -3.095421      0.9668055
      3016.0000         0.9976        -999.25         0.9162        -999.25       -53.0889      -3.002975      0.9696068
      3016.5000         0.9871        -999.25         0.9037        -999.25       -52.8661      -2.778625      0.9764053
      3017.0000         0.9681        -999.25         0.8913        -999.25       -52.0673      -1.978279              1
      3017.5000          0.949        -999.25         0.8787        -999.25       -51.1981      -1.107533              1
      3018.0000         0.9296        -999.25         0.8659        -999.25       -50.2675     -0.1753883              1
      3018.5000          0.911        -999.25         0.8532        -999.25       -49.7728      0.3208618              1
      3019.0000         0.8956        -999.25         0.8418        -999.25       -49.8278      0.2674103              1
      3019.5000         0.8859        -999.25         0.8392        -999.25        -49.634      0.4627571              1
      3020.0000         0.8838        -999.25         0.8486        -999.25       -49.1329      0.9654045              1
      3020.5000         0.8917        -999.25         0.8599        -999.25        -49.501      0.5988541              1
      3021.0000         0.9136        -999.25          0.873        -999.25       -50.1679    -0.06650162              1
      3021.5000           0.94        -999.25         0.8996        -999.25       -50.7688     -0.6658516              1
      3022.0000         0.9718        -999.25         0.9322        -999.25       -51.4885      -1.384003              1
