#------------------------------------------------------------------------------
# Created by    : vladimir.rabinovich
# Created on    : 09/19/2023 17:20:05
#------------------------------------------------------------------------------
~Version Information Section
VERS.           2.0     :   CWLS log ASCII Standard - VERSION 2.0
WRAP.           NO      :   One line per depth step
~Well Information Section
#MNEM       .UNIT                                         VALUE :DESCRIPTION
#------------------------------------------------------------------------------
STRT        .FT                                             712 :START DEPTH
STOP        .FT                                            9469 :STOP DEPTH
STEP        .FT                                             0.5 :STEP      
NULL        .                                           -999.25 :NULL      
COMP        .                                 MESA PETROLEUM CO :COMPANY   
WELL        .                                ST TR 00279-L SW/4 :WELL      
FLD         .                                           WILDCAT :FIELD     
LOC         .                                                   :LOCATION  
CNTY        .                             GALVESTON LARGE BLOCK :LOCATION  
STAT        .                                             TEXAS :STATE     
CTRY        .                                     UNITED STATES :COUNTRY   
SRVC        .                                                   :SERVICE COMPANY
DATE        .                             9/13/2023 11:18:53 AM :LOG DATE  
API         .                                    42706300950000 :API NUMBER
UWI         .                                    42706300950000 :UNIQUE WELL ID
XCOORD      .                                  947289.050530544 :SURFACE X 
YCOORD      .                                  10490529.0152507 :SURFACE Y 
LAT         .                                         28.889695 :LATITUDE  
LON         .                                        -95.166438 :LONGITUDE 
ELEV        .FT                                              84 :ELEVATION VALUE
ELEV_TYPE   .                                                KB :ELEVATION REFERENCE TYPE
~Curve Information Section
#MNEM       .UNIT                                      API CODE :CURVE DESCRIPTION
#------------------------------------------------------------------------------
DEPT        .FT                                                 :DEPTH     
ASFL        .OHMM                                               :          
CILD        .MMHO                                               :          
GR          .GAPI                                               :          
GR_NORM     .GAPI                                               :GammaRay Normalized
ILD         .OHMM                                               :          
SP          .MV                                                 :          
SP_NORM     .MV                                                 :SP Normalized
VSH_GR      .V/V                                                :Volume of Shale from GR
VSH_SP      .V/V                                                :Volume of Shale from SP
~A        DEPTH           ASFL           CILD             GR        GR_NORM            ILD             SP        SP_NORM         VSH_GR         VSH_SP
# ...
      8847.5000         0.6637       1652.393        74.6775       77.66022         0.5856       -37.5254     -0.6543159      0.9502175      0.9912758
      8848.0000         0.6654       1633.598         75.139       78.24293         0.5851       -36.3831      0.4890366      0.9626155              1
      8848.5000         0.6672       1614.803        75.9067       79.21225         0.5845        -35.239        1.63419      0.9832394              1
      8849.0000         0.6693       1596.006        76.2042       79.58788          0.584       -35.1735       1.700741      0.9912314              1
      8849.5000         0.6722       1587.047        75.8932        79.1952         0.5834       -35.3508        1.52449      0.9828765              1
      8850.0000          0.675       1583.404        75.5822       78.80252         0.5829         -35.29       1.586342      0.9745217              1
      8850.5000         0.6779       1579.762        75.2711       78.40972         0.5823       -35.1787       1.698696      0.9661643              1
      8851.0000         0.6808       1576.119        75.0739       78.16073         0.5818       -35.0677       1.810749      0.9608666              1
      8851.5000         0.6854       1572.475        75.2067       78.32841         0.5918       -34.9564         1.9231      0.9644342              1
      8852.0000         0.6901       1567.801        75.3396       78.49622         0.6032        -34.845       2.035549      0.9680046              1
      8852.5000         0.6948       1549.795        75.4727       78.66427         0.6147       -34.6267       2.254902      0.9715802              1
      8853.0000         0.6994       1531.791        73.6222       76.32777         0.6261       -34.2745       2.608154      0.9218675              1
      8853.5000         0.7041       1513.785         69.974       71.72147         0.6376       -34.5615       2.322208       0.823861              1
      8854.0000         0.7158       1495.779        67.6858       68.83232         0.6491        -36.746      0.1387634      0.7623898              1
      8854.5000         0.7325       1476.936        66.1776       66.92803         0.6605       -38.9305      -2.044685       0.721873      0.9727376
      8855.0000         0.7492       1448.285        64.7064       65.07045         0.6674       -40.2079      -3.321037        0.68235      0.9557195
      8855.5000         0.7639       1419.635        63.3143       63.31275         0.6722       -41.3446      -4.456684      0.6449522      0.9405776
      8856.0000         0.7688       1444.828        61.9924       61.64368          0.677       -42.4832      -5.594231      0.6094401      0.9254103
      8856.5000         0.7734       1495.805         61.163       60.59647         0.6819       -77.3301      -40.44008      0.5871589      0.4607989
      8857.0000         0.7776       1716.709        60.3325       59.54785         0.6867       -79.8959      -43.00482      0.5648479      0.4266024
      8857.5000         0.7868       2142.707        60.5385       59.80795         0.6175       -82.4656      -45.57347       0.570382      0.3923537
      8858.0000         0.8169       2595.973         61.405       60.90202         0.5414       -85.0314      -48.13823      0.5936599       0.358157
      8858.5000          0.847       2876.547        62.3121       62.04735         0.4812       -91.7332      -54.83897      0.6180288      0.2688137
      8859.0000         0.8802       3101.203         63.218       63.19116          0.427       -97.0723      -60.17702      0.6423652      0.1976397
      8859.5000         0.9186       3104.563        64.1251       64.33649         0.3727      -101.9301      -65.03377      0.6667337      0.1328831
      8860.0000          0.957       2994.113         65.031       65.48029         0.3241      -105.6475      -68.75011      0.6910701     0.08333191
      8860.5000         1.0159       2883.859        66.3997       67.20847         0.3091      -100.7822      -63.88377      0.7278397      0.1482165
      8861.0000         0.9981       2686.469        67.9203       69.12841          0.294       -94.4249      -57.52541      0.7686896      0.2329946
      8861.5000         0.9615       2475.051        69.1378       70.66566         0.3083       -92.0293      -55.12875       0.801397      0.2649499
      8862.0000          0.925       2270.742        68.6595       70.06174         0.3323       -89.6375       -52.7359      0.7885476      0.2968546
      8862.5000         0.8879       2179.754        68.1807       69.45719         0.3563       -87.2456      -50.34295       0.775685      0.3287607
      8863.0000         0.8507       2097.559         69.031        70.5308         0.3802         -84.85       -47.9463      0.7985277       0.360716
      8863.5000         0.8753       2033.441        70.4208       72.28561         0.4042       -82.4581      -45.55335      0.8358639       0.392622
      8864.0000          0.891       2003.281         72.462       74.86288         0.4257       -79.1368        -42.231      0.8906995        0.43692
      8864.5000         0.8915       2000.342        74.5034       77.44041         0.4344       -75.1825      -38.27565      0.9455405      0.4896581
      8865.0000         0.7781       1982.859        76.0413       79.38219         0.4431       -73.5543      -36.64639       0.986855      0.5113815
      8865.5000         0.7497       1963.693        76.1362       79.50202         0.4518       -74.1486      -37.23964      0.9894047      0.5034716
      8866.0000         0.7502        1944.23        74.5824       77.54015         0.4605       -74.7428      -37.83279      0.9476628      0.4955629
      8866.5000         0.7668       1921.854        73.4642       76.12829         0.4692       -75.3372      -38.42613      0.9176232      0.4876516
      8867.0000         0.7911       1938.723        72.5262       74.94393         0.4779       -75.9314      -39.01928       0.892424      0.4797429
      8867.5000         0.8196       1960.037        71.2328       73.31086         0.4866       -76.5247      -39.61153      0.8576779      0.4718463
      8868.0000         0.8481       1981.328        69.6925       71.36604          0.485       -73.1239      -36.20968      0.8162988      0.5172043
      8868.5000         0.8766       2002.643        68.4491       69.79609         0.4831       -69.2584      -32.34313      0.7828955      0.5687583
      8869.0000         0.9024       2022.352        68.3397       69.65795         0.4813       -65.5002      -28.58387      0.7799564      0.6188817
      8869.5000         0.9193       2032.342        68.4269       69.76806         0.4795       -62.7752      -25.85782      0.7822991       0.655229
      8870.0000         0.9362       2042.332        68.7898       70.22626         0.4777       -60.0464      -23.12797      0.7920482      0.6916271
      8870.5000         0.9531       2009.779        69.1532        70.6851         0.4759        -57.325      -20.40552      0.8018106      0.7279264
      8871.0000           0.97       1963.791        69.5161       71.14331         0.4741       -55.0331      -18.11256      0.8115598      0.7584991
      8871.5000         0.9891       1917.754        69.8789       71.60139         0.4723       -52.7411      -15.81952      0.8213061      0.7890731
      8872.0000         0.9665       1871.766        70.2424       72.06035         0.4705       -52.6727      -15.75006      0.8310713      0.7899992
      8872.5000          0.944       1782.109        70.6052       72.51844         0.4911       -53.0883      -16.16461      0.8408179      0.7844719
      8873.0000         0.9215       1654.666        70.8093       72.77614         0.5259       -53.5034      -16.57866      0.8463008      0.7789513
      8873.5000         0.9058       1615.691        70.8102       72.77728         0.5607       -52.6042       -15.6784       0.846325      0.7909546
