#------------------------------------------------------------------------------
# Created by    : vladimir.rabinovich
# Created on    : 09/19/2023 17:22:17
#------------------------------------------------------------------------------
~Version Information Section
VERS.           2.0     :   CWLS log ASCII Standard - VERSION 2.0
WRAP.           NO      :   One line per depth step
~Well Information Section
#MNEM       .UNIT                                         VALUE :DESCRIPTION
#------------------------------------------------------------------------------
STRT        .FT                                             996 :START DEPTH
STOP        .FT                                            8436 :STOP DEPTH
STEP        .FT                                             0.5 :STEP      
NULL        .                                           -999.25 :NULL      
COMP        .                                    TDC ENERGY LLC :COMPANY   
WELL        .                               OCS G03738 ST00BP00 :WELL      
FLD         .                              GALVESTON BLOCK 0255 :FIELD     
LOC         .                                                   :LOCATION  
CNTY        .                             GALVESTON LARGE BLOCK :LOCATION  
STAT        .                                             TEXAS :STATE     
CTRY        .                                     UNITED STATES :COUNTRY   
SRVC        .                                                   :SERVICE COMPANY
DATE        .                             9/13/2023 11:18:53 AM :LOG DATE  
API         .                                    42706400460000 :API NUMBER
UWI         .                                    42706400460000 :UNIQUE WELL ID
XCOORD      .                                   1080542.6436948 :SURFACE X 
YCOORD      .                                  10548065.2081286 :SURFACE Y 
LAT         .                                        29.0539695 :LATITUDE  
LON         .                                       -94.7527854 :LONGITUDE 
ELEV        .FT                                              94 :ELEVATION VALUE
ELEV_TYPE   .                                                KB :ELEVATION REFERENCE TYPE
~Curve Information Section
#MNEM       .UNIT                                      API CODE :CURVE DESCRIPTION
#------------------------------------------------------------------------------
DEPT        .FT                                                 :DEPTH     
CALI        .IN                                                 :          
CILD        .MMHO                                               :          
DT          .US/F                                               :          
GR          .GAPI                                               :          
GR_NORM     .GAPI                                               :GammaRay Normalized
ILD         .OHMM                                               :          
ILM         .OHMM                                               :          
RHOB        .G/C3                                               :          
SFL         .OHMM                                               :          
SP          .MV                                                 :          
SP_NORM     .MV                                                 :SP Normalized
VSH_GR      .V/V                                                :Volume of Shale from GR
VSH_SP      .V/V                                                :Volume of Shale from SP
~A        DEPTH           CALI           CILD             DT             GR        GR_NORM            ILD            ILM           RHOB            SFL             SP        SP_NORM         VSH_GR         VSH_SP
# ...
      8425.0000        15.6104       1273.734       106.4688        73.2637       72.92569         0.7529         0.7725         1.9589         0.8047       -42.4082     -0.6002884      0.8494828      0.9879943
      8425.5000         15.438        1270.07       106.2214        72.5479       71.93417         0.7549           0.77         1.9616         0.8048       -42.2832     -0.4752884      0.8283865      0.9904943
      8426.0000        15.6309       1266.102       106.0955        72.2214        71.4819          0.757         0.7677         1.9599         0.8049       -42.1255     -0.3175888      0.8187637      0.9936482
      8426.5000        15.8066       1262.375       106.1477        73.2832       72.95271         0.7591         0.7655         1.9542         0.8044       -42.0206     -0.2126884      0.8500575      0.9957463
      8427.0000        15.9705        1259.77       106.3101        75.0547       75.40657         0.7614         0.7657         1.9457         0.8024       -41.9507     -0.1427879      0.9022675      0.9971442
      8427.5000        16.1689       1257.164       106.5237        76.5156       77.43021         0.7636         0.7661          1.938         0.8005       -41.8806    -0.07268906      0.9453235      0.9985462
      8428.0000        16.8135       1254.572       106.6414        77.3447       78.57867         0.7651         0.7657         1.9381         0.7985       -41.8107   -0.002788544      0.9697589      0.9999442
      8428.5000        17.2017       1252.977       106.7461        77.9775       79.45522         0.7666         0.7653         1.9351         0.7967       -41.7411     0.06681061       0.988409              1
      8429.0000        17.3621       1251.379       106.8888        78.4331       80.08632         0.7668         0.7648         1.9325         0.7948       -41.6816      0.1263123              1              1
      8429.5000        17.0869       1249.781       107.0121        78.6062        80.3261         0.7662         0.7664         1.9314         0.7944       -41.6434      0.1645126              1              1
      8430.0000        16.6661       1249.568       107.3716        78.8352        80.6433         0.7655         0.7683         1.9361         0.7944       -41.6589      0.1490097              1              1
      8430.5000        16.6074       1249.686       107.3356         79.167       81.10291         0.7638         0.7703         1.9246         0.7944        -41.751     0.05691147              1              1
      8431.0000        15.9229       1250.828       107.2209        79.4619       81.51141         0.7621         0.7704         1.9122         0.7958        -41.918     -0.1100883              1      0.9977982
      8431.5000        16.2471       1252.523       107.1213        79.4116       81.44173          0.762         0.7624         1.9003         0.7975        -42.135     -0.3270874              1      0.9934583
      8432.0000        11.6211       1254.365       107.0253        79.1021       81.01301          0.764         0.7552         1.8893         0.7993       -42.4878     -0.6798897              1      0.9864022
      8432.5000        10.6826       1256.307       106.9102        78.7925       80.58416         0.7661         0.7598         1.8793         0.8008       -42.8061      -0.998188              1      0.9800363
      8433.0000        10.1455       1257.822       106.8282        78.2852       79.88145         0.7701         0.7644         1.8727         0.8021       -42.8652      -1.057289      0.9974776      0.9788542
      8433.5000        10.0211        1256.57        106.781         77.791       79.19688         0.7746          0.769         1.8712         0.8034       -42.7708     -0.9628906      0.9829124      0.9807422
      8434.0000        10.0393        1255.32       106.7574        77.3857       78.63545         0.7803         0.7736         1.8711         0.8047       -42.5396     -0.7316895      0.9709671      0.9853662
      8434.5000        10.0576           1256       106.8114        76.9648       78.05242         0.7877          0.787         1.8708         0.8056        -42.511     -0.7030907      0.9585621      0.9859382
      8435.0000        10.0692       1257.652       106.8997         76.293       77.12186         0.7947         0.8102         1.8692         0.8065       -42.6514     -0.8434906      0.9387629      0.9831302
      8435.5000        10.0779       1259.002       107.0293        75.5732       76.12479         0.7994         0.8172         1.8668         0.8074       -42.8755      -1.067589      0.9175487      0.9786482
      8436.0000        10.0833       1260.127       107.0813         75.177       75.57598         0.8004         0.8202          1.864          0.808       -43.1348      -1.326889      0.9058719      0.9734622
