#------------------------------------------------------------------------------
# Created by    : vladimir.rabinovich
# Created on    : 09/19/2023 17:20:57
#------------------------------------------------------------------------------
~Version Information Section
VERS.           2.0     :   CWLS log ASCII Standard - VERSION 2.0
WRAP.           NO      :   One line per depth step
~Well Information Section
#MNEM       .UNIT                                         VALUE :DESCRIPTION
#------------------------------------------------------------------------------
STRT        .FT                                             727 :START DEPTH
STOP        .FT                                            8206 :STOP DEPTH
STEP        .FT                                             0.5 :STEP      
NULL        .                                           -999.25 :NULL      
COMP        .                              PHOENIX RESOURCES CO :COMPANY   
WELL        .                                          BLK 335L :WELL      
FLD         .                                 BRAZOS BLOCK 0309 :FIELD     
LOC         .                                                   :LOCATION  
CNTY        .                                BRAZOS LARGE BLOCK :LOCATION  
STAT        .                                             TEXAS :STATE     
CTRY        .                                     UNITED STATES :COUNTRY   
SRVC        .                                                   :SERVICE COMPANY
DATE        .                             9/13/2023 11:18:52 AM :LOG DATE  
API         .                                    42704300210000 :API NUMBER
UWI         .                                    42704300210000 :UNIQUE WELL ID
XCOORD      .                                  898426.347293712 :SURFACE X 
YCOORD      .                                  10460523.5569112 :SURFACE Y 
LAT         .                                        28.8046676 :LATITUDE  
LON         .                                       -95.3172337 :LONGITUDE 
ELEV        .FT                                              70 :ELEVATION VALUE
ELEV_TYPE   .                                                DF :ELEVATION REFERENCE TYPE
~Curve Information Section
#MNEM       .UNIT                                      API CODE :CURVE DESCRIPTION
#------------------------------------------------------------------------------
DEPT        .FT                                                 :DEPTH     
ASN         .OHMM                                               :          
CALI        .IN                                                 :          
DT          .US/F                                               :          
ILD         .OHMM                                               :          
SP          .MV                                                 :          
SP_NORM     .MV                                                 :SP Normalized
VSH_SP      .V/V                                                :Volume of Shale from SP
~A        DEPTH            ASN           CALI             DT            ILD             SP        SP_NORM         VSH_SP
# ...
      2703.5000          1.094        -999.25       140.5681         0.8746       -46.4467       1.927586              1
      2704.0000         1.0661        -999.25       144.8289         0.8573       -45.9722       2.423454              1
      2704.5000         1.0366        -999.25       147.7068           0.84       -45.4241       2.992916              1
      2705.0000         1.0156        -999.25       150.0217         0.8244       -44.7791       3.659283              1
      2705.5000         1.0041        -999.25       151.3633         0.8143       -44.0201       4.439648              1
      2706.0000         0.9955        -999.25       148.5576         0.8042       -43.3036       5.177513              1
      2706.5000         0.9928        -999.25       125.6847         0.7942       -42.7746       5.727879              1
      2707.0000         0.9957        -999.25       100.9327         0.7841       -42.3373       2.354631              1
      2707.5000         1.0037        -999.25        -999.25           0.79        -42.155         2.2011              1
      2708.0000         1.0117        -999.25        105.575         0.7995       -42.2847     -0.9294209              1
      2708.5000         1.0197        -999.25        148.634         0.8091       -41.9989       2.091717              1
      2709.0000         1.0241        -999.25       161.4692         0.8219       -41.4125       2.942303              1
      2709.5000          1.026        -999.25       150.6958         0.8348       -41.5827      0.7873881              1
      2710.0000         1.0276        -999.25       150.8586         0.8478        -42.174     -0.5779788              1
      2710.5000          1.028        -999.25        -999.25         0.8607        -999.25      0.8293471              1
      2711.0000         1.0284        -999.25        -999.25         0.8736        -999.25      0.5613817              1
      2711.5000         1.0287        -999.25        -999.25         0.8865        -999.25       2.401958              1
      2712.0000         1.0331        -999.25        -999.25         0.8982        -999.25      0.3590793              1
      2712.5000         1.0455        -999.25        -999.25         0.8939        -999.25      0.3532974              1
      2713.0000          1.058        -999.25        -999.25         0.8895        -999.25       1.531283              1
      2713.5000         1.0704        -999.25        -999.25         0.8851        -999.25       2.362673              1
      2714.0000         1.0833        -999.25        -999.25         0.8807        -999.25     -0.1067135              1
      2714.5000          1.097        -999.25        -999.25         0.8763        -999.25       1.141909              1
      2715.0000         1.1084        -999.25        -999.25          0.872        -999.25       3.503061              1
      2715.5000         1.1077        -999.25        -999.25         0.8696        -999.25       1.840183              1
      2716.0000         1.1015        -999.25        -999.25         0.8698        -999.25      0.9953036              1
      2716.5000         1.0953        -999.25        -999.25         0.8701        -999.25     0.04007299              1
      2717.0000         1.0892        -999.25        -999.25         0.8704        -999.25     -0.7511292              1
      2717.5000          1.083        -999.25        -999.25         0.8706        -999.25      0.5962459              1
      2718.0000         1.0774        -999.25        -999.25         0.8709        -999.25       3.217406              1
      2718.5000         1.0724        -999.25        -999.25         0.8711        -999.25       2.311422              1
      2719.0000         1.0673        -999.25        -999.25         0.8714        -999.25     -0.5565121              1
      2719.5000         1.0623        -999.25        -999.25         0.8719        -999.25      -1.152194              1
      2720.0000         1.0573        -999.25        -999.25         0.8736        -999.25      0.2565713              1
      2720.5000         1.0523        -999.25        -999.25         0.8754        -999.25      -1.122665              1
      2721.0000         1.0473        -999.25        -999.25         0.8771        -999.25       3.148133              1
      2721.5000         1.0423        -999.25        -999.25         0.8789        -999.25       3.121877              1
      2722.0000         1.0373        -999.25        -999.25         0.8806        -999.25     -0.1780211              1
      2722.5000         1.0361        -999.25        -999.25         0.8823        -999.25       3.049084              1
      2723.0000         1.0362        -999.25        -999.25         0.8841        -999.25        1.73675              1
      2723.5000         1.0363        -999.25        -999.25         0.8854        -999.25       0.445248              1
      2724.0000         1.0364        -999.25        -999.25         0.8827        -999.25       3.411912              1
      2724.5000         1.0366        -999.25        -999.25         0.8801        -999.25       1.923747              1
      2725.0000         1.0461        -999.25        -999.25         0.8774        -999.25       1.238769              1
      2725.5000         1.0567        -999.25        -999.25         0.8747        -999.25       1.995132              1
      2726.0000         1.0672        -999.25        -999.25         0.8721        -999.25      0.6749021              1
      2726.5000         1.0778        -999.25        -999.25         0.8694        -999.25      -0.512129              1
      2727.0000         1.0884        -999.25        -999.25         0.8712        -999.25     -0.9059134              1
      2727.5000         1.1017        -999.25        -999.25         0.8755        -999.25      0.7707291              1
      2728.0000         1.1163        -999.25        -999.25         0.8797        -999.25       2.695728              1
      2728.5000         1.1222        -999.25        -999.25          0.884        -999.25      -1.137653              1
      2729.0000         1.1135        -999.25        -999.25         0.8882        -999.25       2.331671              1
      2729.5000         1.0992        -999.25        -999.25         0.8925        -999.25        2.79234              1
      2730.0000         1.0849        -999.25        -999.25         0.8967        -999.25      0.8462515              1
      2730.5000          1.092        -999.25        -999.25         0.9054        -999.25       3.383701              1
      2731.0000         1.1093        -999.25        -999.25         0.9173        -999.25     -0.1933944              1
      2731.5000         1.1257        -999.25        -999.25         0.9292        -999.25     -0.7208905              1
      2732.0000         1.1362        -999.25        -999.25         0.9307        -999.25       2.790971              1
      2732.5000         1.1426        -999.25        -999.25         0.9107        -999.25       3.643451              1
      2733.0000         1.1368        -999.25        -999.25         0.8907        -999.25       1.572578              1
      2733.5000         1.1311        -999.25        -999.25          0.869        -999.25       1.578794              1
      2734.0000         1.1254        -999.25        -999.25         0.8459        -999.25        2.74609              1
      2734.5000         1.1203        -999.25        -999.25         0.8228        -999.25      0.5083852              1
      2735.0000         1.1223        -999.25        -999.25         0.8307        -999.25       2.733695              1
      2735.5000         1.1243        -999.25        -999.25         0.8402        -999.25      0.5091573              1
      2736.0000         1.1263        -999.25        -999.25         0.8483        -999.25       1.398229              1
      2736.5000         1.1283        -999.25        -999.25         0.8562        -999.25       2.844496              1
