#------------------------------------------------------------------------------
# Created by    : vladimir.rabinovich
# Created on    : 09/19/2023 17:19:46
#------------------------------------------------------------------------------
~Version Information Section
VERS.           2.0     :   CWLS log ASCII Standard - VERSION 2.0
WRAP.           NO      :   One line per depth step
~Well Information Section
#MNEM       .UNIT                                         VALUE :DESCRIPTION
#------------------------------------------------------------------------------
STRT        .FT                                            3460 :START DEPTH
STOP        .FT                                           13634 :STOP DEPTH
STEP        .FT                                             0.5 :STEP      
NULL        .                                           -999.25 :NULL      
COMP        .                                SHELL OFFSHORE INC :COMPANY   
WELL        .                               OCS G06107 ST00BP00 :WELL      
FLD         .                                           WILDCAT :FIELD     
LOC         .                                                   :LOCATION  
CNTY        .                             GALVESTON LARGE BLOCK :LOCATION  
STAT        .                                             TEXAS :STATE     
CTRY        .                                     UNITED STATES :COUNTRY   
SRVC        .                                                   :SERVICE COMPANY
DATE        .                             9/13/2023 11:19:27 AM :LOG DATE  
API         .                                    42706401270000 :API NUMBER
UWI         .                                    42706401270000 :UNIQUE WELL ID
XCOORD      .                                  941908.785460496 :SURFACE X 
YCOORD      .                                  10441108.8632451 :SURFACE Y 
LAT         .                                         28.753553 :LATITUDE  
LON         .                                        -95.180411 :LONGITUDE 
ELEV        .FT                                              90 :ELEVATION VALUE
ELEV_TYPE   .                                                KB :ELEVATION REFERENCE TYPE
~Curve Information Section
#MNEM       .UNIT                                      API CODE :CURVE DESCRIPTION
#------------------------------------------------------------------------------
DEPT        .FT                                                 :DEPTH     
ASFL        .OHMM                                               :          
CALI        .IN                                                 :          
CILD        .MMHO                                               :          
DT          .US/F                                               :          
GR          .GAPI                                               :          
GR_1        .GAPI                                               :          
GR_NORM     .GAPI                                               :GammaRay Normalized
ILD         .OHMM                                               :          
ILM         .OHMM                                               :          
RHOB        .G/C3                                               :          
SP          .MV                                                 :          
VSH_GR      .V/V                                                :Volume of Shale from GR
~A        DEPTH           ASFL           CALI           CILD             DT             GR           GR_1        GR_NORM            ILD            ILM           RHOB             SP         VSH_GR
# ...
      4895.0000         0.7469        22.1884       3103.336       106.6234        -999.25        21.9176        40.8637          0.315         0.3898         2.1804      -105.0018      0.1673128
      4895.5000          0.722        22.1496       2895.941       108.3599        -999.25        22.9458       43.64644         0.3388         0.4087         2.1864      -104.6294        0.22652
      4896.0000         0.6922        22.1041       2765.879       110.8932        -999.25        23.8493       46.09154         0.3534         0.4214          2.141      -103.3885      0.2785434
      4896.5000         0.7076        22.0463       2733.676       113.7943        -999.25        24.7299       48.47463         0.3576         0.4324           2.11      -102.1448      0.3292475
      4897.0000         0.7367        20.7788       2789.688       116.4716        -999.25        25.2026       49.75341          0.355         0.4371         2.1005      -101.3811      0.3564554
      4897.5000         0.7606        20.2306       2909.715       119.5558        -999.25        25.3046       50.02852         0.3395         0.4308         2.1252       -99.9255       0.362309
      4898.0000         0.7349        18.6139       3148.984       117.4824        -999.25        25.1093       49.49876         0.3156         0.4132         2.1543       -99.8821      0.3510375
      4898.5000         0.7108        18.1625       3444.723       114.4473        -999.25        24.7827       48.61352         0.2921         0.3908         2.1674      -100.4628      0.3322025
      4899.0000         0.6905        17.9706       3715.473       111.8032        -999.25        24.3959       47.56528         0.2708         0.3684         2.1565      -100.7366      0.3098995
      4899.5000         0.6874         17.971        4054.25       111.5352        -999.25        23.9716        46.4155         0.2506         0.3493         2.1402      -102.0175      0.2854361
      4900.0000         0.6905        18.1196       4361.789       115.9427        -999.25        23.4304       44.94926         0.2382         0.3339         2.1339      -102.7036      0.2542395
      4900.5000         0.6834        18.3548       4544.484       117.7987        -999.25        22.6956       42.95885         0.2277         0.3194         2.1307      -102.5308      0.2118905
      4901.0000         0.6582        18.7166       4700.422       116.6818        -999.25        21.6247       40.05851         0.2195         0.3089         2.1313      -102.0417       0.150181
      4901.5000         0.6631        19.0267       4724.328       114.4669        -999.25        19.6229       34.63782         0.2175         0.3015          2.139      -101.7089     0.03484726
      4902.0000         0.6553        19.0992       4575.773       113.8087        -999.25        19.2798       33.70791         0.2187         0.3005         2.1374      -100.9728     0.01506197
      4902.5000         0.6572        19.0966       4431.445       115.5897        -999.25        21.1382       38.73829         0.2254         0.3022         2.1346       -99.3124      0.1220913
      4903.0000         0.6575        19.1637       4222.086       117.4456        -999.25        23.9066       46.23241          0.237         0.3075         2.1421       -97.7428      0.2815407
      4903.5000         0.6211        19.3786       4102.648       118.7737        -999.25        27.0824       54.82949         0.2457         0.3157          2.168       -95.0544      0.4644573
      4904.0000          0.587        19.5092       3964.125       120.3405        -999.25        27.4517        55.8283         0.2546         0.3249         2.1919       -92.3845      0.4857085
      4904.5000         0.5625        19.1241       3840.875       122.2085        -999.25        26.2331       52.52809         0.2608         0.3323         2.1881       -93.2417      0.4154912
      4905.0000         0.5459        18.9664       3741.203       122.1464        -999.25        24.3217       47.35216         0.2628         0.3382         2.1277       -95.6561      0.3053651
      4905.5000         0.5791        18.7503       3755.715       120.6097        -999.25        21.0708        38.5497         0.2623         0.3419         2.0802       -98.3638      0.1180788
      4906.0000         0.6184        18.2958       3791.574       119.5582        -999.25         19.982       35.60089         0.2614         0.3393         2.0406       -99.5524     0.05533819
      4906.5000          0.638        18.5634       3819.957       118.9962        -999.25        19.2285       33.55985         0.2594         0.3353         2.0196      -100.8512     0.01191168
      4907.0000         0.6407        19.3095       3857.246       120.4856        -999.25        18.9538       32.81512         0.2574         0.3328         2.0037      -101.4762              0
      4907.5000         0.6466        20.1974       3871.797       123.2574        -999.25        20.0062       35.66336         0.2596         0.3315         2.0099      -100.2635     0.05666725
      4908.0000         0.6384        20.8365       3782.867       126.6641        -999.25        22.0449       41.18188         0.2653         0.3325         2.0328       -98.2537      0.1740827
      4908.5000         0.6048        21.8733       3649.461       128.9883        -999.25        23.9435       46.32111         0.2748         0.3363         2.0528       -96.3936      0.2834278
      4909.0000         0.5668        22.1916       3511.035       130.6978        -999.25        26.0268       51.96039         0.2849         0.3448         2.0945       -94.1903      0.4034125
      4909.5000         0.5597        22.2041       3327.648       130.5723        -999.25        26.8169       54.09847          0.295         0.3557         2.1251       -94.1147      0.4489037
      4910.0000         0.5991        20.8217       3203.684       126.3615        -999.25        26.0555       52.03604         0.3038         0.3704         2.1442       -94.9955      0.4050221
      4910.5000         0.6598        19.2529       3176.816       119.7305        -999.25        25.0132       49.21312         0.3066          0.382         2.1336        -96.364      0.3449599
      4911.0000          0.703        18.0595       3245.598       111.9915        -999.25        24.1425       46.85479          0.304         0.3878         2.1214       -98.1396      0.2947827
      4911.5000         0.6954        17.4605       3388.742       111.8008        -999.25        24.1968       47.00076         0.2938         0.3808         2.1132       -99.8667      0.2978886
      4912.0000         0.6769        17.3972       3592.891       113.5101        -999.25        24.8349       48.72733         0.2814         0.3672         2.1213      -101.6167      0.3346241
      4912.5000           0.65        17.7036       3807.563       115.2786        -999.25        24.7381       48.46424         0.2667         0.3497         2.1309      -102.9846      0.3290264
      4913.0000         0.6383        18.4038           4016       114.6281        -999.25        23.9283       46.27079         0.2525         0.3322         2.1377      -104.1335      0.2823572
      4913.5000         0.6314        19.6362           4309       114.0958        -999.25        22.7504       43.08074         0.2397         0.3166         2.1272      -105.0835      0.2144838
      4914.0000          0.624         19.805       4563.867       113.6876        -999.25        21.3573       39.30806         0.2246         0.3024         2.1161      -105.4906       0.134214
      4914.5000          0.618        19.6007        4850.75       113.8419        -999.25        21.1722       38.80591         0.2095         0.2895         2.1088      -106.3583        0.12353
      4915.0000         0.6085        19.4127       4990.953       114.1567        -999.25         21.173       38.80705         0.2042         0.2812         2.1109      -106.1256      0.1235543
