#------------------------------------------------------------------------------
# Created by    : vladimir.rabinovich
# Created on    : 09/19/2023 17:22:41
#------------------------------------------------------------------------------
~Version Information Section
VERS.           2.0     :   CWLS log ASCII Standard - VERSION 2.0
WRAP.           NO      :   One line per depth step
~Well Information Section
#MNEM       .UNIT                                         VALUE :DESCRIPTION
#------------------------------------------------------------------------------
STRT        .FT                                            4470 :START DEPTH
STOP        .FT                                            9513 :STOP DEPTH
STEP        .FT                                             0.5 :STEP      
NULL        .                                           -999.25 :NULL      
COMP        .                 FAIRWAYS SPEC SALES & SERVICE INC :COMPANY   
WELL        .                               OCS G11315 ST00BP00 :WELL      
FLD         .                              GALVESTON BLOCK 0319 :FIELD     
LOC         .                                                   :LOCATION  
CNTY        .                             GALVESTON LARGE BLOCK :LOCATION  
STAT        .                                             TEXAS :STATE     
CTRY        .                                     UNITED STATES :COUNTRY   
SRVC        .                                                   :SERVICE COMPANY
DATE        .                             9/13/2023 11:19:34 AM :LOG DATE  
API         .                                    42706402650000 :API NUMBER
UWI         .                                    42706402650000 :UNIQUE WELL ID
XCOORD      .                                  1065572.18570413 :SURFACE X 
YCOORD      .                                  10465680.9820926 :SURFACE Y 
LAT         .                                         28.826802 :LATITUDE  
LON         .                                        -94.795723 :LONGITUDE 
ELEV        .FT                                              86 :ELEVATION VALUE
ELEV_TYPE   .                                                KB :ELEVATION REFERENCE TYPE
~Curve Information Section
#MNEM       .UNIT                                      API CODE :CURVE DESCRIPTION
#------------------------------------------------------------------------------
DEPT        .FT                                                 :DEPTH     
DCAL        .IN                                                 :          
DPHI        .%                                                  :          
DRHO        .G/C3                                               :          
GR          .GAPI                                               :          
GR_NORM     .GAPI                                               :GammaRay Normalized
ILD         .OHMM                                               :          
ILM         .OHMM                                               :          
NPHI        .%                                                  :          
SFL         .OHMM                                               :          
SP          .MV                                                 :          
SP_NORM     .MV                                                 :SP Normalized
VSH_GR      .V/V                                                :Volume of Shale from GR
VSH_SP      .V/V                                                :Volume of Shale from SP
~A        DEPTH           DCAL           DPHI           DRHO             GR        GR_NORM            ILD            ILM           NPHI            SFL             SP        SP_NORM         VSH_GR         VSH_SP
# ...
      8498.0000         2.4148        11.0361         0.0039        86.6121       78.95103          1.235         1.2341         30.329         1.1896       -35.9211      -0.499836      0.9776814      0.9923102
      8498.5000         2.0835        10.3676         0.0059        86.1453       78.45277          1.247         1.2448        31.1944         1.2046       -35.8818     -0.4589958      0.9670801      0.9929385
      8499.0000         1.8999         9.7946         0.0079        85.9969       78.29413         1.2592         1.2603        31.7108         1.2258       -35.8506     -0.4262543      0.9637049      0.9934422
      8499.5000         1.9062         9.3592         0.0102        87.0958       79.46595         1.2712         1.2775        31.5227         1.2474       -35.8193     -0.3934097      0.9886372      0.9939476
      8500.0000         1.8675          9.256         0.0125         88.972       81.46689         1.2786         1.2906        30.9107         1.2698       -35.7881     -0.3606682              1      0.9944513
      8500.5000         1.7884         9.5667          0.013        90.0514        82.6179          1.286         1.2973        29.8621         1.2926        -35.774     -0.3450241              1      0.9946919
      8501.0000         1.6734         9.9544         0.0129         89.278       81.79259         1.2903         1.2982        28.7577         1.2925       -35.7668     -0.3362846              1      0.9948264
      8501.5000         1.5414        10.2544         0.0096        87.8495       80.26852         1.2837         1.2862        27.7154         1.2678       -35.7596     -0.3275452              1      0.9949608
      8502.0000         1.4102        10.1102         0.0063        86.3645       78.68418         1.2771         1.2743        27.5975         1.2218       -35.7524     -0.3187981      0.9720039      0.9950954
      8502.5000         1.3768         9.9789         0.0044        88.2145       80.65717          1.265         1.2515        28.8374         1.1734       -35.6036      -0.168457              1      0.9974083
      8503.0000         1.3621        10.3038         0.0027        89.6929        82.2338         1.2532         1.2431          30.09         1.1635       -35.4438   -0.007118225              1      0.9998905
      8503.5000         1.3731         10.419         0.0019        89.8038       82.35173         1.2496         1.2374        31.2789         1.1543       -35.2841      0.1541252              1              1
      8504.0000         1.3945         10.259         0.0015        88.2644       80.70936         1.2449         1.2316        31.9721          1.164       -35.0686      0.3711662              1              1
      8504.5000         1.4294         10.411         0.0012        87.3939       79.78049         1.2401         1.2259        31.9275         1.1758       -34.8503       0.591011      0.9953295              1
      8505.0000         1.4526        10.8433         0.0026        87.8337       80.24927         1.2353         1.2213        31.3235         1.1848       -34.6321      0.8107529              1              1
      8505.5000         1.4547         11.362          0.004        89.2675       81.77831         1.2325         1.2202        30.6342         1.1908        -34.504      0.9403915              1              1
      8506.0000         1.4321        11.7513         0.0049         91.531       84.19237         1.2312         1.2191        30.0733         1.1968       -34.4293       1.016636              1              1
      8506.5000         1.2768        12.0254         0.0037        92.6307       85.36504           1.23         1.2179        29.5556         1.1886       -34.3546       1.092876              1              1
      8507.0000         1.1675        11.9341         0.0025        92.0588       84.75466         1.2278         1.2175         29.523         1.1803       -34.2798        1.16922              1              1
      8507.5000         1.0837        12.0234         0.0009        90.6514        83.2531         1.2244         1.2182        30.2892         1.1719       -34.4025       1.048061              1              1
      8508.0000         1.0569        12.4449        -0.0018         91.363       84.01179         1.2209          1.219        31.4287          1.159       -34.5511       0.901001              1              1
      8508.5000         1.0354        12.9864        -0.0049        93.1407       85.90766         1.2174         1.2197        32.4416         1.1462       -34.7238      0.7298431              1              1
      8509.0000         1.0692        13.0769         -0.005        93.9706       86.79255         1.2138         1.2201        32.3554         1.1336       -35.0197      0.4354858              1              1
      8509.5000         1.1083        13.1674        -0.0041        94.0835       86.91263         1.2101         1.2203         31.765         1.1158       -35.3156      0.1411285              1              1
      8510.0000         1.1719        13.1238        -0.0037        93.1683       85.93607         1.2086         1.2205         31.547         1.0964       -35.6115     -0.1532288              1      0.9976426
      8510.5000         1.2355        13.0053        -0.0033        92.1232       84.82095         1.2176         1.2207        31.7323         1.0932       -35.9211     -0.4612885              1      0.9929032
      8511.0000         1.2423        12.7023        -0.0029        90.8405        83.4524         1.2266         1.2371        31.1912          1.119       -36.2387     -0.7773476              1      0.9880408
      8511.5000         1.2478        12.0035        -0.0016        89.0732       81.56693          1.244         1.2538        29.9275          1.222       -36.5563      -1.093407              1      0.9831784
      8512.0000         1.2419        10.6122         0.0005         86.912       79.26131         1.2623         1.2662        28.1999         1.3392       -36.8611       -1.39666      0.9842831      0.9785129
      8512.5000         1.2299         9.3054         0.0029         86.505       78.82683         1.2678         1.2761        26.8405          1.414       -37.1009      -1.634918      0.9750389      0.9748474
      8513.0000         1.2248         9.0803         0.0058        88.6478       81.11214         1.2682         1.2673        27.2612         1.4231       -37.3409      -1.873379              1      0.9711788
      8513.5000          1.257         9.5444         0.0087         90.243       82.81335         1.2682         1.2586        28.4469         1.3788       -37.1324      -1.663338              1      0.9744102
      8514.0000         1.2957        10.3604         0.0107        90.0409       82.59744         1.2604         1.2479        29.4143         1.3104        -36.736      -1.265392              1      0.9805324
      8514.5000          1.366        11.1293         0.0124        89.2321       81.73438         1.2527         1.2363        29.7822         1.2509       -36.2579     -0.7857513              1      0.9879115
      8515.0000         1.3928        11.8903         0.0112        88.5817       81.04027         1.2429         1.2261        29.8739         1.1961       -35.7075     -0.2338104              1      0.9964029
      8515.5000         1.3949         12.106           0.01        88.5223       80.97656         1.2294         1.2189        29.9874          1.161        -35.185      0.2902298              1              1
      8516.0000         1.3729        12.4114         0.0087        88.4631       80.91306          1.216         1.2118         30.101         1.1351       -35.1533      0.3234711              1              1
      8516.5000         1.3243        12.8704         0.0075        89.4041       81.91647         1.2073         1.2052        30.1019         1.1311       -35.1216      0.3567162              1              1
