#------------------------------------------------------------------------------
# Created by    : vladimir.rabinovich
# Created on    : 09/19/2023 17:19:38
#------------------------------------------------------------------------------
~Version Information Section
VERS.           2.0     :   CWLS log ASCII Standard - VERSION 2.0
WRAP.           NO      :   One line per depth step
~Well Information Section
#MNEM       .UNIT                                         VALUE :DESCRIPTION
#------------------------------------------------------------------------------
STRT        .FT                                            9400 :START DEPTH
STOP        .FT                                           17100 :STOP DEPTH
STEP        .FT                                             0.5 :STEP      
NULL        .                                           -999.25 :NULL      
COMP        .                                   FOREST OIL CORP :COMPANY   
WELL        .                               OCS G18937 ST00BP00 :WELL      
FLD         .                            HIGH ISLAND BLOCK 0116 :FIELD     
LOC         .                                                   :LOCATION  
CNTY        .                           HIGH ISLAND LARGE BLOCK :LOCATION  
STAT        .                                             TEXAS :STATE     
CTRY        .                                     UNITED STATES :COUNTRY   
SRVC        .                                                   :SERVICE COMPANY
DATE        .                             9/13/2023 11:19:48 AM :LOG DATE  
API         .                                    42708405250000 :API NUMBER
UWI         .                                    42708405250000 :UNIQUE WELL ID
XCOORD      .                                  1337259.97993026 :SURFACE X 
YCOORD      .                                  10628189.4209318 :SURFACE Y 
LAT         .                                         29.282461 :LATITUDE  
LON         .                                        -93.951246 :LONGITUDE 
ELEV        .FT                                              93 :ELEVATION VALUE
ELEV_TYPE   .                                                KB :ELEVATION REFERENCE TYPE
~Curve Information Section
#MNEM       .UNIT                                      API CODE :CURVE DESCRIPTION
#------------------------------------------------------------------------------
DEPT        .FT                                                 :DEPTH     
AHT10       .OHMM                                               :          
AHT20       .OHMM                                               :          
AHT30       .OHMM                                               :          
AHT60       .OHMM                                               :          
AHT90       .OHMM                                               :          
CALI        .IN                                                 :          
COND        .MMHO                                               :          
DTCO        .US/F                                               :          
GR          .GAPI                                               :          
GR_NORM     .GAPI                                               :GammaRay Normalized
HDRA        .G/CC                                               :          
NPOR        .FRAC                                               :          
RHOZ        .G/CC                                               :          
VSH_GR      .V/V                                                :Volume of Shale from GR
~A        DEPTH          AHT10          AHT20          AHT30          AHT60          AHT90           CALI           COND           DTCO             GR        GR_NORM           HDRA           NPOR           RHOZ         VSH_GR
# ...
     12478.0000          0.906          0.522          0.436          0.311           0.29          8.301       3448.276         93.355         41.621       43.17575          -0.03          0.324          2.202      0.2165053
     12478.5000          0.803          0.483          0.414          0.304          0.284          8.199       3521.127         94.019         39.365       40.80798         -0.034          0.325          2.206      0.1661271
     12479.0000          0.791          0.478          0.416          0.312          0.292          8.093       3424.657         95.052         41.668       43.22714         -0.028          0.288          2.211      0.2175988
     12479.5000          0.811          0.489          0.427           0.33          0.308          7.928       3246.753         96.329         40.509       42.01121         -0.022          0.278           2.21      0.1917278
     12480.0000          0.808          0.493          0.433          0.349          0.325          7.928       3076.923         99.939         46.276       48.06758         -0.016          0.309          2.212      0.3205869
     12480.5000          0.758          0.486          0.435          0.368          0.343           7.94       2915.452        103.134         54.044       56.22501         -0.015          0.318          2.222      0.4941491
     12481.0000          0.705          0.489          0.447          0.395          0.367           7.94       2724.796        105.561         67.788       70.65723         -0.009          0.288          2.259      0.8012177
     12481.5000          0.706          0.516          0.481          0.424          0.394          7.987       2538.071        106.208         73.908       77.08424         -0.004          0.317          2.315      0.9379625
     12482.0000          0.748          0.559          0.524          0.456          0.423          8.011       2364.066        104.722         74.395        77.5966         -0.002          0.326          2.353      0.9488637
     12482.5000          0.823          0.619          0.569          0.496          0.459          8.034       2178.649          102.9         67.929       70.80833         -0.004          0.341          2.369      0.8044326
     12483.0000          0.917          0.686          0.623          0.528          0.487          8.011       2053.388          97.52         57.865       60.24216         -0.006          0.341          2.354      0.5796204
     12483.5000          0.976           0.74          0.675          0.551          0.509          7.916       1964.636         97.049         48.327       50.22827         -0.009          0.315          2.313      0.3665589
     12484.0000          1.026           0.77          0.705          0.576          0.532          7.854       1879.699         96.483          40.55       42.06344         -0.011          0.307          2.256      0.1928391
     12484.5000          1.031          0.778          0.718          0.596          0.552          7.869       1811.594         97.547         42.396       44.00275         -0.011            0.3          2.224      0.2341011
     12485.0000          0.956          0.745          0.691          0.592          0.551          7.846       1814.882         99.219         51.066       53.10728         -0.011          0.295          2.238      0.4278145
     12485.5000           0.83          0.674          0.632          0.566           0.53          7.916       1886.793        100.742         64.361       67.06804         -0.008          0.285          2.305      0.7248519
     12486.0000          0.733          0.637           0.61          0.564          0.531          7.928       1883.239        102.178         72.323       75.42916         -0.006          0.289          2.381      0.9027481
     12486.5000          0.731          0.636           0.62          0.597          0.563          7.964       1776.199        100.804         77.677       81.05188         -0.005           0.31          2.429              1
     12487.0000          0.819          0.689          0.666          0.663          0.623          7.975       1605.136        101.391         77.204       80.55626         -0.006          0.299          2.439              1
     12487.5000          1.005          0.855          0.774          0.783          0.729          7.987       1371.742         99.212         76.949       80.28953         -0.007          0.267          2.433              1
     12488.0000          1.127           0.98          0.874          0.876          0.811          7.987       1233.046          98.28         68.676       71.60389         -0.007          0.248          2.424      0.8213593
     12488.5000          1.052          0.923          0.856          0.836          0.778          8.011       1285.347         96.216         63.122       65.77321         -0.007          0.234          2.416      0.6973023
     12489.0000          0.922          0.822          0.772          0.739          0.694          8.034       1440.922        101.509         62.484       65.10433         -0.007          0.248          2.413      0.6830709
     12489.5000          0.864          0.782          0.729          0.684          0.646          8.046       1547.988        101.396          68.89       71.83166         -0.005          0.261          2.424      0.8262055
     12490.0000          0.848           0.76          0.704          0.652          0.618          8.046       1618.123        107.566         74.754       77.98987         -0.003          0.294          2.443      0.9572312
     12490.5000          0.843          0.739          0.681          0.625          0.594          8.042       1683.502        109.614         84.188       87.89658         -0.002          0.319          2.454              1
     12491.0000          0.848          0.733          0.672          0.612          0.582          8.011       1718.213        111.467         85.928       89.72461         -0.001          0.321           2.46              1
     12491.5000          0.852          0.734          0.672          0.608          0.579          8.058       1727.116        111.635         88.478       92.40312         -0.002          0.314          2.458              1
     12492.0000           0.86          0.733          0.674          0.611          0.582          8.026       1718.213        106.623         82.359       85.97919         -0.004          0.316          2.455              1
     12492.5000          0.891          0.742          0.682          0.624          0.594          8.046       1683.502         98.849         82.632       86.26687         -0.005          0.325          2.453              1
     12493.0000          0.993          0.807          0.735          0.674           0.64          7.999         1562.5         93.577         82.377       86.00013         -0.006          0.346           2.45              1
     12493.5000          1.434          1.084          0.946          0.845          0.791          7.964       1264.223         92.936          75.62       78.90631         -0.005          0.315          2.449        0.97673
     12494.0000          2.084          1.555          1.254          1.077          0.992          7.924       1008.065         93.392         62.238       64.85622         -0.004          0.214          2.448       0.677792
     12494.5000          2.088          1.558          1.245          1.066          0.981          7.916       1019.368         94.219         53.186       55.35265              0          0.155          2.459      0.4755882
     12495.0000          1.431          1.092          0.936          0.831          0.778           7.94       1285.347         104.89         59.146       61.61166              0          0.214          2.464      0.6087586
     12495.5000          0.965          0.804          0.723          0.656          0.622          7.987       1607.717        109.731         74.932       78.18798         -0.002          0.324          2.461      0.9614464
