#------------------------------------------------------------------------------
# Created by    : vladimir.rabinovich
# Created on    : 09/19/2023 17:21:33
#------------------------------------------------------------------------------
~Version Information Section
VERS.           2.0     :   CWLS log ASCII Standard - VERSION 2.0
WRAP.           NO      :   One line per depth step
~Well Information Section
#MNEM       .UNIT                                         VALUE :DESCRIPTION
#------------------------------------------------------------------------------
STRT        .FT                                            3683 :START DEPTH
STOP        .FT                                            9328 :STOP DEPTH
STEP        .FT                                             0.5 :STEP      
NULL        .                                           -999.25 :NULL      
COMP        .                                SHELL OFFSHORE INC :COMPANY   
WELL        .                               OCS G11316 ST00BP00 :WELL      
FLD         .                                           WILDCAT :FIELD     
LOC         .                                                   :LOCATION  
CNTY        .                             GALVESTON LARGE BLOCK :LOCATION  
STAT        .                                             TEXAS :STATE     
CTRY        .                                     UNITED STATES :COUNTRY   
SRVC        .                                                   :SERVICE COMPANY
DATE        .                             9/13/2023 11:19:34 AM :LOG DATE  
API         .                                    42706402670000 :API NUMBER
UWI         .                                    42706402670000 :UNIQUE WELL ID
XCOORD      .                                  1097534.45360284 :SURFACE X 
YCOORD      .                                  10461685.9172371 :SURFACE Y 
LAT         .                                         28.817107 :LATITUDE  
LON         .                                        -94.695737 :LONGITUDE 
ELEV        .FT                                              91 :ELEVATION VALUE
ELEV_TYPE   .                                                KB :ELEVATION REFERENCE TYPE
~Curve Information Section
#MNEM       .UNIT                                      API CODE :CURVE DESCRIPTION
#------------------------------------------------------------------------------
DEPT        .FT                                                 :DEPTH     
CALI        .IN                                                 :          
CALI_1      .IN                                                 :          
CILD        .MMHO                                               :          
DRHO        .G/C3                                               :          
DT          .US/F                                               :          
GR          .GAPI                                               :          
GR_1        .GAPI                                               :          
GR_NORM     .GAPI                                               :GammaRay Normalized
ILD         .OHMM                                               :          
ILM         .OHMM                                               :          
NPHI        .%                                                  :          
RHOB        .G/C3                                               :          
SFL         .OHMM                                               :          
SP          .MV                                                 :          
SP_NORM     .MV                                                 :SP Normalized
VSH_GR      .V/V                                                :Volume of Shale from GR
VSH_SP      .V/V                                                :Volume of Shale from SP
~A        DEPTH           CALI         CALI_1           CILD           DRHO             DT             GR           GR_1        GR_NORM            ILD            ILM           NPHI           RHOB            SFL             SP        SP_NORM         VSH_GR         VSH_SP
# ...
      6458.0000        13.2001        13.2013       1996.324        -0.0138       107.8665        59.1552         59.823       67.60452         0.4903         0.4434        42.3008         2.1933         0.5126       -39.0856      -20.19529      0.7362664      0.6634119
      6458.5000        13.1738        13.1674       2145.926        -0.0146       103.7179        56.2391        57.5571        64.0645         0.4935         0.4296         40.655          2.206         0.5005       -40.0605      -21.77189      0.6609468      0.6371351
      6459.0000        13.1575        13.1541       2227.121        -0.0147       101.3792        53.7307        53.4105        57.5859         0.4628         0.4167         39.841          2.225         0.4814         -40.64      -22.70802      0.5231043       0.621533
      6459.5000         13.152         13.153       2285.535        -0.0133       100.9448        51.3311        51.0853       53.95323         0.4193         0.4035        39.1507         2.2451         0.4474       -41.0533      -23.37493      0.4458134      0.6104178
      6460.0000        13.1488        13.1545       2344.836        -0.0108       101.0326        49.5801        49.5155       51.50087         0.4082          0.403        38.4004         2.2645         0.4488       -41.2172      -23.63786      0.3936355      0.6060358
      6460.5000        13.1455        13.1572       2036.676         -0.008       101.1259        48.5879        48.5677       50.02039         0.4939         0.4606        37.3227         2.2816         0.5426        -41.203      -23.61228      0.3621359      0.6064619
      6461.0000        13.1291        13.1624       1724.875        -0.0052       101.4084        49.6703        49.4242       51.35912         0.5834         0.5512        37.4071         2.2939         0.6631       -41.1243      -23.48223      0.3906195      0.6086294
      6461.5000        13.1258        13.1616       1449.688        -0.0037       102.2921        52.4629        53.9436       58.42114          0.674         0.6572        38.3974         2.2996          0.748       -41.0309      -23.32837      0.5408753      0.6111938
      6462.0000        13.1309        13.1413       1282.371         -0.004       104.9827         56.501        58.8135       66.03079         0.7517         0.7419        40.3395          2.288         0.7823       -40.9917      -23.26231      0.7027828      0.6122949
      6462.5000         13.138        13.1279       1720.545        -0.0057       108.0215        59.8867        60.8807       69.26125          0.647         0.6045        42.3652         2.2662         0.7719       -41.6916      -24.39347      0.7715158      0.5934423
      6463.0000        13.1423        13.1268       2248.875        -0.0144       109.9923        61.3299        61.3385       69.97702         0.4899         0.4107        42.8903         2.2288         0.5653       -42.8691      -26.29825      0.7867451      0.5616958
      6463.5000        13.1185        13.1363       2828.383        -0.0214       110.1184        57.2424        57.5176       64.00731          0.387         0.2911         41.563         2.1872         0.3375       -44.5916      -29.08585        0.65973      0.5152359
      6464.0000         13.163         13.153       3235.457        -0.0296        108.671        50.0509        51.5395       54.66698         0.3024         0.2627        39.4092         2.1745         0.3063       -46.0892      -31.50914      0.4609996      0.4748476
      6464.5000        13.2141        13.1644       3441.355        -0.0346       106.8158        44.4979        46.6622       47.04665         0.2914         0.2628        36.9116         2.1712         0.2936       -46.9183      -32.84959       0.298865      0.4525069
      6465.0000        13.2152         13.168       3461.039        -0.0373       104.5817        42.7075        42.5575       40.63351         0.2992         0.2674        35.5236         2.1783         0.2983       -47.5659      -33.89602      0.1624151      0.4350663
      6465.5000        13.1963         13.171       3202.387        -0.0376       102.2294        41.6683        41.2968       38.66412         0.3256         0.2911        34.6541         2.1932         0.3255       -47.9909      -34.58188      0.1205133      0.4236353
      6466.0000        13.1775        13.1719       2803.188        -0.0363        99.9041        42.5234        42.7401       40.91973         0.3651          0.328        34.1626         2.2081         0.3728       -48.2246      -34.95787      0.1685049      0.4173688
      6466.5000        13.1929        13.1707       2510.281        -0.0326       101.7839        43.9407        43.9415       42.79737         0.3891         0.3561        33.9887         2.2242         0.4172       -48.3526      -35.16264      0.2084548       0.413956
      6467.0000        13.2063        13.1705       2482.184        -0.0276       103.4177         44.687        44.3008       43.35923         0.3832         0.3414        34.1274         2.2419         0.4013       -47.9563      -34.51813      0.2204092      0.4246978
      6467.5000        13.1979        13.2015       2406.547        -0.0171       104.4056        45.2338         44.428       43.55843         0.3717         0.3713        34.3974         2.2574         0.4134       -46.3512      -31.91557      0.2246475      0.4680739
      6468.0000        13.1761        13.2505       2071.715        -0.0049       104.9679        49.1118        47.4125       48.22216         0.4729         0.4618        34.7089         2.2748         0.4694        -43.954      -28.02993      0.3238758      0.5328345
      6468.5000        13.1523        13.3257       1556.771         0.0073       104.7072        53.1154        51.2581       54.23137         0.6028         0.5644        34.3037         2.2982         0.6064         -41.29      -23.71213      0.4517313      0.6047979
      6469.0000        13.3451        13.4531        1314.26         0.0135       103.7333        56.2168        55.3579       60.63776         0.6639         0.6621        33.7778         2.3116         0.7839       -40.0568      -21.71198      0.5880374      0.6381337
      6469.5000        13.5574        13.6474       1187.393         0.0167       104.6849        58.5126         58.421       65.42431         0.6783         0.6795        33.3071         2.3183         0.8314       -39.2858      -20.46052      0.6898789      0.6589913
      6470.0000        13.7487        13.8532       1147.236         0.0151       106.1195        60.3735        60.9313       69.34709         0.6874          0.681        32.9694         2.3162         0.8624        -38.532      -19.23692      0.7733424      0.6793846
      6470.5000        13.9437        14.0117       1149.918          0.013       106.9918        62.0886        62.5492       71.87553         0.7013         0.6792         32.879         2.3098         0.8733       -37.3631      -17.34092       0.827139      0.7109846
      6471.0000        14.1036        14.1416       1177.551         0.0122       106.7715        63.4417        63.6784       73.64035         0.7293         0.7109        33.0299         2.3019         0.8544       -35.9371      -15.02847      0.8646883      0.7495255
      6471.5000        14.2035        14.2336       1211.998         0.0121       105.8955        63.9075        63.1416       72.80206         0.7642         0.7518        33.1904         2.2967         0.8376       -34.5977      -12.85629      0.8468522      0.7857284
      6472.0000         14.265        14.2942       1245.314         0.0127       104.6394        60.6676        61.7507       70.62923         0.7857         0.7724        33.4193         2.2949         0.8272       -33.7778      -11.52563       0.800622      0.8079062
      6472.5000        14.3004        14.3266       1281.041          0.014        103.547        56.8569        58.1347       64.97968         0.7678         0.7484        33.6941         2.2979         0.8208       -33.6379      -11.29645      0.6804186      0.8117259
