#------------------------------------------------------------------------------
# Created by    : vladimir.rabinovich
# Created on    : 09/19/2023 17:20:28
#------------------------------------------------------------------------------
~Version Information Section
VERS.           2.0     :   CWLS log ASCII Standard - VERSION 2.0
WRAP.           NO      :   One line per depth step
~Well Information Section
#MNEM       .UNIT                                         VALUE :DESCRIPTION
#------------------------------------------------------------------------------
STRT        .FT                                            2653 :START DEPTH
STOP        .FT                                           10423 :STOP DEPTH
STEP        .FT                                             0.5 :STEP      
NULL        .                                           -999.25 :NULL      
COMP        .                                       MONSANTO CO :COMPANY   
WELL        .                                     ST TR 00150-L :WELL      
FLD         .                                           WILDCAT :FIELD     
LOC         .                                                   :LOCATION  
CNTY        .                             GALVESTON LARGE BLOCK :LOCATION  
STAT        .                                             TEXAS :STATE     
CTRY        .                                     UNITED STATES :COUNTRY   
SRVC        .                                                   :SERVICE COMPANY
DATE        .                             9/13/2023 11:19:24 AM :LOG DATE  
API         .                                    42706300340000 :API NUMBER
UWI         .                                    42706300340000 :UNIQUE WELL ID
XCOORD      .                                  1113316.22146511 :SURFACE X 
YCOORD      .                                  10612518.3672968 :SURFACE Y 
LAT         .                                         29.232517 :LATITUDE  
LON         .                                       -94.6530532 :LONGITUDE 
ELEV        .FT                                              81 :ELEVATION VALUE
ELEV_TYPE   .                                                KB :ELEVATION REFERENCE TYPE
~Curve Information Section
#MNEM       .UNIT                                      API CODE :CURVE DESCRIPTION
#------------------------------------------------------------------------------
DEPT        .FT                                                 :DEPTH     
ASN         .OHMM                                               :          
CILD        .MMHO                                               :          
ILD         .OHMM                                               :          
SP          .MV                                                 :          
SP_NORM     .MV                                                 :SP Normalized
VSH_SP      .V/V                                                :Volume of Shale from SP
~A        DEPTH            ASN           CILD            ILD             SP        SP_NORM         VSH_SP
# ...
      8809.0000         0.8173       1288.629          0.674       -46.9396      -6.357563      0.8626266
      8809.5000         0.8313       1274.018         0.6679       -47.9764      -7.393314      0.8360689
      8810.0000           0.84       1266.871         0.6614       -48.6234      -8.039272      0.8195058
      8810.5000         0.8254       1289.984          0.655       -49.1768      -8.591625       0.805343
      8811.0000         0.8109       1338.277         0.6485       -49.5966       -9.01038      0.7946057
      8811.5000         0.7963        1385.93          0.642       -49.3112      -8.723938      0.8019503
      8812.0000          0.764       1430.381         0.6356       -48.9776      -8.389294       0.810531
      8812.5000         0.7279       1474.879         0.6291       -48.2814      -7.692047      0.8284091
      8813.0000         0.7092       1512.578         0.6227       -47.5853      -6.994904      0.8462845
      8813.5000         0.6923       1541.998         0.6159        -46.867      -6.275558      0.8647293
      8814.0000         0.6794       1571.418         0.6023       -45.9937      -5.401211      0.8871484
      8814.5000         0.6665       1600.838         0.5887        -45.877      -5.283466      0.8901675
      8815.0000         0.6555       1626.561         0.5754       -45.9153      -5.320724      0.8892122
      8815.5000         0.6445       1651.496         0.5657       -45.9537      -5.358082      0.8882543
      8816.0000          0.634       1673.277         0.5559       -45.7059      -5.109234       0.894635
      8816.5000         0.6243       1680.635         0.5462       -45.1217      -4.523991      0.9096413
      8817.0000         0.6278       1680.707         0.5364       -44.7404      -4.141644       0.919445
      8817.5000         0.6378       1680.781         0.5355       -44.3622      -3.762402      0.9291692
      8818.0000         0.6479       1668.178         0.5352       -43.9839      -3.383053      0.9388961
      8818.5000         0.6579       1649.525         0.5349       -43.7999      -3.198013      0.9436407
      8819.0000         0.6708       1630.898         0.5345       -43.7238      -3.120869      0.9456187
      8819.5000         0.6868       1610.471         0.5375       -43.8733      -3.269321      0.9418123
      8820.0000         0.7028       1588.641         0.5433       -44.0227      -3.417679      0.9380082
      8820.5000         0.7017       1566.811         0.5491       -44.2472      -3.641132      0.9322786
      8821.0000         0.6983       1544.979         0.5548       -44.3789      -3.771786      0.9289286
      8821.5000         0.6948       1524.922         0.5606       -44.3368      -3.728642      0.9300348
      8822.0000         0.6914       1510.459         0.5664       -44.2947      -3.685497      0.9311411
      8822.5000         0.6948       1495.996         0.5711       -43.9741      -3.363853      0.9393884
      8823.0000         0.7066       1481.531         0.5754       -43.5682      -2.956909      0.9498228
      8823.5000         0.7214       1467.068         0.5797       -43.1624      -2.550064      0.9602548
      8824.0000         0.7362        1456.67          0.584       -42.7571      -2.143719      0.9706739
      8824.5000         0.7446       1446.729         0.5883       -42.3124      -1.697975      0.9821032
      8825.0000         0.7505       1436.799         0.5926       -42.1917      -1.576229      0.9852249
      8825.5000         0.7564       1426.857         0.5969       -42.1621      -1.545586      0.9860106
      8826.0000         0.7622       1415.719         0.5987       -42.1326      -1.515041      0.9867938
      8826.5000         0.7649       1404.422         0.6002       -42.1031      -1.484497       0.987577
      8827.0000         0.7676       1393.125          0.601       -42.0735      -1.453854      0.9883627
      8827.5000         0.7703       1394.924         0.6016        -42.044      -1.423306       0.989146
      8828.0000          0.773       1407.318         0.6022       -42.0144      -1.392662      0.9899318
      8828.5000         0.7728       1419.711         0.6028       -41.9849      -1.362118      0.9907149
      8829.0000         0.7588       1443.637         0.6028        -41.924      -1.300171      0.9923033
      8829.5000         0.7488       1469.311         0.6015       -41.8185       -1.19363      0.9950351
      8830.0000         0.7388       1493.311         0.6001        -41.713      -1.087086       0.997767
      8830.5000         0.7288       1512.307         0.5988       -41.6075     -0.9805374              1
      8831.0000         0.7189       1531.328         0.5948       -41.5775     -0.9494934              1
      8831.5000         0.7133       1548.182         0.5882       -41.5667     -0.9376488              1
      8832.0000         0.7077       1563.236         0.5817       -41.5561     -0.9260025              1
      8832.5000         0.7021       1578.316         0.5751       -41.5693     -0.9381599              1
      8833.0000         0.7003       1592.176         0.5743       -41.5826     -0.9504166              1
      8833.5000         0.6988       1587.754         0.5755       -41.5958     -0.9625702              1
      8834.0000         0.6979       1575.977         0.5767       -41.6102     -0.9759254              1
      8834.5000         0.7004       1564.197         0.5779       -41.6514      -1.016083      0.9995876
      8835.0000         0.7029       1552.445         0.5791       -41.6925      -1.056137      0.9985606
      8835.5000         0.7054       1538.277         0.5819       -41.7337      -1.096291       0.997531
      8836.0000         0.7078       1522.482          0.586       -41.7749      -1.136444      0.9965014
      8836.5000         0.7095       1506.713         0.5901       -41.7916      -1.152103      0.9960999
      8837.0000         0.7102       1499.594         0.5942       -41.8049       -1.16436      0.9957857
      8837.5000          0.711       1511.322         0.5983       -41.8181      -1.176514       0.995474
      8838.0000         0.7084       1523.051         0.6024       -41.8314       -1.18877      0.9951597
      8838.5000         0.7044       1535.469         0.6065        -41.756      -1.112324      0.9971199
      8839.0000         0.7003       1547.984         0.6106        -41.671      -1.026279      0.9993262
      8839.5000         0.6867       1560.477         0.6099        -41.586     -0.9402313              1
      8840.0000         0.6741       1569.693         0.6046        -41.501     -0.8541908              1
      8840.5000         0.6652       1577.553         0.5937       -41.3682     -0.7203445              1
      8841.0000         0.6705       1585.412         0.5823       -41.2295     -0.5806007              1
      8841.5000         0.6768       1598.078          0.571       -41.0909     -0.4409561              1
      8842.0000          0.683       1624.195         0.5562       -40.9523     -0.3013115              1
      8842.5000         0.6743        1655.34         0.5359       -40.8604     -0.2083664              1
      8843.0000         0.6504       1710.434         0.5171       -40.8243     -0.1712189              1
      8843.5000         0.6238        1937.07         0.4993        -40.792     -0.1378784              1
      8844.0000         0.5941       1972.699         0.4815       -40.7642     -0.1090317              1
      8844.5000         0.5508       1991.029         0.4637       -40.7363    -0.08008957              1
      8845.0000         0.5277        2077.75         0.4459       -40.7085    -0.05124283              1
      8845.5000         0.5097       2188.195         0.4288       -40.8365      -0.178196              1
      8846.0000         0.5411       2190.168          0.441       -41.3162     -0.6568527              1
      8846.5000         0.5724       2174.547         0.4646       -41.9177      -1.257309      0.9934024
