#------------------------------------------------------------------------------
# Created by    : vladimir.rabinovich
# Created on    : 09/19/2023 17:20:45
#------------------------------------------------------------------------------
~Version Information Section
VERS.           2.0     :   CWLS log ASCII Standard - VERSION 2.0
WRAP.           NO      :   One line per depth step
~Well Information Section
#MNEM       .UNIT                                         VALUE :DESCRIPTION
#------------------------------------------------------------------------------
STRT        .FT                                            2010 :START DEPTH
STOP        .FT                                            7000 :STOP DEPTH
STEP        .FT                                             0.5 :STEP      
NULL        .                                           -999.25 :NULL      
COMP        .                                    TEXAS GULF INC :COMPANY   
WELL        .                                ST OF TEX TR 693-L :WELL      
FLD         .                                           WILDCAT :FIELD     
LOC         .                                                   :LOCATION  
CNTY        .                      MATAGORDA ISLAND LARGE BLOCK :LOCATION  
STAT        .                                             TEXAS :STATE     
CTRY        .                                     UNITED STATES :COUNTRY   
SRVC        .                                                   :SERVICE COMPANY
DATE        .                             9/13/2023 11:12:01 AM :LOG DATE  
API         .                                    42703300330000 :API NUMBER
UWI         .                                    42703300330000 :UNIQUE WELL ID
XCOORD      .                                  377893.250269135 :SURFACE X 
YCOORD      .                                  10151490.3803449 :SURFACE Y 
LAT         .                                        27.9187241 :LATITUDE  
LON         .                                       -96.9091122 :LONGITUDE 
ELEV        .FT                                              70 :ELEVATION VALUE
ELEV_TYPE   .                                                KB :ELEVATION REFERENCE TYPE
~Curve Information Section
#MNEM       .UNIT                                      API CODE :CURVE DESCRIPTION
#------------------------------------------------------------------------------
DEPT        .FT                                                 :DEPTH     
ASN         .OHMM                                               :          
CILD        .MMHO                                               :          
ILD         .OHMM                                               :          
SP          .MV                                                 :          
SP_NORM     .MV                                                 :SP Normalized
VSH_SP      .V/V                                                :Volume of Shale from SP
~A        DEPTH            ASN           CILD            ILD             SP        SP_NORM         VSH_SP
# ...
      5962.0000         0.7161       4061.164         0.2383      -119.3484       -77.0234     0.01285001
      5962.5000         0.6864       4009.656         0.2407      -118.4946       -76.1744     0.02402105
      5963.0000         0.6696       4035.121         0.2431      -117.4656       -75.1502     0.03749737
      5963.5000         0.6919       4137.992         0.2455      -116.4379       -74.1273     0.05095663
      5964.0000         0.7141        4258.82         0.2479      -115.4773       -73.1714     0.06353419
      5964.5000         0.7363       4379.742         0.2503      -116.5323       -74.2312     0.04958946
      5965.0000         0.7585        4500.57         0.2527      -117.5862       -75.2899     0.03565919
      5965.5000         0.7808       4554.398         0.2551      -118.6412       -76.3497     0.02171446
      5966.0000         0.8107       4604.984         0.2575      -119.4783       -77.1916     0.01063688
      5966.5000         0.8136        4655.57         0.2577      -120.1356       -77.8537    0.001925017
      5967.0000         0.7971       4706.211         0.2572      -120.7925       -78.5154              0
      5967.5000         0.7806       4749.313         0.2567      -120.2128       -77.9405   0.0007829164
      5968.0000          0.764       4749.359         0.2561      -119.5758       -77.3082     0.00910267
      5968.5000         0.7475       4706.211         0.2556      -118.8109       -76.5481      0.0191039
      5969.0000         0.7306       4663.109         0.2551      -118.0454       -75.7874     0.02911317
      5969.5000         0.7123       4619.953         0.2545      -117.2805       -75.0273      0.0391145
      5970.0000          0.694       4576.602          0.254      -116.4821       -74.2337     0.04955653
      5970.5000         0.6758       4528.859         0.2535      -115.6481       -73.4045     0.06046707
      5971.0000         0.6576       4481.117         0.2529      -114.8142       -72.5754      0.0713763
      5971.5000         0.6522       4433.375         0.2524      -113.9803       -71.7463     0.08228553
      5972.0000         0.6548       4385.633         0.2529      -113.1465       -70.9173     0.09319346
      5972.5000         0.6615       4341.883          0.254      -112.2784       -70.0539      0.1045539
      5973.0000         0.6589       4331.375         0.2551      -111.3824       -69.1627      0.1162803
      5973.5000         0.6494       4351.555         0.2562      -110.4851       -68.2702      0.1280237
      5974.0000           0.64       4371.734         0.2574      -109.5891        -67.379        0.13975
      5974.5000          0.644       4391.914         0.2585      -108.9044       -66.6991      0.1486961
      5975.0000         0.6518       4412.094         0.2596      -108.2365        -66.036       0.157421
      5975.5000         0.6642       4437.219         0.2607      -108.3601       -66.1644      0.1557316
      5976.0000          0.682        4468.82         0.2619      -109.8923       -67.7014      0.1355079
      5976.5000         0.6928       4500.398         0.2629      -111.1438       -68.9576      0.1189789
      5977.0000         0.6771       4531.977         0.2624      -111.2295       -69.0481      0.1177881
      5977.5000         0.6613       4564.383         0.2618      -108.9031       -66.7265      0.1483355
      5978.0000         0.6462       4602.992         0.2613      -107.2987       -65.1269      0.1693829
      5978.5000         0.6315       4653.281         0.2608      -106.0466       -63.8796      0.1857947
      5979.0000         0.6169       4726.563         0.2602      -106.7936       -64.6314      0.1759026
      5979.5000         0.6316       4802.789         0.2597      -107.8729       -65.7155      0.1616382
      5980.0000         0.6618       4879.117         0.2592      -109.1381       -66.9854       0.144929
      5980.5000         0.6753       4954.055         0.2624      -110.4031       -68.2552       0.128221
      5981.0000         0.6867       5028.781          0.266      -111.4092       -69.2661      0.1149198
      5981.5000         0.6945       5102.914         0.2697      -112.2274       -70.0891      0.1040907
      5982.0000         0.7035       4205.375         0.2767      -110.3969       -68.2634      0.1281132
      5982.5000         0.7401           4080         0.3109      -108.5452       -66.4165      0.1524145
      5983.0000         0.7767        3954.75          0.345      -106.6313       -64.5074      0.1775342
      5983.5000         0.8261       3252.082         0.3792      -104.5535       -62.4344      0.2048105
      5984.0000         0.8955       2954.352         0.4134       -99.0605       -56.9462      0.2770237
      5984.5000         0.9322       2656.223         0.4625       -91.6538       -49.5442      0.3744184
      5985.0000          0.964       2358.492         0.5437       -84.2471       -42.1423      0.4718119
      5985.5000         0.9958       2060.363         0.6249       -76.8403       -34.7403      0.5692066
      5986.0000          1.047       1762.635         0.7061       -69.4435       -27.3483      0.6664698
      5986.5000         1.0986       1489.051         0.7814       -62.0368       -19.9464      0.7638631
      5987.0000         1.1375       1343.379         0.8427       -54.5431       -12.4575      0.8624013
      5987.5000         1.1648       1177.951         0.9041       -52.1247       -10.0439      0.8941592
      5988.0000         1.1718       1140.336         0.9654       -46.6628        -4.5868      0.9659632
      5988.5000         1.1636       1219.357         1.0195       -45.2343         -3.163      0.9846973
      5989.0000         1.1555       1258.246         1.0619       -45.7855         -3.719      0.9773816
      5989.5000         1.1473       1290.896         1.0216       -46.3251        -4.2634      0.9702184
      5990.0000         1.1453       1323.549         0.9732       -46.2813        -4.2244      0.9707316
      5990.5000         1.1841       1340.461         0.9248       -45.5568        -3.5047      0.9802013
      5991.0000         1.2566       1301.223          0.921       -47.1077        -5.0604      0.9597316
      5991.5000         1.3098       1253.281          0.932       -48.6599        -6.6174      0.9392447
      5992.0000         1.3597       1205.289         0.9653       -50.2109        -8.1731       0.918775
      5992.5000          1.408       1157.348         0.9986       -51.2287        -9.1957      0.9053198
      5993.0000         1.4457       1109.355         1.0319       -52.1707       -10.1425      0.8928618
      5993.5000         1.4834       1068.646         1.0652       -53.1127       -11.0893      0.8804039
      5994.0000         1.5282       1036.793         1.0985       -54.0547       -12.0361       0.867946
      5994.5000         1.5773        1004.94         1.1318       -55.0352       -13.0214      0.8549816
      5995.0000          1.564       973.0879         1.1651       -56.0642       -14.0552      0.8413789
      5995.5000         1.5672        970.668         1.1145       -57.0932        -15.089      0.8277763
      5996.0000         1.5743       1012.125         1.0487       -57.1727       -15.1732      0.8266684
      5996.5000         1.5257       1070.094          0.983       -55.1769       -13.1822      0.8528658
      5997.0000         1.4617       1128.063         0.9179       -53.4669        -11.477      0.8753026
      5997.5000         1.4017       1185.982         0.8864       -52.1794       -10.1943      0.8921803
      5998.0000         1.3463       1250.887         0.8548       -50.8919        -8.9116      0.9090579
      5998.5000          1.291       1318.635         0.8233       -49.6044        -7.6289      0.9259355
      5999.0000         1.2357       1386.332         0.7918         -48.54        -6.5693      0.9398776
      5999.5000           1.19       1418.035         0.7602       -47.9739         -6.008      0.9472632
