#------------------------------------------------------------------------------
# Created by    : vladimir.rabinovich
# Created on    : 09/19/2023 17:21:54
#------------------------------------------------------------------------------
~Version Information Section
VERS.           2.0     :   CWLS log ASCII Standard - VERSION 2.0
WRAP.           NO      :   One line per depth step
~Well Information Section
#MNEM       .UNIT                                         VALUE :DESCRIPTION
#------------------------------------------------------------------------------
STRT        .FT                                             404 :START DEPTH
STOP        .FT                                            9564 :STOP DEPTH
STEP        .FT                                             0.5 :STEP      
NULL        .                                           -999.25 :NULL      
COMP        .                               AMOCO PRODUCTION CO :COMPANY   
WELL        .                               OCS G03108 ST00BP01 :WELL      
FLD         .                                           WILDCAT :FIELD     
LOC         .                                                   :LOCATION  
CNTY        .                      MATAGORDA ISLAND LARGE BLOCK :LOCATION  
STAT        .                                             TEXAS :STATE     
CTRY        .                                     UNITED STATES :COUNTRY   
SRVC        .                                                   :SERVICE COMPANY
DATE        .                             9/13/2023 11:12:09 AM :LOG DATE  
API         .                                    42703400030000 :API NUMBER
UWI         .                                    42703400030000 :UNIQUE WELL ID
XCOORD      .                                  482242.907024332 :SURFACE X 
YCOORD      .                                  10146341.7942038 :SURFACE Y 
LAT         .                                         27.913374 :LATITUDE  
LON         .                                         -96.58609 :LONGITUDE 
ELEV        .FT                                              95 :ELEVATION VALUE
ELEV_TYPE   .                                                KB :ELEVATION REFERENCE TYPE
~Curve Information Section
#MNEM       .UNIT                                      API CODE :CURVE DESCRIPTION
#------------------------------------------------------------------------------
DEPT        .FT                                                 :DEPTH     
CALI        .IN                                                 :          
CILD        .MMHO                                               :          
GR          .GAPI                                               :          
GR_NORM     .GAPI                                               :GammaRay Normalized
ILD         .OHMM                                               :          
RHOB        .G/C3                                               :          
SFL         .OHMM                                               :          
SP          .MV                                                 :          
SP_NORM     .MV                                                 :SP Normalized
VSH_GR      .V/V                                                :Volume of Shale from GR
VSH_SP      .V/V                                                :Volume of Shale from SP
~A        DEPTH           CALI           CILD             GR        GR_NORM            ILD           RHOB            SFL             SP        SP_NORM         VSH_GR         VSH_SP
# ...
      8166.5000        16.5784        -999.25        65.7797       78.62218         0.8164         2.3934         0.9817       -37.2123         0.4022      0.9706848              1
      8167.0000        16.5813        -999.25        64.6337       76.77887         0.8257         2.3849         0.9938        -37.252         0.3642      0.9314653              1
      8167.5000        16.5843        -999.25        63.7925        75.4248         0.8255         2.4094         0.9933       -37.2502         0.3677      0.9026552              1
      8168.0000        16.5872        -999.25        64.2108       76.09235          0.816         2.4414         1.0054       -37.0231         0.5965      0.9168586              1
      8168.5000        16.5887        -999.25        65.5037       78.16376         0.8056         2.4411         1.0124        -37.044         0.5774      0.9609312              1
      8169.0000        16.5898        -999.25        66.9553       80.48976         0.7997          2.438         0.9968       -37.2686         0.3545              1              1
      8169.5000         16.591        -999.25        67.9153       82.02681         0.7966         2.4349         0.9841       -37.2337         0.3911              1              1
      8170.0000        16.5922        -999.25        68.0531       82.24414         0.7961         2.4319         0.9754       -36.6669         0.9596              1              1
      8170.5000        16.5934        -999.25        67.9027        81.9989         0.7968         2.4288         0.9669       -36.0798         1.5485              1              1
      8171.0000        16.5945        -999.25        67.3851       81.16422         0.7976         2.4258         0.9537        -35.916          1.714              1              1
      8171.5000        16.5953        -999.25        66.2286       79.30405         0.7988         2.4386         0.9253       -36.1378         1.4939      0.9851925              1
      8172.0000        16.5952        -999.25        64.8136       77.02893         0.8015         2.4555         0.9219       -36.3761         1.2573      0.9367858              1
      8172.5000        16.5952        -999.25        62.5006       73.31245         0.8138         2.4723         0.9568       -36.7579         0.8773      0.8577118              1
      8173.0000        16.5952        -999.25        60.4653       70.04153         0.8323         2.4651         0.9017       -36.9891         0.6478      0.7881176              1
      8173.5000        16.5951        -999.25        59.9908       69.27605         0.8462         2.4491         0.9208       -36.9879         0.6507      0.7718309              1
      8174.0000        16.5951        -999.25        60.6505       70.33109         0.8335         2.4354         0.9656       -36.9677         0.6726      0.7942784              1
      8174.5000         16.595        -999.25        61.6254       71.89208         0.8224         2.4251         1.0166       -36.9896         0.6525      0.8274911              1
      8175.0000        16.5949        -999.25         62.015       72.51357         0.8124         2.4147         1.0358       -37.0699         0.5739      0.8407143              1
      8175.5000        16.5943        -999.25        60.7291       70.44569         0.8045         2.4208         1.0154       -36.9729         0.6726      0.7967169              1
      8176.0000        16.5937        -999.25        60.2627       69.69321         0.8067         2.4346         0.9483       -36.7979         0.8493      0.7807067              1
      8176.5000         16.593        -999.25        62.1862       72.77683         0.8078         2.4071         0.9102       -36.5911         1.0579      0.8463156              1
      8177.0000        16.5924        -999.25        64.7402       76.87227         0.8073         2.4006         0.8861       -36.4151         1.2356      0.9334525              1
      8177.5000        16.5918        -999.25        66.0164       78.91686          0.807          2.396          0.839       -36.4014          1.251      0.9769545              1
      8178.0000        16.5912        -999.25        65.9609       78.82395         0.8238         2.4207         0.8407       -36.5015         1.1526      0.9749777              1
      8178.5000        16.5905        -999.25        64.7192       76.82703         0.8556         2.4441          0.886       -36.7539          0.902      0.9324899              1
      8179.0000        16.5898        -999.25        62.4656       73.20586         0.8966         2.4383          0.925       -36.8199         0.8377      0.8554438              1
      8179.5000        16.5891        -999.25         60.275       69.68582         0.9438         2.4325         0.9792       -36.8096         0.8497      0.7805494              1
      8180.0000        16.5883        -999.25        58.4528       66.75713         0.9953         2.4268         1.0439       -36.8784         0.7826      0.7182369              1
      8180.5000        16.5876        -999.25        59.2861       68.09081         1.0325          2.421         0.9724       -37.3732         0.2896      0.7466128              1
      8181.0000        16.5868        -999.25        60.6331       70.24908          1.017         2.4152         0.9668       -38.1674        -0.5029      0.7925337              1
      8181.5000        16.5855        -999.25        61.6882       71.93862         0.9759          2.461         1.2558       -38.6251        -0.9589      0.8284813              1
      8182.0000        16.5834        -999.25        61.8601       72.21068         0.9449         2.4714         1.4277       -38.6921        -1.0242      0.8342698              1
      8182.5000        16.5814        -999.25        61.2043        71.1542         0.9432         2.4472         1.1867       -38.8306        -1.1609      0.8117914              1
      8183.0000        16.5793        -999.25        60.4234        69.8969         0.9725         2.4133         0.9637       -39.2711        -1.5997      0.7850405              1
      8183.5000        16.5699        -999.25        59.3159       68.11537         1.0328         2.3984         0.9169       -41.1048        -3.4317      0.7471356      0.9772746
      8184.0000        16.5519        -999.25        57.3051       64.88394         1.1155         2.4063          0.871       -46.5155        -8.8407      0.6783817      0.8914174
      8184.5000        16.5264        -999.25        54.5239       60.41594         1.2152         2.4446         0.9973       -49.3431       -11.6666      0.5833178      0.8465619
      8185.0000         16.499        -999.25        50.3381       53.69337         1.3353         2.5224         1.5477       -50.3663        -12.688      0.4402844      0.8303492
      8185.5000        16.4837        -999.25        48.2627       50.35809         1.4803         2.5132         2.0214       -50.7519       -13.0719       0.369321      0.8242555
      8186.0000        16.5268        -999.25        47.3638       48.91139         1.6306         2.5222         2.4319       -50.3476       -12.6659      0.3385403         0.8307
      8186.5000        16.5559        -999.25        47.6984       49.44461         1.6672         2.5352         3.0822       -49.9315       -12.2481      0.3498854      0.8373317
      8187.0000        16.5634        -999.25        51.3339       55.27618         1.5913         2.5418         3.5509       -48.2325       -10.5473      0.4739613      0.8643286
      8187.5000        16.5653        -999.25        56.6237        63.7631         1.4501         2.5478         3.4041       -45.7842        -8.0973       0.654534      0.9032175
      8188.0000        16.5673        -999.25        61.9136       72.25018         1.3246         2.5072         1.6204       -43.8226         -6.134      0.8351101      0.9343809
      8188.5000        16.5693        -999.25        66.5256       79.64915         1.2096         2.4387         1.0298       -42.5735        -4.8832      0.9925352      0.9542349
