#------------------------------------------------------------------------------
# Created by    : vladimir.rabinovich
# Created on    : 09/19/2023 17:22:26
#------------------------------------------------------------------------------
~Version Information Section
VERS.           2.0     :   CWLS log ASCII Standard - VERSION 2.0
WRAP.           NO      :   One line per depth step
~Well Information Section
#MNEM       .UNIT                                         VALUE :DESCRIPTION
#------------------------------------------------------------------------------
STRT        .FT                                            3450 :START DEPTH
STOP        .FT                                            9344 :STOP DEPTH
STEP        .FT                                             0.5 :STEP      
NULL        .                                           -999.25 :NULL      
COMP        .                                  W&T OFFSHORE INC :COMPANY   
WELL        .                               OCS G04565 ST00BP00 :WELL      
FLD         .                              GALVESTON BLOCK 0303 :FIELD     
LOC         .                                                   :LOCATION  
CNTY        .                             GALVESTON LARGE BLOCK :LOCATION  
STAT        .                                             TEXAS :STATE     
CTRY        .                                     UNITED STATES :COUNTRY   
SRVC        .                                                   :SERVICE COMPANY
DATE        .                             9/13/2023 11:19:39 AM :LOG DATE  
API         .                                    42706403900000 :API NUMBER
UWI         .                                    42706403900000 :UNIQUE WELL ID
XCOORD      .                                  983096.827540607 :SURFACE X 
YCOORD      .                                  10485968.3003259 :SURFACE Y 
LAT         .                                        28.8789082 :LATITUDE  
LON         .                                       -95.0543314 :LONGITUDE 
ELEV        .FT                                              90 :ELEVATION VALUE
ELEV_TYPE   .                                                KB :ELEVATION REFERENCE TYPE
~Curve Information Section
#MNEM       .UNIT                                      API CODE :CURVE DESCRIPTION
#------------------------------------------------------------------------------
DEPT        .FT                                                 :DEPTH     
CDER        .MMHO                                               :          
DCAL        .IN                                                 :          
DPHI        .DEC                                                :          
DRHO        .G/CC                                               :          
DTLN        .US/F                                               :          
GR          .GAPI                                               :          
GR_NORM     .GAPI                                               :GammaRay Normalized
IDER        .OHMM                                               :          
IMER        .OHMM                                               :          
NPOR        .DEC                                                :          
RWA         .OHMM                                               :          
SFLA        .OHMM                                               :          
SP          .MV                                                 :          
SP_NORM     .MV                                                 :SP Normalized
TENS        .LB                                                 :          
VSH_GR      .V/V                                                :Volume of Shale from GR
VSH_SP      .V/V                                                :Volume of Shale from SP
~A        DEPTH           CDER           DCAL           DPHI           DRHO           DTLN             GR        GR_NORM           IDER           IMER           NPOR            RWA           SFLA             SP        SP_NORM           TENS         VSH_GR         VSH_SP
# ...
      5460.0000       4662.005          0.984            0.3         -0.014        118.876         37.374       44.74002          0.214          0.247          0.305          0.029          0.648        -69.356      -70.96624        -999.25      0.2497878              0
      5460.5000       4618.938          1.073            0.3         -0.014        119.436         38.333       45.67786          0.216          0.248          0.349           0.03          0.638        -68.929      -70.53724        -999.25      0.2697418              0
      5461.0000       4512.635          1.163          0.299         -0.015         119.64         39.192       46.51789          0.222          0.256          0.368          0.034          0.623        -68.161      -69.76724        -999.25      0.2876148    0.003325108
      5461.5000       4458.315          1.226          0.299         -0.017        118.941         38.384       45.72773          0.224           0.26          0.375          0.036          0.607        -67.717      -69.32124        -999.25      0.2708028    0.009696634
      5462.0000       4484.305          1.267          0.305         -0.019        117.758         36.364       43.75232          0.223          0.257          0.373          0.036          0.592        -67.596      -69.19823        -999.25      0.2287728     0.01145379
      5462.5000       4585.053          1.287          0.312         -0.022        116.964         35.202       42.61597          0.218          0.252          0.372          0.036          0.579        -67.475      -69.07523        -999.25      0.2045951     0.01321095
      5463.0000       4638.219          1.299          0.318         -0.023        116.572         36.364       43.75232          0.216          0.248          0.371          0.037          0.573        -67.212      -68.81023        -999.25      0.2287728     0.01699677
      5463.5000       4568.296          1.272          0.317         -0.022        116.625         38.889       46.22159          0.219          0.249          0.382          0.039          0.572        -66.808      -68.40423        -999.25      0.2813104     0.02279674
      5464.0000       4361.099          1.237          0.315          -0.02        117.104         42.727       49.97486          0.229           0.26          0.402          0.042          0.577        -65.878      -67.47222        -999.25      0.3611673     0.03611112
      5464.5000       4122.012          1.211          0.309         -0.018        118.029         45.556       52.74142          0.243          0.275          0.412          0.043          0.585        -64.828      -66.42023        -999.25      0.4200301     0.05113961
      5465.0000        3946.33          1.238          0.306         -0.015        119.054          47.98       55.11191          0.253          0.287           0.41          0.043          0.586        -63.636      -65.22623        -999.25      0.4704661     0.06819676
      5465.5000       3850.597          1.294          0.303         -0.012        119.985         49.848       56.93867           0.26          0.292            0.4          0.045          0.581        -63.151      -64.73922        -999.25      0.5093335     0.07515401
      5466.0000       3861.004          1.333          0.305          -0.01        120.452         49.394        56.4947          0.259           0.29          0.398          0.045          0.577        -63.131      -64.71722        -999.25      0.4998873     0.07546834
      5466.5000       3987.241          1.334          0.312         -0.009        119.619          47.02        54.1731          0.251          0.282          0.398          0.045          0.577        -63.131      -64.71522        -999.25      0.4504915     0.07549689
      5467.0000       4164.931          1.317          0.314         -0.011        118.246         44.545       51.75274           0.24          0.272          0.395          0.044          0.582        -63.131      -64.71322        -999.25      0.3989944     0.07552545
      5467.5000       4290.004          1.301          0.311         -0.013        117.006         44.747       51.95028          0.233          0.263          0.391          0.042          0.593        -63.131      -64.71121        -999.25      0.4031974     0.07555411
      5468.0000       4282.655          1.293          0.304         -0.016        115.988         49.091       56.19838          0.234          0.265          0.391           0.04          0.617        -62.969      -64.54721        -999.25      0.4935826     0.07789699
      5468.5000       4050.223          1.299          0.301         -0.018        115.397         52.898       59.92135          0.247          0.278          0.389           0.04           0.64        -62.556      -64.13221        -999.25      0.5727947     0.08382557
      5469.0000       3889.537          1.285          0.304          -0.02        114.982         51.679       58.72926          0.257          0.295          0.375           0.04          0.667         -61.95      -63.52421        -999.25      0.5474311     0.09251126
      5469.5000       3773.585          1.241          0.306         -0.021         114.66         49.066       56.17394          0.265          0.311          0.357          0.042          0.685        -61.727      -63.29921        -999.25      0.4930625     0.09572557
      5470.0000       3685.957          1.179          0.305         -0.022        114.174         46.316       53.48464          0.271          0.322          0.362          0.045          0.695        -61.717       -63.2872        -999.25      0.4358434     0.09589708
      5470.5000       3621.876          1.143          0.303         -0.024        113.596          45.53         52.716          0.276          0.327          0.379          0.046            0.7        -61.313       -62.8812        -999.25      0.4194893      0.1016971
      5471.0000       3575.259          1.277          0.302         -0.025        113.237          48.13        55.2586           0.28           0.33           0.39          0.048          0.707        -60.606       -62.1722        -999.25      0.4735872      0.1118257
      5471.5000       3516.175          1.469          0.301         -0.023        113.131          51.44       58.49553          0.284          0.333          0.402          0.048          0.717            -60       -61.5642        -999.25      0.5424581      0.1205114
      5472.0000       3459.011          1.614          0.301         -0.023        113.737         53.359       60.37218          0.289          0.334          0.397          0.045          0.725        -59.394       -60.9562        -999.25      0.5823867      0.1291972
      5472.5000       3409.478          1.598          0.301         -0.023        113.665         50.959       58.02515          0.293          0.333          0.367          0.043          0.729        -58.586      -60.14619        -999.25        0.53245      0.1407686
      5473.0000        3382.95          1.451          0.301         -0.025        113.669         47.678       54.81658          0.296          0.329          0.349          0.043          0.728        -57.677       -59.2352        -999.25      0.4641825      0.1537829
      5473.5000       3374.958           1.32          0.303         -0.027        115.228          46.01        53.1854          0.296          0.324           0.35          0.044          0.716        -57.071      -58.62719        -999.25      0.4294766      0.1624687
      5474.0000       3374.958          1.207          0.305         -0.027        116.879         46.995       54.14865          0.296          0.319          0.358          0.046          0.689        -56.364      -57.91819        -999.25      0.4499714      0.1725973
      5474.5000        3379.52          1.144          0.307         -0.026        118.258           47.5       54.64251          0.296          0.316          0.368          0.048          0.654         -54.95      -56.50219        -999.25      0.4604788      0.1928259
