#------------------------------------------------------------------------------
# Created by    : vladimir.rabinovich
# Created on    : 09/19/2023 17:22:54
#------------------------------------------------------------------------------
~Version Information Section
VERS.           2.0     :   CWLS log ASCII Standard - VERSION 2.0
WRAP.           NO      :   One line per depth step
~Well Information Section
#MNEM       .UNIT                                         VALUE :DESCRIPTION
#------------------------------------------------------------------------------
STRT        .FT                                             494 :START DEPTH
STOP        .FT                                            6854 :STOP DEPTH
STEP        .FT                                             0.5 :STEP      
NULL        .                                           -999.25 :NULL      
COMP        .                          HUMBLE OIL & REFINING CO :COMPANY   
WELL        .                                     ST TR 00247-L :WELL      
FLD         .                                           WILDCAT :FIELD     
LOC         .                                                   :LOCATION  
CNTY        .                             GALVESTON LARGE BLOCK :LOCATION  
STAT        .                                             TEXAS :STATE     
CTRY        .                                     UNITED STATES :COUNTRY   
SRVC        .                                                   :SERVICE COMPANY
DATE        .                             9/13/2023 11:19:42 AM :LOG DATE  
API         .                                    42706000180000 :API NUMBER
UWI         .                                    42706000180000 :UNIQUE WELL ID
XCOORD      .                                  979775.061814126 :SURFACE X 
YCOORD      .                                  10543201.0009156 :SURFACE Y 
LAT         .                                        29.0361078 :LATITUDE  
LON         .                                       -95.0678326 :LONGITUDE 
ELEV        .FT                                              11 :ELEVATION VALUE
ELEV_TYPE   .                                                KB :ELEVATION REFERENCE TYPE
~Curve Information Section
#MNEM       .UNIT                                      API CODE :CURVE DESCRIPTION
#------------------------------------------------------------------------------
DEPT        .FT                                                 :DEPTH     
LAT         .OHMM                                               :          
LN          .OHMM                                               :          
SN          .OHMM                                               :          
SP          .MV                                                 :          
SP_NORM     .MV                                                 :SP Normalized
VSH_SP      .V/V                                                :Volume of Shale from SP
~A        DEPTH            LAT             LN             SN             SP        SP_NORM         VSH_SP
# ...
      1330.0000         1.3547          1.923         1.6304        -98.999      -1.316895      0.9890726
      1330.5000         1.2878         1.8888          1.592       -98.6572     -0.9768372              1
      1331.0000         1.2228         1.8744         1.5674       -98.3154     -0.6367722              1
      1331.5000         1.1578         1.8635         1.5679       -97.9736     -0.2967148              1
      1332.0000         1.1243         1.8525         1.6051       -97.6317     0.04345703              1
      1332.5000         1.0932         1.8416         1.6424       -97.2899      0.3835144              1
      1333.0000          1.139         1.8313         1.6724        -97.067      0.6046753              1
      1333.5000         1.1965         1.8667         1.6946       -96.9783      0.6916351              1
      1334.0000          1.254         1.9021            1.7       -96.8894       0.778801              1
      1334.5000         1.3246         1.9376         1.6901       -96.8007      0.8657608              1
      1335.0000         1.4037          1.973         1.6801       -96.7118      0.9529266              1
      1335.5000         1.4827         2.0084         1.6702       -96.6345       1.028488              1
      1336.0000         1.5273         2.0439         1.6589       -96.5701       1.091148              1
      1336.5000         1.5685         2.0415         1.6447       -96.5057       1.153809              1
      1337.0000         1.5825         2.0381         1.6304       -96.4414        1.21637              1
      1337.5000         1.5366         2.0095         1.6161        -96.377        1.27903              1
      1338.0000         1.4907         1.9801         1.6018       -96.3126        1.34169              1
      1338.5000         1.4449         1.9507         1.5876       -96.2949       1.357658              1
      1339.0000         1.4072         1.9213         1.5999       -96.3007       1.350121              1
      1339.5000         1.3899         1.8929         1.6172       -96.3065       1.342575              1
      1340.0000         1.4255         1.8656         1.6346       -96.3124       1.334938              1
      1340.5000         1.5242         1.8384          1.655        -96.339       1.306602              1
      1341.0000         1.6228         1.8111         1.6768       -96.4294       1.214462              1
      1341.5000         1.7215         1.7838         1.6985         -96.52       1.122131              1
      1342.0000          1.822         1.7569          1.713       -96.6106       1.029785              1
      1342.5000         1.9233         1.7307         1.7132        -96.701      0.9376526              1
      1343.0000         2.0245         1.7044         1.7051       -96.8024      0.8345108              1
      1343.5000          2.115         1.6782         1.6807       -96.9458      0.6893692              1
      1344.0000         2.1895         1.6519         1.6563       -97.0892      0.5442276              1
      1344.5000         2.2559         1.6211          1.632       -97.2327      0.3989944              1
      1345.0000         2.2671         1.5856         1.6076        -97.376      0.2539597              1
      1345.5000         2.2727         1.5501         1.5702       -97.5194      0.1088181              1
      1346.0000         2.2439         1.5145         1.5261       -97.6628    -0.03632355              1
      1346.5000         2.2151          1.479          1.482       -97.6907    -0.06595612              1
      1347.0000         2.1864         1.4632         1.4378       -97.6163    0.006698608              1
      1347.5000         2.1613         1.4826         1.3916        -97.542     0.07926178              1
      1348.0000         2.1408          1.502           1.33       -97.5499     0.06963348              1
      1348.5000         2.1025         1.5214         1.2683       -97.6309     -0.0131073              1
      1349.0000         1.9922         1.5412         1.2067       -97.7119    -0.09584808              1
      1349.5000         1.8818         1.5626          1.145       -97.7418     -0.1274872              1
      1350.0000         1.8091          1.584         1.1061       -97.7216     -0.1090317              1
      1350.5000         1.7366         1.6053         1.0688        -97.833      -0.222168              1
      1351.0000          1.664         1.6267         1.0387       -98.0769     -0.4677963              1
      1351.5000         1.5914         1.6447         1.1309       -98.3208     -0.7134399              1
      1352.0000         1.5413         1.6349         1.2231       -98.5647     -0.9590759              1
      1352.5000         1.5117         1.6251         1.3153       -98.6014     -0.9975204              1
      1353.0000         1.4821         1.6153         1.4074        -98.599     -0.9968567              1
      1353.5000         1.4996         1.6055         1.4994       -98.5967     -0.9962997              1
      1354.0000         1.5431         1.5957         1.5455       -98.5518     -0.9531403              1
      1354.5000         1.5865         1.5859         1.5915        -98.498     -0.9010696              1
      1355.0000           1.63         1.5865         1.6375       -98.4554     -0.8602066              1
      1355.5000         1.6715         1.5924         1.6836       -98.8491      -1.255646      0.9911847
      1356.0000         1.7115         1.5983         1.7195       -99.2428      -1.651085      0.9775488
      1356.5000         1.7489         1.6043          1.738       -99.6365      -2.046524       0.963913
      1357.0000         1.7306         1.6102         1.7566      -100.2631      -2.674866       0.942246
      1357.5000         1.7122         1.6161         1.7751      -100.9674      -3.380898      0.9179001
      1358.0000         1.6939         1.6223         1.7894      -101.7329       -4.14814      0.8914434
      1358.5000         1.6713         1.6292         1.7897      -103.7062      -6.123177      0.8233387
      1359.0000         1.6456         1.6361           1.79      -105.3925      -7.811218      0.7651304
      1359.5000         1.6199          1.643         1.7902      -106.1641      -8.584557      0.7384636
      1360.0000         1.5943         1.6404         1.7905      -106.7244      -9.146599      0.7190828
      1360.5000         1.5686          1.629         1.7991      -106.9987      -9.422638      0.7095642
      1361.0000         1.5429         1.6177         1.8094      -107.2729       -9.69857      0.7000493
      1361.5000         1.5172         1.6063         1.8198      -107.5471      -9.974503      0.6905344
      1362.0000         1.4916         1.5979         1.8286      -107.7565      -10.18565      0.6832536
      1362.5000         1.4888         1.5926          1.833      -107.9613      -10.39219      0.6761314
      1363.0000         1.4859         1.5872         1.8374      -108.1663      -10.59892      0.6690027
      1363.5000          1.483         1.5819          1.831       -108.199      -10.63336      0.6678151
      1364.0000         1.4802         1.5765         1.8194      -107.8005       -10.2366      0.6814967
      1364.5000         1.4773         1.5711         1.8077      -107.4021      -9.839935      0.6951746
      1365.0000          1.482          1.566            1.8      -107.0038      -9.452477      0.7085353
      1365.5000         1.4993         1.5631         1.7945      -106.3207      -8.799881      0.7310386
      1366.0000         1.5167         1.5602          1.789      -105.5367      -8.046371      0.7570217
      1366.5000          1.534         1.5573         1.7835      -105.3134      -7.853577      0.7636698
      1367.0000         1.5514         1.5544          1.778      -105.2279      -7.798569      0.7655666
      1367.5000         1.5687         1.5515         1.7726      -105.1318      -7.732964      0.7678288
