#------------------------------------------------------------------------------
# Created by    : vladimir.rabinovich
# Created on    : 09/19/2023 17:20:12
#------------------------------------------------------------------------------
~Version Information Section
VERS.           2.0     :   CWLS log ASCII Standard - VERSION 2.0
WRAP.           NO      :   One line per depth step
~Well Information Section
#MNEM       .UNIT                                         VALUE :DESCRIPTION
#------------------------------------------------------------------------------
STRT        .FT                                             970 :START DEPTH
STOP        .FT                                            6500 :STOP DEPTH
STEP        .FT                                             0.5 :STEP      
NULL        .                                           -999.25 :NULL      
COMP        .                                CONTINENTAL OIL CO :COMPANY   
WELL        .                               OCS G03106 ST00BP00 :WELL      
FLD         .                       MATAGORDA ISLAND BLOCK 0687 :FIELD     
LOC         .                                                   :LOCATION  
CNTY        .                      MATAGORDA ISLAND LARGE BLOCK :LOCATION  
STAT        .                                             TEXAS :STATE     
CTRY        .                                     UNITED STATES :COUNTRY   
SRVC        .                                                   :SERVICE COMPANY
DATE        .                             9/13/2023 11:12:09 AM :LOG DATE  
API         .                                    42703400330000 :API NUMBER
UWI         .                                    42703400330000 :UNIQUE WELL ID
XCOORD      .                                  468864.661343862 :SURFACE X 
YCOORD      .                                  10154488.9405743 :SURFACE Y 
LAT         .                                         27.934663 :LATITUDE  
LON         .                                        -96.628194 :LONGITUDE 
ELEV        .FT                                              96 :ELEVATION VALUE
ELEV_TYPE   .                                                KB :ELEVATION REFERENCE TYPE
~Curve Information Section
#MNEM       .UNIT                                      API CODE :CURVE DESCRIPTION
#------------------------------------------------------------------------------
DEPT        .FT                                                 :DEPTH     
ASFL        .OHMM                                               :          
CALI        .IN                                                 :          
CILD        .MMHO                                               :          
DRHO        .G/C3                                               :          
DT          .US/F                                               :          
DTL         .US/F                                               :          
GR          .GAPI                                               :          
GR_1        .GAPI                                               :          
GR_NORM     .GAPI                                               :GammaRay Normalized
ILD         .OHMM                                               :          
ILM         .OHMM                                               :          
NPHI        .%                                                  :          
RHOB        .G/C3                                               :          
SFL         .OHMM                                               :          
SP          .MV                                                 :          
SP_NORM     .MV                                                 :SP Normalized
VSH_GR      .V/V                                                :Volume of Shale from GR
VSH_SP      .V/V                                                :Volume of Shale from SP
~A        DEPTH           ASFL           CALI           CILD           DRHO             DT            DTL             GR           GR_1        GR_NORM            ILD            ILM           NPHI           RHOB            SFL             SP        SP_NORM         VSH_GR         VSH_SP
# ...
      5758.0000          2.868         10.312       336.6812         0.0573        -999.25       106.1208        43.7925        43.2253        41.5122         2.4421        -999.25        23.0272         2.1398         3.1269       -68.8679        -31.132      0.1811106      0.4977241
      5758.5000          2.721         9.9411       338.7139         0.0456        -999.25       103.5079        43.9584         44.584       44.31793         2.1647        -999.25        27.7586          2.192         2.5449       -66.6936       -28.9578      0.2408071      0.5352104
      5759.0000         2.5402          9.482       352.5107         0.0448        -999.25       106.7229        42.8701        46.0743        47.3953         1.9153        -999.25        29.9359         2.2411         2.1867        -65.528       -27.7921      0.3062829      0.5553086
      5759.5000         2.3553         9.2131       368.2817         0.0528        -999.25       111.7069        40.2241        46.9164       49.13456         1.6697        -999.25        28.4216         2.2949         2.4679       -67.8533       -30.1175      0.3432886      0.5152155
      5760.0000         2.3286         9.0301       384.0405          0.059        -999.25       120.2637        38.5216        46.8967       49.09471          1.462        -999.25        24.9174         2.3263         2.5775       -71.5653       -33.8294      0.3424406      0.4512173
      5760.5000         2.3023          8.987       406.0713         0.0519        -999.25       121.9507         37.731        46.8975       49.09739         1.3081        -999.25        22.5648         2.2495         2.3684       -74.3157       -36.5798      0.3424977      0.4037966
      5761.0000         2.2252          8.992        431.624         0.0377        -999.25       121.5192        37.5208        46.9246       49.15419         1.1541        -999.25        23.6233         2.2154         2.0807       -75.0122       -37.2763      0.3437061      0.3917879
      5761.5000         2.1421         9.0346       458.5273         0.0341        -999.25       121.3666        38.0014        47.0828       49.48158         0.9749        -999.25        24.8316         2.1972          1.829       -74.9286       -37.1927       0.350672      0.3932293
      5762.0000         1.5269         9.1244       657.3535         0.0414        -999.25       122.0253        38.7501        47.1685       49.65934         0.7943        -999.25        25.4341          2.214         2.0198       -78.9037       -41.1679       0.354454      0.3246914
      5762.5000          1.429         9.2641       986.0801         0.0515        -999.25       122.8247        38.8594        46.6174       48.52246         0.6845        -999.25        24.5786         2.2358         2.2736        -83.478       -45.7421      0.3302652      0.2458259
      5763.0000         0.9962         9.4456       1314.807         0.0553        -999.25       122.2721        38.6967        45.7873       46.80966         0.6044        -999.25        23.5027         2.1929         2.1068       -87.4236       -49.6877      0.2938225      0.1777983
      5763.5000           0.95         9.6325       1643.533         0.0548        -999.25        120.804        38.2971        44.5648       44.28675         0.5244        -999.25        22.8069         2.1644         1.6446       -90.8164       -53.0805      0.2401437      0.1193017
      5764.0000         0.9048         9.7935        1972.26         0.0521        -999.25       118.0924        37.8878        43.2723       41.61934         0.4443        -999.25        23.1479         2.1354          1.328       -93.3665       -55.6306      0.1833902     0.07533448
      5764.5000         0.8631         9.7906       2300.988         0.0454        -999.25       115.1859        37.4388        42.0449       39.08634         0.3966        -999.25        26.4412         2.1172         1.0504       -95.1267       -57.3909      0.1294966     0.04498449
      5765.0000         0.8101         9.7099       2629.715         0.0361        -999.25       112.6902         37.004         41.429        37.8159         0.3663        -999.25        29.3405         2.1211         0.8441       -96.2722       -58.5364      0.1024659     0.02523449
      5765.5000         0.7517         9.5963       2958.441         0.0303        -999.25       111.2048        36.6622        41.5292       38.02358          0.336        -999.25        31.6219         2.1385         0.7487       -96.3225       -58.5867      0.1068847     0.02436723
      5766.0000         0.7258         9.5831           3376         0.0337        -999.25       109.7374        36.8129        41.5749       38.11875         0.3057        -999.25        33.3042         2.1596         0.7068        -95.618       -57.8821      0.1089095     0.03651553
      5766.5000         0.7035         9.6017       4372.219         0.0379        -999.25       109.0576        37.9492        41.3397       37.63403         0.2754        -999.25        34.8338         2.1644         0.6819          -94.3       -56.5642     0.09859645     0.05923791
      5767.0000          0.702         9.6226       4500.008         0.0323        -999.25       108.2885        39.1125        40.8942       36.71517         0.2451        -999.25        35.8578         2.1593         0.6691       -92.6454       -54.9095     0.07904613     0.08776724
      5767.5000         0.7005         9.6344       4440.656         0.0293        -999.25       106.9635        40.3359        40.4257       35.74883         0.2518        -999.25        35.3994         2.1523         0.6598       -90.8557       -53.1198     0.05848564      0.1186241
      5768.0000          0.703         9.6463       4088.953         0.0323        -999.25       105.6373        41.5962        41.1467       37.23808          0.261        -999.25        34.9208         2.1554         0.6733       -88.7306       -50.9947     0.09017198      0.1552638
      5768.5000         0.7107         9.5251       4000.586          0.043        -999.25       104.1815        43.2373        43.4254       41.94305         0.2702        -999.25        34.7845         2.1734         0.6932       -87.3278       -49.5919      0.1902777        0.17945
      5769.0000         0.7185         9.3988        3762.75         0.0478        -999.25       103.6523        44.7021        45.6535       46.54353         0.2794        -999.25        34.6063         2.1931         0.7647       -86.5444       -48.8086      0.2881602      0.1929552
      5769.5000         0.7262         9.2893        3516.75         0.0501        -999.25       103.9506        45.4066        47.4138       50.17831         0.2892        -999.25        34.1373         2.2111         0.7897       -86.9049        -49.169       0.365496      0.1867414
      5770.0000         0.7288         9.1996           3271         0.0525        -999.25       104.4055        45.9077        48.4048       52.22517         0.3118        -999.25        33.5099         2.2262         0.7639       -87.3044       -49.5685      0.4090463      0.1798534
      5770.5000         0.7151         9.1176       3082.941         0.0537        -999.25       104.9551        46.0792        48.5772       52.58192         0.3345        -999.25        33.4866         2.2385         0.7174       -87.9266       -50.1907      0.4166365      0.1691259
      5771.0000         0.7015         9.0596       2998.305         0.0539        -999.25        105.474        46.0613        47.9527        51.2935         0.3572        -999.25          34.29         2.2392         0.6909       -88.5482       -50.8124      0.3892235      0.1584069
      5771.5000         0.6935         9.0212        2918.43          0.052        -999.25       105.5413        45.4877        47.0991       49.53216         0.3644        -999.25        35.0366         2.2258         0.6759       -88.8884       -51.1525       0.351748      0.1525431
