#------------------------------------------------------------------------------
# Created by    : vladimir.rabinovich
# Created on    : 09/19/2023 17:21:51
#------------------------------------------------------------------------------
~Version Information Section
VERS.           2.0     :   CWLS log ASCII Standard - VERSION 2.0
WRAP.           NO      :   One line per depth step
~Well Information Section
#MNEM       .UNIT                                         VALUE :DESCRIPTION
#------------------------------------------------------------------------------
STRT        .FT                                             692 :START DEPTH
STOP        .FT                                            6716 :STOP DEPTH
STEP        .FT                                             0.5 :STEP      
NULL        .                                           -999.25 :NULL      
COMP        .                                  FMP OPERATING CO :COMPANY   
WELL        .                                          SL 89457 :WELL      
FLD         .                                           WILDCAT :FIELD     
LOC         .                                                   :LOCATION  
CNTY        .                      MATAGORDA ISLAND LARGE BLOCK :LOCATION  
STAT        .                                             TEXAS :STATE     
CTRY        .                                     UNITED STATES :COUNTRY   
SRVC        .                                                   :SERVICE COMPANY
DATE        .                             9/13/2023 11:12:01 AM :LOG DATE  
API         .                                    42703303600000 :API NUMBER
UWI         .                                    42703303600000 :UNIQUE WELL ID
XCOORD      .                                  499223.886875127 :SURFACE X 
YCOORD      .                                  10221285.9321665 :SURFACE Y 
LAT         .                                        28.1205561 :LATITUDE  
LON         .                                       -96.5403272 :LONGITUDE 
ELEV        .FT                                              81 :ELEVATION VALUE
ELEV_TYPE   .                                                KB :ELEVATION REFERENCE TYPE
~Curve Information Section
#MNEM       .UNIT                                      API CODE :CURVE DESCRIPTION
#------------------------------------------------------------------------------
DEPT        .FT                                                 :DEPTH     
CALI        .IN                                                 :          
CILD        .MMHO                                               :          
DT          .US/F                                               :          
DTL         .US/F                                               :          
GR          .GAPI                                               :          
GR_NORM     .GAPI                                               :GammaRay Normalized
ILD         .OHMM                                               :          
ILM         .OHMM                                               :          
SFLU        .OHMM                                               :          
SP          .MV                                                 :          
SP_NORM     .MV                                                 :SP Normalized
TENS        .LBS                                                :          
VSH_GR      .V/V                                                :Volume of Shale from GR
VSH_SP      .V/V                                                :Volume of Shale from SP
~A        DEPTH           CALI           CILD             DT            DTL             GR        GR_NORM            ILD            ILM           SFLU             SP        SP_NORM           TENS         VSH_GR         VSH_SP
# ...
      2438.0000        -999.25       1206.765       137.6949       136.6996        71.2161       92.39349         0.8289           0.75         0.6965       -11.1447        -3.5975       1398.427              1      0.9751042
      2438.5000        -999.25       1214.885       138.2963          137.5        71.0129       92.09649         0.8101         0.7435         0.6899       -11.6461        -4.0989       1399.181              1      0.9542125
      2439.0000        -999.25       1215.042       139.0968       138.1014        70.4119        91.2227         0.8025         0.7371         0.6791       -11.8492         -4.302       1399.856              1        0.94575
      2439.5000        -999.25       1239.088       140.2954       138.9019        70.2087       90.92568         0.7988         0.7307         0.6685       -11.8533        -4.3061       1370.408              1      0.9455792
      2440.0000        -999.25       1247.208       140.2996       139.3042        70.0055       90.62867          0.784         0.7243          0.658        -11.758        -4.2108       1370.784              1        0.94955
      2440.5000        -999.25       1263.292       139.3083       139.1093        69.4045        89.7549         0.7874         0.7118         0.6495        -11.961        -4.4138       1371.159              1      0.9410917
      2441.0000        -999.25       1279.375       138.3171       138.3171        68.8034        88.8811         0.7765         0.7116         0.6464       -12.0646        -4.5174       1371.535              1       0.936775
      2441.5000        -999.25       1291.183       137.9231       137.5249        67.0085       86.27683         0.7727         0.7115         0.6528       -12.0687        -4.5215       1371.911              1      0.9366041
      2442.0000        -999.25       1295.617       137.3308         137.33        65.4126       83.72324          0.769         0.7113         0.6592       -12.0729        -4.5257       1372.286              1      0.9364291
      2442.5000        -999.25       1303.737       137.3342       138.3296        67.3979       86.42604         0.7797         0.7112         0.6657        -12.077        -4.5298       1372.361              1      0.9362583
      2443.0000        -999.25       1295.931       137.9356       139.1301        70.1792       90.21346         0.7687          0.711          0.673       -11.9816        -4.4344       1392.946              1      0.9402333
      2443.5000        -999.25       1296.089       138.7361       140.1297        71.8445       92.48012         0.7721         0.7109         0.6637       -12.2842         -4.737       1393.322              1       0.927625
      2444.0000        -999.25       1288.251       138.7402       141.1293        71.7689       92.37478         0.7719         0.7107         0.6578       -12.5884        -5.0412       1393.697              1        0.91495
      2444.5000        -999.25       1272.513       138.5453       138.7444        70.9633       91.27477         0.7717         0.7106         0.6519       -12.9892         -5.442       1394.073              1        0.89825
      2445.0000        -999.25        1272.67       137.9522       137.1558        71.7542       92.35011         0.7823         0.7104         0.6393       -13.1924        -5.6452       1394.449              1      0.8897833
      2445.5000        -999.25       1248.936       136.5627       135.9654        72.7257       93.67139         0.7855         0.7251         0.6421       -13.4958        -5.9486       1394.825              1      0.8771417
      2446.0000        -999.25        1241.13       135.1732       134.8489        71.3478        91.7916          0.811         0.7399         0.6509       -13.6968        -6.1496         1395.2              1      0.8687667
      2446.5000        -999.25       1233.292       132.7882       132.4758        68.7568       88.25885         0.8109          0.755         0.6689       -14.1988        -6.6516       1395.576              1        0.84785
      2447.0000        -999.25       1217.552       131.1996       130.8951        67.7576       86.89491         0.8103         0.7709         0.6749       -14.6018        -7.0546       1395.952              1      0.8310583
      2447.5000        -999.25       1225.673       130.4073       130.1067        67.7534       86.88687         0.8096         0.7672          0.681       -15.2029        -7.6557       1396.328              1      0.8060125
      2448.0000        -999.25       1233.794       130.6105       129.8141        67.1522       86.06538          0.809          0.765         0.6871        -15.506        -7.9588       1396.703              1      0.7933834
      2448.5000        -999.25       1233.951       130.4155       129.8182         65.556       83.88797         0.8084         0.7627         0.6869       -15.5097        -7.9625       1396.854              1      0.7932292
      2449.0000        -999.25       1234.108       130.6195       129.8223         65.152       83.33517         0.8077         0.7604         0.6774       -15.0164        -7.4692       1417.365              1      0.8137833
      2449.5000        -999.25       1230.301       130.6228       129.8264        64.7514       82.78702         0.8071         0.7582         0.6711       -14.9211        -7.3739       1417.741              1      0.8177541
      2450.0000        -999.25       1230.458       130.6269       129.8305        64.7471       82.77869         0.8065          0.756         0.6709       -14.9252         -7.378       1418.117              1      0.8175833
      2450.5000        -999.25        1230.62       128.8868       127.7527        63.7592       81.43029         0.7916         0.7537         0.6618       -15.4008        -7.8536       1418.494              1      0.7977667
      2451.0000        -999.25       1250.546       127.4429       125.8079        62.5564       79.78907         0.7919         0.7534         0.6562       -15.4032         -7.856       1419.021      0.9955121      0.7976667
      2451.5000        -999.25       1234.728       126.6474       123.8632        58.5782       74.36602         0.8031         0.7532         0.6475       -15.2936        -7.7464       1419.497      0.8801281      0.8022333
      2452.0000        -999.25       1226.875       128.2403       125.8514        56.1721       71.08521          0.822         0.7851         0.6477       -15.6816        -8.1344       1419.972      0.8103237      0.7860667
      2452.5000        -999.25       1187.178       134.0129       132.0226        51.6208       64.88141         0.8452         0.8184          0.666       -15.9711        -8.4239       1420.448      0.6783279      0.7740042
      2453.0000        -999.25       1123.605       139.3866       146.5508        50.4292       63.25543         0.8921         0.8532         0.7137       -16.6576        -9.1104       1450.918      0.6437325         0.7454
      2453.5000        -999.25       1099.795       148.3415       162.0727        50.0336       62.71395         0.9423         0.9062         0.7707       -17.2446        -9.6974       1447.453      0.6322118      0.7209417
      2454.0000        -999.25       1020.367       156.1011       170.6272        48.2474       60.27781         0.9954          0.923         0.8105       -17.6325       -10.0853       1443.995      0.5803789      0.7047791
      2454.5000        -999.25       948.8628       158.0894        -999.25        39.4913       48.34464         1.0514         0.9661         0.8523       -18.0205       -10.4733       1440.522      0.3264816      0.6886125
      2455.0000        -999.25       893.2854       147.1451        -999.25        37.3308       45.39833         1.1106         1.0112         0.8962        -18.307       -10.7598       1437.057      0.2637944       0.676675
      2455.5000        -999.25       837.7172       130.6321        -999.25        35.3468       42.69267         1.1731         1.0584         0.9411        -19.095       -11.5478       1433.592       0.206227      0.6438417
