#------------------------------------------------------------------------------
# Created by    : vladimir.rabinovich
# Created on    : 09/19/2023 17:19:50
#------------------------------------------------------------------------------
~Version Information Section
VERS.           2.0     :   CWLS log ASCII Standard - VERSION 2.0
WRAP.           NO      :   One line per depth step
~Well Information Section
#MNEM       .UNIT                                         VALUE :DESCRIPTION
#------------------------------------------------------------------------------
STRT        .FT                                             816 :START DEPTH
STOP        .FT                                            7470 :STOP DEPTH
STEP        .FT                                             0.5 :STEP      
NULL        .                                           -999.25 :NULL      
COMP        .                                   KERR-MCGEE CORP :COMPANY   
WELL        .                               OCS G05003 ST00BP00 :WELL      
FLD         .                                 BRAZOS BLOCK 0412 :FIELD     
LOC         .                                                   :LOCATION  
CNTY        .                                BRAZOS LARGE BLOCK :LOCATION  
STAT        .                                             TEXAS :STATE     
CTRY        .                                     UNITED STATES :COUNTRY   
SRVC        .                                                   :SERVICE COMPANY
DATE        .                             9/13/2023 11:19:08 AM :LOG DATE  
API         .                                    42704401140000 :API NUMBER
UWI         .                                    42704401140000 :UNIQUE WELL ID
XCOORD      .                                  819493.037302503 :SURFACE X 
YCOORD      .                                  10380289.6446028 :SURFACE Y 
LAT         .                                         28.579682 :LATITUDE  
LON         .                                        -95.558179 :LONGITUDE 
ELEV        .FT                                              90 :ELEVATION VALUE
ELEV_TYPE   .                                                KB :ELEVATION REFERENCE TYPE
~Curve Information Section
#MNEM       .UNIT                                      API CODE :CURVE DESCRIPTION
#------------------------------------------------------------------------------
DEPT        .FT                                                 :DEPTH     
ASFL        .OHMM                                               :          
CALI        .IN                                                 :          
CILD        .MMHO                                               :          
GR          .GAPI                                               :          
GR_NORM     .GAPI                                               :GammaRay Normalized
ILD         .OHMM                                               :          
ILM         .OHMM                                               :          
RHOB        .G/C3                                               :          
SP          .MV                                                 :          
SP_NORM     .MV                                                 :SP Normalized
VSH_GR      .V/V                                                :Volume of Shale from GR
VSH_SP      .V/V                                                :Volume of Shale from SP
~A        DEPTH           ASFL           CALI           CILD             GR        GR_NORM            ILD            ILM           RHOB             SP        SP_NORM         VSH_GR         VSH_SP
# ...
      3481.0000         0.6651        -999.25       2542.219        42.5694       36.75057         0.3483         0.3841        -999.25       -94.1324      -13.18002     0.07979932       0.187999
      3481.5000         0.6572        -999.25       2393.512        42.3916       36.52759         0.3782         0.4116        -999.25       -93.2302      -12.27782     0.07505506      0.2481456
      3482.0000         0.6494        -999.25       2244.707        43.0453       37.34741         0.4082         0.4402        -999.25       -91.7924      -10.84001     0.09249805      0.3439992
      3482.5000         0.6697        -999.25       1970.566        46.8596       42.13107         0.4801         0.4792        -999.25         -90.11      -9.157616       0.194278       0.456159
      3483.0000         0.6933        -999.25       1839.215        51.7009       48.20273          0.584         0.5271        -999.25       -89.3384      -8.386017      0.3234623      0.5075989
      3483.5000         0.7167        -999.25       1655.008        56.0818       53.69698         0.6618         0.5857        -999.25       -88.5663      -7.613914      0.4403612      0.5590724
      3484.0000         0.7344        -999.25       1431.752        59.7946       58.35334         0.7263         0.6394        -999.25       -87.7941      -6.841713      0.5394328      0.6105525
      3484.5000         0.7522        -999.25       1344.035        62.8006       62.12327         0.7908         0.6969        -999.25       -87.2213      -6.268913      0.6196441      0.6487391
      3485.0000         0.7699        -999.25       1272.049        64.6006       64.38073         0.8552         0.7433        -999.25       -86.7106      -5.758217      0.6676751      0.6827856
      3485.5000         0.7906        -999.25        1208.84        65.7948       65.87843          0.872         0.7898        -999.25       -86.0867      -5.134315       0.699541      0.7243789
      3486.0000          0.824        -999.25       1163.182        66.6351       66.93227         0.8355         0.8087        -999.25       -85.4281      -4.475716      0.7219631      0.7682856
      3486.5000         0.8576        -999.25       1121.617         67.788       68.37817          0.799         0.8105        -999.25        -84.611      -3.658615      0.7527269       0.822759
      3487.0000         0.8882        -999.25       1187.391        67.4092       67.90309         0.7521         0.7734        -999.25       -84.9225      -3.970116       0.742619      0.8019923
      3487.5000         0.8852        -999.25       1377.219        64.6036       64.38449         0.6925         0.7119        -999.25       -87.2318      -6.279411      0.6677551      0.6480392
      3488.0000         0.8787        -999.25       1567.047        60.7896       59.60121         0.6328         0.6453        -999.25       -89.4561      -8.503716      0.5659831      0.4997523
      3488.5000         0.8659        -999.25       1756.775        57.6733       55.69294         0.5732         0.5839        -999.25       -90.3409      -9.388512      0.4828285      0.4407659
      3489.0000         0.8532        -999.25       1854.969        55.9451       53.52554         0.5372         0.5403        -999.25       -91.2252      -10.27281      0.4367135      0.3818125
      3489.5000         0.8404        -999.25       1902.771         54.749       52.02547         0.5124         0.5122        -999.25       -91.9257      -10.97331      0.4047972      0.3351125
      3490.0000         0.8276        -999.25       1950.695        53.6216       50.61155         0.4876         0.4972        -999.25       -92.6218      -11.66942      0.3747138      0.2887054
      3490.5000         0.8139        -999.25       2000.002        52.5517       49.26975         0.4629         0.4873        -999.25       -93.1072      -12.15482      0.3461649      0.2563456
      3491.0000         0.7975        -999.25       2062.176        51.6619       48.15382         0.4381         0.4828        -999.25       -93.2493      -12.29691      0.3224216      0.2468725
      3491.5000         0.7811        -999.25       2093.484        50.5654       46.77865         0.4314         0.4823        -999.25        -93.236      -12.28362      0.2931628       0.247759
      3492.0000         0.7301        -999.25       2125.016        51.2612       47.65128         0.4304         0.4862        -999.25       -93.2228      -12.27042      0.3117294      0.2486389
      3492.5000         0.6869        -999.25        2157.41        52.3914       49.06871         0.4293         0.5015        -999.25       -93.2095      -12.25712      0.3418874      0.2495255
      3493.0000         0.6683        -999.25       2189.805        53.4589        50.4075         0.4462         0.5264        -999.25       -93.1962      -12.24381      0.3703723      0.2504125
      3493.5000         0.6877        -999.25       2074.305        54.1808       51.31287         0.4781         0.5522        -999.25       -93.1792      -12.22681      0.3896354      0.2515457
      3494.0000         0.7162        -999.25       1872.793        53.0003       49.83236           0.51         0.5709        -999.25       -93.0728      -12.12041      0.3581352       0.258639
      3494.5000         0.7437        -999.25       1816.684        48.7097       44.45135         0.5419         0.5742        -999.25       -92.9663      -12.01392      0.2436457      0.2657389
      3495.0000         0.7693        -999.25       1780.072        47.7067       43.19345         0.5686         0.5777        -999.25       -92.8599      -11.90752      0.2168819      0.2728322
      3495.5000         0.7994        -999.25        1741.17        49.5537       45.50984         0.5713         0.5751        -999.25       -92.5791      -11.62672      0.2661668      0.2915522
      3496.0000         0.8472        -999.25       1702.662        51.4645       47.90625          0.574         0.5617        -999.25       -92.2344      -11.28201      0.3171543      0.3145325
      3496.5000         0.8525        -999.25       1665.412        52.7237       49.48546         0.5767         0.5504        -999.25       -91.8896      -10.93722      0.3507545      0.3375188
      3497.0000         0.8164        -999.25       1684.494        54.0782       51.18419         0.5793         0.5401        -999.25        -91.605      -10.65262      0.3868976      0.3564921
      3497.5000          0.741        -999.25       1724.826        55.9581       53.54184         0.5863         0.5308        -999.25       -91.3387      -10.38631      0.4370604      0.3742457
      3498.0000         0.6848        -999.25       1765.184        56.9983       54.84639         0.5987         0.5281        -999.25       -91.1287      -10.17632      0.4648169      0.3882456
      3498.5000         0.7091        -999.25       1805.539        55.5398       53.01723         0.6216         0.5345        -999.25       -91.0017      -10.04932      0.4258985      0.3967122
      3499.0000          0.736        -999.25       1762.988        54.4297       51.62502         0.6974         0.5505        -999.25       -90.8748      -9.922417      0.3962769      0.4051722
      3499.5000         0.7609        -999.25       1684.049        54.4495       51.64985         0.7733         0.5711        -999.25       -90.7477      -9.795319      0.3968053      0.4136454
      3500.0000         0.7824        -999.25       1601.068        52.9053       49.71321         0.8301         0.6016        -999.25        -89.868      -8.915611      0.3556002      0.4722926
      3500.5000         0.8259        -999.25       1440.527        51.5573       48.02263         0.8677         0.6382        -999.25       -88.8396      -7.887215      0.3196305      0.5408524
      3501.0000         0.8435        -999.25       1330.525         49.071       44.90447         0.9054         0.6841        -999.25       -88.2965      -7.344116      0.2532866      0.5770589
