#------------------------------------------------------------------------------
# Created by    : vladimir.rabinovich
# Created on    : 09/19/2023 17:19:44
#------------------------------------------------------------------------------
~Version Information Section
VERS.           2.0     :   CWLS log ASCII Standard - VERSION 2.0
WRAP.           NO      :   One line per depth step
~Well Information Section
#MNEM       .UNIT                                         VALUE :DESCRIPTION
#------------------------------------------------------------------------------
STRT        .FT                                            3520 :START DEPTH
STOP        .FT                                           13769 :STOP DEPTH
STEP        .FT                                             0.5 :STEP      
NULL        .                                           -999.25 :NULL      
COMP        .                           WILLIAMS EXPLORATION CO :COMPANY   
WELL        .                                          SL 73414 :WELL      
FLD         .                                           WILDCAT :FIELD     
LOC         .                                                   :LOCATION  
CNTY        .                           HIGH ISLAND LARGE BLOCK :LOCATION  
STAT        .                                             TEXAS :STATE     
CTRY        .                                     UNITED STATES :COUNTRY   
SRVC        .                                                   :SERVICE COMPANY
DATE        .                             9/13/2023 11:19:15 AM :LOG DATE  
API         .                                    42708301040000 :API NUMBER
UWI         .                                    42708301040000 :UNIQUE WELL ID
XCOORD      .                                  1272749.25589155 :SURFACE X 
YCOORD      .                                  10699068.0748216 :SURFACE Y 
LAT         .                                        29.4758188 :LATITUDE  
LON         .                                       -94.1558378 :LONGITUDE 
ELEV        .FT                                             106 :ELEVATION VALUE
ELEV_TYPE   .                                                KB :ELEVATION REFERENCE TYPE
~Curve Information Section
#MNEM       .UNIT                                      API CODE :CURVE DESCRIPTION
#------------------------------------------------------------------------------
DEPT        .FT                                                 :DEPTH     
ASFL        .OHMM                                               :          
CILD        .MMHO                                               :          
ILD         .OHMM                                               :          
SP          .MV                                                 :          
SP_NORM     .MV                                                 :SP Normalized
VSH_SP      .V/V                                                :Volume of Shale from SP
~A        DEPTH           ASFL           CILD            ILD             SP        SP_NORM         VSH_SP
# ...
      8954.0000          0.668       1218.619         0.6607       -84.1666      -3.411713      0.9536209
      8954.5000         0.6651       1224.717         0.6621       -83.8695      -3.114159      0.9593431
      8955.0000         0.6623       1225.936         0.6636       -83.1541      -2.398308      0.9731095
      8955.5000         0.6664        1225.65          0.665       -82.6798      -1.923561      0.9822392
      8956.0000         0.6768       1225.367          0.668       -83.4447      -2.688011      0.9675382
      8956.5000         0.6871       1225.082         0.6712       -84.2095      -3.452362      0.9528392
      8957.0000         0.6975       1224.799         0.6744       -84.9734      -4.215805      0.9381576
      8957.5000         0.7117       1207.365         0.6776       -85.7383      -4.980255      0.9234566
      8958.0000         0.7297       1189.504         0.6808       -86.5022      -5.743706      0.9087749
      8958.5000         0.7477       1171.619          0.684       -87.3387      -6.579758       0.892697
      8959.0000         0.7656       1153.732         0.6873       -88.2535       -7.49411      0.8751132
      8959.5000         0.7804       1135.873         0.6905       -87.9927      -7.232857      0.8801374
      8960.0000         0.7642       1139.859         0.6937       -86.6456      -5.885307      0.9060518
      8960.5000         0.7333       1151.473         0.6969       -85.4672      -4.706459       0.928722
      8961.0000          0.712       1158.402         0.7001       -84.7676      -4.006416      0.9421843
      8961.5000         0.6951       1153.994         0.7033       -84.9362      -4.174568      0.9389506
      8962.0000         0.6781       1146.107         0.7065       -85.5892      -4.827118      0.9264016
      8962.5000         0.6911       1144.045         0.7097       -86.1407      -5.378166      0.9158045
      8963.0000         0.7142        1173.01         0.7131       -85.6124      -4.849411      0.9259729
      8963.5000         0.7372       1201.926          0.717       -85.0842      -4.320763      0.9361392
      8964.0000         0.7602        1230.84         0.7209       -84.4722      -3.708313       0.947917
      8964.5000         0.7822       1241.521         0.7248       -83.6235      -2.859161      0.9642469
      8965.0000         0.7945       1226.395         0.7287       -82.7748      -2.010017      0.9805766
      8965.5000         0.7853       1211.266         0.7326       -81.9261      -1.160866      0.9969064
      8966.0000         0.7762       1182.996         0.7277       -81.5026     -0.7369156              1
      8966.5000         0.7621       1154.727         0.7218       -81.3569     -0.5907669              1
      8967.0000         0.7418       1190.896         0.7158       -81.8535      -1.086914      0.9983286
      8967.5000         0.7404        1216.52         0.7099         -82.35      -1.582962      0.9887892
      8968.0000         0.7478       1224.953         0.7039       -82.8456       -2.07811      0.9792671
      8968.5000         0.7552       1233.387          0.698       -83.3422      -2.574272      0.9697255
      8969.0000         0.7649       1241.832          0.692       -83.8387       -3.07032      0.9601861
      8969.5000         0.7482       1243.596         0.6823       -84.3054      -3.536568      0.9512199
      8970.0000          0.633       1236.578         0.6379        -84.741      -3.971718      0.9428516
      8970.5000         0.5798        1284.15         0.5969       -84.4908      -3.721069      0.9476718
      8971.0000         0.5557       1363.244          0.568       -83.9506       -3.18042      0.9580688
      8971.5000         0.5505        1439.26          0.573       -83.4102      -2.639572      0.9684697
      8972.0000         0.5619       1465.193          0.578       -82.8699      -2.098824      0.9788688
      8972.5000         0.5733       1398.619          0.583       -82.3448      -1.573273      0.9889755
      8973.0000         0.5847       1367.791          0.588       -82.0477      -1.275719      0.9946977
      8973.5000          0.589       1352.041         0.5931       -82.2201       -1.44767      0.9913909
      8974.0000         0.5933       1336.268         0.5993       -82.6342       -1.86132      0.9834362
      8974.5000         0.5975       1320.045         0.6054       -83.0487      -2.275368      0.9754737
      8975.0000          0.602        1298.93         0.6116       -83.0376      -2.263817      0.9756958
      8975.5000         0.6077       1277.814         0.6178       -82.5923      -1.818069      0.9842679
      8976.0000         0.6135       1256.699          0.624       -82.0175      -1.242828      0.9953302
      8976.5000         0.6192       1235.586         0.6302       -81.4259     -0.6507797              1
      8977.0000          0.625       1217.303         0.6364       -81.0383     -0.2627258              1
      8977.5000         0.6312       1202.969         0.6416       -81.2214     -0.4453735              1
      8978.0000         0.6378       1238.689         0.6381       -81.4044     -0.6279297              1
      8978.5000         0.6444       1274.412         0.6347       -81.5875     -0.8105774              1
      8979.0000         0.6498       1310.133         0.6313       -81.4077     -0.6303253              1
      8979.5000         0.6484       1345.855         0.6278       -81.0612     -0.2833786              1
      8980.0000         0.6379       1370.746         0.6244        -81.056     -0.2777252              1
      8980.5000         0.6197       1391.564          0.621       -81.9523      -1.173576       0.996662
      8981.0000         0.6016       1412.381         0.6179       -82.8484      -2.069221      0.9794381
      8981.5000         0.5834       1433.197         0.6153       -83.7446      -2.964973       0.962212
      8982.0000         0.5816       1454.014         0.6126       -83.2285      -2.448425      0.9721457
      8982.5000         0.5799       1466.609           0.61       -82.6379      -1.857376       0.983512
      8983.0000         0.5826        1478.98         0.6073       -82.0472      -1.266228      0.9948803
      8983.5000         0.5883       1487.457         0.6047       -81.4567     -0.6752853              1
      8984.0000          0.594       1490.014          0.602       -81.0999     -0.3180313              1
      8984.5000         0.5997       1492.568         0.5994       -80.8395    -0.05718231              1
      8985.0000         0.5977       1495.121         0.5971       -80.5791      0.2036667              1
      8985.5000         0.5934       1497.676         0.5985       -80.5748      0.2084198              1
      8986.0000         0.5895       1500.232         0.5999       -80.8278    -0.04412842              1
      8986.5000         0.5874       1502.785         0.6013       -81.0807     -0.2965851              1
      8987.0000         0.5853       1508.031         0.6027       -81.3336     -0.5490341              1
      8987.5000         0.5842       1517.025         0.6041       -80.9163      -0.131279              1
      8988.0000         0.5838       1526.004         0.6055       -80.2531      0.5323715              1
      8988.5000         0.5834       1534.574         0.6069       -79.8827      0.9032211              1
      8989.0000          0.583       1532.963         0.6083       -80.1831      0.6032715              1
      8989.5000         0.5826       1531.355         0.6097       -80.4836      0.3032227              1
      8990.0000         0.5831       1529.744         0.6108       -80.7845     0.00276947              1
      8990.5000          0.588       1528.135         0.6097        -81.085      -0.297287              1
      8991.0000         0.5946         1518.9         0.6085       -81.3854     -0.5972366              1
      8991.5000         0.6037       1485.266         0.6073       -81.6863     -0.8976898              1
