#------------------------------------------------------------------------------
# Created by    : vladimir.rabinovich
# Created on    : 09/19/2023 17:20:04
#------------------------------------------------------------------------------
~Version Information Section
VERS.           2.0     :   CWLS log ASCII Standard - VERSION 2.0
WRAP.           NO      :   One line per depth step
~Well Information Section
#MNEM       .UNIT                                         VALUE :DESCRIPTION
#------------------------------------------------------------------------------
STRT        .FT                                             900 :START DEPTH
STOP        .FT                                            8286 :STOP DEPTH
STEP        .FT                                             0.5 :STEP      
NULL        .                                           -999.25 :NULL      
COMP        .                                       ALLIED CORP :COMPANY   
WELL        .                               OCS G04069 ST00BP00 :WELL      
FLD         .                                           WILDCAT :FIELD     
LOC         .                                                   :LOCATION  
CNTY        .                             GALVESTON LARGE BLOCK :LOCATION  
STAT        .                                             TEXAS :STATE     
CTRY        .                                     UNITED STATES :COUNTRY   
SRVC        .                                                   :SERVICE COMPANY
DATE        .                             9/13/2023 11:18:53 AM :LOG DATE  
API         .                                    42706400840000 :API NUMBER
UWI         .                                    42706400840000 :UNIQUE WELL ID
XCOORD      .                                  987200.391396966 :SURFACE X 
YCOORD      .                                   10401886.486665 :SURFACE Y 
LAT         .                                         28.647914 :LATITUDE  
LON         .                                        -95.037018 :LONGITUDE 
ELEV        .FT                                              83 :ELEVATION VALUE
ELEV_TYPE   .                                                KB :ELEVATION REFERENCE TYPE
~Curve Information Section
#MNEM       .UNIT                                      API CODE :CURVE DESCRIPTION
#------------------------------------------------------------------------------
DEPT        .FT                                                 :DEPTH     
ASFL        .OHMM                                               :          
CILD        .MMHO                                               :          
DPHI        .%                                                  :          
DT          .US/F                                               :          
GR          .GAPI                                               :          
GR_NORM     .GAPI                                               :GammaRay Normalized
ILD         .OHMM                                               :          
SP          .MV                                                 :          
SP_NORM     .MV                                                 :SP Normalized
VSH_GR      .V/V                                                :Volume of Shale from GR
VSH_SP      .V/V                                                :Volume of Shale from SP
~A        DEPTH           ASFL           CILD           DPHI             DT             GR        GR_NORM            ILD             SP        SP_NORM         VSH_GR         VSH_SP
# ...
      7267.5000         1.3118       1081.438         20.422       102.2715        48.6194       74.53602         0.9407       -51.7443      -5.229774      0.8837451       0.919542
      7268.0000         1.3272       1063.162         21.228       102.0449        47.6555       73.15288         0.9487       -52.3973      -5.884403      0.8543165      0.9094707
      7268.5000         1.3243       1044.889        22.9514       101.8569        46.9432       72.13075         0.9567        -53.051      -6.539734      0.8325692      0.8993887
      7269.0000         1.3213       1026.637         24.078       101.6194        46.3192       71.23535         0.9648       -53.7047      -7.195065      0.8135181      0.8893067
      7269.5000         1.3184       1008.363        23.9194       101.1694        45.6951        70.3398         0.9695       -54.3892      -7.881195      0.7944638      0.8787509
      7270.0000         1.3185       990.0889        22.5834       100.4443        45.0717       69.44526         0.9672       -55.1427      -8.636326       0.775431      0.8671334
      7270.5000         1.3225       971.8379        22.3008        99.4343        45.0629       69.43262          0.965       -55.8973      -9.392559       0.775162      0.8554991
      7271.0000         1.3265       953.5635        22.3506        98.4095        45.2878       69.75534         0.9627         -56.62      -10.11689      0.7820285      0.8443555
      7271.5000         1.2989       945.4619        22.1346        98.1573        45.5125       70.07778         0.9604       -57.0372      -10.53572       0.788889       0.837912
      7272.0000         1.2683       941.8838        21.7307        99.9746        45.8402       70.54801         0.9582       -56.7155      -10.21565      0.7988939      0.8428361
      7272.5000         1.2462       938.3047        21.3578       104.7661        46.2393        71.1207         0.9559       -56.3074      -9.809181      0.8110787      0.8490895
      7273.0000         1.2241       934.9385        20.2705       108.9198         46.639       71.69425         0.9537       -55.8986      -9.402016      0.8232819      0.8553536
      7273.5000         1.2178       932.8691        18.4587        109.847        46.9238       72.10292         0.9514       -55.4898      -8.994843       0.831977      0.8616178
      7274.0000         1.2359       930.7969         17.876       106.2991        45.8487       70.56021         0.9645       -55.2074      -8.714077      0.7991534      0.8659373
      7274.5000          1.254       928.7275        19.5554       102.1405        44.6768        68.8786          0.982       -55.0076      -8.515907      0.7633745      0.8689861
      7275.0000         1.2708       926.6582        21.1307        98.1747        43.4904       67.17617         0.9994       -54.8077      -8.317638      0.7271526      0.8720363
      7275.5000         1.2686       924.5859        22.4775        97.3612        42.3027       65.47189         1.0168       -54.7829      -8.294472      0.6908912      0.8723927
      7276.0000          1.263       922.5176        22.4577        99.8979        41.1163       63.76946         1.0342       -54.9604      -8.473598      0.6546693       0.869637
      7276.5000         1.2481       920.4453        21.1382       102.3284        40.1155       62.33337         1.0516       -55.1379      -8.652733      0.6241142       0.866881
      7277.0000         1.2333        918.376        20.6144       103.9701        39.4358       61.35802         1.0691       -55.3154       -8.83186      0.6033622      0.8641253
      7277.5000         1.2185       909.2656        21.3267       105.3793        38.9224       60.62133         1.0866       -55.4928      -9.010895      0.5876878      0.8613709
      7278.0000          1.267       896.3408        21.6275       105.8043        39.2967       61.15842         1.1047       -55.5095      -9.029224      0.5991154      0.8610889
      7278.5000         1.3119       883.4033        21.1378        103.797         39.671       61.69553         1.1227       -55.1702      -8.691555      0.6105431      0.8662838
      7279.0000         1.3444       870.4785        21.4793       100.7954         40.046       62.23363         1.1408       -54.8307      -8.353687      0.6219922      0.8714817
      7279.5000         1.3768        857.541        23.5708        97.2599        40.4202       62.77058         1.1588       -54.4915      -8.016117      0.6334167      0.8766751
      7280.0000         1.3881       844.6768        25.5606        94.2225        40.6079       63.03993         1.1769       -54.1207       -7.64695      0.6391474      0.8823546
      7280.5000         1.3817       832.1699        25.8695        93.3824        40.5875       63.01066         1.1941       -53.7029      -7.230778      0.6385247      0.8887573
      7281.0000         1.3754       819.6504         24.443        94.0408        40.5672       62.98153         1.2097       -53.2856      -6.815109      0.6379049      0.8951522
      7281.5000         1.3691       807.1309        23.7982        95.1311        40.5469        62.9524         1.2092       -52.8678      -6.398945      0.6372851      0.9015547
      7282.0000         1.3627       802.0127         24.431        95.8655        40.5265       62.92313         1.1943       -52.4782      -6.010971      0.6366622      0.9075235
      7282.5000         1.3565       801.3174        25.1514         96.379        40.5061       62.89385         1.1795       -52.3127      -5.847103      0.6360394      0.9100446
      7283.0000         1.3502       804.3643        25.2434         97.046        40.4858       62.86472         1.1646       -52.1472      -5.683235      0.6354197      0.9125656
      7283.5000         1.3439        818.335        24.1049        97.9138         40.519       62.91236         1.1477       -51.9816      -5.519268      0.6364332      0.9150882
      7284.0000         1.3377       832.3174        23.4249        98.5585        40.5688       62.98383         1.1291        -51.816      -5.355297      0.6379538      0.9176108
      7284.5000         1.3313       846.2881        27.0806        99.2692        40.6187       63.05542         1.1106        -51.712       -5.25293      0.6394771      0.9191857
      7285.0000         1.3245       860.2705        30.4736        99.2245        40.6686       63.12703          1.092       -51.6495      -5.192062      0.6410006      0.9201221
      7285.5000         1.3177       874.2539        34.0253        99.0458        40.7184       63.19849         1.0734        -51.587      -5.131191      0.6425211      0.9210586
      7286.0000         1.3109       888.2246        33.9834        99.2983         40.894       63.45047         1.0549       -51.5245      -5.070324      0.6478823       0.921995
      7286.5000         1.3037       901.5244        29.4324        99.4363        41.0942       63.73775         1.0363       -51.4669      -5.014351      0.6539946      0.9228562
      7287.0000         1.2879       904.8359        22.9155        99.0778        41.2941        64.0246         1.0177       -51.4788      -5.027885      0.6600978      0.9226479
      7287.5000         1.2722       908.1465        19.6421        98.7344        41.3375       64.08687         0.9991       -51.4906      -5.041313      0.6614227      0.9224414
      7288.0000         1.2705        911.458        16.5337        98.5461         41.226       63.92687         0.9806       -51.5024      -5.054745      0.6580185      0.9222347
      7288.5000         1.2767       914.7695        17.5865        99.2452        41.1087       63.75855         0.9809       -51.5142      -5.068176      0.6544372      0.9220281
      7289.0000          1.283       918.0811        19.8636       100.2095        40.9506       63.53168         0.9815       -51.5261      -5.081707      0.6496103      0.9218199
      7289.5000         1.2883       921.3916        21.8264       100.8486        40.7925       63.30482          0.982       -51.5612      -5.118439      0.6447833      0.9212548
