#------------------------------------------------------------------------------
# Created by    : vladimir.rabinovich
# Created on    : 09/19/2023 17:20:28
#------------------------------------------------------------------------------
~Version Information Section
VERS.           2.0     :   CWLS log ASCII Standard - VERSION 2.0
WRAP.           NO      :   One line per depth step
~Well Information Section
#MNEM       .UNIT                                         VALUE :DESCRIPTION
#------------------------------------------------------------------------------
STRT        .FT                                            2653 :START DEPTH
STOP        .FT                                           10423 :STOP DEPTH
STEP        .FT                                             0.5 :STEP      
NULL        .                                           -999.25 :NULL      
COMP        .                                       MONSANTO CO :COMPANY   
WELL        .                                     ST TR 00150-L :WELL      
FLD         .                                           WILDCAT :FIELD     
LOC         .                                                   :LOCATION  
CNTY        .                             GALVESTON LARGE BLOCK :LOCATION  
STAT        .                                             TEXAS :STATE     
CTRY        .                                     UNITED STATES :COUNTRY   
SRVC        .                                                   :SERVICE COMPANY
DATE        .                             9/13/2023 11:19:24 AM :LOG DATE  
API         .                                    42706300340000 :API NUMBER
UWI         .                                    42706300340000 :UNIQUE WELL ID
XCOORD      .                                  1113316.22146511 :SURFACE X 
YCOORD      .                                  10612518.3672968 :SURFACE Y 
LAT         .                                         29.232517 :LATITUDE  
LON         .                                       -94.6530532 :LONGITUDE 
ELEV        .FT                                              81 :ELEVATION VALUE
ELEV_TYPE   .                                                KB :ELEVATION REFERENCE TYPE
~Curve Information Section
#MNEM       .UNIT                                      API CODE :CURVE DESCRIPTION
#------------------------------------------------------------------------------
DEPT        .FT                                                 :DEPTH     
ASN         .OHMM                                               :          
CILD        .MMHO                                               :          
ILD         .OHMM                                               :          
SP          .MV                                                 :          
SP_NORM     .MV                                                 :SP Normalized
VSH_SP      .V/V                                                :Volume of Shale from SP
~A        DEPTH            ASN           CILD            ILD             SP        SP_NORM         VSH_SP
# ...
      9341.0000         0.5851       1972.268          0.514       -45.2945       -3.60091        0.93331
      9341.5000         0.5804        1961.82         0.5112       -45.2012      -3.506565      0.9357291
      9342.0000         0.5757       1945.891         0.5083       -45.1138      -3.418121      0.9379969
      9342.5000         0.5724       1914.549         0.5055       -45.0439      -3.347176       0.939816
      9343.0000         0.5734       1879.314         0.5027       -45.2358      -3.538033      0.9349222
      9343.5000         0.5822       1838.904         0.4999       -45.4279      -3.729084      0.9300235
      9344.0000         0.5926       1810.373         0.4991       -45.6177      -3.917839      0.9251836
      9344.5000         0.6044       1791.227         0.5006       -45.7917      -4.090797      0.9207488
      9345.0000         0.6163       1774.324         0.5021       -45.9658      -4.263855      0.9163114
      9345.5000         0.6283       1758.852         0.5037       -45.9776      -4.274609      0.9160357
      9346.0000         0.6391       1745.348         0.5052       -45.8568      -4.152763      0.9191599
      9346.5000         0.6384       1736.873         0.5067       -45.7357      -4.030617      0.9222919
      9347.0000         0.6377       1735.277         0.5082       -45.5992      -3.893074      0.9258186
      9347.5000         0.6369       1739.004         0.5098       -45.4562      -3.749027      0.9295121
      9348.0000         0.6362       1745.607         0.5113       -45.3132      -3.604988      0.9332054
      9348.5000         0.6361       1756.363         0.5132       -45.1703       -3.46104      0.9368964
      9349.0000          0.637       1740.002          0.515       -45.0276      -3.317295      0.9405822
      9349.5000         0.6379       1713.145         0.5169       -44.8846      -3.173252      0.9442756
      9350.0000         0.6392       1697.029         0.5187       -44.7299      -3.017506      0.9482691
      9350.5000         0.6427       1680.916         0.5205       -44.5728       -2.85936      0.9523241
      9351.0000         0.6461       1664.801         0.5224       -44.4702      -2.755714      0.9549817
      9351.5000         0.6496       1654.588         0.5242       -44.4547      -2.739174      0.9554058
      9352.0000          0.653       1646.568         0.5233       -44.4242      -2.707626      0.9562147
      9352.5000         0.6567       1638.535          0.522       -44.3696      -2.651981      0.9576415
      9353.0000         0.6605       1630.516         0.5207        -44.315      -2.596336      0.9590683
      9353.5000         0.6642       1621.855         0.5195       -44.2604      -2.540691      0.9604951
      9354.0000         0.6654       1647.555         0.5182       -44.3204      -2.599648      0.9589834
      9354.5000         0.6666       1686.779         0.5169       -44.5826      -2.860802      0.9522871
      9355.0000         0.6623       1721.621         0.5156       -44.9058      -3.182961      0.9440266
      9355.5000         0.6548       1753.061         0.5143       -45.4384      -3.714516       0.930397
      9356.0000         0.6473         1784.6         0.5117       -45.9716       -4.24667       0.916752
      9356.5000         0.6398        1810.57         0.5079       -46.2351      -4.509125      0.9100224
      9357.0000         0.6311       1833.977         0.5041       -46.0884      -4.361382      0.9138107
      9357.5000          0.621       1856.793         0.5002       -45.8965      -4.168434      0.9187581
      9358.0000         0.6108       1878.822         0.4964       -45.6702       -3.94109      0.9245874
      9358.5000         0.6056       1896.426         0.4925       -45.4439      -3.713745      0.9304168
      9359.0000         0.6083       1905.357         0.4887       -45.2176      -3.486404       0.936246
      9359.5000         0.6033       1909.818         0.4849       -44.9913      -3.259056      0.9420755
      9360.0000         0.5981       1904.842          0.481       -44.8025      -3.069214      0.9469432
      9360.5000         0.5906       1893.697         0.4772       -44.6614      -2.927067       0.950588
      9361.0000         0.5827       1895.758         0.4743       -44.5221       -2.78672      0.9541867
      9361.5000         0.5826       1899.094         0.4728        -44.717      -2.980576       0.949216
      9362.0000         0.5855       1903.887         0.4713        -44.912       -3.17453      0.9442428
      9362.5000         0.5886       1908.678         0.4698       -45.1069      -3.368389       0.939272
      9363.0000         0.5924       1913.465         0.4684       -45.2261      -3.486546      0.9362424
      9363.5000         0.5957       1903.596         0.4669       -45.1613        -3.4207      0.9379308
      9364.0000         0.5916       1893.113         0.4654       -45.0964      -3.354755      0.9396216
      9364.5000         0.5875       1882.615         0.4639       -45.0315      -3.288811      0.9413126
      9365.0000         0.5862       1875.064         0.4624       -44.9802      -3.236465      0.9426547
      9365.5000         0.5905       1884.242         0.4609       -44.9309      -3.186119      0.9439456
      9366.0000         0.5949        1890.17         0.4595       -44.9603      -3.214478      0.9432185
      9366.5000         0.5964       1889.656         0.4592       -45.0305       -3.28363      0.9414454
      9367.0000         0.5948       1889.145         0.4588       -45.1281      -3.380188      0.9389696
      9367.5000         0.5932       1888.631         0.4585       -45.2963       -3.54734      0.9346836
      9368.0000         0.5898       1888.119         0.4581       -45.4648      -3.714798      0.9303898
      9368.5000         0.5863       1887.607         0.4578       -45.6331       -3.88205      0.9261013
      9369.0000         0.5827       1893.963         0.4575       -45.8015      -4.049404      0.9218102
      9369.5000          0.585       1900.381         0.4571       -45.7264      -3.973263      0.9237625
      9370.0000         0.5874       1906.799         0.4568       -45.6418      -3.887619      0.9259585
      9370.5000         0.5892       1924.061         0.4564       -45.4332      -3.677975       0.931334
      9371.0000         0.5871       1964.863         0.4561       -45.1823      -3.426029      0.9377941
      9371.5000         0.5851       1989.207         0.4566       -45.4599      -3.702583       0.930703
      9372.0000          0.583       2000.689         0.4575       -45.8006      -4.042236      0.9219939
      9372.5000         0.5788       2002.357         0.4585       -46.1413      -4.381893      0.9132848
      9373.0000          0.573       2002.248         0.4594       -46.1834      -4.422951       0.912232
      9373.5000         0.5673       2002.139         0.4603        -46.042      -4.280506      0.9158844
      9374.0000         0.5615       2002.029         0.4612       -45.9019      -4.139362      0.9195035
      9374.5000         0.5648       2002.141         0.4646        -45.766      -4.002415       0.923015
      9375.0000         0.5716       2002.537         0.4706       -45.6299      -3.865273      0.9265315
      9375.5000         0.5784       2002.217         0.4765        -45.494      -3.728325      0.9300429
      9376.0000         0.5852        1959.59         0.4824        -45.749      -3.982281      0.9235312
      9376.5000         0.5954       1875.619         0.4883        -46.348      -4.580238       0.908199
      9377.0000         0.6111       1835.012         0.4945       -46.9482      -5.179394       0.892836
      9377.5000         0.6267       1820.672          0.501       -47.5853      -5.815449       0.876527
      9378.0000         0.6462       1809.719         0.5075       -48.4241      -6.653202      0.8550461
      9378.5000         0.6404       1799.889         0.5139       -47.8977      -6.125759      0.8685703
