#------------------------------------------------------------------------------
# Created by    : vladimir.rabinovich
# Created on    : 09/19/2023 17:19:55
#------------------------------------------------------------------------------
~Version Information Section
VERS.           2.0     :   CWLS log ASCII Standard - VERSION 2.0
WRAP.           NO      :   One line per depth step
~Well Information Section
#MNEM       .UNIT                                         VALUE :DESCRIPTION
#------------------------------------------------------------------------------
STRT        .FT                                            1601 :START DEPTH
STOP        .FT                                            6340 :STOP DEPTH
STEP        .FT                                             0.5 :STEP      
NULL        .                                           -999.25 :NULL      
COMP        .                 FAIRWAYS OFFSHORE EXPLORATION INC :COMPANY   
WELL        .                                ST TR 00629-L SE/4 :WELL      
FLD         .                                       BLOCK 630-L :FIELD     
LOC         .                                                   :LOCATION  
CNTY        .                      MATAGORDA ISLAND LARGE BLOCK :LOCATION  
STAT        .                                             TEXAS :STATE     
CTRY        .                                     UNITED STATES :COUNTRY   
SRVC        .                                                   :SERVICE COMPANY
DATE        .                             9/13/2023 11:19:05 AM :LOG DATE  
API         .                                    42703302840100 :API NUMBER
UWI         .                                    42703302840100 :UNIQUE WELL ID
XCOORD      .                                  449566.970470722 :SURFACE X 
YCOORD      .                                  10204940.3648147 :SURFACE Y 
LAT         .                                        28.0716107 :LATITUDE  
LON         .                                       -96.6925833 :LONGITUDE 
ELEV        .FT                                              82 :ELEVATION VALUE
ELEV_TYPE   .                                                KB :ELEVATION REFERENCE TYPE
~Curve Information Section
#MNEM       .UNIT                                      API CODE :CURVE DESCRIPTION
#------------------------------------------------------------------------------
DEPT        .FT                                                 :DEPTH     
ASFL        .OHMM                                               :          
CILD        .MMHO                                               :          
GR          .GAPI                                               :          
GR_NORM     .GAPI                                               :GammaRay Normalized
ILD         .OHMM                                               :          
SP          .MV                                                 :          
SP_NORM     .MV                                                 :SP Normalized
VSH_GR      .V/V                                                :Volume of Shale from GR
VSH_SP      .V/V                                                :Volume of Shale from SP
~A        DEPTH           ASFL           CILD             GR        GR_NORM            ILD             SP        SP_NORM         VSH_GR         VSH_SP
# ...
      3191.0000         1.0714       1048.523        58.0082       62.39994         0.9941       -41.7229      -4.597153      0.6255305      0.9294676
      3191.5000         1.0968       966.2783        56.9982       61.10155          1.065       -42.2901      -5.164352      0.5979054       0.918346
      3192.0000         1.1082       888.8906        56.0868       59.92947         1.1301        -42.276      -5.150253      0.5729675      0.9186225
      3192.5000         1.1191       839.2041        59.1356       63.82969         1.1927       -42.2619      -5.136154      0.6559509      0.9188989
      3193.0000         1.1248       793.1738        60.0503       64.99651         1.2356       -42.2478      -5.122051      0.6807769      0.9191754
      3193.5000         1.1263       758.7979        60.9645       66.16269         1.2782       -42.2288      -5.103054      0.7055891       0.919548
      3194.0000         1.1247       745.9834        61.8792       67.32951         1.2852       -42.1424      -5.016651      0.7304152      0.9212421
      3194.5000         1.1224       759.4971        62.7933       68.49555         1.2922       -42.0559      -4.930153      0.7552245      0.9229382
      3195.0000         1.1147       773.0107        59.3611       64.09476          1.276        -41.967      -4.841251      0.6615908      0.9246814
      3195.5000          1.107       789.2842        56.0987       59.91147         1.2518       -41.8165      -4.690754      0.5725845      0.9276323
      3196.0000         1.0877       813.3428        57.2322       61.35853         1.2204       -41.6658      -4.540051      0.6033729      0.9305872
      3196.5000         1.0581       837.3877          59.38       64.10472         1.1818       -41.5151      -4.389351      0.6618026      0.9335421
      3197.0000         1.0133       859.7285        60.3821       65.38349          1.144       -41.3297      -4.203953      0.6890104      0.9371774
      3197.5000         0.9875        878.082        61.3842       66.66225         1.1174       -41.1443      -4.018551      0.7162182      0.9408127
      3198.0000         0.9774       896.4229        62.3864       67.94114          1.091       -40.9589      -3.833153      0.7434285       0.944448
      3198.5000         0.9754        903.502        62.7573       68.41145         1.0777       -40.7736      -3.647854      0.7534352      0.9480813
      3199.0000         0.9787       904.9736        61.0195       66.18089         1.0644       -40.5756      -3.449852      0.7059764      0.9519637
      3199.5000         0.9856       899.3457         60.288       65.23923         1.0519       -40.3402      -3.214451      0.6859412      0.9565794
      3200.0000         0.9956       893.7178        61.6519       66.98138         1.0406       -40.1048      -2.979053      0.7230082      0.9611951
      3200.5000         1.0056       888.2383        63.0151       68.72266         1.0294       -39.8694      -2.743652      0.7600565      0.9658107
      3201.0000         1.0268       883.2725        63.9265       69.88524         1.0299       -39.6819      -2.556152      0.7847923      0.9694872
      3201.5000         1.0392       886.1602        64.6542       70.81255         1.0314       -39.5522      -2.426453      0.8045224      0.9720303
      3202.0000         1.0186       893.2148        65.3684       71.72257         1.0367       -39.4224      -2.296654      0.8238845      0.9745754
      3202.5000         0.9957       900.2686        65.5625       71.96642          1.043       -39.2927      -2.166954      0.8290728      0.9771186
      3203.0000         0.9707       903.5859        65.7566       72.21029         1.0493       -39.2015      -2.075752      0.8342615      0.9789068
      3203.5000         0.9475       904.4512        65.3951       71.74253          1.055       -39.2328      -2.107052      0.8243092      0.9782931
      3204.0000         0.9558       900.2148        64.8225       71.00438         1.0587        -39.264      -2.138252      0.8086038      0.9776813
      3204.5000         0.9751       895.9795        62.9271       68.57196         1.0624       -39.2952      -2.169453      0.7568502      0.9770696
      3205.0000         1.0126       891.7441        61.6678       66.95427         1.0661       -39.3844      -2.258652      0.7224312      0.9753206
      3205.5000         1.0562       887.5059         60.588       65.56649         1.0691       -39.5427      -2.416954      0.6929041      0.9722166
      3206.0000         1.0736       883.2695        59.8423       64.60664         1.0706        -39.701      -2.575253      0.6724816      0.9691127
      3206.5000         1.0616       879.3535        59.8243       64.57883          1.072       -39.8463      -2.720551        0.67189      0.9662637
      3207.0000         1.0474       876.1807        59.8574       64.61647         1.0728       -39.9781      -2.852352      0.6726909      0.9636794
      3207.5000         1.0314       873.6006        60.2567       65.12316         1.0737       -40.0899      -2.964153      0.6834715      0.9614872
      3208.0000         1.0133       872.1729        60.6562        65.6301         1.0745       -40.0412      -2.915451      0.6942576      0.9624422
      3208.5000         0.9897       872.5488        61.3274       66.48504         1.0723       -39.9925      -2.866753      0.7124476       0.963397
      3209.0000         0.9699       888.2031        62.2928       67.71679         1.0695       -39.8795      -2.753754      0.7386551      0.9656126
      3209.5000         0.9563       922.9102        63.2589       68.94944         1.0667       -39.7405      -2.614754      0.7648817      0.9683382
      3210.0000         0.9455       940.8525        64.5005       70.53497          1.059       -39.6016      -2.475853      0.7986163      0.9710617
      3210.5000         0.9385       951.0537        65.7489       72.12918         1.0492         -39.35      -2.224251      0.8325357      0.9759951
      3211.0000         0.9327        951.874        66.9869       73.71009         1.0394       -39.0862      -1.960453      0.8661721      0.9811676
      3211.5000         0.9299       952.5244        67.5497        74.4262         1.0262       -38.8045      -1.678753      0.8814085      0.9866911
      3212.0000          0.927       951.6055        66.5684       73.16457         1.0075       -38.5251      -1.399353      0.8545654      0.9921696
      3212.5000         0.9278       948.7227        65.6121       71.93498         0.9908       -38.4022      -1.276451      0.8284039      0.9945794
      3213.0000          0.932       945.1396         65.485       71.76745         0.9797       -38.2792      -1.153454      0.8248394      0.9969911
      3213.5000         0.9413       939.8467        65.7234       72.06805         0.9686       -38.1564      -1.030651      0.8312351       0.999399
      3214.0000         0.9767       936.2773        66.0154       72.43729          0.967       -38.0808     -0.9550514      0.8390914              1
      3214.5000         0.9917       934.3037        67.0229       73.72298         0.9689       -38.1466      -1.020851      0.8664465      0.9995912
      3215.0000         0.9941       943.1162        68.0305       75.00877         0.9654       -38.2124      -1.086651      0.8938037       0.998301
      3215.5000         0.9894       959.9111        69.6205       77.04053         0.9618       -38.3067      -1.180954      0.9370326      0.9964519
      3216.0000         0.9679       981.6621        71.1188       78.95484         0.9501       -38.4055      -1.279751      0.9777626      0.9945147
      3216.5000         0.9358       1011.499        72.2865        80.4457         0.9337          -38.4      -1.274254              1      0.9946225
      3217.0000         0.8445       1047.566        73.4542       81.93658         0.9019       -38.3806      -1.254852              1      0.9950029
