#------------------------------------------------------------------------------
# Created by    : vladimir.rabinovich
# Created on    : 09/19/2023 17:20:11
#------------------------------------------------------------------------------
~Version Information Section
VERS.           2.0     :   CWLS log ASCII Standard - VERSION 2.0
WRAP.           NO      :   One line per depth step
~Well Information Section
#MNEM       .UNIT                                         VALUE :DESCRIPTION
#------------------------------------------------------------------------------
STRT        .FT                                             984 :START DEPTH
STOP        .FT                                            6595 :STOP DEPTH
STEP        .FT                                             0.5 :STEP      
NULL        .                                           -999.25 :NULL      
COMP        .                   MCMORAN OFFSHORE EXPLORATION CO :COMPANY   
WELL        .                               OCS G03106 ST00BP00 :WELL      
FLD         .                                           WILDCAT :FIELD     
LOC         .                                                   :LOCATION  
CNTY        .                      MATAGORDA ISLAND LARGE BLOCK :LOCATION  
STAT        .                                             TEXAS :STATE     
CTRY        .                                     UNITED STATES :COUNTRY   
SRVC        .                                                   :SERVICE COMPANY
DATE        .                             9/13/2023 11:12:09 AM :LOG DATE  
API         .                                    42703400570000 :API NUMBER
UWI         .                                    42703400570000 :UNIQUE WELL ID
XCOORD      .                                  467986.403229072 :SURFACE X 
YCOORD      .                                  10153243.7887249 :SURFACE Y 
LAT         .                                         27.931172 :LATITUDE  
LON         .                                        -96.630795 :LONGITUDE 
ELEV        .FT                                              95 :ELEVATION VALUE
ELEV_TYPE   .                                                KB :ELEVATION REFERENCE TYPE
~Curve Information Section
#MNEM       .UNIT                                      API CODE :CURVE DESCRIPTION
#------------------------------------------------------------------------------
DEPT        .FT                                                 :DEPTH     
ASFL        .OHMM                                               :          
CILD        .MMHO                                               :          
DT          .US/F                                               :          
GR          .GAPI                                               :          
GR_NORM     .GAPI                                               :GammaRay Normalized
ILD         .OHMM                                               :          
SFL         .OHMM                                               :          
SP          .MV                                                 :          
SP_NORM     .MV                                                 :SP Normalized
VSH_GR      .V/V                                                :Volume of Shale from GR
VSH_SP      .V/V                                                :Volume of Shale from SP
~A        DEPTH           ASFL           CILD             DT             GR        GR_NORM            ILD            SFL             SP        SP_NORM         VSH_GR         VSH_SP
# ...
      3594.0000         2.3329       510.1758         85.642        -999.25        -999.25         1.6953          2.267       -52.6509         -16.88        -999.25          0.736
      3594.5000         2.6779       471.9966        81.5422        -999.25        -999.25         2.0805          2.322        -53.168       -17.3949        -999.25      0.7245578
      3595.0000         2.5294       431.4995        75.6185        -999.25        -999.25         2.2343         2.3492        -53.685       -17.9097        -999.25      0.7131178
      3595.5000         2.4192       416.5659        70.9535        -999.25        -999.25         2.2023         2.3577       -54.1993       -18.4218        -999.25      0.7017378
      3596.0000         2.3208       412.9805        77.9716        -999.25        -999.25         2.1703         2.3489       -54.3282       -18.5485        -999.25      0.6989222
      3596.5000         2.2226       416.5903        86.8003        -999.25        -999.25         2.1383         2.3299        -54.457       -18.6751        -999.25      0.6961089
      3597.0000         2.1362       421.8809        88.7064        -999.25        -999.25         2.1063         2.2656       -54.4819       -18.6978        -999.25      0.6956044
      3597.5000         2.2519       427.4453        90.6306        -999.25        -999.25         2.1058         2.1291       -54.4911       -18.7048        -999.25      0.6954489
      3598.0000         2.3678       433.0068        92.5476        -999.25        -999.25         2.1101         1.9327       -54.5004       -18.7119        -999.25      0.6952911
      3598.5000         2.4375       437.9521        94.3245        -999.25        -999.25         2.1056         1.7696       -54.5096       -18.7189        -999.25      0.6951355
      3599.0000         2.4523       439.9126        95.5216        -999.25        -999.25         2.0418         1.7124       -55.1447       -19.3518        -999.25      0.6810711
      3599.5000         2.3765       441.8735        95.8212        -999.25        -999.25         1.9782         1.7299        -61.286       -25.4909        -999.25      0.5446467
      3600.0000         2.3007        443.834        93.5153        -999.25        -999.25         1.8299         1.7834       -61.8293        -26.032        -999.25      0.5326222
      3600.5000         2.2216       445.7949        91.9425        -999.25        -999.25         1.6651         1.8174       -62.3137       -26.5142        -999.25      0.5219067
      3601.0000          2.128       470.9609        91.0074        -999.25        -999.25          1.536         1.8281       -62.8417         -27.04        -999.25      0.5102222
      3601.5000         1.7893       533.9014        90.7706        -999.25        -999.25         1.4323         1.7805       -63.3872       -27.5833        -999.25      0.4981489
      3602.0000         1.7556        603.748        91.5958        -999.25        -999.25         1.3286         1.6725       -64.3566       -28.5505        -999.25      0.4766555
      3602.5000         1.7214        658.748        93.2506        -999.25        -999.25         1.2401         1.5664       -66.4847       -30.6764        -999.25      0.4294133
      3603.0000         1.8672       715.2266        95.2485        -999.25        -999.25         1.1646         1.4664       -68.8325        -33.022        -999.25      0.3772889
      3603.5000         1.9191        773.876        97.0931        -999.25        -999.25         1.0891         1.3797       -70.0504       -34.2377        -999.25      0.3502733
      3604.0000         1.8513       819.2568        98.7528        -999.25        -999.25         1.0121         1.3084       -70.9723       -35.1574        -999.25      0.3298356
      3604.5000         1.7685       854.5996       100.1758        -999.25        -999.25         0.9196         1.2022       -72.0114       -36.1943        -999.25      0.3067933
      3605.0000         1.7168       890.3613       101.5015        -999.25        -999.25         0.8272         1.0978       -73.0747       -37.2554        -999.25      0.2832133
      3605.5000         1.6679       926.3457       102.6725        -999.25        -999.25         0.7347         1.0068       -75.3011       -39.4796        -999.25      0.2337867
      3606.0000         1.6275       973.0088       103.5562        -999.25        -999.25         0.6742         0.9524       -77.1228       -41.2991        -999.25      0.1933534
      3606.5000         1.5871        1026.01       103.7274        -999.25        -999.25         0.6196         0.9584       -79.8357       -44.0098        -999.25      0.1331156
      3607.0000         1.4984       1111.566       102.8265        -999.25        -999.25          0.565         0.9851       -82.0443       -46.2162        -999.25     0.08408441
      3607.5000         1.2571       1248.646       101.8904        -999.25        -999.25         0.5362         1.0451       -84.2695       -48.4392        -999.25     0.03468442
      3608.0000         1.0848       1365.451       101.0581        -999.25        -999.25         0.5086         1.1065       -84.9364       -49.1039        -999.25     0.01991331
      3608.5000         1.0353       1482.158       101.0798        -999.25        -999.25         0.4811         1.1432        -84.282       -48.4473        -999.25     0.03450445
      3609.0000         1.0446       1598.965       102.0232        -999.25        -999.25         0.4555           1.13       -83.6276       -47.7907        -999.25     0.04909558
      3609.5000         1.0819       1711.922       103.2222        -999.25        -999.25         0.4554         1.1099       -82.7079       -46.8688        -999.25     0.06958219
      3610.0000         1.1192       1861.186       104.3551        -999.25        -999.25         0.4553         1.1014       -81.7776       -45.9363        -999.25     0.09030448
      3610.5000         1.1565       1944.498       102.9491        -999.25        -999.25         0.4551         1.1565       -80.9962       -45.1527        -999.25      0.1077178
      3611.0000         1.1938        1949.74       100.2277        -999.25        -999.25          0.455         1.1643       -80.6742       -44.8285        -999.25      0.1149222
      3611.5000         1.2167       1937.766        99.2499        -999.25        -999.25         0.4549         1.1069       -81.0298       -45.1819        -999.25      0.1070689
      3612.0000         1.1645       1918.035        99.1169        -999.25        -999.25         0.4562         1.0285       -81.3848       -45.5347        -999.25     0.09922893
      3612.5000         1.1921       1898.316       100.3201        -999.25        -999.25         0.4584         0.9674       -81.6891       -45.8368        -999.25     0.09251557
      3613.0000         1.2283        1884.73       100.7792        -999.25        -999.25         0.4606         0.9237       -81.9935        -46.139        -999.25         0.0858
      3613.5000         1.2646       1887.252        98.5281        -999.25        -999.25         0.4628         0.9572       -82.2979       -46.4412        -999.25     0.07908444
      3614.0000         1.2217       1889.773        93.3123        -999.25        -999.25          0.465          1.058       -81.5206       -45.6617        -999.25     0.09640664
      3614.5000         1.1539       1881.053         84.277        -999.25        -999.25          0.478           1.17       -80.6525       -44.7914        -999.25      0.1157466
      3615.0000         1.0793       1868.467        74.9856        -999.25        -999.25         0.5017         1.1695       -79.0995       -43.2362        -999.25      0.1503067
      3615.5000         1.0046       1835.438        70.5658        -999.25        -999.25         0.5254         1.0597       -77.6367       -41.7712        -999.25      0.1828623
      3616.0000         0.9654        1767.07        71.0428        -999.25        -999.25         0.5491         0.9102       -76.3877         -40.52        -999.25      0.2106667
