#------------------------------------------------------------------------------
# Created by    : vladimir.rabinovich
# Created on    : 09/19/2023 17:22:18
#------------------------------------------------------------------------------
~Version Information Section
VERS.           2.0     :   CWLS log ASCII Standard - VERSION 2.0
WRAP.           NO      :   One line per depth step
~Well Information Section
#MNEM       .UNIT                                         VALUE :DESCRIPTION
#------------------------------------------------------------------------------
STRT        .FT                                            4012 :START DEPTH
STOP        .FT                                            9352 :STOP DEPTH
STEP        .FT                                             0.5 :STEP      
NULL        .                                           -999.25 :NULL      
COMP        .                                   KERR-MCGEE CORP :COMPANY   
WELL        .                                ST TR 00007-L SE/4 :WELL      
FLD         .                                           WILDCAT :FIELD     
LOC         .                                                   :LOCATION  
CNTY        .                           HIGH ISLAND LARGE BLOCK :LOCATION  
STAT        .                                             TEXAS :STATE     
CTRY        .                                     UNITED STATES :COUNTRY   
SRVC        .                                                   :SERVICE COMPANY
DATE        .                             9/13/2023 11:19:15 AM :LOG DATE  
API         .                                    42708302700000 :API NUMBER
UWI         .                                    42708302700000 :UNIQUE WELL ID
XCOORD      .                                   1285759.2062487 :SURFACE X 
YCOORD      .                                  10728779.4927599 :SURFACE Y 
LAT         .                                        29.5578886 :LATITUDE  
LON         .                                       -94.1158411 :LONGITUDE 
ELEV        .FT                                             125 :ELEVATION VALUE
ELEV_TYPE   .                                                KB :ELEVATION REFERENCE TYPE
~Curve Information Section
#MNEM       .UNIT                                      API CODE :CURVE DESCRIPTION
#------------------------------------------------------------------------------
DEPT        .FT                                                 :DEPTH     
CALI        .IN                                                 :          
CILD        .MMHO                                               :          
DPHI        .%                                                  :          
ILD         .OHMM                                               :          
ILM         .OHMM                                               :          
SFL         .OHMM                                               :          
SP          .MV                                                 :          
SP_NORM     .MV                                                 :SP Normalized
VSH_SP      .V/V                                                :Volume of Shale from SP
~A        DEPTH           CALI           CILD           DPHI            ILD            ILM            SFL             SP        SP_NORM         VSH_SP
# ...
      8623.0000        10.0173       1776.047        19.0983         0.5617         0.5681         0.7032       -44.9158        -1.2376        0.98232
      8623.5000        10.0237       1765.734        19.2705         0.5703         0.5684         0.7013       -43.9169        -0.2387        0.99659
      8624.0000          10.03        1743.77        19.3739          0.582         0.5688          0.701       -42.9541         0.7241              1
      8624.5000        10.0364       1719.953        19.3254         0.5939         0.5691         0.7019        -42.885         0.7932              1
      8625.0000        10.0329       1696.236        19.2769          0.606         0.5725         0.7028        -42.816         0.8622              1
      8625.5000        10.0293       1673.426        19.1853         0.6134         0.5796         0.7091       -42.7469         0.9313              1
      8626.0000        10.0258       1650.617        19.0369         0.6199         0.5867         0.7219       -42.6779         1.0003              1
      8626.5000        10.0222       1629.939        18.8884         0.6264          0.594         0.7348       -42.3486         1.3296              1
      8627.0000        10.0187       1609.387        18.6855         0.6291         0.6004          0.749       -42.0061         1.6721              1
      8627.5000        10.0297       1598.779        18.4799         0.6218         0.6024          0.749       -41.6635         2.0147              1
      8628.0000        10.0408       1590.023        18.3213         0.6146         0.6045         0.7403       -41.3209         2.3573              1
      8628.5000        10.0519       1598.496        18.2165         0.6075         0.6065         0.7189       -40.9784         2.6998              1
      8629.0000        10.0686       1614.709        18.1116         0.6005         0.6048         0.6974       -40.6973         2.9809              1
      8629.5000        10.0993       1645.516        17.9804         0.5945         0.6018            0.7       -40.4714         3.2068              1
      8630.0000        10.1293       1662.389        17.8438         0.5918         0.5989         0.7027       -40.2459         3.4323              1
      8630.5000        10.1612       1673.807        17.5528         0.5892         0.5963         0.7055       -40.0204         3.6578              1
      8631.0000        10.2541       1668.338        17.0958         0.5865          0.595         0.7095       -39.7949         3.8833              1
      8631.5000        10.3941       1662.033        16.8088         0.5859         0.5937         0.7134       -39.7289         3.9493              1
      8632.0000        10.5214       1655.436        16.9001         0.5875         0.5929         0.7174       -39.8478         3.8304              1
      8632.5000         10.698        1648.85         17.435          0.589         0.5955         0.7214        -39.899         3.7792              1
      8633.0000        11.1644       1658.232         19.201          0.595         0.5981         0.7195       -39.7046         3.9736              1
      8633.5000        12.4709       1669.895        23.2332          0.602         0.6028         0.7168       -39.1429         4.5353              1
      8634.0000         13.392       1684.783        26.4354         0.6037          0.608         0.7141       -39.6132          4.065              1
      8634.5000        14.3892       1701.363        29.1962         0.6034         0.6133         0.7185       -42.5687         1.1095              1
      8635.0000         15.482       1717.943        29.7672         0.5954          0.613          0.723       -47.2008        -3.5226      0.9496772
      8635.5000        15.7137       1736.166         27.857         0.5823         0.6117          0.733       -54.0284       -10.3502        0.85214
      8636.0000        15.8271       1758.879        24.8225         0.5692         0.6087         0.7445        -61.434       -17.7558      0.7463457
      8636.5000        15.5269       1781.566        15.8884         0.5563         0.6054         0.7611       -67.3688       -23.6906      0.6615629
      8637.0000        14.1413       1804.277        14.6037         0.5437         0.6022         0.7857       -72.6486       -28.9704      0.5861371
      8637.5000        12.6036        1826.99        13.1203         0.5335          0.599         0.7977       -73.2413       -29.5631        0.57767
      8638.0000        11.4269       1849.432        11.0835         0.5238          0.594         0.7688       -70.0068       -26.3286      0.6238772
      8638.5000        10.1024       1870.967         9.4398         0.5142         0.5798         0.7241        -67.259       -23.5808      0.6631314
      8639.0000           10.3       1892.525         9.4147         0.5083         0.5542         0.7116       -63.8343       -20.1561      0.7120557
      8639.5000        10.5324       1914.061        10.5449         0.5049         0.5314         0.7144       -58.1044       -14.4262      0.7939115
      8640.0000        10.7649       1934.453        11.7487         0.5014         0.5291         0.7179        -54.354       -10.6758      0.8474886
      8640.5000        10.8997        1940.66        13.5146         0.4994         0.5358         0.7215        -53.491        -9.8128      0.8598171
      8641.0000        10.8412       1946.865        17.5469          0.499         0.5508         0.7217       -53.4572         -9.779         0.8603
      8641.5000        10.5263       1942.021        22.1736         0.4986         0.5598         0.7122       -53.8226       -10.1444        0.85508
      8642.0000        10.1609       1925.098        22.5327         0.4983          0.567          0.711       -54.1885       -10.5103      0.8498529
      8642.5000         9.9821       1908.197        19.1656         0.5012         0.5684         0.7261       -53.8107       -10.1325        0.85525
      8643.0000         9.8755       1888.037        16.8729         0.5042         0.5688         0.7386       -52.3343        -8.6561      0.8763414
      8643.5000         9.8223       1866.502        15.5043         0.5071         0.5673         0.7324       -50.2396        -6.5614      0.9062657
      8644.0000         9.7719       1844.992        14.7552         0.5145         0.5659         0.7082       -48.7705        -5.0923      0.9272528
      8644.5000         9.7482       1824.316        14.2501         0.5228         0.5659         0.6931       -47.4734        -3.7952      0.9457828
      8645.0000         9.7245       1803.885        14.0113         0.5309         0.5691         0.6842       -46.1306        -2.4524      0.9649657
      8645.5000         9.7345       1783.455        13.8362         0.5387         0.5722         0.6802       -44.5664        -0.8882      0.9873114
      8646.0000         9.7569       1762.705        14.0253         0.5465         0.5754         0.6836       -43.0607         0.6175              1
      8646.5000         9.7793       1741.881        14.2144         0.5533         0.5796         0.6871       -41.6411         2.0371              1
      8647.0000          9.804       1721.572        14.7648          0.558          0.584         0.6935       -40.8005         2.8777              1
      8647.5000         9.8304       1702.344        15.2887         0.5628         0.5883         0.7028       -40.2653         3.4129              1
      8648.0000         9.8568       1683.434        15.5786         0.5676         0.5919         0.7104       -39.9241         3.7541              1
      8648.5000         9.8804       1668.447        16.1915         0.5723         0.5955         0.7016       -39.5829         4.0953              1
      8649.0000         9.8931       1653.461        17.1687         0.5766         0.5992         0.6929       -39.3012          4.377              1
