#------------------------------------------------------------------------------
# Created by    : vladimir.rabinovich
# Created on    : 09/19/2023 17:22:40
#------------------------------------------------------------------------------
~Version Information Section
VERS.           2.0     :   CWLS log ASCII Standard - VERSION 2.0
WRAP.           NO      :   One line per depth step
~Well Information Section
#MNEM       .UNIT                                         VALUE :DESCRIPTION
#------------------------------------------------------------------------------
STRT        .FT                                            3744 :START DEPTH
STOP        .FT                                            9989 :STOP DEPTH
STEP        .FT                                             0.5 :STEP      
NULL        .                                           -999.25 :NULL      
COMP        .                          SEAGULL ENERGY E & P INC :COMPANY   
WELL        .                               OCS G07243 ST00BP00 :WELL      
FLD         .                                           WILDCAT :FIELD     
LOC         .                                                   :LOCATION  
CNTY        .                             GALVESTON LARGE BLOCK :LOCATION  
STAT        .                                             TEXAS :STATE     
CTRY        .                                     UNITED STATES :COUNTRY   
SRVC        .                                                   :SERVICE COMPANY
DATE        .                             9/13/2023 11:19:34 AM :LOG DATE  
API         .                                    42706403030000 :API NUMBER
UWI         .                                    42706403030000 :UNIQUE WELL ID
XCOORD      .                                   1005609.3052046 :SURFACE X 
YCOORD      .                                  10500547.7567395 :SURFACE Y 
LAT         .                                          28.92005 :LATITUDE  
LON         .                                        -94.984771 :LONGITUDE 
ELEV        .FT                                              96 :ELEVATION VALUE
ELEV_TYPE   .                                                KB :ELEVATION REFERENCE TYPE
~Curve Information Section
#MNEM       .UNIT                                      API CODE :CURVE DESCRIPTION
#------------------------------------------------------------------------------
DEPT        .FT                                                 :DEPTH     
DCAL        .IN                                                 :          
DPHI        .%                                                  :          
GR          .GAPI                                               :          
GR_NORM     .GAPI                                               :GammaRay Normalized
ILD         .OHMM                                               :          
ILM         .OHMM                                               :          
NPHI        .%                                                  :          
SFL         .OHMM                                               :          
SP          .MV                                                 :          
SP_NORM     .MV                                                 :SP Normalized
VSH_GR      .V/V                                                :Volume of Shale from GR
VSH_SP      .V/V                                                :Volume of Shale from SP
~A        DEPTH           DCAL           DPHI             GR        GR_NORM            ILD            ILM           NPHI            SFL             SP        SP_NORM         VSH_GR         VSH_SP
# ...
      7926.0000         1.2926        21.5277        64.3839       78.00037          0.822         0.8083          38.78         0.7781       -40.2197      -2.147844      0.9574546      0.9974509
      7926.5000         1.0625        20.4556        63.4251       76.74111         0.8315          0.812        37.4252         0.8269       -40.1483      -2.056972       0.930662      0.9990177
      7927.0000         0.9635        19.3136        62.3203        75.2901         0.8518         0.8283        36.2435         0.8804       -40.0552      -1.938479      0.8997894              1
      7927.5000         0.9315        18.3828        60.9334       73.46859         0.8769         0.8645         35.551         0.9459       -39.9734      -1.834371      0.8610338              1
      7928.0000         0.9316        18.9935        60.3751       72.73533         0.9044         0.9062        36.3189           1.01       -40.0498      -1.931609      0.8454325              1
      7928.5000         0.9366        18.5718        59.1927        71.1824         0.9307         0.9469        35.4763         1.0824       -40.1528      -2.062701      0.8123914       0.998919
      7929.0000         0.9261        18.7958        58.0156       69.63644         0.9536         0.9798        32.2584         1.1349        -40.299      -2.248771      0.7794986      0.9957108
      7929.5000         0.9282        21.2418        59.3518       71.39136         0.9327         0.9642        33.9769         1.0286       -40.3381      -2.298535      0.8168374      0.9948528
      7930.0000         0.9907        23.6529        64.9652       78.76382         0.9061         0.9378        38.1606         0.9275       -40.3409      -2.302099      0.9736984      0.9947914
      7930.5000         1.0762        22.7316        68.7189       83.69382         0.8845         0.9012        39.8537         0.8815       -40.2536      -2.190991              1      0.9967071
      7931.0000         1.1038         21.576        69.7296       85.02126         0.8641         0.8603        40.3779          0.844       -40.1027      -1.998934              1              1
      7931.5000         1.0917        21.5855         69.174       84.29154         0.8575          0.829        39.9903         0.8171       -39.8527      -1.680752              1              1
      7932.0000          1.104        21.9677        67.1932       81.69002         0.8602         0.8065        39.5992         0.7992       -39.7185      -1.509951              1              1
      7932.5000         1.1447        23.2621         65.444       79.39267         0.8717         0.7962        39.5548         0.7864       -39.6398      -1.409791      0.9870781              1
      7933.0000         1.2139        23.7402        64.4299       78.06078          0.894         0.7984        39.1533         0.7774       -39.6999      -1.486282      0.9587399              1
      7933.5000         1.2254        22.2726        63.3146       76.59598         0.9325         0.8365        38.0017         0.7773       -39.8073      -1.622972       0.927574              1
      7934.0000         1.0345         20.913        62.2519       75.20026         0.9815         0.9021        35.4255         0.8486       -39.8754      -1.709645      0.8978779              1
      7934.5000         0.9761        19.7853        61.2405       73.87192         1.0214         0.9886        33.1192         0.9698       -39.9274      -1.775824      0.8696153              1
      7935.0000         1.0609        18.9784        60.6651        73.1162         1.0495         1.0613        32.7222         1.1047       -40.0898      -1.982519      0.8535362              1
      7935.5000         1.1733        17.8793        61.0129       73.57299         1.0708         1.1151        33.1014         1.2264       -40.3253      -2.282242      0.8632551      0.9951338
      7936.0000         1.1917        16.6357        61.6324       74.38663          1.084         1.1526        31.6898         1.3195       -40.5497      -2.567846      0.8805667      0.9902096
      7936.5000         1.0186        15.3142        62.4071       75.40409         1.0833         1.1468        29.6249         1.3535       -40.6972      -2.755572      0.9022147      0.9869729
      7937.0000         0.8638        13.2748        63.1693       76.40515         1.0757         1.1255        28.0049         1.2875       -40.6672      -2.717387      0.9235138      0.9876313
      7937.5000         0.8512        12.8205        63.4268       76.74332         1.0611         1.0928        27.6935         1.1522       -40.6888      -2.744881       0.930709      0.9871572
      7938.0000         0.9205        16.5308        63.1357       76.36102         1.0281         1.0612        33.3098         1.0502       -40.6472      -2.691937      0.9225749      0.9880701
      7938.5000         1.0235        20.3841        62.3729       75.35918         0.9901         1.0319        35.1046         1.0079       -40.5121       -2.51999      0.9012592      0.9910347
      7939.0000         1.1233        22.0494         61.712       74.49117         0.9579         1.0023        35.5112         0.9959       -40.3458      -2.308333      0.8827909      0.9946839
      7939.5000         1.2268        21.2608        61.8948       74.73125         0.9305         0.9901        36.6739         0.9975       -40.2533      -2.190607       0.887899      0.9967136
      7940.0000         1.3315        20.6001        62.0688       74.95979          0.909         0.9704        38.4496         0.9866       -40.2306      -2.161715      0.8927614      0.9972118
      7940.5000         1.3652         22.649        61.7271       74.51101          0.889         0.9447        39.6567         0.9381       -40.2662      -2.207027       0.883213      0.9964306
      7941.0000         1.1213        24.2024        59.9713       72.20498         0.8697         0.9188        40.1293         0.8912       -40.3029      -2.253733      0.8341485      0.9956253
      7941.5000         1.0157        24.0269        58.6547       70.47581         0.8481         0.8991        39.9601         0.8683       -40.7248      -2.790699      0.7973577      0.9863673
      7942.0000         1.0049        23.0747        57.1856       68.54633         0.8272         0.8816        39.0596         0.8979       -41.4607        -3.7273       0.756305       0.970219
      7942.5000         0.8761        21.5833        57.4842       68.93851         0.8086         0.8594         36.353         0.9413       -42.4011      -4.924171      0.7646491      0.9495832
      7943.0000         0.5031        20.7915        58.9967       70.92497         0.7912         0.8334        33.2939         0.9473       -43.7308      -6.616518      0.8069143      0.9204049
      7943.5000         0.3032        21.4761         61.109       73.69921         0.7753         0.7934         31.438         0.8864       -44.6324      -7.764008      0.8659407      0.9006206
      7944.0000         0.3123        21.7234        62.9714       76.14523         0.7638         0.7671        33.9833         0.8079       -44.6826      -7.827896      0.9179835       0.899519
      7944.5000         0.4191        22.4537        64.5677       78.24177         0.7529         0.7556        40.0697         0.7431       -44.4656      -7.551715      0.9625908      0.9042808
      7945.0000         0.5525        23.5512        63.1345       76.35943         0.7432         0.7531          42.97         0.7447       -43.9583      -6.906064       0.922541      0.9154127
      7945.5000         0.6432        21.6357        60.8275       73.32949         0.7345         0.7541        39.9998         0.8346       -43.1771      -5.911809      0.8580742       0.932555
      7946.0000         0.7005        17.9349        58.3365       70.05788         0.7261         0.7463        32.9985         0.9458       -43.0124      -5.702191      0.7884654      0.9361691
