#------------------------------------------------------------------------------
# Created by    : vladimir.rabinovich
# Created on    : 09/19/2023 17:22:54
#------------------------------------------------------------------------------
~Version Information Section
VERS.           2.0     :   CWLS log ASCII Standard - VERSION 2.0
WRAP.           NO      :   One line per depth step
~Well Information Section
#MNEM       .UNIT                                         VALUE :DESCRIPTION
#------------------------------------------------------------------------------
STRT        .FT                                            1705 :START DEPTH
STOP        .FT                                           10298 :STOP DEPTH
STEP        .FT                                             0.5 :STEP      
NULL        .                                           -999.25 :NULL      
COMP        .                            STANOLIND OIL & GAS CO :COMPANY   
WELL        .                                       ST TR 00219 :WELL      
FLD         .                                           WILDCAT :FIELD     
LOC         .                                                   :LOCATION  
CNTY        .                             GALVESTON LARGE BLOCK :LOCATION  
STAT        .                                             TEXAS :STATE     
CTRY        .                                     UNITED STATES :COUNTRY   
SRVC        .                                                   :SERVICE COMPANY
DATE        .                             9/13/2023 11:19:42 AM :LOG DATE  
API         .                                    42706000170000 :API NUMBER
UWI         .                                    42706000170000 :UNIQUE WELL ID
XCOORD      .                                  1024804.26554262 :SURFACE X 
YCOORD      .                                  10549089.4715911 :SURFACE Y 
LAT         .                                        29.0543948 :LATITUDE  
LON         .                                       -94.9272588 :LONGITUDE 
ELEV        .FT                                              60 :ELEVATION VALUE
ELEV_TYPE   .                                                GL :ELEVATION REFERENCE TYPE
~Curve Information Section
#MNEM       .UNIT                                      API CODE :CURVE DESCRIPTION
#------------------------------------------------------------------------------
DEPT        .FT                                                 :DEPTH     
LAT         .OHMM                                               :          
LN          .OHMM                                               :          
SN          .OHMM                                               :          
SP          .MV                                                 :          
SP_NORM     .MV                                                 :SP Normalized
VSH_SP      .V/V                                                :Volume of Shale from SP
~A        DEPTH            LAT             LN             SN             SP        SP_NORM         VSH_SP
# ...
      7975.0000         1.3235         0.7908         0.8232       -42.9146       8.304913              1
      7975.5000         1.4699         0.8012         0.8518       -41.8304       9.389114              1
      7976.0000         1.5399         0.8084         0.9317       -48.3899       2.829613              1
      7976.5000         1.5363         0.8055         1.0464       -54.9402      -3.720688      0.9676462
      7977.0000         1.5319         0.8026          1.161       -61.7821      -10.56259      0.9081514
      7977.5000          1.418         0.8197         1.2337        -68.879      -17.65948      0.8464392
      7978.0000         1.3039         0.8654         1.2884       -75.1105      -23.89098      0.7922523
      7978.5000         1.2004          0.893         1.2183        -73.334      -22.11449      0.8077001
      7979.0000         1.0971         0.9203         1.1481       -69.1797      -17.96019      0.8438244
      7979.5000         0.9938         0.9435         1.1044       -65.0299      -13.81039      0.8799097
      7980.0000         0.9417          0.959         1.0712       -71.8308      -20.61129      0.8207714
      7980.5000         0.9021         0.9744         1.0379       -76.5089      -25.28939      0.7800922
      7981.0000         0.9029          0.988         1.0047       -61.2172      -9.997688      0.9130636
      7981.5000         0.9677         0.9837         0.9746       -53.6465      -2.426987      0.9788958
      7982.0000         1.0281         0.9794         0.9522       -48.9365       2.283012              1
      7982.5000         1.0605         0.9752         0.9298       -44.8642       6.355312              1
      7983.0000         1.0929         0.9709         0.9074       -41.2474       9.972115              1
      7983.5000         1.1421         0.9666         0.9228       -43.5477       7.671814              1
      7984.0000          1.203          0.963         0.9687       -46.1168       5.102715              1
      7984.5000         1.1891           0.96         1.0284       -50.8132       0.406311              1
      7985.0000         1.1308         0.9569          1.088       -55.3593      -4.139786      0.9640018
      7985.5000         1.0725         0.9538         1.1477       -59.2357      -8.016186       0.930294
      7986.0000         1.0142         0.9508         1.2073       -63.1122      -11.89269      0.8965853
      7986.5000         0.9728         0.9562         1.2592       -62.3515      -11.13199      0.9032001
      7987.0000          0.988         0.9761         1.2947       -58.9078      -7.688286      0.9331453
      7987.5000         1.0198          0.996         1.3303       -56.4218      -5.202286      0.9547628
      7988.0000         1.0554         1.0163         1.2981       -55.5916      -4.372086      0.9619819
      7988.5000         1.0911           1.04         1.2563       -54.7603      -3.540787      0.9692106
      7989.0000         1.1268         1.0636         1.2151       -52.5806      -1.361088      0.9881644
      7989.5000         1.1477         1.0873         1.1832       -49.8339       1.385612              1
      7990.0000         1.1635         1.1109         1.1843       -47.7066       3.512913              1
      7990.5000         1.1219         1.1303         1.2257       -49.1301       2.089413              1
      7991.0000         1.0748         1.1489          1.267       -50.9727      0.2468147              1
      7991.5000         1.0277         1.1675         1.2634        -52.772      -1.552486      0.9865001
      7992.0000         0.9803         1.1861         1.2599       -54.5712      -3.351688      0.9708549
      7992.5000         0.9329         1.1874         1.2306       -56.4024      -5.182888      0.9549314
      7993.0000         0.8854         1.1886         1.1941       -58.2496      -7.030087      0.9388688
      7993.5000         0.9457         1.1898         1.1575       -59.2676      -8.048088      0.9300166
      7994.0000         1.0602          1.191         1.1249       -59.9202      -8.700687      0.9243419
      7994.5000          1.148         1.1898         1.1135       -57.9763      -6.756786      0.9412453
      7995.0000         1.2295         1.1733         1.1021       -55.7214      -4.501888      0.9608532
      7995.5000         1.3111         1.1568         1.1017       -53.4666      -2.247086      0.9804601
      7996.0000         1.2842         1.1402          1.111       -56.7441      -5.524586      0.9519601
      7996.5000         1.2517         1.1219         1.1203       -61.4313      -10.21179      0.9112018
      7997.0000          1.219         1.0871          1.117       -69.8811      -18.66159      0.8377253
      7997.5000         1.1909         1.0522         1.1004       -75.6616      -24.44209      0.7874601
      7998.0000         1.1724         1.0173         1.0839       -79.9572      -28.73769       0.750107
      7998.5000         1.2014         0.9824         1.0673       -75.2198      -24.00029      0.7913018
      7999.0000          1.251         0.9614         1.0476       -62.9573      -11.73779      0.8979323
      7999.5000         1.3004         0.9474          1.024       -56.2931      -5.073586      0.9558819
      8000.0000         1.3499         0.9333         1.0005       -53.3277      -2.108189      0.9816679
      8000.5000         1.3811         0.9193          0.977       -50.3577      0.8618126              1
      8001.0000         1.4096         0.9148         0.9693       -50.5718      0.6477127              1
      8001.5000         1.4381         0.9233         0.9616       -55.0268      -3.807285      0.9668932
      8002.0000         1.4648         0.9318          0.954       -57.2793      -6.059788      0.9473062
      8002.5000         1.4596         0.9402         0.9466       -55.4891      -4.269588      0.9628732
      8003.0000         1.4544         0.9487         0.9479       -53.6989      -2.479385      0.9784401
      8003.5000         1.4483         0.9572         0.9492       -51.9088     -0.6892853      0.9940062
      8004.0000         1.4287         0.9612         0.9506       -50.6436      0.5759125              1
      8004.5000         1.4091         0.9626         0.9519       -49.4854       1.734112              1
      8005.0000         1.3894          0.964         0.9613       -49.6346       1.584911              1
      8005.5000         1.3698         0.9653         0.9752       -50.6993      0.5202141              1
      8006.0000           1.38         0.9667          0.989       -51.9839     -0.7643852      0.9933532
      8006.5000         1.3938         0.9681         1.0028       -53.2708      -2.051289      0.9821627
      8007.0000         1.4105         0.9694         1.0147       -53.8743      -2.654785      0.9769149
      8007.5000         1.4346         0.9708         1.0265       -50.4852       0.734314              1
      8008.0000         1.4586         0.9727         1.0384       -47.1326       4.086914              1
      8008.5000         1.4935          0.982         1.0502       -44.4827       6.736813              1
      8009.0000         1.5565         0.9913         1.0607       -43.5022       7.717312              1
      8009.5000         1.5602         1.0006         1.0674       -44.2629       6.956612              1
      8010.0000         1.5328         1.0099          1.074       -47.7886       3.430912              1
      8010.5000         1.5054         1.0192         1.0806        -52.034     -0.8144875      0.9929175
      8011.0000         1.4632         1.0285          1.087       -53.6784      -2.458885      0.9786184
      8011.5000          1.414         1.0378         1.0895       -52.3643      -1.144787      0.9900453
      8012.0000         1.3648          1.044          1.092       -51.0501      0.1694145              1
      8012.5000         1.3156          1.047         1.0956       -50.3441       0.875412              1
