#------------------------------------------------------------------------------
# Created by    : vladimir.rabinovich
# Created on    : 09/19/2023 17:20:18
#------------------------------------------------------------------------------
~Version Information Section
VERS.           2.0     :   CWLS log ASCII Standard - VERSION 2.0
WRAP.           NO      :   One line per depth step
~Well Information Section
#MNEM       .UNIT                                         VALUE :DESCRIPTION
#------------------------------------------------------------------------------
STRT        .FT                                             780 :START DEPTH
STOP        .FT                                            9803 :STOP DEPTH
STEP        .FT                                             0.5 :STEP      
NULL        .                                           -999.25 :NULL      
COMP        .                                  SAMEDAN OIL CORP :COMPANY   
WELL        .                               OCS G04076 ST00BP00 :WELL      
FLD         .                            HIGH ISLAND BLOCK 0105 :FIELD     
LOC         .                                                   :LOCATION  
CNTY        .                           HIGH ISLAND LARGE BLOCK :LOCATION  
STAT        .                                             TEXAS :STATE     
CTRY        .                                     UNITED STATES :COUNTRY   
SRVC        .                                                   :SERVICE COMPANY
DATE        .                             9/13/2023 11:19:59 AM :LOG DATE  
API         .                                    42708401630000 :API NUMBER
UWI         .                                    42708401630000 :UNIQUE WELL ID
XCOORD      .                                  1167393.84075462 :SURFACE X 
YCOORD      .                                  10652000.2522841 :SURFACE Y 
LAT         .                                        29.3430877 :LATITUDE  
LON         .                                       -94.4850788 :LONGITUDE 
ELEV        .FT                                              87 :ELEVATION VALUE
ELEV_TYPE   .                                                KB :ELEVATION REFERENCE TYPE
~Curve Information Section
#MNEM       .UNIT                                      API CODE :CURVE DESCRIPTION
#------------------------------------------------------------------------------
DEPT        .FT                                                 :DEPTH     
ASFL        .OHMM                                               :          
CILD        .MMHO                                               :          
DT          .US/F                                               :          
GR          .GAPI                                               :          
GR_1        .GAPI                                               :          
GR_NORM     .GAPI                                               :GammaRay Normalized
ILD         .OHMM                                               :          
SP          .MV                                                 :          
SP_NORM     .MV                                                 :SP Normalized
VSH_GR      .V/V                                                :Volume of Shale from GR
VSH_SP      .V/V                                                :Volume of Shale from SP
~A        DEPTH           ASFL           CILD             DT             GR           GR_1        GR_NORM            ILD             SP        SP_NORM         VSH_GR         VSH_SP
# ...
      9172.5000         0.8679       1364.852       109.8022        76.6445         87.504       91.67004         0.7414       -46.7277      0.5514259              1              1
      9173.0000         0.8658       1364.137       109.5621        77.2632        89.0204       93.73033         0.7416       -46.6463      0.6302605              1              1
      9173.5000         0.8617        1363.42       109.2756        77.4078        89.7712        94.7461         0.7417       -46.5621       0.711895              1              1
      9174.0000         0.8544       1367.912       109.2048        77.8696        90.5209       95.76037         0.7418       -46.4778      0.7936325              1              1
      9174.5000          0.847       1372.586       109.6639        78.7057        90.2157       95.33541          0.742       -46.3936      0.8752632              1              1
      9175.0000         0.8396       1377.262       110.5747         78.624         86.896       90.79779          0.742       -46.3092      0.9570999              1              1
      9175.5000         0.8337       1374.264       111.3666        76.8445        85.0109       88.21738         0.7415       -46.2571       1.006638              1              1
      9176.0000         0.8288       1366.701       112.0026        75.0819        83.1844       85.71693          0.741       -46.2134       1.047768              1              1
      9176.5000         0.8426       1359.137       112.1742        73.8777        81.2676       83.09328         0.7405       -46.4645      0.7941055              1              1
      9177.0000         0.8564       1344.709       110.9324        72.5955        78.7648       79.67014           0.74       -46.7753      0.4807434      0.9929818              1
      9177.5000         0.8703       1329.777       109.5135        72.5247         76.384       76.41345         0.7395       -47.1153       0.138176      0.9236905              1
      9178.0000         0.8779       1314.846       107.9031        73.8484        74.4232       73.72978         0.7385       -47.1331      0.1178131      0.8665911              1
      9178.5000         0.8856       1305.912       106.6577        75.5183        74.6283       74.00103         0.7341         -47.13      0.1183472      0.8723623              1
      9179.0000         0.8933       1297.762       106.8639        73.2268        78.8722       79.78246         0.7297       -47.1269      0.1188812      0.9953714              1
      9179.5000         0.9009       1291.393       108.0123        71.6958        81.1821       82.92531         0.7253       -47.1038      0.1394157              1              1
      9180.0000         0.9036       1288.148       109.9065        71.3033        83.4359        85.9916         0.7209       -47.0269      0.2137527              1              1
      9180.5000         0.9053       1293.705       111.0767        73.7534        85.6116       88.95137         0.7084       -46.9767      0.2613869              1              1
      9181.0000         0.9069       1299.609       111.3453        76.1503        87.7994       91.92763         0.6941       -47.0744      0.1611214              1              1
      9181.5000         0.9085       1312.742       110.6729        75.3879         90.019       94.94729         0.6798       -47.1721     0.06085968              1              1
      9182.0000         0.9007       1348.232       109.8895        74.3019         92.312       98.06709         0.6655       -47.7953     -0.5649071              1              1
      9182.5000         0.8923       1470.225       109.3196        76.1765        94.0237       100.3938         0.6527       -48.4534      -1.225571              1      0.9922217
      9183.0000         0.8578       1534.059       110.8888        78.8435        95.1285       101.8925         0.6415       -49.0199      -1.794636              1      0.9725988
      9183.5000         0.8126       1571.166       113.4208        80.1002        94.4241        100.923         0.6303       -49.6133      -2.390602              1      0.9520482
      9184.0000         0.7793        1609.74       116.0232        79.1993        93.0665       99.06224         0.6191       -50.1089      -2.888763              1      0.9348702
      9184.5000         0.7562       1651.352       117.8204        78.6345        91.7089       97.20149         0.6079       -50.2048      -2.987228              1      0.9314749
      9185.0000         0.7336       1689.584       119.7048        78.5546         90.837        96.0034         0.5967       -50.0208      -2.805798              1      0.9377311
      9185.5000         0.7118       1723.459       120.3992        77.6929        90.4073       95.40862         0.5951       -49.8019      -2.589458              1      0.9451911
      9186.0000         0.7071        1762.77       120.0778        75.8962        89.9775       94.81367         0.5936       -49.5831      -2.373222              1      0.9526475
      9186.5000         0.7039       1815.125       120.4985        78.0829        89.9165       94.72191         0.5922       -49.3639       -2.15659              1      0.9601176
      9187.0000         0.7008        1834.02       120.3094        80.9448         90.527       95.54626         0.5907       -49.2714      -2.066654              1      0.9632188
      9187.5000         0.7004       1838.135        119.751        83.0243        91.1387       96.37225         0.5892       -49.1902      -1.988018              1      0.9659304
      9188.0000         0.7001       1840.455       119.7982        84.0336        91.7491       97.19646         0.5877        -49.109      -1.909386              1      0.9686419
      9188.5000         0.6998       1842.777       120.2294        82.7086        92.2405       97.85833         0.5862       -49.0278       -1.83075              1      0.9713535
      9189.0000         0.6996       1845.096       120.4822        82.1808        92.5824       98.31621         0.5846       -48.9467      -1.752213              1      0.9740616
      9189.5000         0.6993       1846.959        120.384        83.7629        92.9242       98.77398         0.5829       -48.9527       -1.76078              1      0.9737662
      9190.0000         0.6991       1846.943       119.9796        85.5449         93.186        99.1226         0.5812       -48.9672      -1.777843              1      0.9731778
      9190.5000          0.699       1846.928       119.6149        86.4652        93.1749        99.0989         0.5795       -48.9816      -1.794807              1      0.9725928
      9191.0000         0.6989       1846.912       119.6617        86.6604        93.1638       99.07522         0.5779       -48.9961      -1.811874              1      0.9720044
      9191.5000         0.6988       1846.896       119.8386         86.545        93.1742       99.08086         0.5762       -49.0414      -1.859737              1      0.9703539
      9192.0000         0.6987       1846.881       119.7643        85.9509        93.3219       99.27379         0.5784       -49.1218      -1.942699              1      0.9674931
      9192.5000         0.6986        1827.73       118.9215        84.8746        93.4694       99.46648         0.5883       -49.2023      -2.025768              1      0.9646287
      9193.0000         0.6971       1801.736       118.0205        83.3485         93.354       99.30048         0.5982       -49.2827       -2.10873              1      0.9617679
      9193.5000         0.6953       1775.791       117.3378        81.7433        92.9248       98.70637          0.608       -49.3632      -2.191795              1      0.9589036
      9194.0000         0.6936       1749.797       116.8557        81.5079        92.2386       97.76162         0.6179       -49.4435      -2.274662              1      0.9560462
      9194.5000         0.6918       1697.172       116.7423         83.173        90.8787       95.89775         0.6278       -49.4669      -2.300625              1      0.9551508
