#------------------------------------------------------------------------------
# Created by    : vladimir.rabinovich
# Created on    : 09/19/2023 17:19:47
#------------------------------------------------------------------------------
~Version Information Section
VERS.           2.0     :   CWLS log ASCII Standard - VERSION 2.0
WRAP.           NO      :   One line per depth step
~Well Information Section
#MNEM       .UNIT                                         VALUE :DESCRIPTION
#------------------------------------------------------------------------------
STRT        .FT                                            2960 :START DEPTH
STOP        .FT                                           11758 :STOP DEPTH
STEP        .FT                                             0.5 :STEP      
NULL        .                                           -999.25 :NULL      
COMP        .                             CHAMPLIN PETROLEUM CO :COMPANY   
WELL        .                               OCS G06095 ST00BP00 :WELL      
FLD         .                                           WILDCAT :FIELD     
LOC         .                                                   :LOCATION  
CNTY        .                             GALVESTON LARGE BLOCK :LOCATION  
STAT        .                                             TEXAS :STATE     
CTRY        .                                     UNITED STATES :COUNTRY   
SRVC        .                                                   :SERVICE COMPANY
DATE        .                             9/13/2023 11:19:27 AM :LOG DATE  
API         .                                    42706401150000 :API NUMBER
UWI         .                                    42706401150000 :UNIQUE WELL ID
XCOORD      .                                  1057213.14222316 :SURFACE X 
YCOORD      .                                  10507856.7651171 :SURFACE Y 
LAT         .                                        28.9424301 :LATITUDE  
LON         .                                       -94.8238502 :LONGITUDE 
ELEV        .FT                                              89 :ELEVATION VALUE
ELEV_TYPE   .                                                KB :ELEVATION REFERENCE TYPE
~Curve Information Section
#MNEM       .UNIT                                      API CODE :CURVE DESCRIPTION
#------------------------------------------------------------------------------
DEPT        .FT                                                 :DEPTH     
ASFL        .OHMM                                               :          
CILD        .MMHO                                               :          
GR          .GAPI                                               :          
GR_NORM     .GAPI                                               :GammaRay Normalized
ILD         .OHMM                                               :          
SP          .MV                                                 :          
SP_NORM     .MV                                                 :SP Normalized
VSH_GR      .V/V                                                :Volume of Shale from GR
VSH_SP      .V/V                                                :Volume of Shale from SP
~A        DEPTH           ASFL           CILD             GR        GR_NORM            ILD             SP        SP_NORM         VSH_GR         VSH_SP
# ...
      7067.5000         0.3368       5962.031        29.9478       38.39375         0.2133        67.3087      -30.83072      0.1147605      0.5264966
      7068.0000         0.3439        5493.43        34.0318       46.78531         0.2262        63.6113      -27.13332      0.2933044      0.5851855
      7068.5000          0.351       5045.094        40.1626       59.38286         0.2392        51.5692      -15.09121      0.5613374      0.7763299
      7069.0000         0.3581       4542.945        52.3287       84.38244         0.3339        48.6397      -12.16172              1      0.8228299
      7069.5000         0.3673       3925.211        55.0959       90.06811         0.4434        43.8257      -7.347713              1      0.8992426
      7070.0000         0.4187        3308.23        55.8226       91.56065         0.5528        38.8209      -2.342915              1      0.9786839
      7070.5000         0.4706       2691.254          55.59       91.08197         0.6267        34.3242       2.153786              1              1
      7071.0000         0.5267       2078.066        55.3575       90.60347         0.6763        33.1302       3.347786              1              1
      7071.5000         0.5524       1338.299        55.1249       90.12478          0.726        36.9173     -0.4393158              1              1
      7072.0000         0.5689       1225.338        54.8923       89.64607         0.7568        42.3944      -5.916416              1      0.9219617
      7072.5000         0.5862       1209.611        53.8746       87.55407         0.7861        48.1769      -11.69891              1       0.830176
      7073.0000         0.6131       1181.875         50.864       81.36681         0.8154         53.969      -17.49102              1      0.7382379
      7073.5000         0.6401       1162.926         47.281       74.00333         0.8158        59.5773      -23.09932      0.8724114      0.6492172
      7074.0000         0.6562       1187.465        42.9298       65.06129         0.7501        61.4905      -25.01252      0.6821552       0.618849
      7074.5000          0.672       1216.836        37.2904       53.47207         0.6844        70.8776      -34.39962      0.4355759      0.4698474
      7075.0000         0.7009       1281.072        33.8839       46.47126         0.5971        78.8356      -42.35762      0.2866226      0.3435299
      7075.5000         0.7346       1345.309        32.2778       43.17014         0.4983        84.3557      -47.87771      0.2163859      0.2559093
      7076.0000         0.7577       1409.547          31.92       42.43417         0.3999        86.4215      -49.94352      0.2007269      0.2231188
      7076.5000         0.7397       1490.648         31.558       41.68957         0.3671        87.1407      -50.66272      0.1848845      0.2117029
      7077.0000         0.6669       1685.064        31.1537       40.85804         0.3344        87.9817      -51.50371      0.1671923      0.1983538
      7077.5000         0.5292       2861.035        30.7708       40.07049         0.3093        89.1709      -52.69291      0.1504359      0.1794776
      7078.0000          0.494        3850.93        30.5558       39.62796         0.2988        90.7274      -54.24942      0.1410204      0.1547712
      7078.5000         0.4739       3998.164        30.7783       40.08447         0.2884        92.8481      -56.37011      0.1507334      0.1211093
      7079.0000         0.4526       4075.098         31.001       40.54136         0.2779        94.2067      -57.72872      0.1604545     0.09954416
      7079.5000         0.4472       4929.883        31.2234       40.99765         0.2674        94.9399      -58.46192      0.1701629     0.08790606
      7080.0000         0.4624       4897.102        31.4462       41.45476          0.257         95.202      -58.72402      0.1798885     0.08374575
      7080.5000         0.4784       4724.859        31.6689       41.91168         0.2465        95.4645      -58.98652      0.1896102     0.07957913
      7081.0000         0.4995       4516.039        31.9886       42.56791          0.236        95.7269      -59.24891      0.2035725     0.07541408
      7081.5000         0.5207       4469.047        32.3134       43.23462         0.2329        95.9336      -59.45562      0.2177578     0.07213308
      7082.0000         0.5156       4445.289        32.6384       43.90175         0.2323        96.0002      -59.52221      0.2319522     0.07107598
      7082.5000         0.5058       4447.289        32.9631       44.56827         0.2318         96.067      -59.58902      0.2461334     0.07001562
      7083.0000         0.5001       4481.602        32.9116       44.46171         0.2312        96.1337      -59.65571      0.2438662     0.06895695
      7083.5000         0.5012       4517.977        32.8401       44.31406         0.2306        96.2004      -59.72242      0.2407247     0.06789816
      7084.0000         0.5023       4554.406        32.7686        44.1664         0.2301         95.981      -59.50302       0.237583     0.07138067
      7084.5000         0.5034       4578.672         32.697       44.01855         0.2295        95.6598      -59.18181      0.2344373     0.07647917
      7085.0000         0.5236       4576.438        32.6255       43.87091         0.2517        95.3386      -58.86061      0.2312959     0.08157755
      7085.5000         0.5446       4574.211        32.5615       43.73867         0.2765        95.0178      -58.53981      0.2284824     0.08666962
      7086.0000         0.5657       4515.563        32.5015       43.61464         0.3014        94.6967      -58.21872      0.2258434     0.09176642
      7086.5000         0.5867       4423.188        32.7883       44.20326         0.3254        94.3367      -57.85872      0.2383672     0.09748071
      7087.0000         0.6278       4330.906        33.1891       45.02615         0.3403        93.9371      -57.45912      0.2558756      0.1038235
      7087.5000         0.6757       3686.832        33.5899       45.84905         0.3552        93.0271      -56.54911       0.273384       0.118268
      7088.0000         0.7635       3368.488        33.9907       46.67193         0.3827        92.1169      -55.63891      0.2908922      0.1327157
      7088.5000         0.7911        3145.27         34.429       47.57188         0.4283        91.4061      -54.92811      0.3100399      0.1439982
      7089.0000         0.8188       2835.266        33.9567       46.60062         0.4738         91.885      -55.40702      0.2893749      0.1363966
      7089.5000         0.8464       2525.262        33.4736       45.60717         0.5194        92.3025      -55.82451      0.2682377      0.1297696
      7090.0000         0.9334        2262.25        33.0162       44.66653         0.5516          92.72      -56.24202      0.2482241      0.1231426
      7090.5000          0.961       2144.574        32.5593        43.7269         0.5806        93.1571      -56.67911       0.228232      0.1162046
      7091.0000          0.901        2060.82        32.1019       42.78627         0.5504        94.0421      -57.56411      0.2082186      0.1021569
      7091.5000         0.8169       1825.666        31.6445       41.84563          0.495        94.9976      -58.51961       0.188205      0.0869903
      7092.0000         0.7506       1775.641        31.1871       40.90499         0.4315         95.677      -59.19902      0.1681913     0.07620609
      7092.5000         0.6896       2416.684        30.7309       39.96682         0.3469        95.7081      -59.23011      0.1482303     0.07571248
      7093.0000         0.6344       2588.359        30.2782       39.03582          0.311        95.7393      -59.26132      0.1284217     0.07521717
      7093.5000         0.5502       2690.211        29.8256       38.10505          0.275        95.7704      -59.29242      0.1086181     0.07472356
