#------------------------------------------------------------------------------
# Created by    : vladimir.rabinovich
# Created on    : 09/19/2023 17:22:47
#------------------------------------------------------------------------------
~Version Information Section
VERS.           2.0     :   CWLS log ASCII Standard - VERSION 2.0
WRAP.           NO      :   One line per depth step
~Well Information Section
#MNEM       .UNIT                                         VALUE :DESCRIPTION
#------------------------------------------------------------------------------
STRT        .FT                                            4658 :START DEPTH
STOP        .FT                                           10852 :STOP DEPTH
STEP        .FT                                             0.5 :STEP      
NULL        .                                           -999.25 :NULL      
COMP        .                             WALTER OIL & GAS CORP :COMPANY   
WELL        .                               OCS G04721 ST00BP00 :WELL      
FLD         .                              GALVESTON BLOCK 0350 :FIELD     
LOC         .                                                   :LOCATION  
CNTY        .                             GALVESTON LARGE BLOCK :LOCATION  
STAT        .                                             TEXAS :STATE     
CTRY        .                                     UNITED STATES :COUNTRY   
SRVC        .                                                   :SERVICE COMPANY
DATE        .                             9/13/2023 11:19:36 AM :LOG DATE  
API         .                                    42706401870000 :API NUMBER
UWI         .                                    42706401870000 :UNIQUE WELL ID
XCOORD      .                                  1032064.33467067 :SURFACE X 
YCOORD      .                                   10428906.138822 :SURFACE Y 
LAT         .                                        28.7242451 :LATITUDE  
LON         .                                       -94.8985179 :LONGITUDE 
ELEV        .FT                                              92 :ELEVATION VALUE
ELEV_TYPE   .                                                KB :ELEVATION REFERENCE TYPE
~Curve Information Section
#MNEM       .UNIT                                      API CODE :CURVE DESCRIPTION
#------------------------------------------------------------------------------
DEPT        .FT                                                 :DEPTH     
DT          .US/F                                               :          
GR          .GAPI                                               :          
GR_1        .GAPI                                               :          
GR_NORM     .GAPI                                               :GammaRay Normalized
ILD         .OHMM                                               :          
ILM         .OHMM                                               :          
NPHI        .%                                                  :          
RFOC        .OHMM                                               :          
RHOB        .G/C3                                               :          
SP          .MV                                                 :          
SP_NORM     .MV                                                 :SP Normalized
VSH_GR      .V/V                                                :Volume of Shale from GR
VSH_SP      .V/V                                                :Volume of Shale from SP
~A        DEPTH             DT             GR           GR_1        GR_NORM            ILD            ILM           NPHI           RFOC           RHOB             SP        SP_NORM         VSH_GR         VSH_SP
# ...
      8800.0000        -999.25        67.2365        -999.25        69.6144         0.8062          0.823        39.2374         0.9041         2.3376       -73.3406      -32.13255      0.7790298      0.5056531
      8800.5000        -999.25        68.9508        -999.25        71.9077         0.7941         0.8143        38.5533         0.8731         2.3415       -68.6996      -26.71967      0.8278234      0.5889282
      8801.0000        -999.25        69.2743        -999.25       72.34046         0.7806         0.8069        38.0225         0.8658         2.3471       -65.7494      -23.27938      0.8370311      0.6418557
      8801.5000        -999.25        67.4014        -999.25       69.83499         0.7651         0.7995        37.6429         0.8641         2.3675       -63.7041      -20.89482      0.7837232      0.6785412
      8802.0000        -999.25        62.7294        -999.25       63.58504         0.7488         0.7924        37.5329         0.8644           2.38       -62.3505      -19.31723      0.6507456      0.7028118
      8802.5000        -999.25         62.205        -999.25       62.88353         0.7469         0.7889        37.4281         0.8492         2.3769       -61.3613      -18.16479      0.6358197      0.7205417
      8803.0000        -999.25        62.9761        -999.25       63.91507         0.7695         0.7892        37.1147         0.8253         2.3502       -60.5395      -17.20764      0.6577674      0.7352671
      8803.5000        -999.25        63.4855        -999.25       64.59652         0.7908         0.7959        36.4683         0.8062          2.323       -59.4375      -15.92359      0.6722664      0.7550217
      8804.0000        -999.25        63.2723        -999.25       64.31131         0.8115         0.8089         34.107         0.7962         2.2896       -57.7665      -13.97571      0.6661981      0.7849891
      8804.5000        -999.25         62.184        -999.25       62.85543         0.8253         0.8313        33.0606         0.8114         2.2766       -57.9797      -14.22606      0.6352219      0.7811376
      8805.0000        -999.25        60.9778        -999.25       61.24184          0.837         0.8679        32.8907          0.852          2.298       -58.9442      -15.35293      0.6008903      0.7638011
      8805.5000        -999.25        59.6813        -999.25       59.50746         0.8508         0.9017        32.2698         0.9664         2.3229       -61.1927      -17.97779      0.5639886      0.7234185
      8806.0000        -999.25        53.8007        -999.25       51.64071         0.8605         0.9024        30.5578         1.3064         2.3444       -65.5957      -23.11625      0.3966107      0.6443653
      8806.5000        -999.25        51.9358        -999.25       49.14594         0.8509         0.8993        30.0275         1.4912         2.3686       -70.0699      -28.33777      0.3435306      0.5640343
      8807.0000        -999.25        52.4911        -999.25       49.88879         0.8415         0.8957        31.2724         1.4262         2.4015       -70.4417      -28.77316       0.359336      0.5573361
      8807.5000        -999.25        54.1031        -999.25       52.04524         0.8283         0.8889        33.7289         1.1977         2.4302       -70.4539      -28.78901      0.4052179      0.5570922
      8808.0000        -999.25        62.5026        -999.25       63.28164         0.8104         0.8811        35.1849         1.0109         2.4578       -69.0442      -27.14597      0.6442903      0.5823697
      8808.5000        -999.25        68.7673        -999.25       71.66223         0.7908         0.8609        36.4846          0.817         2.4625       -63.2827      -20.42584      0.8226007      0.6857563
      8809.0000        -999.25         69.552        -999.25       72.71195         0.7661         0.8376        36.5646         0.7652         2.4532       -62.3201      -19.30442      0.8449352      0.7030089
      8809.5000        -999.25        68.3929        -999.25       71.16137         0.7177         0.7955        35.9531          0.776         2.4363       -62.1075      -19.05801       0.811944      0.7067999
      8810.0000        -999.25        65.5668        -999.25       67.38077         0.6282         0.7448        33.6008          0.813         2.4116       -71.4464      -29.95502      0.7315057      0.5391536
      8810.5000        -999.25        62.5869        -999.25       63.39441         0.5516           0.69        32.1385          0.899         2.3649       -77.7236      -37.28003      0.6466897      0.4264611
      8811.0000        -999.25        59.6912        -999.25        59.5207         0.5037         0.6334        32.3778         0.9632         2.3241       -80.6837       -40.7351      0.5642702      0.3733062
      8811.5000        -999.25        56.6964        -999.25       55.51442         0.4742         0.5728        33.0076         0.9986         2.2439       -84.4248      -45.10133      0.4790302      0.3061334
      8812.0000        -999.25        53.2404        -999.25       50.89116         0.4489         0.5187        33.4423         0.9785         2.2004       -86.9462      -48.04458       0.380663      0.2608526
      8812.5000        -999.25        50.5109        -999.25       47.23978         0.4151         0.4861        33.7914         0.9447         2.2057       -94.5026        -56.862       0.302974      0.1251999
      8813.0000        -999.25        48.1259        -999.25       44.04926         0.3933         0.4656         34.375         0.8865         2.2355       -97.9585      -60.89551      0.2350906     0.06314603
      8813.5000        -999.25        46.9682        -999.25       42.50055         0.3763         0.4586        35.0256         0.8467         2.2791       -99.6938      -62.92164      0.2021394     0.03197479
      8814.0000        -999.25        46.4271        -999.25       41.77669         0.3593         0.4595        35.8727         0.8586         2.3142       -100.587      -63.96532      0.1867381      0.0159182
      8814.5000        -999.25        47.0549        -999.25       42.61653         0.3587         0.4694        36.8047         0.8802         2.3414      -100.5659      -63.94233      0.2046071     0.01627191
      8815.0000        -999.25        48.8722        -999.25       45.04762         0.3774         0.4864        37.9362         0.9043         2.3532       -95.0975      -57.56414      0.2563324      0.1143978
      8815.5000        -999.25        52.2587        -999.25        49.5779          0.409         0.5105         39.212         0.9131         2.3652       -88.4386      -49.79704      0.3527214      0.2338917
      8816.0000        -999.25        57.4946        -999.25       56.58221         0.4407         0.5409        40.4626          0.902         2.3771       -83.8918      -44.49406      0.5017491      0.3154759
      8816.5000        -999.25        63.1099        -999.25       64.09406          0.476         0.5727        41.3835         0.8441          2.388       -73.8512      -32.78164      0.6615758      0.4956671
      8817.0000        -999.25        64.3334        -999.25       65.73077         0.5156         0.6099        41.9562         0.7913         2.3946       -70.5391      -28.91915      0.6963995        0.55509
      8817.5000        -999.25        65.4453        -999.25       67.21823         0.5523         0.6487        42.2964         0.7897         2.3921       -67.6285      -25.52507      0.7280475      0.6073067
      8818.0000        -999.25        66.3357        -999.25       68.40937         0.5899         0.6963        41.8212         0.8089          2.384       -63.5727      -20.79492      0.7533908      0.6800782
      8818.5000        -999.25        66.3746        -999.25        68.4614         0.6258          0.721        40.0234         0.8231         2.3766        -61.039      -17.84056      0.7544979      0.7255299
