#------------------------------------------------------------------------------
# Created by    : vladimir.rabinovich
# Created on    : 09/19/2023 17:19:22
#------------------------------------------------------------------------------
~Version Information Section
VERS.           2.0     :   CWLS log ASCII Standard - VERSION 2.0
WRAP.           NO      :   One line per depth step
~Well Information Section
#MNEM       .UNIT                                         VALUE :DESCRIPTION
#------------------------------------------------------------------------------
STRT        .FT                                            2350 :START DEPTH
STOP        .FT                                            7008 :STOP DEPTH
STEP        .FT                                             0.5 :STEP      
NULL        .                                           -999.25 :NULL      
COMP        .                                  W&T OFFSHORE INC :COMPANY   
WELL        .                               OCS G04565 ST00BP00 :WELL      
FLD         .                              GALVESTON BLOCK 0303 :FIELD     
LOC         .                                                   :LOCATION  
CNTY        .                             GALVESTON LARGE BLOCK :LOCATION  
STAT        .                                             TEXAS :STATE     
CTRY        .                                     UNITED STATES :COUNTRY   
SRVC        .                                                   :SERVICE COMPANY
DATE        .                             9/13/2023 11:19:03 AM :LOG DATE  
API         .                                    42706403950000 :API NUMBER
UWI         .                                    42706403950000 :UNIQUE WELL ID
XCOORD      .                                  979190.041446607 :SURFACE X 
YCOORD      .                                   10483081.623763 :SURFACE Y 
LAT         .                                        28.8707847 :LATITUDE  
LON         .                                       -95.0663777 :LONGITUDE 
ELEV        .FT                                              91 :ELEVATION VALUE
ELEV_TYPE   .                                                KB :ELEVATION REFERENCE TYPE
~Curve Information Section
#MNEM       .UNIT                                      API CODE :CURVE DESCRIPTION
#------------------------------------------------------------------------------
DEPT        .FT                                                 :DEPTH     
AF20        .OHMM                                               :          
AFCO        .MMHO                                               :          
AO90        .OHMM                                               :          
AT10        .OHMM                                               :          
AT20        .OHMM                                               :          
AT30        .OHMM                                               :          
AT60        .OHMM                                               :          
AT90        .OHMM                                               :          
DCAL        .IN                                                 :          
DPHI        .%                                                  :          
DRHO        .G/C3                                               :          
GR          .GAPI                                               :          
GR_NORM     .GAPI                                               :GammaRay Normalized
GRN         .GAPI                                               :          
NPOR        .%                                                  :          
RWA         .OHMM                                               :          
SP          .MV                                                 :          
SP_NORM     .MV                                                 :SP Normalized
TENR        .LBF                                                :          
TPHI        .%                                                  :          
VSH_GR      .V/V                                                :Volume of Shale from GR
VSH_SP      .V/V                                                :Volume of Shale from SP
~A        DEPTH           AF20           AFCO           AO90           AT10           AT20           AT30           AT60           AT90           DCAL           DPHI           DRHO             GR        GR_NORM            GRN           NPOR            RWA             SP        SP_NORM           TENR           TPHI         VSH_GR         VSH_SP
# ...
      2806.0000            0.5       1923.076           0.52           0.49           0.48           0.47           0.47           0.48          3.725        31.4999          -0.02           74.6          72.14        -999.25        51.4557           0.07          -12.8      -4.784071           1845        -999.25      0.8327659      0.9130169
      2806.5000            0.5       2127.656           0.47           0.48           0.46           0.46           0.45           0.46          3.625        32.5999          -0.02        74.3999       71.95992        -999.25         51.684           0.07          -15.6      -7.587878           1765        -999.25      0.8289344      0.8620386
      2807.0000           0.51       2325.578           0.43           0.51           0.47           0.46           0.45           0.45          3.425        34.0999          -0.02             71           68.9        -999.25        50.1243           0.07          -22.3      -14.29169           1765        -999.25      0.7638298      0.7401512
      2807.5000           0.51       1886.793           0.53           0.58           0.53           0.48           0.45           0.46          3.225           35.2          -0.03           59.7          58.73        -999.25        44.9536           0.09          -28.7       -20.6955           1765        -999.25      0.5474469      0.6237183
      2808.0000           0.52       1923.076           0.52           0.64           0.58            0.5           0.45           0.46          4.025        38.9999          -0.03           50.8       50.72001        -999.25           39.6           0.11          -29.6       -21.5993           1765        -999.25      0.3770214      0.6072854
      2808.5000           0.52       2127.656           0.47           0.64           0.57           0.49           0.44           0.45          4.225        41.7999          -0.03           45.9       46.31001        -999.25         41.405           0.12          -26.8      -18.80311           1765        -999.25      0.2831916      0.6581253
      2809.0000           0.52       2325.578           0.43           0.61           0.52           0.47           0.43           0.44          4.225        42.5999          -0.04           51.1          50.99        -999.25        48.5573           0.11          -22.5      -14.50692           1785        -999.25       0.382766      0.7362379
      2809.5000           0.51       2222.219           0.45           0.58            0.5           0.46           0.42           0.43          3.425        37.9999          -0.03           60.9       59.81001        -999.25        53.1358           0.09          -20.8      -12.81072           1785        -999.25      0.5704256      0.7670777
      2810.0000           0.51       2380.949           0.42           0.57           0.48           0.45           0.42           0.43          3.625           34.4          -0.02           65.7          64.13        -999.25        52.5842           0.07          -23.2      -15.21453           1785        -999.25      0.6623405      0.7233721
      2810.5000           0.51       2325.578           0.43           0.58           0.49           0.45           0.42           0.42          3.425           33.6          -0.03           64.6          63.14        -999.25        48.1078           0.07          -27.9      -19.91834           1785        -999.25      0.6412767      0.6378484
      2811.0000           0.51       2272.727           0.44            0.6           0.51           0.45           0.41           0.42          3.525           36.7          -0.03             56       55.40001        -999.25        45.0634           0.08          -29.9      -21.92215           1800        -999.25      0.4765958      0.6014155
      2811.5000           0.51       2380.949           0.42            0.6           0.51           0.45           0.41           0.42          4.025        38.5999          -0.04           55.8       55.22001        -999.25         43.791           0.09          -26.4      -18.42595           1800        -999.25      0.4727661      0.6649827
      2812.0000           0.52       2439.023           0.41           0.59            0.5           0.45           0.41           0.42          4.525           38.3          -0.03           56.6          55.94        -999.25        43.7856           0.08          -22.3      -14.32976           1800        -999.25      0.4880852      0.7394589
      2812.5000           0.53       2439.023           0.41           0.61           0.51           0.47           0.42           0.43          4.225        36.0999          -0.04           61.8          60.62        -999.25        43.9356           0.07          -24.4      -16.43357           1800        -999.25      0.5876597      0.7012078
      2813.0000           0.53       1960.783           0.51           0.67           0.56            0.5           0.44           0.45          3.025           34.2          -0.03           60.5          59.45        -999.25          40.08           0.08          -27.3      -19.33738           1800        -999.25      0.5627661      0.6484113
      2813.5000           0.54       1886.793           0.53            0.7           0.59           0.51           0.45           0.45          3.025        34.9999          -0.04           60.5          59.45        -999.25          36.72           0.09            -27      -19.04119           1800        -999.25      0.5627661      0.6537966
      2814.0000           0.54       2272.727           0.44           0.65           0.56           0.49           0.44           0.45          3.425        34.7999          -0.04           60.5          59.45        -999.25           38.1           0.07          -22.3      -14.34499           1800        -999.25      0.5627661       0.739182
      2814.5000           0.54       2564.102           0.39           0.59           0.51           0.47           0.43           0.44          4.825        32.7999          -0.03             70       68.00001        -999.25          40.86           0.06          -17.5        -9.5488           1800        -999.25       0.744681      0.8263854
      2815.0000           0.54       2272.727           0.44           0.58           0.51           0.47           0.44           0.45          3.625           29.6          -0.02           73.2          70.88        -999.25        43.7721           0.05            -19      -11.05261           1860        -999.25      0.8059576      0.7990435
      2815.5000           0.55           2000            0.5            0.6           0.54           0.49           0.46           0.47          4.425           29.6          -0.03             76           73.4        -999.25        44.0359           0.06          -19.7      -11.75642           1860        -999.25      0.8595745       0.786247
      2816.0000           0.56       1960.783           0.51           0.61           0.55            0.5           0.47           0.47          3.925           29.9          -0.03           75.6          73.04        -999.25           43.8           0.06          -19.1      -11.16022           1860        -999.25      0.8519149      0.7970868
      2816.5000           0.57       2222.219           0.45           0.61           0.55           0.51           0.47           0.47          4.325        30.5999          -0.03        78.8999       76.00992        -999.25        44.0278           0.06          -19.3      -11.36403           1860        -999.25      0.9151046      0.7933813
      2817.0000           0.59       2272.727           0.44           0.64           0.58           0.54           0.48           0.49          3.425           31.2          -0.02        76.2999       73.66991        -999.25        45.9156           0.06          -23.3      -15.36784           1790        -999.25      0.8653173      0.7205848
      2817.5000            0.6       1587.301           0.63            0.7           0.65           0.58           0.51           0.51          3.625           35.7          -0.02           66.6          64.94        -999.25        44.5205           0.11          -25.8      -17.87164           1790        -999.25      0.6795745       0.675061
