#------------------------------------------------------------------------------
# Created by    : vladimir.rabinovich
# Created on    : 09/19/2023 17:20:03
#------------------------------------------------------------------------------
~Version Information Section
VERS.           2.0     :   CWLS log ASCII Standard - VERSION 2.0
WRAP.           NO      :   One line per depth step
~Well Information Section
#MNEM       .UNIT                                         VALUE :DESCRIPTION
#------------------------------------------------------------------------------
STRT        .FT                                            3149 :START DEPTH
STOP        .FT                                           10186 :STOP DEPTH
STEP        .FT                                             0.5 :STEP      
NULL        .                                           -999.25 :NULL      
COMP        .                                  SAMEDAN OIL CORP :COMPANY   
WELL        .                                     ST TR 00817-L :WELL      
FLD         .                                           WILDCAT :FIELD     
LOC         .                                                   :LOCATION  
CNTY        .                        MUSTANG ISLAND LARGE BLOCK :LOCATION  
STAT        .                                             TEXAS :STATE     
CTRY        .                                     UNITED STATES :COUNTRY   
SRVC        .                                                   :SERVICE COMPANY
DATE        .                             9/13/2023 11:18:55 AM :LOG DATE  
API         .                                    42702300080000 :API NUMBER
UWI         .                                    42702300080000 :UNIQUE WELL ID
XCOORD      .                                  304914.569303086 :SURFACE X 
YCOORD      .                                  10013906.4088957 :SURFACE Y 
LAT         .                                        27.5345201 :LATITUDE  
LON         .                                       -97.1203623 :LONGITUDE 
ELEV        .FT                                              65 :ELEVATION VALUE
ELEV_TYPE   .                                                KB :ELEVATION REFERENCE TYPE
~Curve Information Section
#MNEM       .UNIT                                      API CODE :CURVE DESCRIPTION
#------------------------------------------------------------------------------
DEPT        .FT                                                 :DEPTH     
ASFL        .OHMM                                               :          
CILD        .MMHO                                               :          
DT          .US/F                                               :          
GR          .GAPI                                               :          
ILD         .OHMM                                               :          
SP          .MV                                                 :          
SP_NORM     .MV                                                 :SP Normalized
VSH_SP      .V/V                                                :Volume of Shale from SP
~A        DEPTH           ASFL           CILD             DT             GR            ILD             SP        SP_NORM         VSH_SP
      3149.0000         1.1882       109.7383        159.478        -999.25         0.1948      -162.0737      -81.74129              0
      3149.5000         1.1924       112.0508       155.0803        -999.25         0.2325      -154.4548      -74.79785              0
      3150.0000         1.1993       131.7114       149.0684        -999.25         0.2846      -147.2791       -68.2976     0.06531111
      3150.5000         1.2063       3177.652       135.9404        -999.25         0.3398      -143.9099      -65.60386      0.1027242
      3151.0000         1.2135       3540.707       127.6462        -999.25          0.395      -140.2368      -62.60622      0.1443581
      3151.5000         1.2237       3903.957        121.407        -999.25          0.451      -138.3752      -61.42007      0.1608323
      3152.0000         1.2338       4267.008       115.4297        -999.25         0.3646      -136.7532      -60.47353      0.1739787
      3152.5000         1.2433       4599.859       113.2352        -999.25         0.2693      -135.3379       -59.7337      0.1842542
      3153.0000         1.2514       5063.891       113.3811        -999.25         0.2565      -134.6812      -59.75244      0.1839939
      3153.5000         1.2319       4815.109       113.4065        -999.25         0.2437      -134.0505      -59.79721      0.1833721
      3154.0000         1.2079       4206.008       113.1196        -999.25         0.2323      -133.4531      -59.87526      0.1822881
      3154.5000         1.1924       4023.898       112.4873        -999.25         0.2284      -132.8911      -59.98872      0.1807123
      3155.0000         1.1862       3888.316       111.6055        -999.25         0.2245      -132.4724      -60.24548      0.1771462
      3155.5000         1.1816       3808.793       110.8861        -999.25         0.2206      -132.0535      -60.50203      0.1735829
      3156.0000         1.1929       3781.277       110.5022        -999.25         0.2167      -132.1448       -61.2688      0.1629333
      3156.5000         1.2042       3776.016       110.3563        -999.25         0.2128      -132.5701      -62.36954      0.1476452
      3157.0000         1.2156       3760.891       110.6748        -999.25         0.2282      -132.8904       -63.3653      0.1338152
      3157.5000         1.2266       3598.383       110.6697        -999.25         0.2449      -132.7791      -63.92946      0.1259797
      3158.0000         1.2377       3471.203       110.1201        -999.25         0.2591      -132.6484      -64.47423      0.1184135
      3158.5000          1.236       3315.875       109.3715        -999.25         0.2707       -131.959      -64.46027      0.1186073
      3159.0000         1.2267       3160.449       108.4211        -999.25         0.2824      -131.1277      -64.30444      0.1207717
      3159.5000         1.2177       3005.121       107.2726        -999.25         0.2942      -129.6255      -63.47769      0.1322543
      3160.0000         1.2086       2849.691       105.7479        -999.25         0.3061       -128.147      -62.67465      0.1434076
      3160.5000         1.1996       2694.363       104.1431        -999.25         0.3263      -126.7157       -61.9188      0.1539056
      3161.0000         1.1946       2538.938       102.1498        -999.25         0.3537      -125.3289      -61.20747      0.1637852
      3161.5000          1.202       2383.605       100.1367        -999.25         0.3937       -123.942      -60.49602      0.1736664
      3162.0000         1.3074        2228.18        97.6705        -999.25         0.4474      -121.7527      -58.98218       0.194692
      3162.5000         1.3811       1436.992        98.7634        -999.25         0.5024      -118.9827      -56.88763      0.2237829
      3163.0000         1.4548        1408.92       100.5098        -999.25         0.5684      -114.1467      -52.72709      0.2815682
      3163.5000         1.6288       1393.947       101.9022        -999.25         0.6344      -104.3224      -43.57825      0.4086354
      3164.0000         1.6585       1385.559       103.1132        -999.25         0.6822      -101.8882       -41.8195      0.4330624
      3164.5000          1.677       1384.469       104.1598        -999.25         0.7242      -100.3033      -40.65418      0.4492475
      3165.0000         1.6907       1398.131       105.4608        -999.25         0.7663       -98.5398      -38.89068      0.4737405
      3165.5000         1.7024       1411.785        107.543        -999.25         0.7358      -103.6581      -44.00898      0.4026531
      3166.0000          1.711       1445.619       109.7351        -999.25         0.6328      -106.3092      -46.66008      0.3658323
      3166.5000         1.7098       1517.223       110.7423        -999.25         0.5637      -108.2952      -48.64608      0.3382489
      3167.0000         1.7012       1999.928       110.9377        -999.25         0.4947      -110.4036      -50.75448      0.3089655
      3167.5000         1.6925       2550.078       110.1389        -999.25         0.4306       -112.454      -52.80488      0.2804877
      3168.0000         1.6693       3166.313       108.7688        -999.25         0.3818      -114.5507      -54.90158       0.251367
      3168.5000         1.5667        3421.84       110.1068        -999.25         0.3335       -116.955      -57.30588      0.2179739
      3169.0000         1.3798       3598.871       112.2323        -999.25         0.3141      -127.3438      -67.69469      0.0736849
      3169.5000         1.3381       3724.387       112.7708        -999.25         0.2947      -131.4009      -71.75177     0.01733653
      3170.0000         1.3129       3831.863       111.5876        -999.25         0.2753      -132.3335      -72.68437    0.004383723
      3170.5000         1.2966       3934.945       110.4805        -999.25         0.2559      -131.5906      -71.94148     0.01470163
      3171.0000         1.2849       3987.598       110.4669        -999.25         0.2365      -130.9248      -71.27568     0.02394888
      3171.5000         1.2753       3921.063       110.5789        -999.25         0.2354       -130.791      -71.14188     0.02580727
      3172.0000         1.2636       3711.578       110.6752        -999.25          0.236      -130.6572      -71.00807     0.02766567
      3172.5000         1.2508       3484.891       110.4175        -999.25         0.2459      -130.5312      -70.88208     0.02941556
      3173.0000         1.2362       3249.891       109.4338        -999.25         0.2691      -130.5693      -70.92018     0.02888637
      3173.5000         1.2215       3014.895       107.8221        -999.25         0.2924      -130.6074      -70.95828     0.02835719
      3174.0000         1.2077       2779.898       105.3163        -999.25         0.3156      -130.5798      -70.93068     0.02874056
      3174.5000         1.2047       2627.695       102.4697        -999.25         0.3388      -130.0984      -70.44928     0.03542667
      3175.0000         1.2447       2329.941        99.5328        -999.25         0.3844       -129.208      -69.55887     0.04779349
      3175.5000         1.3805       1833.355        96.4454        -999.25         0.4389      -127.7786      -68.12949     0.06764603
      3176.0000         1.6275       1701.488         93.816        -999.25         0.4829       -126.349      -66.69987     0.08750173
      3176.5000         1.8719       1635.895        91.2634        -999.25         0.5173      -124.8922      -65.24307      0.1077351
      3177.0000         1.9065       1595.816        89.3195        -999.25         0.5518       -122.968      -63.31888        0.13446
      3177.5000         1.9734       1635.162        90.9521        -999.25         0.5794      -121.4723      -61.82318      0.1552337
      3178.0000         2.1045        1758.33        95.2697        -999.25         0.6066      -120.0554      -60.40628      0.1749128
