#------------------------------------------------------------------------------
# Created by    : vladimir.rabinovich
# Created on    : 09/19/2023 17:22:56
#------------------------------------------------------------------------------
~Version Information Section
VERS.           2.0     :   CWLS log ASCII Standard - VERSION 2.0
WRAP.           NO      :   One line per depth step
~Well Information Section
#MNEM       .UNIT                                         VALUE :DESCRIPTION
#------------------------------------------------------------------------------
STRT        .FT                                             671 :START DEPTH
STOP        .FT                                           10000 :STOP DEPTH
STEP        .FT                                             0.5 :STEP      
NULL        .                                           -999.25 :NULL      
COMP        .                                    MOBIL OIL CORP :COMPANY   
WELL        .                                     ST TR 00565-L :WELL      
FLD         .                                           WILDCAT :FIELD     
LOC         .                                                   :LOCATION  
CNTY        .                      MATAGORDA ISLAND LARGE BLOCK :LOCATION  
STAT        .                                             TEXAS :STATE     
CTRY        .                                     UNITED STATES :COUNTRY   
SRVC        .                                                   :SERVICE COMPANY
DATE        .                             9/13/2023 11:12:05 AM :LOG DATE  
API         .                                    42703000150000 :API NUMBER
UWI         .                                    42703000150000 :UNIQUE WELL ID
XCOORD      .                                  584511.465629887 :SURFACE X 
YCOORD      .                                  10263641.5286434 :SURFACE Y 
LAT         .                                         28.243485 :LATITUDE  
LON         .                                       -96.2796592 :LONGITUDE 
ELEV        .FT                                              11 :ELEVATION VALUE
ELEV_TYPE   .                                                KB :ELEVATION REFERENCE TYPE
~Curve Information Section
#MNEM       .UNIT                                      API CODE :CURVE DESCRIPTION
#------------------------------------------------------------------------------
DEPT        .FT                                                 :DEPTH     
SP          .MV                                                 :          
SP_NORM     .MV                                                 :SP Normalized
VSH_SP      .V/V                                                :Volume of Shale from SP
~A        DEPTH             SP        SP_NORM         VSH_SP
# ...
      8657.0000        12.2931        -4.1298         0.9074
      8657.5000        12.4258        -4.2625      0.9016305
      8658.0000        12.3039        -4.1406      0.9069304
      8658.5000        12.1822        -4.0189      0.9122217
      8659.0000        12.0605        -3.8972       0.917513
      8659.5000        11.9387        -3.7754      0.9228087
      8660.0000        12.0001        -3.8368      0.9201391
      8660.5000         12.278        -4.1147      0.9080566
      8661.0000         12.632        -4.4687      0.8926652
      8661.5000        12.6759        -4.5126      0.8907565
      8662.0000        12.2203         -4.057      0.9105652
      8662.5000        11.7027        -3.5394      0.9330696
      8663.0000         11.185        -3.0217      0.9555783
      8663.5000        10.7056        -2.5423      0.9764217
      8664.0000         10.512        -2.3487      0.9848391
      8664.5000        10.3184        -2.1551      0.9932565
      8665.0000        10.1248        -1.9615              1
      8665.5000        10.3696        -2.2063      0.9910305
      8666.0000        10.6403         -2.477      0.9792609
      8666.5000        11.0243         -2.861      0.9625652
      8667.0000        11.4786        -3.3153       0.942813
      8667.5000        11.9323         -3.769      0.9230869
      8668.0000        12.1767        -4.0134      0.9124609
      8668.5000        12.1309        -3.9676      0.9144522
      8669.0000         12.007        -3.8437      0.9198391
      8669.5000        11.7949        -3.6316      0.9290609
      8670.0000        11.5825        -3.4192      0.9382957
      8670.5000        11.3701        -3.2068      0.9475304
      8671.0000        11.1577        -2.9944      0.9567652
      8671.5000        11.0066        -2.8433      0.9633348
      8672.0000         10.918        -2.7547       0.967187
      8672.5000        10.8295        -2.6662      0.9710348
      8673.0000        10.7409        -2.5776       0.974887
      8673.5000        10.6522        -2.4889      0.9787435
      8674.0000        10.5638        -2.4005       0.982587
      8674.5000        10.4751        -2.3118      0.9864435
      8675.0000         10.422        -2.2587      0.9887522
      8675.5000        10.4128        -2.2495      0.9891522
      8676.0000        10.4036        -2.2403      0.9895522
      8676.5000        10.3944        -2.2311      0.9899521
      8677.0000        10.3852        -2.2219      0.9903522
      8677.5000        10.4395        -2.2762      0.9879913
      8678.0000        10.6149        -2.4516      0.9803652
      8678.5000        10.7903         -2.627      0.9727391
      8679.0000        10.9657        -2.8024       0.965113
      8679.5000        11.1411        -2.9778       0.957487
      8680.0000        11.4303         -3.267       0.944913
      8680.5000        11.7466        -3.5833      0.9311609
      8681.0000        12.0622        -3.8989      0.9174391
      8681.5000        12.5636        -4.4003      0.8956391
      8682.0000        12.9049        -4.7416         0.8808
      8682.5000        12.6614        -4.4981       0.891387
      8683.0000        12.2718        -4.1085      0.9083261
      8683.5000        11.4924        -3.3291      0.9422131
      8684.0000         11.105        -2.9417      0.9590565
      8684.5000        10.9111        -2.7478       0.967487
      8685.0000        10.7169        -2.5536      0.9759305
      8685.5000        10.7053         -2.542      0.9764348
      8686.0000        10.7678        -2.6045      0.9737174
      8686.5000        10.8303         -2.667          0.971
      8687.0000        10.8927        -2.7294      0.9682869
      8687.5000        10.9746        -2.8113      0.9647261
      8688.0000        11.0654        -2.9021      0.9607782
      8688.5000        11.1563         -2.993      0.9568261
      8689.0000        11.2473         -3.084      0.9528695
      8689.5000        11.3381        -3.1748      0.9489217
      8690.0000        11.2907        -3.1274      0.9509826
      8690.5000        11.1776        -3.0143         0.9559
      8691.0000        11.0647        -2.9014      0.9608087
      8691.5000        11.0097        -2.8464         0.9632
      8692.0000         11.002        -2.8387      0.9635348
      8692.5000        10.9942        -2.8309      0.9638739
      8693.0000        10.9865        -2.8232      0.9642087
      8693.5000        10.9797        -2.8164      0.9645044
      8694.0000        10.9733          -2.81      0.9647826
      8694.5000         10.967        -2.8037      0.9650565
      8695.0000        10.9607        -2.7974      0.9653304
      8695.5000        10.9462        -2.7829      0.9659609
      8696.0000        10.8967        -2.7334      0.9681131
      8696.5000        10.8473         -2.684      0.9702609
      8697.0000        10.8154        -2.6521      0.9716478
      8697.5000        10.9357        -2.7724      0.9664174
      8698.0000        11.0559        -2.8926      0.9611913
      8698.5000        11.1762        -3.0129      0.9559609
      8699.0000        11.1533          -2.99      0.9569565
      8699.5000        10.9973         -2.834      0.9637391
      8700.0000        10.8417        -2.6784      0.9705043
      8700.5000        10.6795        -2.5162      0.9775565
      8701.0000        10.5054        -2.3421      0.9851261
      8701.5000        10.3313         -2.168      0.9926956
      8702.0000        10.1572        -1.9939              1
      8702.5000        10.1171        -1.9538              1
      8703.0000        10.0872        -1.9239              1
      8703.5000        10.0574        -1.8941              1
      8704.0000        10.2817        -2.1184      0.9948522
      8704.5000        10.5707        -2.4074       0.982287
      8705.0000        10.8596        -2.6963      0.9697261
      8705.5000        11.1012        -2.9379      0.9592217
      8706.0000        11.3174        -3.1541      0.9498218
      8706.5000        11.5339        -3.3706      0.9404087
      8707.0000         11.612        -3.4487       0.937013
      8707.5000        11.5247        -3.3614      0.9408087
      8708.0000        11.4374        -3.2741      0.9446043
      8708.5000        11.3403         -3.177      0.9488261
      8709.0000        11.1486        -2.9853      0.9571609
      8709.5000        10.9566        -2.7933      0.9655087
      8710.0000        10.7649        -2.6016      0.9738435
      8710.5000        10.6093         -2.446      0.9806087
      8711.0000        10.5558        -2.3925      0.9829348
      8711.5000         10.518        -2.3547      0.9845783
      8712.0000        10.6193         -2.456      0.9801739
      8712.5000        10.7205        -2.5572      0.9757739
      8713.0000        10.8218        -2.6585      0.9713696
      8713.5000        10.9826        -2.8193      0.9643782
      8714.0000        11.1749        -3.0116      0.9560174
      8714.5000        11.3669        -3.2036      0.9476696
      8715.0000        11.5593         -3.396      0.9393044
      8715.5000        11.7365        -3.5732         0.9316
      8716.0000         11.883        -3.7197      0.9252304
      8716.5000        11.9521        -3.7888      0.9222261
      8717.0000        11.7638        -3.6005      0.9304131
      8717.5000        11.5753         -3.412      0.9386087
      8718.0000        11.3544        -3.1911       0.948213
      8718.5000        11.1338        -2.9705      0.9578043
      8719.0000        10.9129        -2.7496      0.9674087
      8719.5000        10.6921        -2.5288      0.9770087
      8720.0000        10.6299        -2.4666       0.979713
      8720.5000        10.5737        -2.4104      0.9821565
      8721.0000        10.5576        -2.3943      0.9828565
      8721.5000        10.6935        -2.5302      0.9769478
      8722.0000        10.8295        -2.6662      0.9710348
      8722.5000        11.0312        -2.8679      0.9622652
