#------------------------------------------------------------------------------
# Created by    : vladimir.rabinovich
# Created on    : 09/19/2023 17:22:52
#------------------------------------------------------------------------------
~Version Information Section
VERS.           2.0     :   CWLS log ASCII Standard - VERSION 2.0
WRAP.           NO      :   One line per depth step
~Well Information Section
#MNEM       .UNIT                                         VALUE :DESCRIPTION
#------------------------------------------------------------------------------
STRT        .FT                                            1126 :START DEPTH
STOP        .FT                                            9906 :STOP DEPTH
STEP        .FT                                             0.5 :STEP      
NULL        .                                           -999.25 :NULL      
COMP        .                                        EXXON CORP :COMPANY   
WELL        .                               OCS G06053 ST00BP00 :WELL      
FLD         .                                           WILDCAT :FIELD     
LOC         .                                                   :LOCATION  
CNTY        .                      MATAGORDA ISLAND LARGE BLOCK :LOCATION  
STAT        .                                             TEXAS :STATE     
CTRY        .                                     UNITED STATES :COUNTRY   
SRVC        .                                                   :SERVICE COMPANY
DATE        .                             9/13/2023 11:12:11 AM :LOG DATE  
API         .                                    42703402640000 :API NUMBER
UWI         .                                    42703402640000 :UNIQUE WELL ID
XCOORD      .                                  440255.018680432 :SURFACE X 
YCOORD      .                                  10152284.9344853 :SURFACE Y 
LAT         .                                         27.926249 :LATITUDE  
LON         .                                        -96.716438 :LONGITUDE 
ELEV        .FT                                              94 :ELEVATION VALUE
ELEV_TYPE   .                                                KB :ELEVATION REFERENCE TYPE
~Curve Information Section
#MNEM       .UNIT                                      API CODE :CURVE DESCRIPTION
#------------------------------------------------------------------------------
DEPT        .FT                                                 :DEPTH     
GR          .GAPI                                               :          
GR_NORM     .GAPI                                               :GammaRay Normalized
ILD         .OHMM                                               :          
SP          .MV                                                 :          
SP_NORM     .MV                                                 :SP Normalized
VSH_GR      .V/V                                                :Volume of Shale from GR
VSH_SP      .V/V                                                :Volume of Shale from SP
~A        DEPTH             GR        GR_NORM            ILD             SP        SP_NORM         VSH_GR         VSH_SP
      1126.0000        21.3628       39.38932        -999.25        -999.25        -999.25       0.135943        -999.25
      1126.5000        22.3337       40.79669        -999.25        -999.25        -999.25       0.165887        -999.25
      1127.0000         25.078       44.77468        -999.25        -999.25        -999.25      0.2505252        -999.25
      1127.5000        26.9949       47.55333        -999.25        -999.25        -999.25      0.3096452        -999.25
      1128.0000        28.1276       49.19523        -999.25        -999.25        -999.25      0.3445794        -999.25
      1128.5000        28.9286       50.35632        -999.25        -999.25        -999.25      0.3692833        -999.25
      1129.0000         29.207       50.75988        -999.25        -999.25        -999.25      0.3778697        -999.25
      1129.5000        28.5059        49.7436        -999.25        -999.25        -999.25      0.3562469        -999.25
      1130.0000        27.6587       48.51554         0.7508        -89.912       -4.85453      0.3301178        0.79713
      1130.5000        26.6327        47.0283         0.7298       -89.3345      -4.390137      0.2984745      0.8215718
      1131.0000        25.3099       45.11085         0.7101       -88.9681      -4.474174      0.2576776      0.8171487
      1131.5000         23.866       43.01784         0.6772       -88.4413       -4.39782      0.2131455      0.8211674
      1132.0000         22.374       40.85511         0.6144       -87.9146      -4.321556      0.1671299      0.8251812
      1132.5000        21.5967       39.72837         0.5583       -87.3375      -4.194908      0.1431568       0.831847
      1133.0000        22.4361       40.94512         0.5321       -86.7231      -4.030945      0.1690452      0.8404766
      1133.5000        24.0538       43.29006         0.5202        -86.192      -3.950294      0.2189375      0.8447213
      1134.0000        25.8079       45.83271         0.5141       -85.7007      -3.909431      0.2730364       0.846872
      1134.5000         27.318       48.02168         0.5104       -85.2488      -3.907982      0.3196101      0.8469483
      1135.0000         26.933        47.4636         0.5116       -84.9528      -4.062416      0.3077362      0.8388202
      1135.5000        26.8566       47.35286         0.5227       -84.6688      -4.228867        0.30538      0.8300596
      1136.0000        27.6017       48.43291         0.5459       -84.4525      -4.463005      0.3283598      0.8177366
      1136.5000        28.3874       49.57183         0.5672       -84.3782      -4.839149      0.3525921      0.7979395
      1137.0000        28.8428       50.23195         0.5829       -84.3567      -5.268089      0.3666372      0.7753637
      1137.5000        29.1584       50.68943         0.5835       -84.3956      -5.757439      0.3763708      0.7496085
      1138.0000        29.7223       51.50682         0.5826       -84.4346       -6.24688      0.3937622      0.7238485
      1138.5000        30.3449       52.39934         0.5815       -84.4567      -6.719429      0.4127519      0.6989774
      1139.0000        31.0699       53.43966         0.5788       -84.3851      -7.098274      0.4348863      0.6790382
      1139.5000        31.7949       54.47997         0.5758       -84.1323      -7.295914      0.4570206      0.6686361
      1140.0000        32.6095       55.65016         0.5714       -83.7242      -7.338257      0.4819183      0.6664075
      1140.5000        32.2537       55.12379         0.5672       -82.9559      -7.020401       0.470719      0.6831368
      1141.0000        31.6102        54.1804         0.5632       -82.0157      -6.530647      0.4506469      0.7089133
      1141.5000        30.5732       52.66661          0.563       -80.9667      -5.932083      0.4184386      0.7404167
      1142.0000        30.9698        53.2309         0.5642       -79.7775      -5.193329      0.4304447      0.7792985
      1142.5000         32.356       55.22965         0.5594       -78.6591      -4.525375      0.4729713      0.8144539
      1143.0000        33.0466        56.2201         0.5536       -77.8684       -4.18512      0.4940446      0.8323621
      1143.5000        31.6569       54.19505         0.5433       -77.1415      -3.908661      0.4509584      0.8469126
      1144.0000        30.1037       51.93301         0.5321       -76.5488      -3.766403      0.4028299      0.8543999
      1144.5000         29.045       50.38776         0.5164        -76.092      -3.760048      0.3699524      0.8547343
      1145.0000        28.6372       49.78602         0.4991       -75.8312      -3.949692      0.3571494      0.8447531
      1145.5000        28.5793       49.69149         0.4665       -75.5931      -4.162033       0.355138      0.8335772
      1146.0000         28.742       49.91672          0.441       -75.3708      -4.121826      0.3599302      0.8356934
      1146.5000        29.0667       50.37678         0.4354       -75.1394      -3.914871      0.3697188      0.8465858
      1147.0000         29.445       50.91453         0.4324       -74.9028      -3.702721      0.3811603      0.8577515
      1147.5000        29.8596        51.5049         0.4311       -75.0244      -3.848755      0.3937213      0.8500655
      1148.0000        30.6122       52.58523         0.4336       -76.1396      -4.988403      0.4167071      0.7900841
      1148.5000        31.4697        53.8176         0.4379       -77.9463      -6.819542      0.4429277      0.6937083
      1149.0000        32.4867       55.28119         0.4458       -79.5105      -8.408188      0.4740678      0.6100954
      1149.5000        33.3348       56.49995         0.4544       -80.9471      -9.869225      0.4999989      0.5331987
      1150.0000        32.8573       55.79716         0.4629       -81.9178      -10.86437      0.4850461      0.4808225
      1150.5000        31.3835       53.65022         0.4694       -82.8369      -11.80791      0.4393664      0.4311624
      1151.0000        29.8766       51.45527         0.4729       -83.7104      -12.70586      0.3926654      0.3839019
      1151.5000        29.5234       50.93269          0.477       -84.6318       -13.6517      0.3815467      0.3341213
      1152.0000        29.6387       51.08922         0.4829       -85.5374      -14.58174      0.3848771      0.2851715
      1152.5000        29.6042       51.02859         0.4888       -86.1935      -15.26228      0.3835871      0.2493535
      1153.0000         28.773       49.81312          0.495       -86.8265      -15.91973       0.357726       0.214751
      1153.5000        27.9654       48.63187         0.5011       -87.4181      -16.53577      0.3325929      0.1823281
      1154.0000        27.5724       48.05157         0.5074       -87.3784      -16.52052      0.3202463      0.1831308
      1154.5000        27.4239       47.82571         0.5144       -87.1544      -16.32096      0.3154407      0.1936336
      1155.0000        28.1602       48.88241         0.5214       -86.6984       -15.8894      0.3379236      0.2163471
      1155.5000        28.9448       50.00911         0.5278       -86.2423      -15.45774      0.3618959      0.2390663
      1156.0000        29.7831       51.21365         0.5334       -85.6964      -14.93629      0.3875245      0.2665112
      1156.5000        29.7367       51.13579         0.5331       -85.1488      -14.41313      0.3858678      0.2940457
      1157.0000        30.0474       51.57556         0.5327       -84.6768      -13.96558      0.3952247      0.3176013
      1157.5000        30.4848       52.19898         0.5303       -84.2034      -13.51661      0.4084889      0.3412311
      1158.0000         30.826       52.68295         0.5279        -83.671      -13.00865      0.4187862      0.3679657
      1158.5000        30.1252        51.6565          0.525       -83.4619        -12.824      0.3969468      0.3776844
      1159.0000        29.3029       50.45393          0.522       -82.8192      -12.20574      0.3713601      0.4102241
