#------------------------------------------------------------------------------
# Created by    : vladimir.rabinovich
# Created on    : 09/19/2023 17:20:01
#------------------------------------------------------------------------------
~Version Information Section
VERS.           2.0     :   CWLS log ASCII Standard - VERSION 2.0
WRAP.           NO      :   One line per depth step
~Well Information Section
#MNEM       .UNIT                                         VALUE :DESCRIPTION
#------------------------------------------------------------------------------
STRT        .FT                                            3530 :START DEPTH
STOP        .FT                                           11780 :STOP DEPTH
STEP        .FT                                             0.5 :STEP      
NULL        .                                           -999.25 :NULL      
COMP        .                                        TEXACO INC :COMPANY   
WELL        .                                     ST TR 00820-L :WELL      
FLD         .                                           WILDCAT :FIELD     
LOC         .                                                   :LOCATION  
CNTY        .                        MUSTANG ISLAND LARGE BLOCK :LOCATION  
STAT        .                                             TEXAS :STATE     
CTRY        .                                     UNITED STATES :COUNTRY   
SRVC        .                                                   :SERVICE COMPANY
DATE        .                             9/13/2023 11:18:55 AM :LOG DATE  
API         .                                    42702302010000 :API NUMBER
UWI         .                                    42702302010000 :UNIQUE WELL ID
XCOORD      .                                  295719.314319733 :SURFACE X 
YCOORD      .                                  9994218.17259751 :SURFACE Y 
LAT         .                                        27.4796405 :LATITUDE  
LON         .                                       -97.1466422 :LONGITUDE 
ELEV        .FT                                              78 :ELEVATION VALUE
ELEV_TYPE   .                                                KB :ELEVATION REFERENCE TYPE
~Curve Information Section
#MNEM       .UNIT                                      API CODE :CURVE DESCRIPTION
#------------------------------------------------------------------------------
DEPT        .FT                                                 :DEPTH     
ASFL        .OHMM                                               :          
CILD        .MMHO                                               :          
GR          .GAPI                                               :          
GR_NORM     .GAPI                                               :GammaRay Normalized
ILD         .OHMM                                               :          
SP          .MV                                                 :          
SP_NORM     .MV                                                 :SP Normalized
VSH_GR      .V/V                                                :Volume of Shale from GR
VSH_SP      .V/V                                                :Volume of Shale from SP
~A        DEPTH           ASFL           CILD             GR        GR_NORM            ILD             SP        SP_NORM         VSH_GR         VSH_SP
# ...
      9015.5000         0.4933        2766.57        54.3969       77.71888          0.325        -37.371       1.225491      0.9514655              1
      9016.0000         0.5129       2613.539        51.7308       73.85193         0.3411       -37.6673      0.9291878        0.86919              1
      9016.5000         0.5334       2433.734        54.8758       78.40845         0.3572       -37.9635       0.632988      0.9661373              1
      9017.0000         0.5543       2342.461        56.7766       81.16144         0.3725       -38.0573      0.5391884              1              1
      9017.5000         0.5491       2288.375        58.4725       83.61744         0.3858       -38.1295      0.4669876              1              1
      9018.0000         0.5372       2259.984        59.1526       84.60095          0.399       -38.0045      0.5919876              1              1
      9018.5000         0.5254       2287.887        58.6311       83.84273         0.4122       -37.8058      0.7906876              1              1
      9019.0000         0.5127       2315.785        58.1096       83.08448         0.4234       -37.6071      0.9893875              1              1
      9019.5000         0.5025       2343.977        57.5875       82.32536         0.4217       -37.4084       1.188087              1              1
      9020.0000         0.5062       2372.219        57.0309       81.51624           0.42       -37.3098        1.28669              1              1
      9020.5000         0.5109       2400.461        56.2668       80.40634         0.4182       -37.2458       1.350689              1              1
      9021.0000          0.534       2356.828        55.5028       79.29657         0.4165       -37.1816        1.41489      0.9850334              1
      9021.5000          0.557       2284.906        54.7388       78.18681         0.4185       -37.1176       1.478889      0.9614214              1
      9022.0000         0.5876       2213.082        53.9748       77.07706         0.4342       -37.0535       1.542988      0.9378097              1
      9022.5000         0.6179       2141.059        53.2404        76.0102         0.4499       -37.1041        1.49239      0.9151106              1
      9023.0000         0.6338       2063.371        52.5109       74.95044         0.4656       -37.1865       1.409988      0.8925626              1
      9023.5000         0.6498       1985.686        51.7802       73.88896         0.4813       -37.2689       1.327587      0.8699779              1
      9024.0000         0.6595       1924.512        51.0508       72.82935          0.497       -37.3513        1.24519      0.8474329              1
      9024.5000         0.6667       1865.488         50.516       72.05184         0.5126       -37.4337       1.162788      0.8308902              1
      9025.0000          0.674       1817.703        50.3164        71.7602         0.5332       -37.5161       1.080387      0.8246851              1
      9025.5000         0.6806       1773.949        50.5533       72.10129         0.5555       -37.5984      0.9980888      0.8319423              1
      9026.0000         0.6754       1796.107         51.463       73.41764         0.5778       -37.6808      0.9156876      0.8599498              1
      9026.5000          0.655       1821.172        52.3727       74.73397         0.6001       -37.7889      0.8075905      0.8879568              1
      9027.0000         0.6379       1846.287        53.2811       76.04845         0.6224       -37.9092      0.6872902      0.9159244              1
      9027.5000         0.6326       1871.352        54.1908        77.3648         0.6153       -38.0294      0.5670891      0.9439319              1
      9028.0000         0.6272       1896.467        54.6351       78.00654          0.593       -38.1497      0.4467888      0.9575859              1
      9028.5000         0.6218        1921.58         53.407       76.22403         0.5676       -38.2701      0.3263893      0.9196602              1
      9029.0000         0.6164       1950.604        52.0148       74.20367         0.5417       -38.3904       0.206089      0.8766738              1
      9029.5000         0.6105       1981.238          50.62       72.17952         0.5158       -38.5106     0.08588791      0.8336068              1
      9030.0000         0.5985       2039.627        49.2277       70.15901           0.49       -38.6309    -0.03441238      0.7906173              1
      9030.5000         0.5864       2105.684        48.0083       68.38913         0.4641       -38.7513     -0.1548119      0.7529602              1
      9031.0000         0.5744        2221.68        53.0046       75.62921         0.4383       -38.8604     -0.2639122      0.9070045              1
      9031.5000         0.5623       2341.875        55.4139       79.11929         0.4124       -38.9199       -0.32341      0.9812616              1
      9032.0000         0.5425        2434.32        57.8232       82.60941         0.3866       -38.9794     -0.3829117              1              1
      9032.5000         0.5217       2538.879        59.5093       85.05118         0.3752       -39.0389     -0.4424095              1              1
      9033.0000         0.5009       2648.133        60.9337       87.11361         0.3681       -39.0188     -0.4223099              1              1
      9033.5000         0.4885       2735.984        62.3259       89.12937         0.3609       -38.7214     -0.1249123              1              1
      9034.0000         0.4804       2806.637        63.3344       90.58894         0.3538       -38.4239      0.1725883              1              1
      9034.5000         0.4723        2890.09        62.9752       90.06596         0.3467       -38.1271      0.4693871              1              1
      9035.0000         0.4642       2975.594        61.6249       88.10632         0.3395        -37.874      0.7224884              1              1
      9035.5000         0.4561       3024.551        59.4723        84.9837         0.3324       -37.6469      0.9495888              1              1
      9036.0000         0.4487       3065.254        58.3725        83.3872         0.3253       -37.4198       1.176689              1              1
      9036.5000         0.4429        3041.75        58.5663        83.6658         0.3269       -37.1927        1.40379              1              1
      9037.0000          0.437       2986.539        59.9956       85.73533         0.3295          -37.1        1.49649              1              1
      9037.5000          0.436       2651.063        61.2595       87.56511         0.3321       -37.1722        1.42429              1              1
      9038.0000         0.4367       2541.617        62.5259       89.39854         0.3347       -37.2717       1.324787              1              1
      9038.5000         0.4467       2469.207         64.318       91.99397         0.3374       -37.4454       1.151089              1              1
      9039.0000         0.4636       2250.801        62.0717       88.73554         0.3432       -37.6188      0.9776878              1              1
      9039.5000         0.4805        2112.43        59.6697       85.25141         0.3623       -37.7922      0.8042908              1              1
      9040.0000         0.4974       2007.086        57.1716       81.62799         0.3814       -37.9656      0.6308899              1              1
      9040.5000          0.531       1907.215        54.8635       78.27999         0.4005       -38.1804      0.4160881      0.9634041              1
      9041.0000          0.572       1845.457        52.7183       75.16811         0.4197       -38.4106      0.1858902      0.8971937              1
      9041.5000         0.6485       1841.021        50.5756       72.05985         0.4416       -38.6405    -0.04401016      0.8310607              1
