#------------------------------------------------------------------------------
# Created by    : vladimir.rabinovich
# Created on    : 09/19/2023 17:20:25
#------------------------------------------------------------------------------
~Version Information Section
VERS.           2.0     :   CWLS log ASCII Standard - VERSION 2.0
WRAP.           NO      :   One line per depth step
~Well Information Section
#MNEM       .UNIT                                         VALUE :DESCRIPTION
#------------------------------------------------------------------------------
STRT        .FT                                             396 :START DEPTH
STOP        .FT                                           11006 :STOP DEPTH
STEP        .FT                                             0.5 :STEP      
NULL        .                                           -999.25 :NULL      
COMP        .                                 CALIFORNIA CO THE :COMPANY   
WELL        .                                OCS 00507 ST00BP00 :WELL      
FLD         .                            HIGH ISLAND BLOCK 0052 :FIELD     
LOC         .                                                   :LOCATION  
CNTY        .                           HIGH ISLAND LARGE BLOCK :LOCATION  
STAT        .                                             TEXAS :STATE     
CTRY        .                                     UNITED STATES :COUNTRY   
SRVC        .                                                   :SERVICE COMPANY
DATE        .                             9/13/2023 11:19:15 AM :LOG DATE  
API         .                                    42708000170000 :API NUMBER
UWI         .                                    42708000170000 :UNIQUE WELL ID
XCOORD      .                                  1293108.02889945 :SURFACE X 
YCOORD      .                                   10685731.628563 :SURFACE Y 
LAT         .                                         29.439677 :LATITUDE  
LON         .                                        -94.091453 :LONGITUDE 
ELEV        .FT                                              70 :ELEVATION VALUE
ELEV_TYPE   .                                                KB :ELEVATION REFERENCE TYPE
~Curve Information Section
#MNEM       .UNIT                                      API CODE :CURVE DESCRIPTION
#------------------------------------------------------------------------------
DEPT        .FT                                                 :DEPTH     
ASN         .OHMM                                               :          
CILD        .MMHO                                               :          
ILM         .OHMM                                               :          
SP          .MV                                                 :          
SP_NORM     .MV                                                 :SP Normalized
VSH_SP      .V/V                                                :Volume of Shale from SP
~A        DEPTH            ASN           CILD            ILM             SP        SP_NORM         VSH_SP
# ...
      4614.0000         0.6827       3185.164         0.6869       -77.0123       -14.9735       0.776319
      4614.5000         0.6635       3234.227         0.6506       -80.3007       -18.2665      0.7195431
      4615.0000         0.6446           3285         0.6143       -83.0846       -21.0551      0.6714638
      4615.5000         0.6258       3376.027          0.578       -86.5156       -24.4907      0.6122293
      4616.0000         0.6077       3405.902         0.5552       -90.8329       -28.8127       0.537712
      4616.5000         0.5913       3360.039         0.5382      -109.6047       -47.5891       0.213981
      4617.0000         0.5749       3282.457         0.5213      -112.7968       -50.7859      0.1588638
      4617.5000         0.5585        3184.07         0.5044      -114.5714       -52.5651      0.1281879
      4618.0000         0.5356       2883.781         0.4875      -115.0171       -53.0155      0.1204224
      4618.5000         0.5076       2815.574         0.4706      -115.4626       -53.4656      0.1126621
      4619.0000         0.4796       2777.465         0.4536      -115.9082       -53.9159      0.1048983
      4619.5000         0.4478       2783.328         0.4367      -116.3539       -54.3662     0.09713449
      4620.0000         0.4149       2802.566         0.4241      -116.7997       -54.8167     0.08936724
      4620.5000         0.4357        2824.73         0.4238      -117.2454        -55.267     0.08160347
      4621.0000         0.4676       2846.895         0.4236      -117.6909       -55.7172     0.07384136
      4621.5000         0.4977       2873.969         0.4233      -118.1366       -56.1675      0.0660776
      4622.0000         0.5179       2904.434          0.423      -118.5822       -56.6178     0.05831376
      4622.5000          0.538       2934.902         0.4227      -118.9563       -56.9965     0.05178452
      4623.0000         0.5582       2965.367         0.4224      -119.1674       -57.2123      0.0480638
      4623.5000         0.5767       3019.273         0.4222      -119.3783       -57.4278     0.04434829
      4624.0000         0.5659       3074.598         0.4219      -119.5894       -57.6436     0.04062758
      4624.5000         0.5365       3111.066         0.4196      -119.8004       -57.8592     0.03691035
      4625.0000         0.5033       3139.016         0.4091      -120.0114       -58.0749     0.03319135
      4625.5000         0.4729       3102.195         0.3986      -120.2224       -58.2906     0.02947242
      4626.0000         0.4487       3049.367         0.3881      -120.3185       -58.3913      0.0277362
      4626.5000         0.4293       2989.352         0.3776      -120.2844       -58.3619      0.0282431
      4627.0000         0.4196       2921.496         0.3671      -120.2502       -58.3323     0.02875348
      4627.5000         0.4098       2834.234         0.3566      -120.2162        -58.303      0.0292586
      4628.0000         0.4013        2751.66         0.3461      -120.1821       -58.2735     0.02976727
      4628.5000         0.4013       2673.996         0.3356      -120.1479        -58.244     0.03027587
      4629.0000         0.4012       2591.551         0.3333      -120.1139       -58.2146     0.03078276
      4629.5000         0.4041        2460.57         0.3315      -120.0758       -58.1812     0.03135865
      4630.0000         0.4136       2377.164         0.3297      -120.0317       -58.1417     0.03203964
      4630.5000         0.4232       2314.215         0.3278      -119.9877       -58.1024     0.03271721
      4631.0000         0.4328       2269.008          0.326      -119.9436       -58.0629     0.03339827
      4631.5000         0.4356       2231.469         0.3242      -119.8997       -58.0237     0.03407412
      4632.0000         0.4349       2194.957         0.3224      -119.8556       -57.9842     0.03475518
      4632.5000         0.4324       2169.109         0.3205      -119.8115       -57.9448     0.03543446
      4633.0000         0.4274       2185.078         0.3187      -119.7675       -57.9054     0.03611381
      4633.5000         0.4225       2222.051         0.3204      -119.7235       -57.8661     0.03679137
      4634.0000         0.4175        2269.93         0.3225      -119.9242       -58.0714     0.03325173
      4634.5000         0.4177        2332.57         0.3246      -120.1471        -58.299     0.02932759
      4635.0000         0.4249       2400.207         0.3267      -120.3701       -58.5266     0.02540345
      4635.5000         0.4321       2450.191         0.3289      -120.5931       -58.7543      0.0214776
      4636.0000         0.4393       2497.195          0.331       -120.816       -58.9818     0.01755517
      4636.5000         0.4465       2531.383         0.3331      -121.0391       -59.2096     0.01362761
      4637.0000         0.4523       2565.598         0.3352       -121.262       -59.4371    0.009705182
      4637.5000          0.458       2594.836         0.3374      -121.4849       -59.6647    0.005781042
      4638.0000         0.4637       2615.164         0.3395      -121.7079       -59.8923    0.001856902
      4638.5000         0.4662       2635.512         0.3416      -121.8127       -60.0018              0
      4639.0000          0.462       2633.242          0.343      -121.9004       -60.0942              0
      4639.5000         0.4579       2622.645         0.3416      -121.9879       -60.1863              0
      4640.0000         0.4537       2612.031         0.3401      -122.0754       -60.2785              0
      4640.5000         0.4496       2595.941         0.3387      -122.1631       -60.3708              0
      4641.0000         0.4454        2577.59         0.3372      -122.2507       -60.4631              0
      4641.5000         0.4412       2559.246         0.3358      -122.3383       -60.5553              0
      4642.0000         0.4369       2515.199         0.3343      -122.4259       -60.6476              0
      4642.5000         0.4326       2474.043         0.3329      -122.5134       -60.7397              0
      4643.0000         0.4283       2452.172         0.3315      -122.6011       -60.8321              0
      4643.5000          0.424       2441.789           0.33      -122.5538       -60.7894              0
      4644.0000         0.4197       2460.023         0.3286      -122.4148       -60.6551              0
      4644.5000         0.4154       2492.199         0.3271      -122.2759       -60.5208              0
      4645.0000          0.411       2541.262         0.3264      -122.1368       -60.3864              0
      4645.5000         0.4065       2611.133         0.3304      -121.9979       -60.2521              0
      4646.0000          0.402       2674.871         0.3345      -121.8589       -60.1178              0
      4646.5000         0.3975       2737.207         0.3386      -121.7198       -59.9833   0.0002879439
      4647.0000          0.393       2793.758         0.3427      -121.5811       -59.8493    0.002598269
      4647.5000         0.3885       2850.355         0.3467       -121.442       -59.7148     0.00491721
      4648.0000         0.3906       2888.031         0.3508      -121.3031       -59.5806    0.007231022
      4648.5000         0.3937       2901.258         0.3549      -121.0203       -59.3024     0.01202761
      4649.0000         0.3969       2889.957          0.359      -120.7183       -59.0051     0.01715344
      4649.5000         0.4001       2535.832          0.363      -120.4164       -58.7078     0.02227928
      4650.0000         0.4032       2405.156         0.3729      -120.1145       -58.4106     0.02740347
      4650.5000         0.4168       2384.797           0.39      -119.8126       -58.1133     0.03252931
      4651.0000         0.4371       2377.906         0.4072      -119.5106        -57.816     0.03765514
      4651.5000         0.4573       2372.457         0.4243       -119.209       -57.5191     0.04277413
