#------------------------------------------------------------------------------
# Created by    : vladimir.rabinovich
# Created on    : 09/19/2023 17:22:41
#------------------------------------------------------------------------------
~Version Information Section
VERS.           2.0     :   CWLS log ASCII Standard - VERSION 2.0
WRAP.           NO      :   One line per depth step
~Well Information Section
#MNEM       .UNIT                                         VALUE :DESCRIPTION
#------------------------------------------------------------------------------
STRT        .FT                                            2948 :START DEPTH
STOP        .FT                                            8770 :STOP DEPTH
STEP        .FT                                             0.5 :STEP      
NULL        .                                           -999.25 :NULL      
COMP        .                 BROOKLYN UNION EXPLORATION CO INC :COMPANY   
WELL        .                               OCS G07238 ST00BP00 :WELL      
FLD         .                                           WILDCAT :FIELD     
LOC         .                                                   :LOCATION  
CNTY        .                             GALVESTON LARGE BLOCK :LOCATION  
STAT        .                                             TEXAS :STATE     
CTRY        .                                     UNITED STATES :COUNTRY   
SRVC        .                                                   :SERVICE COMPANY
DATE        .                             9/13/2023 11:19:34 AM :LOG DATE  
API         .                                    42706402470000 :API NUMBER
UWI         .                                    42706402470000 :UNIQUE WELL ID
XCOORD      .                                  1057740.92261072 :SURFACE X 
YCOORD      .                                   10547901.298013 :SURFACE Y 
LAT         .                                         29.052568 :LATITUDE  
LON         .                                        -94.824133 :LONGITUDE 
ELEV        .FT                                              85 :ELEVATION VALUE
ELEV_TYPE   .                                                KB :ELEVATION REFERENCE TYPE
~Curve Information Section
#MNEM       .UNIT                                      API CODE :CURVE DESCRIPTION
#------------------------------------------------------------------------------
DEPT        .FT                                                 :DEPTH     
DCAL        .IN                                                 :          
DT          .US/F                                               :          
GR          .GAPI                                               :          
GR_NORM     .GAPI                                               :GammaRay Normalized
ILD         .OHMM                                               :          
ILM         .OHMM                                               :          
SFL         .OHMM                                               :          
SP          .MV                                                 :          
SP_NORM     .MV                                                 :SP Normalized
VSH_GR      .V/V                                                :Volume of Shale from GR
VSH_SP      .V/V                                                :Volume of Shale from SP
~A        DEPTH           DCAL             DT             GR        GR_NORM            ILD            ILM            SFL             SP        SP_NORM         VSH_GR         VSH_SP
# ...
      6075.5000         3.2605        115.626          75.28       79.92253         0.5976         0.6301         0.7142       -45.5395       1.089767      0.9983518              1
      6076.0000         3.2537         115.23        76.2422       81.17881          0.598           0.63          0.703       -46.7391     -0.1111946              1      0.9982893
      6076.5000         3.2433       115.6404        78.9324       84.69855         0.5984         0.6289         0.6898       -47.6603      -1.033756              1      0.9840961
      6077.0000         3.1382       116.5424        82.0079       88.72296         0.5988         0.6284         0.6826       -48.2098      -1.584614              1      0.9756213
      6077.5000         3.0321       117.7212        84.3375       91.77036          0.598          0.628         0.6777       -48.3727      -1.748875              1      0.9730942
      6078.0000         2.9476       119.2445        84.2432       91.64273         0.5968         0.6271         0.6606       -48.4227      -1.800236              1       0.972304
      6078.5000         2.9171       120.8379        81.3665       87.87051          0.596         0.6251         0.6376       -48.0012      -1.380096              1      0.9787678
      6079.0000         2.8999        122.241        78.4352       84.02679         0.5954         0.6215         0.6108       -47.4316     -0.8118553              1      0.9875099
      6079.5000          2.897        123.178        76.9731       82.10751         0.5947         0.6179         0.5952       -46.6273   -0.008918762              1      0.9998628
      6080.0000         2.8944       123.2676        76.4685       81.44245         0.5937         0.6155         0.5925       -45.5818       1.035225              1              1
      6080.5000          2.892       122.4026        75.9408       80.74714         0.5927         0.6143         0.6035       -44.5363       2.079361              1              1
      6081.0000         2.8997       120.4333        75.5803       80.27083         0.5936         0.6141         0.6258       -43.8507       2.763599              1              1
      6081.5000         2.9139       118.6958        75.5112       80.17622         0.5944         0.6133         0.6555       -43.9228       2.690144              1              1
      6082.0000          2.944       117.8972        76.1378       80.99289         0.5987         0.6131         0.6771       -44.4188        2.19278              1              1
      6082.5000         2.9766       119.4687        77.4083       82.65299         0.6043         0.6162         0.6665       -44.8679       1.742321              1              1
      6083.0000         2.9957        121.314        78.8268       84.50697         0.6137         0.6237         0.6434       -45.1252       1.483662              1              1
      6083.5000         2.9786       121.4932        80.3309       86.47305         0.6238         0.6291         0.6362       -45.0851         1.5224              1              1
      6084.0000         2.9329       120.1189        81.0159       87.36623         0.6335         0.6343         0.6619       -44.8082       1.797939              1              1
      6084.5000         2.8987       118.8549        80.1954       86.28737         0.6321         0.6325         0.6843       -44.6609       1.943878              1              1
      6085.0000         2.8851       118.7084        78.6949        84.3178         0.6264         0.6233         0.6948       -44.7265       1.876915              1              1
      6085.5000         2.8814        120.486        77.2803       82.46075         0.6181          0.616          0.662       -44.9042       1.697857              1              1
      6086.0000         2.8664        122.395        76.3392       81.22393         0.6115         0.6125         0.6326       -45.0486       1.552097              1              1
      6086.5000         2.8506       123.5118        77.1273       82.25214         0.6063         0.6094         0.6106       -45.1678       1.431534              1              1
      6087.0000         2.8561       123.6417        78.8007       84.44001         0.6036         0.6091         0.5992       -44.9599       1.638077              1              1
      6087.5000         2.8703       123.7668          80.04       86.05923         0.6029         0.6085         0.5935       -44.6539       1.942715              1              1
      6088.0000         2.8966       124.5798        80.1108       86.14788         0.6021         0.6072          0.596       -44.4716       2.123653              1              1
      6088.5000         2.9246        124.875         79.063       84.77132         0.6013          0.607         0.6114       -44.3074       2.286495              1              1
      6089.0000         2.9357       124.7427        78.0609       83.45457         0.6027         0.6085         0.6264       -44.2681       2.324432              1              1
      6089.5000         2.9413         124.11        77.1982       82.32044         0.6047         0.6091         0.6312        -44.342       2.249172              1              1
      6090.0000         2.9506       123.1667        77.3213       82.47758         0.6081         0.6085         0.6199       -44.4789       2.110912              1              1
      6090.5000         2.9696       122.1859        78.6204       84.17516          0.612         0.6081         0.6037       -44.5363       2.052151              1              1
      6091.0000         2.9887       121.4412        79.6173       85.47688         0.6156         0.6085         0.6048       -44.0437       2.543388              1              1
      6091.5000         3.0099       120.9207        80.4272       86.53366         0.6189         0.6092         0.6105       -43.7369       2.848831              1              1
      6092.0000         3.0314       120.5828        80.6256       86.78944          0.622         0.6108         0.6222       -43.6685       2.915871              1              1
      6092.5000         3.0381       120.5675        79.7964       85.69919         0.6248         0.6142          0.638       -43.8777       2.705307              1              1
      6093.0000         3.0435       120.9169        78.1194       83.49843         0.6262         0.6191         0.6557        -44.136       2.445648              1              1
      6093.5000         3.0338        121.473        76.6077        81.5142         0.6271          0.621         0.6634       -44.4418       2.138489              1              1
      6094.0000         3.0241       122.2021         76.208       80.98655         0.6256         0.6189         0.6562       -44.7473       1.831627              1              1
      6094.5000         3.0286       122.7897        77.2367       82.32992         0.6216          0.613         0.6449       -44.9451       1.632469              1              1
      6095.0000         3.0341       123.2271        78.3044       83.72438         0.6163         0.6025         0.6346       -45.1373       1.438908              1              1
      6095.5000         3.0397       123.4397        78.0945       83.44532         0.6093         0.5948         0.6277       -45.2108       1.364044              1              1
      6096.0000         3.0522       123.5072        77.7439       82.98197         0.6028         0.5889         0.6237       -45.2135       1.359985              1              1
      6096.5000         3.0849       123.4919        78.4432       83.89388         0.5974         0.5856         0.6225       -45.2006       1.371525              1              1
      6097.0000          3.117       123.3657        79.2643       84.96532         0.5921         0.5827         0.6191       -45.0519       1.518864              1              1
      6097.5000         3.1485       123.2411        80.3197        86.3437         0.5882         0.5813         0.6157       -44.8691       1.700306              1              1
