#------------------------------------------------------------------------------
# Created by    : vladimir.rabinovich
# Created on    : 09/19/2023 17:19:47
#------------------------------------------------------------------------------
~Version Information Section
VERS.           2.0     :   CWLS log ASCII Standard - VERSION 2.0
WRAP.           NO      :   One line per depth step
~Well Information Section
#MNEM       .UNIT                                         VALUE :DESCRIPTION
#------------------------------------------------------------------------------
STRT        .FT                                             380 :START DEPTH
STOP        .FT                                            8002 :STOP DEPTH
STEP        .FT                                             0.5 :STEP      
NULL        .                                           -999.25 :NULL      
COMP        .                               AMOCO PRODUCTION CO :COMPANY   
WELL        .                               OCS G07253 ST00BP00 :WELL      
FLD         .                                           WILDCAT :FIELD     
LOC         .                                                   :LOCATION  
CNTY        .                             GALVESTON LARGE BLOCK :LOCATION  
STAT        .                                             TEXAS :STATE     
CTRY        .                                     UNITED STATES :COUNTRY   
SRVC        .                                                   :SERVICE COMPANY
DATE        .                             9/13/2023 11:19:27 AM :LOG DATE  
API         .                                    42706401230000 :API NUMBER
UWI         .                                    42706401230000 :UNIQUE WELL ID
XCOORD      .                                  925879.569593371 :SURFACE X 
YCOORD      .                                  10358786.1357032 :SURFACE Y 
LAT         .                                         28.526408 :LATITUDE  
LON         .                                        -95.225632 :LONGITUDE 
ELEV        .FT                                             100 :ELEVATION VALUE
ELEV_TYPE   .                                                KB :ELEVATION REFERENCE TYPE
~Curve Information Section
#MNEM       .UNIT                                      API CODE :CURVE DESCRIPTION
#------------------------------------------------------------------------------
DEPT        .FT                                                 :DEPTH     
ASFL        .OHMM                                               :          
CILD        .MMHO                                               :          
GR          .GAPI                                               :          
GR_NORM     .GAPI                                               :GammaRay Normalized
ILD         .OHMM                                               :          
SP          .MV                                                 :          
SP_NORM     .MV                                                 :SP Normalized
VSH_GR      .V/V                                                :Volume of Shale from GR
VSH_SP      .V/V                                                :Volume of Shale from SP
~A        DEPTH           ASFL           CILD             GR        GR_NORM            ILD             SP        SP_NORM         VSH_GR         VSH_SP
# ...
      4964.5000         1.0176        1034.25        58.0244       65.68448         1.0305       -45.4851      -7.389862      0.6954144      0.8261335
      4965.0000         1.0166       1034.227        58.4879       66.39922         1.0468       -46.0988      -8.003563      0.7106218      0.8063367
      4965.5000         1.0183       1034.203        59.1062        67.3527         1.0407        -46.178      -8.082764      0.7309085      0.8037818
      4966.0000          1.024        1034.18        59.8959       68.57049         1.0347       -44.9932      -6.897961      0.7568189      0.8420013
      4966.5000         1.0208       1033.811        60.6849       69.78717         1.0287       -43.9033      -5.808064      0.7827057      0.8771592
      4967.0000         1.0112       1033.211         61.449       70.96548         1.0227       -42.8134      -4.718163      0.8077761      0.9123173
      4967.5000         1.0017       1032.611        61.5684       71.14959         1.0166       -41.8405      -3.745262      0.8116934      0.9437012
      4968.0000         0.9921       1035.498        61.6878       71.33372         1.0106       -41.3192      -3.223961       0.815611      0.9605174
      4968.5000         0.9826       1039.174        61.8416       71.57088         1.0046       -40.7983      -2.703064      0.8206571      0.9773205
      4969.0000         0.9851       1042.854        62.6094        72.7549          0.997        -40.277      -2.181763      0.8458489      0.9941367
      4969.5000         0.9941       1046.533        62.9628       73.29985         0.9861       -40.2111      -2.115864      0.8574436      0.9962624
      4970.0000         1.0031       1051.008        61.9609       71.75484         0.9752       -40.1481      -2.052864      0.8245712      0.9982947
      4970.5000         1.0133       1068.139        60.9589        70.2097         0.9643       -40.0851      -1.989861      0.7916958              1
      4971.0000         1.0254        1085.27        61.2055       70.58999         0.9535       -40.0222      -1.926964       0.799787              1
      4971.5000           1.01         1102.4        62.6026        72.7444         0.9426       -39.7845      -1.689262      0.8456255              1
      4972.0000         0.9926       1128.523        64.0009       74.90067         0.9317       -39.4409      -1.345661      0.8915035              1
      4972.5000         0.9743       1173.291        65.3979       77.05495         0.9167       -39.0969      -1.001663      0.9373395              1
      4973.0000         0.9546       1210.705        66.7963        79.2114         0.8929        -38.753     -0.6577606      0.9832212              1
      4973.5000         0.9348       1219.395        68.1932        81.3655         0.8691       -38.2127     -0.1174622              1              1
      4974.0000         0.9151       1203.951        63.1282       73.55492         0.8453       -38.9456     -0.8503609      0.8628708              1
      4974.5000          0.897       1188.496        59.7573       68.35674         0.8215       -40.9594      -2.864162      0.7522711      0.9721238
      4975.0000         0.8794       1168.213        57.4401       64.78344         0.7977       -42.9719      -4.876663      0.6762434      0.9072044
      4975.5000         0.8646       1140.902        55.7384       62.15931         0.8251       -44.6674      -6.572163      0.6204109      0.8525109
      4976.0000         0.8839       1113.617        53.9031       59.32913         0.8553       -46.2654      -8.170162      0.5601943      0.8009625
      4976.5000         1.0064       1086.307        54.7415       60.62201         0.8855       -47.9197      -9.824463      0.5877023       0.747598
      4977.0000         1.0816       1059.021        55.4993       61.79059         0.9158       -49.1657      -11.07046      0.6125658      0.7074045
      4977.5000         1.1235       1031.713        55.1207       61.20676         0.9401       -48.4734      -10.37816      0.6001437      0.7297367
      4978.0000         1.1426       1006.653        55.9456       62.47882         0.9578       -47.6787      -9.583462       0.627209      0.7553722
      4978.5000         1.1343       1009.054        57.3851       64.69864         0.9754       -46.8447      -8.749462      0.6744391      0.7822754
      4979.0000         1.0827       1035.939        59.3053       67.65973         0.9931       -46.1063      -8.011063      0.7374411      0.8060948
      4979.5000         1.0322       1068.201        61.2255       70.62081         0.9967       -46.3252      -8.229961      0.8004428      0.7990335
      4980.0000         1.0067       1100.438        62.4977       72.58262         0.9813       -46.5442      -8.448963      0.8421834      0.7919689
      4980.5000         0.9905       1102.213        62.5189       72.61535         0.9659       -46.5276      -8.432362      0.8428798      0.7925045
      4981.0000         0.9835       1087.121        62.4412       72.49551         0.9601       -46.2976      -8.202362      0.8403299      0.7999238
      4981.5000         0.9764       1072.027        62.6812        72.8656         0.9564       -46.0674      -7.972164      0.8482043      0.8073496
      4982.0000         0.9697       1056.971        63.3598       73.91208         0.9526       -46.7729      -8.677662      0.8704697      0.7845916
      4982.5000         0.9637        1043.43        61.7474       71.42561         0.9489        -47.547      -9.451763      0.8175662      0.7596205
      4983.0000         0.9577       1029.887          59.53       68.00621         0.9451       -48.4653      -10.37006       0.744813      0.7299979
      4983.5000         0.9521       1022.998        57.3427       64.63325         0.9414       -49.6039      -11.50866      0.6730478       0.693269
      4984.0000         0.9487       1024.992        55.2665        61.4316         0.9376       -50.7425      -12.64726      0.6049277      0.6565399
      4984.5000         0.9807       1027.898        53.1478        58.1644         0.9339       -51.8886      -13.79336      0.5354128       0.619569
      4985.0000         1.0144       1048.807        50.6683       54.34083         0.9311       -53.0535      -14.95826      0.4540603      0.5819915
      4985.5000         1.0445       1069.713        48.3536        50.7714         0.9325       -54.2183      -16.12306      0.3781148      0.5444173
      4986.0000         1.0721       1090.635        46.3198       47.63514         0.9338       -55.5492      -17.45396      0.3113859      0.5014852
      4986.5000          1.099       1151.432        44.7404       45.19958         0.9223       -57.4681      -19.37286      0.2595657       0.439585
      4987.0000         1.1033       1215.855        43.3109       42.99519         0.8896       -59.6155      -21.52026      0.2126636      0.3703141
      4987.5000         1.0783       1256.447        43.3325       43.02849         0.8568       -61.7817      -23.68646      0.2133721      0.3004367
      4988.0000         1.0549       1297.012        43.7151       43.61849         0.8249       -63.0976      -25.00236      0.2259254      0.2579883
      4988.5000         1.0321       1332.525        44.0978       44.20864         0.7964       -64.1525      -26.05726      0.2384818      0.2239594
      4989.0000         1.0093       1365.225        44.4805       44.79879         0.7678       -64.9054      -26.81017      0.2510382      0.1996721
      4989.5000          0.986        1384.02        44.8631       45.38879         0.7392       -65.3842      -27.28896      0.2635913       0.184227
      4990.0000         0.9611       1402.826        45.3484       46.13716         0.7106       -65.0527      -26.95746      0.2795141      0.1949207
      4990.5000         0.9383       1420.145        45.9041       46.99408         0.6829       -64.1388      -26.04356      0.2977464      0.2244012
