#------------------------------------------------------------------------------
# Created by    : vladimir.rabinovich
# Created on    : 09/19/2023 17:20:01
#------------------------------------------------------------------------------
~Version Information Section
VERS.           2.0     :   CWLS log ASCII Standard - VERSION 2.0
WRAP.           NO      :   One line per depth step
~Well Information Section
#MNEM       .UNIT                                         VALUE :DESCRIPTION
#------------------------------------------------------------------------------
STRT        .FT                                            3470 :START DEPTH
STOP        .FT                                           12708 :STOP DEPTH
STEP        .FT                                             0.5 :STEP      
NULL        .                                           -999.25 :NULL      
COMP        .                                     INEXCO OIL CO :COMPANY   
WELL        .                                     ST TR 00794-L :WELL      
FLD         .                                       BLOCK 794-L :FIELD     
LOC         .                                                   :LOCATION  
CNTY        .                        MUSTANG ISLAND LARGE BLOCK :LOCATION  
STAT        .                                             TEXAS :STATE     
CTRY        .                                     UNITED STATES :COUNTRY   
SRVC        .                                                   :SERVICE COMPANY
DATE        .                             9/13/2023 11:18:55 AM :LOG DATE  
API         .                                    42702301710000 :API NUMBER
UWI         .                                    42702301710000 :UNIQUE WELL ID
XCOORD      .                                  319607.894357718 :SURFACE X 
YCOORD      .                                   10038241.944616 :SURFACE Y 
LAT         .                                        27.6026524 :LATITUDE  
LON         .                                       -97.0775955 :LONGITUDE 
ELEV        .FT                                               0 :ELEVATION VALUE
ELEV_TYPE   .                                                GL :ELEVATION REFERENCE TYPE
~Curve Information Section
#MNEM       .UNIT                                      API CODE :CURVE DESCRIPTION
#------------------------------------------------------------------------------
DEPT        .FT                                                 :DEPTH     
ASFL        .OHMM                                               :          
CILD        .MMHO                                               :          
DT          .US/F                                               :          
GR          .GAPI                                               :          
GR_NORM     .GAPI                                               :GammaRay Normalized
ILD         .OHMM                                               :          
ILM         .OHMM                                               :          
SP          .MV                                                 :          
SP_NORM     .MV                                                 :SP Normalized
VSH_GR      .V/V                                                :Volume of Shale from GR
VSH_SP      .V/V                                                :Volume of Shale from SP
~A        DEPTH           ASFL           CILD             DT             GR        GR_NORM            ILD            ILM             SP        SP_NORM         VSH_GR         VSH_SP
# ...
      7790.0000         0.9038       1468.934       109.2836        60.3409       77.38897         0.6964         0.7042       -48.8183      -2.715984      0.9444461      0.9731877
      7790.5000         0.8736       1490.725       109.5757        59.6297       76.19416          0.662         0.6798       -48.4712      -2.373825      0.9190247       0.978534
      7791.0000         0.8506       1515.316       108.0662        58.9185       74.99936         0.6371         0.6581        -48.121      -2.028564      0.8936034      0.9839287
      7791.5000         0.8245       1557.592       107.0242        58.2074       73.80473         0.6154         0.6418       -48.4167      -2.329205      0.8681856      0.9792312
      7792.0000         0.8051       1589.672       108.1758        57.5271        72.6566         0.5937         0.6286       -48.8086      -2.726048      0.8437575      0.9730305
      7792.5000         0.8137       1605.568       109.9591        57.0493       71.81468         0.5812         0.6249       -49.2004      -3.122787      0.8258443      0.9668314
      7793.0000         0.8236       1621.463       110.7134         56.571       70.97198         0.5756         0.6235       -49.5923      -3.519627      0.8079146      0.9606308
      7793.5000         0.8345       1637.215       110.6335        56.6799        71.0171         0.5689         0.6201       -49.9521      -3.884365      0.8088744      0.9549318
      7794.0000         0.8455       1652.869       110.1637         59.106       74.56553         0.5615         0.6134        -50.194      -4.131207      0.8843729      0.9510749
      7794.5000         0.8464       1668.521       109.9623        61.1415       77.52339         0.5541         0.6083       -49.8178      -3.759945      0.9473062      0.9568759
      7795.0000           0.84       1684.201       110.8417        62.2252       79.04229         0.5467         0.6002       -49.4412      -3.388287      0.9796232       0.962683
      7795.5000         0.8321       1700.604       112.5679        63.3088       80.56101         0.5393         0.5945       -48.8655      -2.817528              1      0.9716011
      7796.0000         0.8242       1720.412       114.7056        63.3258       80.46718         0.5327         0.5895       -48.2583      -2.215267              1      0.9810115
      7796.5000         0.8233       1740.221       115.6222        62.7283       79.44425         0.5303         0.5861       -47.6512      -1.613106      0.9881756      0.9904202
      7797.0000         0.8224       1749.563       117.1049        62.1302       78.42045         0.5279         0.5835       -47.2233      -1.190147      0.9663925      0.9970289
      7797.5000         0.8245       1750.234       117.6782        61.5322       77.39677         0.5255         0.5827       -46.9581      -0.929882      0.9446121              1
      7798.0000         0.8301       1750.904       115.8547        60.9347       76.37388         0.5231         0.5848        -46.693     -0.6697235      0.9228485              1
      7798.5000         0.8357       1751.576        112.597        60.3838       75.42142         0.5207         0.5887       -46.5926     -0.5742645      0.9025834              1
      7799.0000         0.8413       1755.561       110.6031        59.8964       74.56497         0.5209         0.5889       -46.6274     -0.6140022      0.8843611              1
      7799.5000         0.8487       1760.756       109.8346        60.2066       74.91442         0.5221         0.5874       -46.6621     -0.6536446      0.8917962              1
      7800.0000         0.8562       1758.168       110.2628        62.5555       88.71527         0.5202         0.5841       -47.2462      -1.242683              1      0.9962081
      7800.5000         0.8553         1765.4       111.8204        77.9263       88.81928         0.5227         0.5801       -47.2021      -1.203522              1        0.99682
      7801.0000         0.8528       1772.633       113.5905        80.2046        87.3308         0.5251         0.5764       -47.0291      -1.035461              1      0.9994459
      7801.5000         0.8506       1779.865       114.9685        80.5553       86.84815         0.5276          0.573       -46.9655     -0.9768028              1              1
      7802.0000         0.8485       1787.098       116.3464        79.8019       83.38988           0.53         0.5674       -46.9061     -0.9223442              1              1
      7802.5000         0.8464       1784.307       117.6259        79.0472       85.85281         0.5325         0.5637       -46.9611     -0.9822845              1              1
      7803.0000         0.8446       1762.609       117.5139        78.1814       82.75879         0.5373         0.5645        -47.016      -1.042122              1      0.9993418
      7803.5000         0.8451        1741.52       115.2021        77.0979       82.84806         0.5422         0.5719        -47.071      -1.102062              1      0.9984053
      7804.0000         0.8456       1722.127       112.5532        76.0143       80.90868          0.547         0.5783       -47.1856      -1.221603              1      0.9965374
      7804.5000         0.8462       1704.096       111.3284        75.3092       80.86514         0.5524         0.5866       -47.3141      -1.355042              1      0.9944525
      7805.0000         0.8467       1693.695        111.913        76.5935       86.61086         0.5585         0.5977       -47.4426      -1.488483              1      0.9923674
      7805.5000         0.8473       1683.283       112.8713        78.0291       86.64776         0.5646         0.6054       -47.5712      -1.622025              1      0.9902809
      7806.0000         0.8538       1672.885       112.4733        78.8066       83.91038         0.5707         0.6111       -47.6997      -1.755463              1      0.9881959
      7806.5000         0.8606       1662.484       112.4578        79.5552       88.97407         0.5761         0.6136        -47.925      -1.985703              1      0.9845984
      7807.0000         0.8667       1653.852       112.3646        79.9894       87.71939         0.5798         0.6146       -48.3718      -2.437439              1        0.97754
      7807.5000         0.8701       1649.465       111.0316        80.4236       85.33785         0.5835         0.6144       -48.8405      -2.911079              1      0.9701394
      7808.0000         0.8711       1645.078       110.2355        81.7212       77.59834         0.5872          0.611       -49.3254      -3.400921      0.9489008      0.9624856
      7808.5000         0.8721       1654.682       109.9469        82.9764       78.51372         0.5796         0.6044        -49.814      -3.894459       0.968377      0.9547741
      7809.0000         0.8733       1694.873       108.8063         83.933       88.07304         0.5662         0.5971       -50.3164      -4.401798              1      0.9468469
      7809.5000         0.8746       1732.006       107.6705        84.3484       84.60324         0.5421         0.5871       -50.6569      -4.747238              1      0.9414494
      7810.0000         0.8651       1762.342       107.3479        84.7644       87.40221          0.518         0.5748       -50.9834      -5.078678              1      0.9362707
      7810.5000         0.8511        1792.68       109.1423        85.3323       84.39551         0.5041         0.5635       -51.2661      -5.366322              1      0.9317762
      7811.0000         0.8371       1823.016       112.6263        86.2538       85.49951         0.4915          0.553       -51.4978      -5.602959              1      0.9280788
      7811.5000         0.8258       1853.354       115.4213        87.3809       85.54483         0.4789         0.5446       -51.4929      -5.603001              1      0.9280781
      7812.0000         0.8166       1874.371       116.2375        89.2601        82.2887         0.4775         0.5465       -51.4877      -5.602741              1      0.9280822
