#------------------------------------------------------------------------------
# Created by    : vladimir.rabinovich
# Created on    : 09/19/2023 17:20:01
#------------------------------------------------------------------------------
~Version Information Section
VERS.           2.0     :   CWLS log ASCII Standard - VERSION 2.0
WRAP.           NO      :   One line per depth step
~Well Information Section
#MNEM       .UNIT                                         VALUE :DESCRIPTION
#------------------------------------------------------------------------------
STRT        .FT                                            3530 :START DEPTH
STOP        .FT                                           11780 :STOP DEPTH
STEP        .FT                                             0.5 :STEP      
NULL        .                                           -999.25 :NULL      
COMP        .                                        TEXACO INC :COMPANY   
WELL        .                                     ST TR 00820-L :WELL      
FLD         .                                           WILDCAT :FIELD     
LOC         .                                                   :LOCATION  
CNTY        .                        MUSTANG ISLAND LARGE BLOCK :LOCATION  
STAT        .                                             TEXAS :STATE     
CTRY        .                                     UNITED STATES :COUNTRY   
SRVC        .                                                   :SERVICE COMPANY
DATE        .                             9/13/2023 11:18:55 AM :LOG DATE  
API         .                                    42702302010000 :API NUMBER
UWI         .                                    42702302010000 :UNIQUE WELL ID
XCOORD      .                                  295719.314319733 :SURFACE X 
YCOORD      .                                  9994218.17259751 :SURFACE Y 
LAT         .                                        27.4796405 :LATITUDE  
LON         .                                       -97.1466422 :LONGITUDE 
ELEV        .FT                                              78 :ELEVATION VALUE
ELEV_TYPE   .                                                KB :ELEVATION REFERENCE TYPE
~Curve Information Section
#MNEM       .UNIT                                      API CODE :CURVE DESCRIPTION
#------------------------------------------------------------------------------
DEPT        .FT                                                 :DEPTH     
ASFL        .OHMM                                               :          
CILD        .MMHO                                               :          
GR          .GAPI                                               :          
GR_NORM     .GAPI                                               :GammaRay Normalized
ILD         .OHMM                                               :          
SP          .MV                                                 :          
SP_NORM     .MV                                                 :SP Normalized
VSH_GR      .V/V                                                :Volume of Shale from GR
VSH_SP      .V/V                                                :Volume of Shale from SP
~A        DEPTH           ASFL           CILD             GR        GR_NORM            ILD             SP        SP_NORM         VSH_GR         VSH_SP
# ...
     10102.0000         0.9629       1153.688        52.8392       70.45222         0.8182       -38.7599     -0.1634102      0.7968559              1
     10102.5000         0.9778       1191.793        53.3071       71.12816          0.811       -38.7554     -0.1589127      0.8112374              1
     10103.0000         0.9712       1229.898        53.0293       70.72318         0.8038       -38.7866     -0.1901093      0.8026208              1
     10103.5000         0.9508       1254.879        52.8356       70.44011         0.7966       -38.8197     -0.2232094      0.7965981              1
     10104.0000         0.9287       1277.955         52.894       70.52245         0.7894        -38.853     -0.2565117      0.7983501              1
     10104.5000         0.9067       1300.984        52.9526       70.60509         0.7929       -38.8861     -0.2896118      0.8001084              1
     10105.0000         0.8846       1308.328        53.1404       70.87501         0.8045       -38.9253     -0.3288116      0.8058512              1
     10105.5000         0.8617         1302.9          53.17        70.9156          0.816       -38.9962     -0.3997116      0.8067148              1
     10106.0000         0.8378       1297.484        52.0271        69.2566         0.8276       -39.0671     -0.4706116       0.771417              1
     10106.5000         0.8927        1288.25        50.8052       67.48311         0.8442       -39.1379     -0.5414124      0.7336832              1
     10107.0000         0.9682        1238.68        49.5832       65.70945         0.8843       -39.2087     -0.6122093      0.6959457              1
     10107.5000         1.0914       1188.914        48.3613       63.93594         0.9243       -39.2795     -0.6830101      0.6582116              1
     10108.0000         1.1496       1117.973        47.3875       62.52206         0.9643       -39.3503     -0.7538109      0.6281289              1
     10108.5000         1.1857       1072.063        46.5703       61.33519         0.9681       -39.4213       -0.82481      0.6028764              1
     10109.0000         1.2099       1050.107        46.1791       60.76582         0.9418       -39.4047     -0.8082123      0.5907622              1
     10109.5000         1.1683        1028.15        47.6281        62.8639         0.9155       -39.3774     -0.7809105      0.6354021              1
     10110.0000         1.0424       1026.395        49.0771         64.962         0.8893        -39.349     -0.7525101      0.6800425              1
     10110.5000         0.9324       1049.424        50.9113       67.61847          0.863       -39.2211     -0.6246109      0.7365631              1
     10111.0000         0.8463       1152.809        53.4539       71.30177         0.8367       -39.0933     -0.4968109      0.8149313              1
     10111.5000         0.8045       1264.246        55.8015       74.70243         0.8121       -38.9655     -0.3690109      0.8872858              1
     10112.0000         0.7699       1370.412        56.9593       76.37842         0.7878       -39.0603       -0.46381      0.9229451              1
     10112.5000          0.742       1476.385        56.0311       75.03064         0.7634       -39.1725     -0.5760117      0.8942689              1
     10113.0000         0.7962       1448.281        55.1029       73.68287         0.7391       -39.2848     -0.6883125       0.865593              1
     10113.5000         0.8504       1337.627         54.292       72.50513         0.7369       -39.3971     -0.8006096      0.8405346              1
     10114.0000         0.9028        1284.25        53.5515       71.42942          0.761       -39.5076     -0.9111099      0.8176472              1
     10114.5000         0.9505       1254.146        52.8121       70.35532         0.7851       -39.6147      -1.018211       0.794794      0.9994644
     10115.0000         0.9937       1249.609        52.0715       69.27947         0.8092       -39.7217       -1.12521      0.7719037      0.9963174
     10115.5000         0.9694       1272.004        51.3309       68.20364         0.8297        -39.829       -1.23251      0.7490135      0.9931615
     10116.0000          0.903       1301.521        50.6188       67.16912         0.7986        -39.936      -1.339512      0.7270026      0.9900144
     10116.5000         0.8518       1365.533        51.4495       68.37095         0.7675       -40.0431      -1.446609      0.7525734      0.9868644
     10117.0000         0.8022       1429.645        52.2789        69.5709         0.7364        -39.839      -1.242512      0.7781042      0.9928673
     10117.5000         0.7613       1479.117        52.9725       70.57401         0.7035       -39.5588     -0.9623108      0.7994469              1
     10118.0000         0.7306       1518.344        53.4984       71.33401         0.6705       -39.2786     -0.6821098      0.8156173              1
     10118.5000         0.7204       1557.572        54.0229         72.092         0.6376       -38.9985     -0.4020119      0.8317446              1
     10119.0000         0.7435        1591.09        54.5475       72.85012         0.6405       -38.7455     -0.1490097      0.8478749              1
     10119.5000         0.7665       1621.486         54.746       73.13557         0.6531       -38.6431    -0.04661179      0.8539482              1
     10120.0000         0.7895       1651.932        54.6655       73.01656         0.6694       -38.5407     0.05578995      0.8514162              1
     10120.5000         0.8203       1652.906         54.585       72.89758          0.694       -38.4384      0.1580887      0.8488846              1
     10121.0000         0.8657       1542.738        54.4833       72.74784         0.7187       -38.3674      0.2290878      0.8456987              1
     10121.5000          0.911       1448.281        54.1846       72.31258         0.7433       -38.3676      0.2288895      0.8364378              1
     10122.0000         0.9387       1378.219        53.8865       71.87813         0.7423       -38.3679      0.2285881      0.8271942              1
     10122.5000         0.9565       1332.795        53.5878       71.44286         0.7141        -38.368      0.2284889      0.8179333              1
     10123.0000         0.9276       1304.156        53.2897       71.00843         0.6859       -38.3682      0.2282906        0.80869              1
     10123.5000         0.8948        1336.26        52.9911       70.57332         0.6577       -38.3685      0.2279892      0.7994323              1
     10124.0000         0.8618       1396.174         52.693       70.13888         0.6295       -38.3591      0.2373886      0.7901889              1
     10124.5000         0.8273        1455.99        52.4347       69.76216         0.6155       -38.3422      0.2542877      0.7821736              1
     10125.0000         0.7928       1658.957        52.6547       70.07877         0.6069       -38.3252      0.2712898      0.7889099              1
     10125.5000         0.7675       1694.086        52.8745       70.39507         0.5982       -38.3082      0.2882881      0.7956399              1
     10126.0000         0.7538       1726.402        53.6662       71.54037         0.5895       -38.2913      0.3051872       0.820008              1
     10126.5000         0.7402       1731.232        54.8956       73.32013         0.5828       -38.2515      0.3449898      0.8578751              1
     10127.0000         0.7265       1736.064        56.1249       75.09977         0.5871       -38.2107       0.385788      0.8957398              1
     10127.5000         0.7128       1741.998        57.3542       76.87938         0.5914       -38.1835      0.4129906      0.9336038              1
     10128.0000         0.7012       1752.561        58.4947        78.5303         0.5957       -38.3467      0.2497902      0.9687297              1
