#------------------------------------------------------------------------------
# Created by    : vladimir.rabinovich
# Created on    : 09/19/2023 17:20:57
#------------------------------------------------------------------------------
~Version Information Section
VERS.           2.0     :   CWLS log ASCII Standard - VERSION 2.0
WRAP.           NO      :   One line per depth step
~Well Information Section
#MNEM       .UNIT                                         VALUE :DESCRIPTION
#------------------------------------------------------------------------------
STRT        .FT                                             598 :START DEPTH
STOP        .FT                                           10008 :STOP DEPTH
STEP        .FT                                             0.5 :STEP      
NULL        .                                           -999.25 :NULL      
COMP        .                                        SUN OIL CO :COMPANY   
WELL        .                               OCS G01712 ST00BP00 :WELL      
FLD         .                                           WILDCAT :FIELD     
LOC         .                                                   :LOCATION  
CNTY        .                                BRAZOS LARGE BLOCK :LOCATION  
STAT        .                                             TEXAS :STATE     
CTRY        .                                     UNITED STATES :COUNTRY   
SRVC        .                                                   :SERVICE COMPANY
DATE        .                             9/13/2023 11:18:52 AM :LOG DATE  
API         .                                    42704300120000 :API NUMBER
UWI         .                                    42704300120000 :UNIQUE WELL ID
XCOORD      .                                   818594.06951761 :SURFACE X 
YCOORD      .                                  10373365.4427938 :SURFACE Y 
LAT         .                                         28.560597 :LATITUDE  
LON         .                                        -95.560517 :LONGITUDE 
ELEV        .FT                                              89 :ELEVATION VALUE
ELEV_TYPE   .                                                KB :ELEVATION REFERENCE TYPE
~Curve Information Section
#MNEM       .UNIT                                      API CODE :CURVE DESCRIPTION
#------------------------------------------------------------------------------
DEPT        .FT                                                 :DEPTH     
ASN         .OHMM                                               :          
CALI        .IN                                                 :          
CILD        .MMHO                                               :          
ILD         .OHMM                                               :          
SP          .MV                                                 :          
SP_NORM     .MV                                                 :SP Normalized
VSH_SP      .V/V                                                :Volume of Shale from SP
~A        DEPTH            ASN           CALI           CILD            ILD             SP        SP_NORM         VSH_SP
# ...
      1837.5000         1.0183        12.1571       1363.402          0.948       -48.6656      -2.873035      0.9688202
      1838.0000         1.0134        12.1668       1371.162         0.9464       -48.7646      -2.962116      0.9656387
      1838.5000         1.0089        12.2295       1371.496         0.9486       -48.8706      -3.058197      0.9622073
      1839.0000          1.004        12.3174       1368.734         0.9508       -49.1451      -3.322777       0.952758
      1839.5000         1.0118        12.3307       1363.838          0.953       -49.4198      -3.587559      0.9433015
      1840.0000         1.0318        12.3115       1355.641          0.957       -49.6921      -3.849937      0.9339308
      1840.5000         1.0408        12.2915       1346.678         0.9618       -49.9612      -4.109119      0.9246743
      1841.0000         1.0452        12.2556       1335.621         0.9666       -50.2303      -4.368298       0.915418
      1841.5000         1.0532        12.2241       1321.572         0.9716        -50.425      -4.553078      0.9088187
      1842.0000         1.0621        12.2429       1292.922         0.9771       -50.5739      -4.692055      0.9038552
      1842.5000         1.0811        12.3137       1274.783         0.9824       -50.6684      -4.776638      0.9008344
      1843.0000         1.0795        12.3253       1255.936         0.9858       -50.5668      -4.665115      0.9048173
      1843.5000         1.0778        12.3202       1253.531         0.9892       -50.4651      -4.553497      0.9088036
      1844.0000          1.075        12.3056       1256.172         0.9926       -50.3635      -4.441978      0.9127865
      1844.5000         1.0714        12.2932       1258.721         0.9914       -50.2619       -4.33046      0.9167693
      1845.0000         1.0675        12.2809       1261.199         0.9865       -50.1208       -4.17944      0.9221629
      1845.5000         1.0617        12.2533       1261.715         0.9849       -49.9315      -3.980217       0.929278
      1846.0000         1.0613        12.1771       1261.047         0.9836       -49.7422      -3.780998      0.9363929
      1846.5000         1.0821        12.1161       1254.293         0.9822       -49.6002      -3.629078      0.9418187
      1847.0000         1.0941         12.098       1242.961         0.9812       -49.5098      -3.528759      0.9454015
      1847.5000         1.1067        12.0934       1231.174         0.9802       -49.5732      -3.582237      0.9434915
      1848.0000         1.1138        12.0865       1223.467         0.9792       -49.7054      -3.704517      0.9391244
      1848.5000          1.117        12.0887       1219.439         0.9783       -49.8376      -3.826801      0.9347571
      1849.0000         1.1026        12.1294       1214.896         0.9774       -49.9634       -3.94268      0.9306186
      1849.5000         1.0922        12.1573        1212.08         0.9765        -50.025      -3.994362      0.9287728
      1850.0000         1.0726        12.1112       1213.631         0.9756       -50.0866       -4.04604      0.9269271
      1850.5000         1.0736        12.0653       1217.154         0.9749       -50.1482      -4.097721      0.9250814
      1851.0000         1.0746        12.0586       1224.563         0.9749       -50.1626        -4.1022      0.9249215
      1851.5000         1.0756        12.1541       1225.191          0.975       -50.1716       -4.10128      0.9249543
      1852.0000         1.0777        12.1371       1224.799         0.9765       -50.1807      -4.100456      0.9249837
      1852.5000         1.0802        12.1132       1220.311         0.9791       -50.1897      -4.099541      0.9250164
      1853.0000         1.0877        12.2166       1215.186         0.9817       -50.0053       -3.90522      0.9319564
      1853.5000         1.1001        12.2284       1205.807         0.9799       -49.8025      -3.692501      0.9395536
      1854.0000         1.1015        12.2232       1209.332         0.9716       -49.5997      -3.479782      0.9471506
      1854.5000         1.0914        12.1997       1214.348         0.9633       -49.1559      -3.026058      0.9633551
      1855.0000         1.0813        12.1696       1225.564         0.9558       -48.6973      -2.557541      0.9800878
      1855.5000          1.067         12.139       1237.646         0.9503       -48.2387       -2.08902      0.9968207
      1856.0000         1.0441        12.1069       1257.113         0.9477        -47.782      -1.622402              1
      1856.5000         1.0337        12.0693       1281.023         0.9451       -47.4865      -1.316978              1
      1857.0000         1.0242        12.0278       1296.947         0.9446        -47.191      -1.011562              1
      1857.5000         1.0189        11.9866       1307.063         0.9468       -47.0641     -0.8747406              1
      1858.0000         1.0231         11.983       1314.488          0.949       -46.9693     -0.7700195              1
      1858.5000         1.0274         11.993       1313.613         0.9512       -46.8744     -0.6652031              1
      1859.0000         1.0329        12.0271       1310.459         0.9534       -46.9462     -0.7270813              1
      1859.5000         1.0398         12.079       1303.967         0.9556       -47.0453     -0.8162613              1
      1860.0000         1.0443        12.0859       1297.211         0.9551       -47.1593     -0.9203415              1
      1860.5000         1.0447        12.0672        1284.34         0.9541       -47.4944      -1.245522              1
      1861.0000         1.0436        12.0798       1279.412         0.9531       -47.8295      -1.570698              1
      1861.5000         1.0399        12.1327        1279.26         0.9523       -48.2064      -1.937683              1
      1862.0000         1.0339        12.1836       1282.613         0.9537       -48.6345      -2.355862      0.9872907
      1862.5000         1.0278        12.1866       1285.969         0.9551       -49.0621       -2.77354      0.9723735
      1863.0000          1.022        12.1561       1296.139         0.9562       -49.4794      -3.180923      0.9578242
      1863.5000         1.0171        12.1178       1304.395         0.9541       -49.7948      -3.486401      0.9469143
      1864.0000         1.0137        12.0928        1313.25         0.9502       -49.4237      -3.105381      0.9605221
      1864.5000         1.0102        12.1232       1321.191         0.9419        -48.769      -2.440762      0.9842585
      1865.0000         1.0057        12.1993       1329.922         0.9336       -48.1368      -1.798641              1
      1865.5000         1.0003        12.1823       1337.904         0.9274       -47.5496      -1.201519              1
      1866.0000         0.9953        12.1293       1345.842         0.9214       -46.9359     -0.5779037              1
      1866.5000         0.9919        12.1296       1357.102         0.9089       -46.4985     -0.1305847              1
      1867.0000         0.9886        12.1909       1366.018         0.8955       -46.2958     0.08203888              1
      1867.5000         0.9846        12.1907       1373.953         0.8822       -46.3047      0.0830574              1
      1868.0000         0.9801        12.1306       1384.576         0.8628       -46.3628     0.03487778              1
      1868.5000         0.9779        12.0669       1394.551         0.8428       -46.6273     -0.2197037              1
      1869.0000          0.977        12.1452       1389.965         0.8332       -46.8918     -0.4742813              1
      1869.5000         0.9802        12.2079       1379.877         0.8282       -46.7716      -0.344162              1
      1870.0000         0.9842        12.2322       1371.998         0.8268        -46.518     -0.0806427              1
      1870.5000         0.9882        12.2213       1361.977         0.8253       -46.2644      0.1828766              1
