#------------------------------------------------------------------------------
# Created by    : vladimir.rabinovich
# Created on    : 09/19/2023 17:20:57
#------------------------------------------------------------------------------
~Version Information Section
VERS.           2.0     :   CWLS log ASCII Standard - VERSION 2.0
WRAP.           NO      :   One line per depth step
~Well Information Section
#MNEM       .UNIT                                         VALUE :DESCRIPTION
#------------------------------------------------------------------------------
STRT        .FT                                             601 :START DEPTH
STOP        .FT                                            9006 :STOP DEPTH
STEP        .FT                                             0.5 :STEP      
NULL        .                                           -999.25 :NULL      
COMP        .                                        SUN OIL CO :COMPANY   
WELL        .                               OCS G01715 ST00BP00 :WELL      
FLD         .                                           WILDCAT :FIELD     
LOC         .                                                   :LOCATION  
CNTY        .                                BRAZOS LARGE BLOCK :LOCATION  
STAT        .                                             TEXAS :STATE     
CTRY        .                                     UNITED STATES :COUNTRY   
SRVC        .                                                   :SERVICE COMPANY
DATE        .                             9/13/2023 11:18:52 AM :LOG DATE  
API         .                                    42704000710000 :API NUMBER
UWI         .                                    42704000710000 :UNIQUE WELL ID
XCOORD      .                                  842225.693118258 :SURFACE X 
YCOORD      .                                  10368215.6352389 :SURFACE Y 
LAT         .                                          28.54781 :LATITUDE  
LON         .                                        -95.486614 :LONGITUDE 
ELEV        .FT                                              79 :ELEVATION VALUE
ELEV_TYPE   .                                                KB :ELEVATION REFERENCE TYPE
~Curve Information Section
#MNEM       .UNIT                                      API CODE :CURVE DESCRIPTION
#------------------------------------------------------------------------------
DEPT        .FT                                                 :DEPTH     
ASN         .OHMM                                               :          
CALI        .IN                                                 :          
CILD        .MMHO                                               :          
DT          .US/F                                               :          
ILD         .OHMM                                               :          
SP          .MV                                                 :          
SP_NORM     .MV                                                 :SP Normalized
VSH_SP      .V/V                                                :Volume of Shale from SP
~A        DEPTH            ASN           CALI           CILD             DT            ILD             SP        SP_NORM         VSH_SP
# ...
      8418.5000         0.4115         10.152       3363.926       190.2378         0.3665       -37.0754      -1.361115      0.9947665
      8419.0000         0.4061        10.1821       3361.207       189.6365         0.3628       -36.7382      -1.023914      0.9996534
      8419.5000         0.3997        10.1388       3358.488       190.2527         0.3591       -36.5112     -0.7969131              1
      8420.0000         0.3967        10.1789       3384.531        190.876         0.3555       -36.3666     -0.6523132              1
      8420.5000         0.3995        10.1114       3423.809       190.9353         0.3518       -36.2051     -0.4908142              1
      8421.0000          0.402         9.9443       3491.031       190.9944          0.348       -35.8876     -0.1733131              1
      8421.5000         0.4024         10.029        3559.48       190.9253         0.3459       -35.6187     0.09558868              1
      8422.0000         0.4005        10.1909       3616.262       189.8909         0.3436       -35.7281    -0.01381302              1
      8422.5000          0.395        10.1805       3661.277       190.5852         0.3394       -36.2853     -0.5710144              1
      8423.0000         0.3888        10.3593       3691.773       191.6858          0.338       -36.6798     -0.9655113              1
      8423.5000         0.3929        10.6162       3710.383       192.1401         0.3385       -36.6076     -0.8933144              1
      8424.0000         0.3966        10.6156       3729.016       193.7974         0.3377       -36.3922     -0.6779137              1
      8424.5000         0.3982        10.5095       3745.563       191.4216         0.3318       -36.1962     -0.4819145              1
      8425.0000         0.3995        10.3461        3752.98       191.2715         0.3233       -36.0991     -0.3848114              1
      8425.5000          0.401        10.1102        3746.09       191.3308         0.3164       -36.1354     -0.4211121              1
      8426.0000         0.4015         10.124       3735.598       190.5652         0.3104       -35.9814     -0.2671127              1
      8426.5000          0.401        10.1062       3725.105       190.7278         0.3127       -35.5595      0.1547852              1
      8427.0000         0.4009        10.0633       3714.613       191.7251         0.3151       -35.1163      0.5979881              1
      8427.5000         0.4021        10.0611       3704.117       190.7327         0.3176        -34.804      0.9102859              1
      8428.0000         0.4062        10.0286       3693.539       190.8171           0.32       -34.6075       1.106789              1
      8428.5000         0.4182         9.8215       3639.016       190.3127         0.3177       -34.7676      0.9466858              1
      8429.0000         0.4244         9.9896       3592.336       189.2383         0.3148       -35.0797      0.6345863              1
      8429.5000         0.4234        10.1316       3551.734       188.9753         0.3121       -35.1481       0.566185              1
      8430.0000         0.4171        10.2462        3458.77       188.2891         0.3095       -34.9286      0.7856865              1
      8430.5000         0.4095         10.232        3377.57       187.7939          0.308       -34.9413      0.7729874              1
      8431.0000         0.4101        10.1416           3362        188.198         0.3122       -35.2135      0.5007858              1
      8431.5000         0.4125        10.1649       3359.031       188.5088         0.3163       -35.5516      0.1626854              1
      8432.0000         0.4116        10.0629       3360.727       189.0278         0.3206       -35.5324      0.1818886              1
      8432.5000         0.4055           9.88       3376.172       189.4543         0.3249       -35.3058      0.4084854              1
      8433.0000          0.399         9.7109       3391.594        189.582         0.3293       -34.8318      0.8824883              1
      8433.5000         0.3973         9.3106       3414.344       191.0391         0.3337       -34.3923       1.321987              1
      8434.0000         0.4027          9.187       3444.449       191.7502         0.3376       -34.1999       1.514385              1
      8434.5000         0.4081         9.3687       3474.555       192.6238         0.3416       -33.9098       1.804485              1
      8435.0000           0.41         9.4595       3504.664        192.104         0.3433       -33.5695       2.144787              1
      8435.5000         0.4067         9.8412       3520.465       191.4065         0.3438       -33.4368       2.277489              1
      8436.0000         0.4033        10.0868       3532.453       191.0459         0.3429       -33.4432       2.271088              1
      8436.5000         0.3999         9.8601       3544.453       190.9019         0.3415       -33.7015       2.012787              1
      8437.0000         0.3972         9.6256       3556.441       191.0322         0.3416       -34.2094       1.504887              1
      8437.5000         0.3966         9.9453        3568.43        191.322         0.3421        -34.767      0.9472885              1
      8438.0000         0.3959        10.1137       3663.238       191.2278          0.341       -35.4239      0.2903862              1
      8438.5000         0.3946         9.9814       3853.488       191.7039         0.3395       -36.0287      -0.314415              1
      8439.0000         0.3931        10.1315       3968.371       191.9873         0.3301       -36.5609     -0.8466148              1
      8439.5000         0.3914        10.2271       3993.918       191.7163         0.3224       -36.7336      -1.019314      0.9997201
      8440.0000         0.3899        10.2904       3991.488        192.709         0.3173       -36.8393      -1.125011      0.9981883
      8440.5000         0.3911        10.1812       3989.063       193.0908         0.3119       -36.8752      -1.160912       0.997668
      8441.0000          0.397        10.0205       3986.633        193.675         0.3137       -36.8459      -1.131615      0.9980925
      8441.5000          0.408         9.7789       3993.234        194.355         0.3257       -36.7322      -1.017914      0.9997404
      8442.0000         0.4224         9.4451       4008.852       195.2126         0.3424       -36.7742      -1.059914      0.9991317
      8442.5000          0.438         9.7953       3727.668       192.6702         0.3571       -37.0339      -1.319614      0.9953679
      8443.0000         0.4515         9.9678       3635.582       189.8452         0.3737       -37.3872      -1.672913      0.9902477
      8443.5000          0.465         9.8307       3543.594       186.4653         0.3915       -38.0295      -2.315212       0.980939
      8444.0000         0.4764         9.8103       3487.598       183.2305         0.4055       -38.7584      -3.044113      0.9703752
      8444.5000         0.4838         9.6152       3434.742       180.7629          0.415       -39.2549      -3.540615      0.9631795
      8445.0000         0.4864         9.2767        3382.57        179.438         0.4211       -39.1216      -3.407314      0.9651114
      8445.5000         0.4848         9.3056       3331.184       178.6418         0.4222       -38.7033      -2.989014      0.9711737
      8446.0000         0.4807         9.4927       3256.652       179.4531         0.4185       -38.5603      -2.846012      0.9732462
      8446.5000         0.4742         9.4289       3029.137       181.2805         0.4148       -38.3398      -2.625515      0.9764418
      8447.0000         0.4702         9.2712       2748.668       183.0879         0.4113       -38.0795      -2.365211      0.9802143
      8447.5000         0.4657         9.1657       2674.969       183.8948         0.4026       -37.6917      -1.977413      0.9858346
