#------------------------------------------------------------------------------
# Created by    : vladimir.rabinovich
# Created on    : 09/19/2023 17:19:44
#------------------------------------------------------------------------------
~Version Information Section
VERS.           2.0     :   CWLS log ASCII Standard - VERSION 2.0
WRAP.           NO      :   One line per depth step
~Well Information Section
#MNEM       .UNIT                                         VALUE :DESCRIPTION
#------------------------------------------------------------------------------
STRT        .FT                                            2932 :START DEPTH
STOP        .FT                                           14530 :STOP DEPTH
STEP        .FT                                             0.5 :STEP      
NULL        .                                           -999.25 :NULL      
COMP        .                                 MESA PETROLEUM CO :COMPANY   
WELL        .                                 ST TR 00022-L W/2 :WELL      
FLD         .                                           WILDCAT :FIELD     
LOC         .                                                   :LOCATION  
CNTY        .                           HIGH ISLAND LARGE BLOCK :LOCATION  
STAT        .                                             TEXAS :STATE     
CTRY        .                                     UNITED STATES :COUNTRY   
SRVC        .                                                   :SERVICE COMPANY
DATE        .                             9/13/2023 11:19:15 AM :LOG DATE  
API         .                                    42708300770000 :API NUMBER
UWI         .                                    42708300770000 :UNIQUE WELL ID
XCOORD      .                                  1307803.37781852 :SURFACE X 
YCOORD      .                                  10713200.3443699 :SURFACE Y 
LAT         .                                         29.515602 :LATITUDE  
LON         .                                       -94.0460534 :LONGITUDE 
ELEV        .FT                                              85 :ELEVATION VALUE
ELEV_TYPE   .                                                KB :ELEVATION REFERENCE TYPE
~Curve Information Section
#MNEM       .UNIT                                      API CODE :CURVE DESCRIPTION
#------------------------------------------------------------------------------
DEPT        .FT                                                 :DEPTH     
ASFL        .OHMM                                               :          
CILD        .MMHO                                               :          
ILD         .OHMM                                               :          
SP          .MV                                                 :          
SP_NORM     .MV                                                 :SP Normalized
VSH_SP      .V/V                                                :Volume of Shale from SP
~A        DEPTH           ASFL           CILD            ILD             SP        SP_NORM         VSH_SP
# ...
     12926.0000         0.7646       1708.281         0.7259        -40.968      0.5414352              1
     12926.5000         0.7671       1698.906         0.7232       -40.8976      0.6118355              1
     12927.0000         0.7695       1689.531         0.7222        -40.827      0.6824341              1
     12927.5000          0.772       1680.172         0.7244       -40.7566      0.7528343              1
     12928.0000         0.7744        1672.32         0.7266        -40.686      0.8234329              1
     12928.5000         0.7768       1669.086         0.7287       -40.6156      0.8938332              1
     12929.0000         0.7793       1665.852         0.7309       -40.5986      0.9108353              1
     12929.5000         0.7817       1670.531         0.7331       -40.6133      0.8961334              1
     12930.0000         0.7796       1678.938         0.7353       -40.6281      0.8813324              1
     12930.5000         0.7769       1687.328         0.7375       -40.6428      0.8666344              1
     12931.0000         0.7741       1695.734         0.7396       -40.6575      0.8519325              1
     12931.5000         0.7714       1704.141         0.7418       -40.6722      0.8372345              1
     12932.0000         0.7687       1712.531          0.744       -40.6869      0.8225327              1
     12932.5000         0.7683       1714.854         0.7462       -40.7016      0.8078346              1
     12933.0000          0.769       1716.047         0.7474       -40.7163      0.7931328              1
     12933.5000         0.7697       1717.242         0.7476        -40.731      0.7784348              1
     12934.0000         0.7705       1718.438         0.7478       -40.7148       0.794632              1
     12934.5000         0.7712       1719.633         0.7479       -40.6918      0.8176346              1
     12935.0000         0.7719       1720.828         0.7481       -40.6687      0.8407326              1
     12935.5000         0.7727       1722.023         0.7482       -40.6456      0.8638344              1
     12936.0000         0.7734       1718.391         0.7484       -40.6226      0.8868332              1
     12936.5000         0.7741       1709.734         0.7486       -40.5995       0.909935              1
     12937.0000         0.7749       1701.063         0.7487       -40.5765      0.9329338              1
     12937.5000         0.7756       1692.406         0.7489       -40.5534      0.9560356              1
     12938.0000         0.7763       1683.734         0.7453       -40.5303      0.9791336              1
     12938.5000         0.7771       1678.938         0.7386       -40.5073       1.002132              1
     12939.0000         0.7779       1674.172         0.7319       -40.4842       1.025234              1
     12939.5000         0.7818       1669.414         0.7251       -40.4397       1.069733              1
     12940.0000         0.7857       1664.648         0.7184       -40.3829       1.126534              1
     12940.5000         0.7896        1660.82         0.7117        -40.326       1.183434              1
     12941.0000         0.7913       1657.156          0.705       -40.2693       1.240135              1
     12941.5000         0.7877       1653.484         0.7024       -40.2125       1.296932              1
     12942.0000         0.7845       1648.172          0.703       -40.1558       1.353634              1
     12942.5000         0.7822       1642.156         0.7036       -40.0989       1.410534              1
     12943.0000         0.7827       1636.141         0.7043       -40.0421       1.467335              1
     12943.5000         0.7905       1630.109         0.7049       -39.9997       1.509735              1
     12944.0000         0.7975       1624.094         0.7055       -39.9647       1.544735              1
     12944.5000         0.8042       1618.063         0.7061       -39.9297       1.579735              1
     12945.0000         0.8109       1610.344         0.7068       -39.8947       1.614735              1
     12945.5000         0.8145        1624.25         0.7075       -39.8596       1.649834              1
     12946.0000         0.8091       1638.063         0.7114       -39.8246       1.684834              1
     12946.5000         0.8037       1651.313         0.7152       -39.7897       1.719734              1
     12947.0000         0.7982       1664.563          0.719       -39.7546       1.754833              1
     12947.5000          0.793       1666.016         0.7229       -39.7197       1.789734              1
     12948.0000         0.7878       1658.266         0.7267       -39.6846       1.824833              1
     12948.5000         0.7825       1650.531         0.7306       -39.6497       1.859734              1
     12949.0000          0.783       1640.813         0.7329       -39.6146       1.894833              1
     12949.5000         0.7928       1629.844         0.7338       -39.5898       1.919632              1
     12950.0000         0.8027       1618.906         0.7347       -39.5694       1.940033              1
     12950.5000         0.8118       1607.938         0.7355        -39.549       1.960434              1
     12951.0000         0.8153       1601.164         0.7364       -39.5287       1.980732              1
     12951.5000         0.8189        1602.66         0.7373       -39.5083       2.001133              1
     12952.0000         0.8196        1604.16         0.7433       -39.4879       2.021534              1
     12952.5000         0.8159       1604.094         0.7495       -39.4732       2.036232              1
     12953.0000         0.8121       1601.164         0.7558       -39.4716       2.037834              1
     12953.5000         0.8083       1598.227          0.762       -39.5195       1.989933              1
     12954.0000         0.8045       1595.289         0.7683       -39.6797       1.829735              1
     12954.5000         0.8042       1592.359         0.7749       -39.8521       1.657333              1
     12955.0000         0.8105         1579.5         0.7955       -40.1636       1.345833              1
     12955.5000         0.8169       1564.313         0.8162       -40.4751       1.034332              1
     12956.0000         0.8238       1549.094         0.8369       -40.7881      0.7213326              1
     12956.5000         0.8417       1533.906         0.8575       -41.1348      0.3746338              1
     12957.0000         0.8595       1518.719          0.871       -41.4814     0.02803421              1
     12957.5000         0.9349       1485.375         0.8783       -41.8164     -0.3069649      0.9956148
     12958.0000         0.9663           1424         0.8855       -42.0825     -0.5730667      0.9918134
     12958.5000         1.0052       1362.625         0.8928       -42.3486     -0.8391647       0.988012
     12959.0000         0.9908         1290.5         0.8927       -42.0762     -0.5667648      0.9919034
     12959.5000         0.9733         1260.5         0.8872        -41.748     -0.2385674      0.9965919
     12960.0000         0.9528        1279.25         0.8817       -41.6458     -0.1363678      0.9980519
     12960.5000         0.9201           1298         0.8763       -41.5559    -0.04646683      0.9993362
     12961.0000         0.8874       1316.781         0.8708       -41.4663     0.04313278              1
     12961.5000          0.867        1340.25         0.8589       -41.7197     -0.2102661      0.9969962
     12962.0000         0.8513       1365.063         0.8428       -42.0762     -0.5667648      0.9919034
     12962.5000         0.8355           1423         0.8267       -42.2859     -0.7764664      0.9889076
     12963.0000          0.824       1477.875         0.8106       -42.1709     -0.6614647      0.9905505
     12963.5000         0.8135       1553.281         0.7945       -42.0562     -0.5467644      0.9921891
