#------------------------------------------------------------------------------
# Created by    : vladimir.rabinovich
# Created on    : 09/19/2023 17:19:46
#------------------------------------------------------------------------------
~Version Information Section
VERS.           2.0     :   CWLS log ASCII Standard - VERSION 2.0
WRAP.           NO      :   One line per depth step
~Well Information Section
#MNEM       .UNIT                                         VALUE :DESCRIPTION
#------------------------------------------------------------------------------
STRT        .FT                                             290 :START DEPTH
STOP        .FT                                         11377.5 :STOP DEPTH
STEP        .FT                                             0.5 :STEP      
NULL        .                                           -999.25 :NULL      
COMP        .                         SONAT EXPLORATION GOM INC :COMPANY   
WELL        .                               OCS G04571 ST00BP00 :WELL      
FLD         .                                           WILDCAT :FIELD     
LOC         .                                                   :LOCATION  
CNTY        .                           HIGH ISLAND LARGE BLOCK :LOCATION  
STAT        .                                             TEXAS :STATE     
CTRY        .                                     UNITED STATES :COUNTRY   
SRVC        .                                                   :SERVICE COMPANY
DATE        .                             9/13/2023 11:19:19 AM :LOG DATE  
API         .                                    42708401190000 :API NUMBER
UWI         .                                    42708401190000 :UNIQUE WELL ID
XCOORD      .                                  1324427.25220013 :SURFACE X 
YCOORD      .                                  10679041.7751219 :SURFACE Y 
LAT         .                                         29.422046 :LATITUDE  
LON         .                                        -93.992863 :LONGITUDE 
ELEV        .FT                                             116 :ELEVATION VALUE
ELEV_TYPE   .                                                KB :ELEVATION REFERENCE TYPE
~Curve Information Section
#MNEM       .UNIT                                      API CODE :CURVE DESCRIPTION
#------------------------------------------------------------------------------
DEPT        .FT                                                 :DEPTH     
ASFL        .OHMM                                               :          
CALI        .IN                                                 :          
CILD        .MMHO                                               :          
GR          .GAPI                                               :          
GR_NORM     .GAPI                                               :GammaRay Normalized
ILD         .OHMM                                               :          
RHOB        .G/C3                                               :          
SP          .MV                                                 :          
SP_NORM     .GAPI                                               :SP Normalized
VSH_GR      .V/V                                                :Volume of Shale from GR
VSH_SP      .V/V                                                :Volume of Shale from SP
~A        DEPTH           ASFL           CALI           CILD             GR        GR_NORM            ILD           RHOB             SP        SP_NORM         VSH_GR         VSH_SP
# ...
      7670.0000         1.1822        12.6353       1849.914        45.0156       46.35524         0.8544         2.5974      -109.8207      -61.77877       0.284154      0.1174461
      7670.5000         0.9778        12.6057       2328.414        45.3793       46.88184         0.7786         2.6005      -109.1997      -61.20156      0.2953582      0.1256919
      7671.0000         0.7733         12.568       2806.125        46.5057       48.51275         0.6143         2.5194      -108.4067      -60.46381      0.3300585      0.1362313
      7671.5000         0.7189        12.5251        3139.27        47.7304       50.28598         0.4611         2.3883      -107.2946      -59.42824      0.3677868      0.1510251
      7672.0000         0.6281        12.4721       3212.195        55.5685       61.63471         0.3741         2.3342      -105.4934      -57.74951      0.6092491       0.175007
      7672.5000          0.624        12.4258       3473.406        60.2719       68.44472          0.287         2.2861      -104.1313       -56.4806      0.7541429      0.1931342
      7673.0000         0.6437        12.3941           3883        60.3561       68.56664         0.2543         2.2633      -112.7798      -64.55492      0.7567369     0.07778691
      7673.5000         0.6753        12.3571       4170.578        57.9487       65.08098          0.239         2.2179      -118.8217      -70.19641       0.682574              0
      7674.0000         0.7085        12.2885       4358.758        54.8164       60.54575         0.2237          2.164      -121.6224      -72.81278      0.5860797              0
      7674.5000         0.7323         12.205       4838.656        51.4788       55.71326         0.2085          2.154      -123.5325      -74.59793      0.4832608              0
      7675.0000          0.755        12.1499       4752.117         50.113       53.73573         0.2002         2.1583       -124.662      -75.65452      0.4411857              0
      7675.5000         0.7639         12.101       4484.844        49.5347       52.89841         0.1938         2.1607      -127.6182      -78.41602      0.4233704              0
      7676.0000         0.7706        12.0893       4404.367        49.6602       53.08012         0.1873         2.1574      -128.2559       -79.0136      0.4272366              0
      7676.5000         0.7728         12.091       4338.992        51.7113       56.04989         0.1808         2.1475      -128.8926      -79.61022      0.4904232              0
      7677.0000          0.762        12.0874       4839.648         54.851       60.59585         0.1744         2.1369      -129.5293      -80.20686      0.5871457              0
      7677.5000         0.7377        12.0843       5494.609        56.5149       63.00499         0.1679         2.1288       -130.167      -80.80445       0.638404              0
      7678.0000         0.6713        12.1103       5710.813        57.0425       63.76889         0.1615         2.1284      -130.6094      -81.21974      0.6546572              0
      7678.5000         0.6327        12.1374       5905.547        57.5049       64.43839         0.1569         2.1368      -130.8367      -81.43427       0.668902              0
      7679.0000         0.5972        12.1652       6100.289        57.4321       64.33299         0.1586         2.1387       -131.064       -81.6488      0.6666594              0
      7679.5000         0.5664        12.1935       6295.227        57.3591        64.2273         0.1602         2.1387      -131.1604      -81.74117      0.6644107              0
      7680.0000          0.569        12.2221       6489.969        57.2863       64.12189         0.1619         2.1388      -131.1394      -81.72395      0.6621678              0
      7680.5000         0.5746         12.246       6684.711        57.2133        64.0162         0.1636         2.1414      -130.9468      -81.54657      0.6599191              0
      7681.0000         0.5802        12.2634       6879.445        57.1403       63.91051         0.1653         2.1445      -130.6011       -81.2263      0.6576704              0
      7681.5000         0.5865        12.2856       6962.711        57.0674       63.80495         0.1669         2.1484      -127.3047      -78.15205      0.6554245              0
      7682.0000          0.578        12.3114       6484.203        57.0385        63.7631          0.177         2.1466      -122.3301      -73.51148      0.6545341              0
      7682.5000         0.5514        12.3408       6005.703        57.2355       64.04834         0.1976         2.1365        -111.79      -63.67643       0.660603     0.09033672
      7683.0000         0.4398        12.3717       5527.203        59.4876       67.30914         0.2181         2.1272       -98.7266      -51.48631      0.7299818      0.2644812
      7683.5000         0.3559        12.4006       5048.695        63.7135        73.4278         0.2387          2.131       -92.4272      -45.60926      0.8601658      0.3484392
      7684.0000         0.3226        12.4485       4570.195        65.8784       76.56235         0.2593         2.1508       -87.1202      -40.65844      0.9268585      0.4191651
      7684.5000         0.3172         12.552       4388.969        68.2288       79.96545         0.2833         2.2012       -84.1785      -37.91524       0.999265      0.4583538
      7685.0000         0.3238        12.7028       4189.453        69.3038       81.52195         0.3096         2.2565       -81.2341      -35.16952              1      0.4975783
      7685.5000         0.3376         12.863           3564        70.2428       82.88151         0.3359         2.2832       -48.0359      -4.186919              1      0.9401869
      7686.0000         0.3521        13.0211           2612        71.1273       84.16218         0.3623         2.2895       -41.1973       2.193385              1              1
      7686.5000         0.3727        13.1614       2355.043        71.9709       85.38361         0.3886         2.2901       -40.8707       2.495826              1              1
      7687.0000         0.3966        13.2593       2229.457        72.9075       86.73972         0.4149         2.2871       -41.5919       1.820321              1              1
      7687.5000         0.4299        13.3251       2100.094         74.027       88.36063         0.4327         2.2794       -42.3131       1.144817              1              1
      7688.0000         0.4684        13.3886        2051.73        75.0024        89.7729         0.4432         2.2714       -46.5118      -2.776356              1      0.9603378
      7688.5000         0.4879        13.4482       2095.273        74.9153        89.6468         0.4537         2.2676       -50.4429       -6.44777              1       0.907889
      7689.0000          0.503        13.5536       2142.918        74.1508       88.53988         0.4642         2.2785       -50.6118      -6.607795              1      0.9056029
      7689.5000         0.5178        13.7296        2164.59        73.3788        87.4221         0.4747         2.2899       -50.7803      -6.767447              1      0.9033222
      7690.0000         0.5335        13.9149       2160.793        72.5413        86.2095         0.4852         2.3005       -49.9954      -6.037258              1      0.9137534
      7690.5000         0.5226        14.0297           2157        71.7025       84.99501          0.494          2.314       -48.3798      -4.531749              1      0.9352607
      7691.0000         0.5117        14.0774       2153.211        68.4985       80.35595         0.4888         2.3259       -46.1481      -2.451218              1      0.9649826
      7691.5000         0.4893        14.0595       2149.418        67.5479       78.97958         0.4837         2.3257       -44.8356      -1.228603      0.9782888      0.9824485
      7692.0000         0.4749        13.9997       2144.996        67.1296       78.37393         0.4786         2.3184       -43.8357     -0.2977478      0.9654028      0.9957464
