#------------------------------------------------------------------------------
# Created by    : vladimir.rabinovich
# Created on    : 09/19/2023 17:20:57
#------------------------------------------------------------------------------
~Version Information Section
VERS.           2.0     :   CWLS log ASCII Standard - VERSION 2.0
WRAP.           NO      :   One line per depth step
~Well Information Section
#MNEM       .UNIT                                         VALUE :DESCRIPTION
#------------------------------------------------------------------------------
STRT        .FT                                             601 :START DEPTH
STOP        .FT                                            9006 :STOP DEPTH
STEP        .FT                                             0.5 :STEP      
NULL        .                                           -999.25 :NULL      
COMP        .                                        SUN OIL CO :COMPANY   
WELL        .                               OCS G01715 ST00BP00 :WELL      
FLD         .                                           WILDCAT :FIELD     
LOC         .                                                   :LOCATION  
CNTY        .                                BRAZOS LARGE BLOCK :LOCATION  
STAT        .                                             TEXAS :STATE     
CTRY        .                                     UNITED STATES :COUNTRY   
SRVC        .                                                   :SERVICE COMPANY
DATE        .                             9/13/2023 11:18:52 AM :LOG DATE  
API         .                                    42704000710000 :API NUMBER
UWI         .                                    42704000710000 :UNIQUE WELL ID
XCOORD      .                                  842225.693118258 :SURFACE X 
YCOORD      .                                  10368215.6352389 :SURFACE Y 
LAT         .                                          28.54781 :LATITUDE  
LON         .                                        -95.486614 :LONGITUDE 
ELEV        .FT                                              79 :ELEVATION VALUE
ELEV_TYPE   .                                                KB :ELEVATION REFERENCE TYPE
~Curve Information Section
#MNEM       .UNIT                                      API CODE :CURVE DESCRIPTION
#------------------------------------------------------------------------------
DEPT        .FT                                                 :DEPTH     
ASN         .OHMM                                               :          
CALI        .IN                                                 :          
CILD        .MMHO                                               :          
DT          .US/F                                               :          
ILD         .OHMM                                               :          
SP          .MV                                                 :          
SP_NORM     .MV                                                 :SP Normalized
VSH_SP      .V/V                                                :Volume of Shale from SP
~A        DEPTH            ASN           CALI           CILD             DT            ILD             SP        SP_NORM         VSH_SP
# ...
      7297.5000         0.4784          9.815       3007.953       191.8228         0.3613        -30.876     0.07638168              1
      7298.0000         0.4799         9.8075       3056.398       190.7217         0.3667        -31.408     -0.4556198              1
      7298.5000         0.4855         9.7955       3100.063       189.7854         0.3671       -32.1099       -1.15752      0.9977171
      7299.0000         0.4896         9.7196       3119.504        188.968          0.363       -32.2953      -1.342918      0.9950302
      7299.5000         0.4941         9.6447       3138.973       188.7581         0.3591       -32.5695      -1.617119      0.9910563
      7300.0000            0.5         9.7058       3149.074       188.7563         0.3569       -33.8289      -2.876518      0.9728041
      7300.5000         0.5121         9.7482       3133.969       188.0105         0.3602       -34.6662      -3.713818      0.9606693
      7301.0000         0.5223         9.7594       3086.211       185.4258         0.3662       -34.4691       -3.51672      0.9635258
      7301.5000         0.5292         9.7579           3036       183.6509         0.3811       -34.2405       -3.28812      0.9668388
      7302.0000         0.5356         9.7664       2983.535        181.606         0.3883         -34.35      -3.397617      0.9652519
      7302.5000         0.5443         9.8231        2931.07       180.5659         0.3924       -35.0852       -4.13282      0.9545968
      7303.0000         0.5556         9.7372           2884       182.4321         0.4056       -35.7714      -4.819019      0.9446519
      7303.5000         0.5672         9.8848       2839.281       184.5583         0.4213       -36.4474      -5.495018      0.9348548
      7304.0000           0.58        10.0244       2793.777       185.6257         0.4393       -35.8857      -4.933319      0.9429954
      7304.5000         0.5949         9.7717       2729.738       180.9109         0.4595       -35.3923      -4.439919      0.9501461
      7305.0000          0.613         9.6043       2665.703       175.8264         0.4781       -34.9323      -3.979919      0.9568127
      7305.5000          0.632         9.8414       2421.121       172.0166         0.4935       -34.5779      -3.625519       0.961949
      7306.0000         0.6436         9.9611       2244.996       171.7017            0.5       -34.2261       -3.27372      0.9670475
      7306.5000         0.6434         9.7672       2166.934       176.2388         0.5029       -33.8845      -2.932117      0.9719983
      7307.0000         0.6391         9.6382       1987.275       177.4299         0.4993       -33.7007      -2.748318      0.9746621
      7307.5000         0.6292         9.5888        1982.99        178.436         0.4924       -33.7856      -2.833218      0.9734316
      7308.0000         0.6163         9.5679       1977.486       180.5134         0.4808       -33.7772      -2.824818      0.9735534
      7308.5000         0.6017         9.5957       1971.939       182.4309         0.4696       -33.6945      -2.742119      0.9747519
      7309.0000         0.5883         9.7066        1975.77       183.4546         0.4616       -33.6707      -2.718319      0.9750968
      7309.5000         0.5759         9.6581       1981.488       184.1033         0.4537       -33.7126       -2.76022      0.9744896
      7310.0000         0.5626         9.6132       2305.355       184.7136         0.4454       -33.8057      -2.853317      0.9731404
      7310.5000         0.5513          9.702       2327.715       184.9368          0.437       -33.8958       -2.94342      0.9718345
      7311.0000         0.5429         9.7067       2353.016       185.4482         0.4288       -34.0491      -3.096718      0.9696128
      7311.5000         0.5365         9.7841       2385.574        186.342         0.4209       -34.1542       -3.20182      0.9680896
      7312.0000          0.532         9.9095        2418.18        186.998         0.4153       -33.9767      -3.024319      0.9706621
      7312.5000         0.5295         9.9598       2450.738       185.1807         0.4107        -33.899      -2.946617      0.9717882
      7313.0000         0.5283         9.9021       2483.297       185.2632         0.4058       -33.8603      -2.907917       0.972349
      7313.5000         0.5283         9.8546       2515.906       186.0298         0.4019       -33.7706      -2.818218       0.973649
      7314.0000         0.5284         9.8563       2548.461       186.1978          0.402       -33.6789      -2.726521       0.974978
      7314.5000         0.5285         9.8236        2581.07       186.6882         0.4029       -33.6201      -2.667717      0.9758302
      7315.0000         0.5285         9.8781       2650.844       186.1907         0.3979       -33.6306      -2.678219       0.975678
      7315.5000         0.5286         9.9242       2703.801       185.1069         0.3942       -33.7983      -2.845921      0.9732475
      7316.0000         0.5285         9.9316       2716.082       184.5195         0.3991        -33.636       -2.68362      0.9755997
      7316.5000         0.5263         9.9622       2701.496       185.8245         0.4039       -33.2321       -2.27972      0.9814533
      7317.0000          0.524         9.9633        2686.91       186.7031         0.4041       -32.9603      -2.007919      0.9853925
      7317.5000         0.5214         9.9923        2672.32       187.3025          0.401        -33.058      -2.105618      0.9839765
      7318.0000         0.5179         9.9919       2657.711       187.8269         0.3979       -33.4745      -2.522118      0.9779403
      7318.5000         0.5155         9.9434       2643.121       188.5305         0.3948       -33.9207      -2.968319      0.9714736
      7319.0000         0.5147         9.8559        2638.82       189.2424         0.3917       -34.3243      -3.371918      0.9656244
      7319.5000         0.5134         9.8411       2640.012       189.5623         0.3886       -34.4056       -3.45322      0.9644461
      7320.0000         0.5097         9.8438       2646.676       189.6936         0.3855       -34.0707       -3.11832      0.9692997
      7320.5000         0.5034         9.8246       2696.984       189.6265         0.3822       -33.6795      -2.727119      0.9749693
      7321.0000         0.4969         9.8117       2767.199       189.5229         0.3789       -33.3497       -2.39732       0.979749
      7321.5000         0.4915         9.8026       2825.258       189.4338         0.3746       -33.1548      -2.202419      0.9825736
      7322.0000         0.4886         9.8635       2857.961        189.825         0.3698       -32.9995      -2.047119      0.9848244
      7322.5000         0.4861         9.9199       2889.906       190.4148         0.3669       -32.8351      -1.882717       0.987207
      7323.0000         0.4838         9.9153       2910.453       191.1841         0.3672       -32.8171      -1.864719      0.9874678
      7323.5000         0.4811         9.8969       2930.996       190.6079         0.3651       -32.7242       -1.77182      0.9888142
      7324.0000         0.4786         9.7733       2951.273       189.4968          0.358       -32.7635      -1.811119      0.9882447
      7324.5000         0.4766         9.7601       2968.262       188.8142         0.3521       -32.9537       -2.00132      0.9854881
      7325.0000         0.4759         9.7984       2985.277       188.2224         0.3502       -33.1479      -2.195518      0.9826736
      7325.5000         0.4755         9.8446       3002.266       188.3743          0.347        -33.155      -2.202618      0.9825708
      7326.0000          0.476         9.9503       3023.156       188.0032         0.3422       -32.9866      -2.034218      0.9850113
      7326.5000         0.4766        10.0875       3045.539       187.3757         0.3345       -32.8094      -1.857018      0.9875795
