#------------------------------------------------------------------------------
# Created by    : vladimir.rabinovich
# Created on    : 09/19/2023 17:20:03
#------------------------------------------------------------------------------
~Version Information Section
VERS.           2.0     :   CWLS log ASCII Standard - VERSION 2.0
WRAP.           NO      :   One line per depth step
~Well Information Section
#MNEM       .UNIT                                         VALUE :DESCRIPTION
#------------------------------------------------------------------------------
STRT        .FT                                            3149 :START DEPTH
STOP        .FT                                           10186 :STOP DEPTH
STEP        .FT                                             0.5 :STEP      
NULL        .                                           -999.25 :NULL      
COMP        .                                  SAMEDAN OIL CORP :COMPANY   
WELL        .                                     ST TR 00817-L :WELL      
FLD         .                                           WILDCAT :FIELD     
LOC         .                                                   :LOCATION  
CNTY        .                        MUSTANG ISLAND LARGE BLOCK :LOCATION  
STAT        .                                             TEXAS :STATE     
CTRY        .                                     UNITED STATES :COUNTRY   
SRVC        .                                                   :SERVICE COMPANY
DATE        .                             9/13/2023 11:18:55 AM :LOG DATE  
API         .                                    42702300080000 :API NUMBER
UWI         .                                    42702300080000 :UNIQUE WELL ID
XCOORD      .                                  304914.569303086 :SURFACE X 
YCOORD      .                                  10013906.4088957 :SURFACE Y 
LAT         .                                        27.5345201 :LATITUDE  
LON         .                                       -97.1203623 :LONGITUDE 
ELEV        .FT                                              65 :ELEVATION VALUE
ELEV_TYPE   .                                                KB :ELEVATION REFERENCE TYPE
~Curve Information Section
#MNEM       .UNIT                                      API CODE :CURVE DESCRIPTION
#------------------------------------------------------------------------------
DEPT        .FT                                                 :DEPTH     
ASFL        .OHMM                                               :          
CILD        .MMHO                                               :          
DT          .US/F                                               :          
GR          .GAPI                                               :          
ILD         .OHMM                                               :          
SP          .MV                                                 :          
SP_NORM     .MV                                                 :SP Normalized
VSH_SP      .V/V                                                :Volume of Shale from SP
~A        DEPTH           ASFL           CILD             DT             GR            ILD             SP        SP_NORM         VSH_SP
# ...
      5007.5000         0.7193       1542.955       133.1257        -999.25         0.7008       -51.3716      -4.282482      0.9510077
      5008.0000         0.7167       1532.004       132.0286        -999.25         0.7147       -51.4828       -4.39748      0.9492913
      5008.5000         0.7132       1519.123       129.8154        -999.25         0.7293       -51.6279      -4.546383      0.9470689
      5009.0000         0.7097       1493.605       126.4194        -999.25         0.7471       -51.8524      -4.774689      0.9436614
      5009.5000         0.7109        1467.16        122.491        -999.25         0.7672       -52.0685      -4.994587      0.9403793
      5010.0000         0.7248       1397.787       118.6049        -999.25         0.7873       -52.2482      -5.178089      0.9376405
      5010.5000         0.7387       1291.469       115.7611        -999.25         0.8035       -52.4277      -5.361393      0.9349046
      5011.0000         0.7624       1239.604       113.6725        -999.25         0.8192       -52.6073      -5.544792      0.9321673
      5011.5000         0.7856       1225.209       111.8425        -999.25         0.8348       -52.7399      -5.681194      0.9301314
      5012.0000         0.8059       1216.715       110.3802        -999.25         0.8476       -52.8307      -5.775799      0.9287194
      5012.5000         0.8262       1211.354       110.0416        -999.25         0.8553       -52.9216      -5.870499       0.927306
      5013.0000         0.8461       1207.553       110.6993        -999.25          0.863       -52.8052        -5.7579      0.9289865
      5013.5000         0.8631       1207.121       111.6821        -999.25          0.865       -52.6482      -5.604702      0.9312731
      5014.0000           0.87       1206.689        112.449        -999.25         0.8658       -52.5376      -5.497906      0.9328671
      5014.5000         0.8768       1206.424        112.722        -999.25         0.8666       -52.5255      -5.489609      0.9329909
      5015.0000         0.8755        1209.32       112.7887        -999.25         0.8674       -52.5134      -5.481308      0.9331148
      5015.5000         0.8743       1212.221       112.8392        -999.25         0.8682       -52.5013      -5.473011      0.9332386
      5016.0000          0.873       1215.117       112.8898        -999.25         0.8644       -52.6316      -5.607113      0.9312371
      5016.5000          0.871       1218.328       112.9451        -999.25         0.8604       -52.7873      -5.766613      0.9288566
      5017.0000          0.869       1222.691       113.0006        -999.25         0.8565       -52.9312      -5.914314       0.926652
      5017.5000          0.867       1227.055        113.131        -999.25         0.8526       -53.0112      -5.998119      0.9254012
      5018.0000         0.8663       1231.418       113.4103        -999.25         0.8487       -53.0912      -6.081921      0.9241505
      5018.5000         0.8674       1241.861       113.7135        -999.25         0.8448       -53.1713      -6.165821      0.9228982
      5019.0000         0.8685       1252.605       114.2552        -999.25         0.8373        -53.217      -6.215324      0.9221593
      5019.5000         0.8704       1265.023        114.848        -999.25         0.8298       -53.1841      -6.186226      0.9225937
      5020.0000         0.8731       1279.309       115.4937        -999.25         0.8222       -53.1511      -6.157028      0.9230294
      5020.5000         0.8731       1293.594       116.1877        -999.25         0.8146        -53.076      -6.085732      0.9240935
      5021.0000         0.8621       1307.879       117.1282        -999.25          0.807       -52.8475      -5.861031      0.9274473
      5021.5000         0.8494       1335.105       118.0706        -999.25         0.7995       -52.6188      -5.636135       0.930804
      5022.0000         0.8363       1365.434       119.0148        -999.25         0.7919       -52.3903      -5.411434      0.9341577
      5022.5000         0.8233       1396.566       120.1113        -999.25         0.7843       -52.0587      -5.083637      0.9390502
      5023.0000         0.8139        1432.51       121.0319        -999.25         0.7768       -51.6897      -4.718441      0.9445009
      5023.5000         0.8054       1446.014       121.5997        -999.25         0.7732       -51.2533      -4.285839      0.9509576
      5024.0000         0.8009       1456.477       121.9875        -999.25         0.7715       -50.7155      -3.751842      0.9589278
      5024.5000         0.8062       1460.781       122.0326        -999.25         0.7698        -50.218      -3.258144      0.9662964
      5025.0000         0.8116       1463.336       122.0404        -999.25         0.7682       -49.8381      -2.882046      0.9719098
      5025.5000         0.8169       1461.447       122.5762        -999.25         0.7665       -49.9387       -2.98645      0.9703515
      5026.0000         0.8168       1448.357       123.7698        -999.25         0.7671       -50.1245      -3.176052      0.9675216
      5026.5000         0.8151       1436.283       125.0809        -999.25         0.7677       -50.3644       -3.41975      0.9638844
      5027.0000         0.8136       1424.574        126.463        -999.25         0.7683       -50.3679      -3.427055      0.9637753
      5027.5000         0.8133       1411.182       127.5614        -999.25         0.7688       -50.2323      -3.295258      0.9657424
      5028.0000         0.8074       1396.701       126.6732        -999.25         0.7694       -50.0967      -3.163456      0.9677096
      5028.5000         0.8014       1398.068        125.986        -999.25           0.77        -49.876       -2.94656      0.9709468
      5029.0000         0.7954       1407.104       126.4711        -999.25         0.7697       -49.6237      -2.698059      0.9746558
      5029.5000         0.7868       1416.145       127.8563        -999.25         0.7665       -49.3713      -2.449463      0.9783662
      5030.0000         0.7782        1425.18       129.4187        -999.25         0.7634       -49.1189      -2.200867      0.9820766
      5030.5000         0.7696       1439.201       130.7944        -999.25         0.7602       -48.9089      -1.994667      0.9851542
      5031.0000         0.7613       1454.109       132.0933        -999.25         0.7571       -48.7205       -1.81007      0.9879094
      5031.5000         0.7532       1469.016       133.1631        -999.25         0.7539       -48.5322      -1.625572      0.9906631
      5032.0000         0.7422       1480.115       134.1855        -999.25         0.7508       -48.5494      -1.646572      0.9903497
      5032.5000         0.7322       1490.268        134.937        -999.25         0.7484       -48.5773      -1.678276      0.9898764
      5033.0000         0.7267       1500.412       135.5918        -999.25         0.7459       -48.5874      -1.692177       0.989669
      5033.5000         0.7212       1507.521       136.1335        -999.25         0.7435       -48.5753      -1.683876      0.9897929
      5034.0000         0.7157       1512.158        136.427        -999.25          0.741       -48.5632      -1.675583      0.9899167
      5034.5000         0.7138       1516.791       136.6799        -999.25         0.7386       -48.5511      -1.667286      0.9900405
      5035.0000         0.7119       1515.283       136.7898        -999.25         0.7361        -48.444      -1.563984      0.9915823
      5035.5000           0.71       1507.232       136.8188        -999.25         0.7367        -48.334      -1.457787      0.9931673
      5036.0000          0.714        1499.18       136.7615        -999.25          0.739       -48.2242      -1.351788      0.9947494
      5036.5000         0.7205       1485.096       136.4868        -999.25         0.7413       -48.1144      -1.245789      0.9963315
