#------------------------------------------------------------------------------
# Created by    : vladimir.rabinovich
# Created on    : 09/19/2023 17:20:40
#------------------------------------------------------------------------------
~Version Information Section
VERS.           2.0     :   CWLS log ASCII Standard - VERSION 2.0
WRAP.           NO      :   One line per depth step
~Well Information Section
#MNEM       .UNIT                                         VALUE :DESCRIPTION
#------------------------------------------------------------------------------
STRT        .FT                                             400 :START DEPTH
STOP        .FT                                           11002 :STOP DEPTH
STEP        .FT                                             0.5 :STEP      
NULL        .                                           -999.25 :NULL      
COMP        .                            STANOLIND OIL & GAS CO :COMPANY   
WELL        .                                     ST TR 00245-L :WELL      
FLD         .                              GALVESTON BLOCK 0245 :FIELD     
LOC         .                                                   :LOCATION  
CNTY        .                             GALVESTON LARGE BLOCK :LOCATION  
STAT        .                                             TEXAS :STATE     
CTRY        .                                     UNITED STATES :COUNTRY   
SRVC        .                                                   :SERVICE COMPANY
DATE        .                             9/13/2023 11:19:42 AM :LOG DATE  
API         .                                    42706000160000 :API NUMBER
UWI         .                                    42706000160000 :UNIQUE WELL ID
XCOORD      .                                  1024804.26554262 :SURFACE X 
YCOORD      .                                  10549089.4715911 :SURFACE Y 
LAT         .                                        29.0543948 :LATITUDE  
LON         .                                       -94.9272588 :LONGITUDE 
ELEV        .FT                                              11 :ELEVATION VALUE
ELEV_TYPE   .                                                KB :ELEVATION REFERENCE TYPE
~Curve Information Section
#MNEM       .UNIT                                      API CODE :CURVE DESCRIPTION
#------------------------------------------------------------------------------
DEPT        .FT                                                 :DEPTH     
ASN         .OHMM                                               :          
LAT         .OHMM                                               :          
LN          .OHMM                                               :          
SP          .MV                                                 :          
SP_NORM     .MV                                                 :SP Normalized
VSH_SP      .V/V                                                :Volume of Shale from SP
~A        DEPTH            ASN            LAT             LN             SP        SP_NORM         VSH_SP
# ...
      6024.0000         1.1431         0.5867         0.4887       -48.3431      -3.066795       0.987147
      6024.5000         1.1022         0.5881         0.4914       -49.3761      -4.093872      0.9747726
      6025.0000          1.056         0.5876         0.4908       -50.5819      -5.293755      0.9603162
      6025.5000         1.0304         0.5871         0.4901       -51.6406      -6.346531      0.9476321
      6026.0000         1.0067         0.5866         0.4894       -51.3787      -6.078709       0.950859
      6026.5000         0.9831         0.5861         0.4888       -50.8132       -5.50729      0.9577435
      6027.0000         0.9429         0.5856         0.4895       -50.2482      -4.936367      0.9646221
      6027.5000         0.9124         0.5851         0.4903       -49.2758      -3.958046      0.9764091
      6028.0000         0.8895         0.5846          0.491       -47.5864      -2.262726      0.9968346
      6028.5000          0.867         0.5841         0.4918       -46.1209     -0.7913055              1
      6029.0000         0.8409         0.5836         0.4926       -45.0555       0.280014              1
      6029.5000         0.8287         0.5831         0.4946       -44.5304       0.811039              1
      6030.0000         0.8597         0.5843         0.4965       -44.2289       1.118458              1
      6030.5000         0.9009         0.5867         0.4985       -44.6901      0.6631775              1
      6031.0000         0.9213         0.5891         0.5004       -45.6518     -0.2925987              1
      6031.5000         0.9407         0.5914         0.5024       -47.3613      -1.996181              1
      6032.0000         0.9599         0.5938         0.5051       -48.8657      -3.494659      0.9819921
      6032.5000         0.9752         0.5919         0.5082       -50.1049      -4.727936      0.9671333
      6033.0000         0.9732         0.5874         0.5112       -50.9842      -5.601315      0.9566107
      6033.5000         0.9577         0.5736         0.5143       -51.8467      -6.457893      0.9462904
      6034.0000         0.9424          0.558         0.5111       -52.5789      -7.184174      0.9375401
      6034.5000         0.9279         0.5451          0.507       -53.2258      -7.825153      0.9298174
      6035.0000         0.9168         0.5349          0.503       -53.8727      -8.466133      0.9220948
      6035.5000         0.9261         0.5248         0.4989       -54.2685      -8.856014      0.9173974
      6036.0000          0.936         0.5215         0.4924       -54.3607      -8.942287       0.916358
      6036.5000         0.9389         0.5246          0.485       -54.3676      -8.943268      0.9163462
      6037.0000         0.9325         0.5277         0.4775       -54.3296      -8.899349      0.9168753
      6037.5000         0.9222         0.5308           0.47       -54.2916      -8.855427      0.9174045
      6038.0000         0.9122         0.5436         0.4627       -54.4369      -8.994808      0.9157252
      6038.5000         0.9024         0.5641         0.4555       -54.6149      -9.166885       0.913652
      6039.0000         0.8935         0.5846         0.4483       -54.7899      -9.335964      0.9116149
      6039.5000         0.8845         0.6038         0.4412       -54.9561      -9.496243      0.9096838
      6040.0000         0.8724         0.6168         0.4348       -55.1223      -9.656521      0.9077528
      6040.5000         0.8602         0.6123         0.4323       -55.1837      -9.712002      0.9070843
      6041.0000         0.8475         0.5948         0.4297       -55.1254      -9.647781      0.9078581
      6041.5000         0.8339         0.5772         0.4272       -54.9696      -9.486061      0.9098065
      6042.0000         0.8212         0.5641         0.4263       -54.6993      -9.209839      0.9131345
      6042.5000         0.8156         0.5662         0.4278       -54.3464      -8.851017      0.9174576
      6043.0000         0.8239         0.5683         0.4294       -53.8967      -8.395397       0.922947
      6043.5000         0.8312         0.5803         0.4299       -53.4688      -7.961575      0.9281738
      6044.0000         0.8356         0.6045         0.4267       -53.0029      -7.489754      0.9338584
      6044.5000         0.8397         0.6287         0.4235       -52.4981      -6.979034      0.9400116
      6045.0000         0.8269         0.6706          0.419       -51.9259      -6.400913       0.946977
      6045.5000         0.8141         0.7049         0.4128       -50.7736      -5.242691      0.9609314
      6046.0000         0.7933         0.7258         0.4066       -49.4028      -3.865971      0.9775184
      6046.5000         0.7683         0.7459         0.3975       -47.8795       -2.33675      0.9959428
      6047.0000         0.7292         0.7649         0.3879       -46.7383      -1.189629              1
      6047.5000         0.6902         0.7823         0.3776       -45.9727     -0.4181061              1
      6048.0000          0.667         0.7952         0.3664       -45.2857      0.2748108              1
      6048.5000         0.6482         0.7992         0.3552       -51.6138      -6.047367      0.9512365
      6049.0000         0.6319         0.7987         0.3444       -65.5394      -19.96704      0.7835296
      6049.5000          0.616         0.7922          0.337       -72.8053      -27.22702        0.69606
      6050.0000         0.6023         0.7241         0.3296       -80.8202        -35.236      0.5995663
      6050.5000         0.5935         0.6254         0.3222        -83.566      -37.97588      0.5665556
      6051.0000         0.6004         0.6223          0.319       -80.4969      -34.90086      0.6036041
      6051.5000         0.8219         0.6192         0.3161       -76.8975      -31.29554      0.6470417
      6052.0000         0.9092         0.6469         0.3132       -65.0647      -19.45681       0.789677
      6052.5000         0.9185          0.695         0.3098       -62.2185      -16.60469      0.8240398
      6053.0000         0.9196         0.7685         0.3061       -58.3092      -12.68948      0.8712111
      6053.5000         0.9143           0.81         0.3025       -45.6674    -0.04175568              1
      6054.0000         0.9081         0.7941         0.2988       -42.8368       2.794765              1
      6054.5000          0.897         0.7208         0.2952       -41.2655       4.371986              1
      6055.0000          0.879         0.6902         0.2926       -40.6932       4.950211              1
      6055.5000         0.8605         0.6681         0.2901       -40.5543       5.095032              1
      6056.0000         0.8744          0.645         0.2875        -40.657       4.998249              1
      6056.5000         0.8865         0.6276         0.2854       -43.9913       1.669872              1
      6057.0000         0.8744         0.6119         0.2847       -46.3962     -0.7291069              1
      6057.5000         0.8622         0.6042          0.284       -48.5114      -2.838387       0.989899
      6058.0000         0.8312         0.5963         0.2833       -50.2609      -4.581966       0.968892
      6058.5000         0.7815         0.5868         0.2804       -50.9507      -5.265842      0.9606525
      6059.0000         0.7538           0.58          0.277        -49.589      -3.898224      0.9771298
      6059.5000         0.7372         0.5755         0.2724       -47.9464      -2.249702      0.9969915
      6060.0000         0.7234         0.5741         0.2641       -46.4742     -0.7715836              1
      6060.5000          0.716         0.5736         0.2557       -51.7297       -6.02116      0.9515523
      6061.0000         0.7188         0.5731         0.2464       -57.9927      -12.27824      0.8761658
      6061.5000         0.7232         0.5726          0.236       -63.0164      -17.29602      0.8157107
