#------------------------------------------------------------------------------
# Created by    : vladimir.rabinovich
# Created on    : 09/19/2023 17:20:36
#------------------------------------------------------------------------------
~Version Information Section
VERS.           2.0     :   CWLS log ASCII Standard - VERSION 2.0
WRAP.           NO      :   One line per depth step
~Well Information Section
#MNEM       .UNIT                                         VALUE :DESCRIPTION
#------------------------------------------------------------------------------
STRT        .FT                                             498 :START DEPTH
STOP        .FT                                            9565 :STOP DEPTH
STEP        .FT                                             0.5 :STEP      
NULL        .                                           -999.25 :NULL      
COMP        .                       BLUE DOLPHIN EXPLORATION CO :COMPANY   
WELL        .                                OCS 00714 ST00BP00 :WELL      
FLD         .                              GALVESTON BLOCK 0288 :FIELD     
LOC         .                                                   :LOCATION  
CNTY        .                             GALVESTON LARGE BLOCK :LOCATION  
STAT        .                                             TEXAS :STATE     
CTRY        .                                     UNITED STATES :COUNTRY   
SRVC        .                                                   :SERVICE COMPANY
DATE        .                             9/13/2023 11:19:25 AM :LOG DATE  
API         .                                    42706000390000 :API NUMBER
UWI         .                                    42706000390000 :UNIQUE WELL ID
XCOORD      .                                  1097340.72850425 :SURFACE X 
YCOORD      .                                  10481267.2561277 :SURFACE Y 
LAT         .                                        28.8709496 :LATITUDE  
LON         .                                       -94.6972159 :LONGITUDE 
ELEV        .FT                                              85 :ELEVATION VALUE
ELEV_TYPE   .                                                KB :ELEVATION REFERENCE TYPE
~Curve Information Section
#MNEM       .UNIT                                      API CODE :CURVE DESCRIPTION
#------------------------------------------------------------------------------
DEPT        .FT                                                 :DEPTH     
ASN         .OHMM                                               :          
CALI        .IN                                                 :          
DT          .US/F                                               :          
ILD         .OHMM                                               :          
SP          .MV                                                 :          
SP_1        .MV                                                 :          
SP_NORM     .MV                                                 :SP Normalized
VSH_SP      .V/V                                                :Volume of Shale from SP
~A        DEPTH            ASN           CALI             DT            ILD             SP           SP_1        SP_NORM         VSH_SP
# ...
      6516.0000         0.5654        10.3695       108.5739         0.5253       -80.0106        -999.25      -26.35206      0.4826111
      6516.5000         0.5373        10.3069       106.0028         0.5095       -96.6887        -999.25      -43.03016      0.1422417
      6517.0000         0.5269        10.3189       107.9648         0.4946      -103.2675        -999.25      -49.60896    0.007980347
      6517.5000         0.5167          10.36       110.5122         0.4836       -95.2393        -999.25      -41.58076      0.1718211
      6518.0000         0.4958        10.3526       109.7998         0.4726       -83.4464        -999.25      -29.78786      0.4124925
      6518.5000         0.4742        10.2724       109.7802         0.4616       -84.8781        -999.25      -31.21956      0.3832743
      6519.0000         0.4676         10.159       109.2571         0.4942       -89.7097        -999.25      -36.05116      0.2846701
      6519.5000         0.5175         10.099       108.9301         0.5282        -92.479        -999.25      -38.82046      0.2281539
      6520.0000         0.5674        10.0623       109.8683         0.5278        -82.319        -999.25      -28.66046      0.4355008
      6520.5000         0.5914        10.0377       111.1292         0.5577       -68.0388        -999.25      -14.38026      0.7269334
      6521.0000          0.604        10.0287       112.2517         0.6043       -61.0731        -999.25      -7.414562      0.8690906
      6521.5000         0.6387        10.0283       113.0854          0.651       -58.7333        -999.25       -5.07476      0.9168416
      6522.0000         0.7148        10.0408       110.9224         0.6989       -58.2941        -999.25      -4.635563      0.9258049
      6522.5000         0.7305        10.0717       105.8523         0.7477       -58.3877        -999.25       -4.72916      0.9238947
      6523.0000         0.7393        10.1303       103.8813         0.7995       -58.8167        -999.25      -5.158161      0.9151396
      6523.5000         0.7368        10.2176       111.9135         0.8636       -59.4681        -999.25      -5.809563      0.9018456
      6524.0000         0.6791        10.2813       112.1472         0.8066       -59.6882        -999.25      -6.029663      0.8973538
      6524.5000          0.654        10.3028       106.4725         0.7497       -59.5957        -999.25       -5.93716      0.8992416
      6525.0000         0.6361        10.3148        98.5258         0.6964       -60.9344        -999.25       -7.27586      0.8719212
      6525.5000         0.6191        10.3216        99.5236         0.6452       -65.9629        -999.25      -12.30436      0.7692988
      6526.0000         0.6108        10.3151       110.9763         0.6113       -76.6821        -999.25      -23.02356      0.5505396
      6526.5000         0.6131        10.3055       113.9125         0.6015       -84.6007        -999.25      -30.94216      0.3889355
      6527.0000         0.6153        10.2933       112.8911         0.6199       -83.6254        -999.25      -29.96686      0.4088396
      6527.5000         0.6247        10.2804       108.3625         0.6408       -73.8188        -999.25      -20.16026      0.6089742
      6528.0000         0.6357        10.2362        107.104         0.6617       -61.3639        -999.25       -7.70536      0.8631559
      6528.5000         0.6514        10.1755       112.0551         0.6825        -55.085        -999.25       -1.42646      0.9912967
      6529.0000          0.667        10.1024       117.9432         0.6983       -54.2142        -999.25     -0.5556602              1
      6529.5000         0.7061          10.08       118.4601         0.7124       -54.9362        -999.25       -1.27766      0.9943334
      6530.0000         0.7305        10.1507       114.3744         0.7265       -55.8801        -999.25      -2.221561      0.9750702
      6530.5000         0.7611        10.2241       113.3782         0.7565        -57.002        -999.25       -3.34346      0.9521743
      6531.0000         0.7682        10.2655       111.4191         0.7698       -58.4817        -999.25      -4.823162      0.9219763
      6531.5000         0.7753        10.2807       109.9796         0.7831       -58.6249        -999.25      -4.966362      0.9190539
      6532.0000         0.7824        10.2831       109.4054         0.7964       -59.2948        -999.25      -5.636261      0.9053825
      6532.5000         0.7864        10.2773       110.1122         0.8064       -60.4982        -999.25      -6.839661      0.8808233
      6533.0000         0.7895        10.2716        108.839         0.8113        -58.371        -999.25       -4.71246      0.9242355
      6533.5000         0.7926        10.2657       109.6571         0.8162       -55.5547        -999.25       -1.89616       0.981711
      6534.0000         0.7956        10.2592       113.5461         0.8211       -54.4978        -999.25     -0.8392601              1
      6534.5000         0.7985        10.2559       108.7919         0.8259       -54.0621        -999.25     -0.4035606              1
      6535.0000         0.8015        10.2497       102.6632         0.8308       -53.8671        -999.25     -0.2085609              1
      6535.5000         0.8049        10.2397       107.1378         0.8357       -53.8077        -999.25     -0.1491623              1
      6536.0000         0.8112        10.2377       110.2527         0.8362       -53.7006        -999.25    -0.04206085              1
      6536.5000         0.8175         10.253        115.889         0.8352        -53.637        -999.25     0.02153778              1
      6537.0000         0.8208        10.2846       115.7767         0.8342       -53.8157        -999.25     -0.1571617              1
      6537.5000         0.8179        10.3512       113.5417         0.8332       -54.1589        -999.25     -0.5003624              1
      6538.0000          0.815        10.4264       114.0732         0.8322       -54.6516        -999.25     -0.9930611              1
      6538.5000         0.8122        10.4646       114.0597         0.8312       -55.2242        -999.25      -1.565662      0.9884559
      6539.0000         0.8093        10.4985       112.3225         0.8302       -55.8617        -999.25      -2.203159      0.9754457
      6539.5000         0.8064        10.5104       111.7101         0.8274       -55.7079        -999.25      -2.049362      0.9785845
      6540.0000         0.8037        10.5178       107.9828         0.8242       -54.8232        -999.25      -1.164661      0.9966395
      6540.5000          0.801         10.519       103.7329         0.8211       -54.5063        -999.25     -0.8477631              1
      6541.0000         0.7984        10.4365       107.8142          0.818       -54.4221        -999.25     -0.7635612              1
      6541.5000         0.7989        10.2927       109.8503         0.8149       -54.5774        -999.25     -0.9188614              1
      6542.0000         0.8032        10.3628       115.9296         0.8128       -54.8523        -999.25       -1.19376      0.9960457
      6542.5000         0.8076        10.4758       120.0411         0.8133       -55.0098        -999.25      -1.351261      0.9928314
      6543.0000         0.8115        10.5549       114.3025         0.8139       -54.7125        -999.25      -1.053963      0.9988987
      6543.5000         0.8152        10.4967       109.0795         0.8144       -54.4935        -999.25     -0.8349609              1
      6544.0000         0.8189        10.4257        109.174         0.8149        -54.499        -999.25     -0.8404617              1
      6544.5000         0.8226         10.387        109.911         0.8154        -54.532        -999.25     -0.8734627              1
      6545.0000         0.8262        10.3795       113.7091          0.816       -54.6298        -999.25     -0.9712601              1
