#------------------------------------------------------------------------------
# Created by    : vladimir.rabinovich
# Created on    : 09/19/2023 17:22:18
#------------------------------------------------------------------------------
~Version Information Section
VERS.           2.0     :   CWLS log ASCII Standard - VERSION 2.0
WRAP.           NO      :   One line per depth step
~Well Information Section
#MNEM       .UNIT                                         VALUE :DESCRIPTION
#------------------------------------------------------------------------------
STRT        .FT                                            4012 :START DEPTH
STOP        .FT                                            9352 :STOP DEPTH
STEP        .FT                                             0.5 :STEP      
NULL        .                                           -999.25 :NULL      
COMP        .                                   KERR-MCGEE CORP :COMPANY   
WELL        .                                ST TR 00007-L SE/4 :WELL      
FLD         .                                           WILDCAT :FIELD     
LOC         .                                                   :LOCATION  
CNTY        .                           HIGH ISLAND LARGE BLOCK :LOCATION  
STAT        .                                             TEXAS :STATE     
CTRY        .                                     UNITED STATES :COUNTRY   
SRVC        .                                                   :SERVICE COMPANY
DATE        .                             9/13/2023 11:19:15 AM :LOG DATE  
API         .                                    42708302700000 :API NUMBER
UWI         .                                    42708302700000 :UNIQUE WELL ID
XCOORD      .                                   1285759.2062487 :SURFACE X 
YCOORD      .                                  10728779.4927599 :SURFACE Y 
LAT         .                                        29.5578886 :LATITUDE  
LON         .                                       -94.1158411 :LONGITUDE 
ELEV        .FT                                             125 :ELEVATION VALUE
ELEV_TYPE   .                                                KB :ELEVATION REFERENCE TYPE
~Curve Information Section
#MNEM       .UNIT                                      API CODE :CURVE DESCRIPTION
#------------------------------------------------------------------------------
DEPT        .FT                                                 :DEPTH     
CALI        .IN                                                 :          
CILD        .MMHO                                               :          
DPHI        .%                                                  :          
ILD         .OHMM                                               :          
ILM         .OHMM                                               :          
SFL         .OHMM                                               :          
SP          .MV                                                 :          
SP_NORM     .MV                                                 :SP Normalized
VSH_SP      .V/V                                                :Volume of Shale from SP
~A        DEPTH           CALI           CILD           DPHI            ILD            ILM            SFL             SP        SP_NORM         VSH_SP
# ...
      6847.5000        13.2206       3701.656        22.6018         0.2983         0.2741         0.6451       -91.3435       -27.4881      0.6073129
      6848.0000        13.4082       4146.875        23.8516         0.2338         0.2648         0.7257      -106.3802       -42.5269      0.3924728
      6848.5000        13.7484       4385.352        27.2903         0.2219         0.2643         0.7473      -114.1997       -50.3484      0.2807371
      6849.0000        14.0883       4495.117        30.4524         0.2183         0.2639         0.7384      -116.1968       -52.3476      0.2521771
      6849.5000        14.3302       4464.352        32.6252          0.218         0.2684         0.7233      -117.6835       -53.8363        0.23091
      6850.0000        14.5357       4418.617        33.1096          0.218         0.2734         0.7091      -118.7151         -54.87      0.2161429
      6850.5000        14.6543       4366.461        33.0688         0.2189         0.2769         0.6975      -119.4396       -55.5965      0.2057643
      6851.0000        14.6821       4317.977        33.1373         0.2212         0.2792         0.7017      -119.9761       -56.1351        0.19807
      6851.5000        14.5648       4281.891        33.3435         0.2246         0.2815         0.6781      -120.0951       -56.2561      0.1963414
      6852.0000        14.3005       4266.086        34.2945         0.2275         0.2793         0.6528      -119.8881       -56.0512      0.1992686
      6852.5000        13.9878       4287.773        36.2141           0.23         0.2766         0.6229      -119.5907       -55.7558      0.2034886
      6853.0000        13.9559       4307.008        38.1337         0.2313          0.271         0.6093       -119.342       -55.5092      0.2070114
      6853.5000        14.1525        4315.57        39.8281         0.2332         0.2655         0.6303      -119.2714       -55.4407        0.20799
      6854.0000        14.4322       4259.195        41.2854         0.2355         0.2649         0.6518      -119.1871       -55.3584      0.2091657
      6854.5000        14.6997       4179.453        42.8134         0.2398         0.2649         0.6706      -118.9576        -55.131      0.2124143
      6855.0000        14.9383        4081.32        44.4886         0.2443         0.2665         0.6894      -118.7279       -54.9033      0.2156671
      6855.5000        15.1598       4001.438        46.0623         0.2493          0.272         0.6819      -118.0446       -54.2221      0.2253986
      6856.0000        15.3654       3777.617        47.2886         0.2549         0.2776         0.6681      -117.1892       -53.3687        0.23759
      6856.5000         15.571        3663.48         47.737         0.2605         0.2856         0.6429      -116.0095       -52.1911      0.2544128
      6857.0000        15.7611       3549.246        47.0177         0.2698         0.2997         0.6306      -114.7932       -50.9768        0.27176
      6857.5000        15.9261       3357.777        45.8106         0.2808          0.314          0.654      -113.2526       -49.4383      0.2937385
      6858.0000        15.9589       3151.293        43.6481          0.294         0.3268         0.6681      -111.0719       -47.2596      0.3248628
      6858.5000        15.5228       2981.711        36.7941          0.304         0.3351         0.6279      -107.6823       -43.8721      0.3732557
      6859.0000        14.9373       2813.402        32.3013         0.3106         0.3354         0.5836      -100.8982         -37.09      0.4701428
      6859.5000        14.4816       2804.766        27.0136         0.3165         0.3325         0.5425       -89.1849       -25.3788      0.6374457
      6860.0000        14.1126       2903.887        23.9944         0.3204         0.3306         0.5097       -85.4063       -21.6022      0.6913971
      6860.5000        13.4209       3088.879        22.3765         0.3226         0.3235          0.501       -83.0151       -19.2131      0.7255271
      6861.0000        13.3221        3231.57        21.4742         0.3176          0.313          0.523       -85.3524       -21.5524      0.6921086
      6861.5000        13.4672       3373.285        21.0285          0.297            0.3         0.5645       -89.8849        -26.087      0.6273286
      6862.0000        13.6591       3564.656        20.9173          0.278         0.2861          0.606       -96.6006       -32.8048        0.53136
      6862.5000        13.8745       3819.816         20.892         0.2652         0.2729         0.6344       -110.208       -46.4142        0.33694
      6863.0000        14.1662        4003.75        21.6736         0.2545         0.2617         0.6486      -114.0797        -50.288         0.2816
      6863.5000         14.444       4226.758        22.8932         0.2453         0.2587         0.6591      -115.9423       -52.1526      0.2549629
      6864.0000         14.768       4314.984         24.567         0.2389         0.2587         0.6698      -117.2944       -53.5068      0.2356171
      6864.5000        14.9425       4349.148        27.0489         0.2348         0.2611          0.681      -118.3773       -54.5917      0.2201186
      6865.0000        15.0893       4316.406        28.4113         0.2304         0.2635         0.6889      -119.2609       -55.4774      0.2074657
      6865.5000        15.2814       4204.281        28.7852         0.2331         0.2659         0.6925      -119.7922       -56.0107      0.1998471
      6866.0000         15.731       4154.234        28.5019         0.2359         0.2685         0.6947       -120.089       -56.3096      0.1955771
      6866.5000        15.7809       4124.102        27.9616         0.2383         0.2711         0.6969      -120.3864        -56.609         0.1913
      6867.0000        15.8307       4096.992         27.085         0.2405         0.2737         0.6943      -120.7008       -56.9255      0.1867786
      6867.5000        15.8806       4072.414        26.5228         0.2427         0.2759         0.6907      -121.0154       -57.2421      0.1822557
      6868.0000        15.9304        4052.27        26.6774         0.2451         0.2779         0.6848      -121.1937       -57.4225      0.1796786
      6868.5000        15.9802       4031.953        26.6925         0.2475         0.2799         0.6783      -121.2535       -57.4843      0.1787957
      6869.0000        16.0301       4011.313        26.8347          0.249          0.283         0.6675      -121.3135       -57.5464      0.1779086
      6869.5000        16.1556       4000.719         27.364         0.2485         0.2861         0.6621      -121.1763       -57.4112        0.17984
      6870.0000         16.224       3990.125          27.69          0.248         0.2893         0.6705      -120.9888       -57.2258      0.1824886
      6870.5000        16.2135        3980.02        27.9866         0.2474          0.292         0.6815      -120.4117       -56.6507      0.1907043
      6871.0000        16.1976       3984.855        27.8157         0.2477         0.2947         0.6933      -119.6984       -55.9395      0.2008643
      6871.5000        16.1911       3995.262         27.631          0.248         0.2972         0.6886      -118.0151       -54.2583      0.2248814
      6872.0000        16.1846       4001.469         27.209         0.2483         0.2992         0.6814      -116.2848         -52.53      0.2495714
      6872.5000        16.1892        3997.41        26.3703         0.2492         0.3011          0.668      -114.5741       -50.8214        0.27398
      6873.0000        16.1968       3993.434        25.5032         0.2503         0.3031         0.6536      -113.0347        -49.284      0.2959428
      6873.5000        16.2018       3997.445        25.5437         0.2506         0.3031         0.6404      -111.6886         -47.94      0.3151429
