#------------------------------------------------------------------------------
# Created by    : vladimir.rabinovich
# Created on    : 09/19/2023 17:19:50
#------------------------------------------------------------------------------
~Version Information Section
VERS.           2.0     :   CWLS log ASCII Standard - VERSION 2.0
WRAP.           NO      :   One line per depth step
~Well Information Section
#MNEM       .UNIT                                         VALUE :DESCRIPTION
#------------------------------------------------------------------------------
STRT        .FT                                             880 :START DEPTH
STOP        .FT                                            8374 :STOP DEPTH
STEP        .FT                                             0.5 :STEP      
NULL        .                                           -999.25 :NULL      
COMP        .                                        EXXON CORP :COMPANY   
WELL        .                               OCS G04552 ST00BP00 :WELL      
FLD         .                                 BRAZOS BLOCK 0451 :FIELD     
LOC         .                                                   :LOCATION  
CNTY        .                                BRAZOS LARGE BLOCK :LOCATION  
STAT        .                                             TEXAS :STATE     
CTRY        .                                     UNITED STATES :COUNTRY   
SRVC        .                                                   :SERVICE COMPANY
DATE        .                             9/13/2023 11:19:08 AM :LOG DATE  
API         .                                    42704401130000 :API NUMBER
UWI         .                                    42704401130000 :UNIQUE WELL ID
XCOORD      .                                  760277.642000753 :SURFACE X 
YCOORD      .                                  10343629.6463693 :SURFACE Y 
LAT         .                                         28.475327 :LATITUDE  
LON         .                                        -95.739931 :LONGITUDE 
ELEV        .FT                                              95 :ELEVATION VALUE
ELEV_TYPE   .                                                KB :ELEVATION REFERENCE TYPE
~Curve Information Section
#MNEM       .UNIT                                      API CODE :CURVE DESCRIPTION
#------------------------------------------------------------------------------
DEPT        .FT                                                 :DEPTH     
ASFL        .OHMM                                               :          
CALI        .IN                                                 :          
CILD        .MMHO                                               :          
DT          .US/F                                               :          
GR          .GAPI                                               :          
GR_NORM     .GAPI                                               :GammaRay Normalized
ILD         .OHMM                                               :          
ILM         .OHMM                                               :          
RHOB        .G/C3                                               :          
SP          .MV                                                 :          
SP_NORM     .MV                                                 :SP Normalized
VSH_GR      .V/V                                                :Volume of Shale from GR
VSH_SP      .V/V                                                :Volume of Shale from SP
~A        DEPTH           ASFL           CALI           CILD             DT             GR        GR_NORM            ILD            ILM           RHOB             SP        SP_NORM         VSH_GR         VSH_SP
# ...
      1032.0000        -999.25        -999.25        -999.25        -999.25        19.0432       34.63715        -999.25        -999.25        -999.25        -999.25        -999.25     0.03483305        -999.25
      1032.5000        -999.25        -999.25        -999.25        -999.25           19.1       34.69275        -999.25        -999.25        -999.25        -999.25        -999.25     0.03601602        -999.25
      1033.0000        -999.25        -999.25        -999.25        -999.25        19.2279       34.84201        -999.25        -999.25        -999.25        -999.25        -999.25     0.03919179        -999.25
      1033.5000        -999.25        -999.25        -999.25        -999.25        19.3807       35.02395        -999.25        -999.25        -999.25        -999.25        -999.25     0.04306282        -999.25
      1034.0000        -999.25        -999.25        -999.25        -999.25        19.5321       35.20418        -999.25        -999.25        -999.25        -999.25        -999.25     0.04689748        -999.25
      1034.5000        -999.25        -999.25        -999.25        -999.25        19.6814       35.38163        -999.25        -999.25        -999.25        -999.25        -999.25     0.05067298        -999.25
      1035.0000        -999.25        -999.25        -999.25        -999.25        19.8796       35.62351        -999.25        -999.25        -999.25        -999.25        -999.25     0.05581933        -999.25
      1035.5000        -999.25        -999.25        -999.25        -999.25        20.1997       36.02599        -999.25        -999.25        -999.25        -999.25        -999.25     0.06438267        -999.25
      1036.0000         1.0857        -999.25         1.4097       249.8433        21.7068       37.99223         0.9959         0.2082        -999.25      -105.4271       -34.8389      0.1062177    0.004602814
      1036.5000         1.0842        -999.25         1.4351       249.6877        21.9757       38.32712          1.005         0.3298        -999.25      -105.2706       -34.6824       0.113343    0.009074293
      1037.0000         1.0834        -999.25        11.1221       249.4202        22.1672       38.56017         1.0212         0.5714        -999.25      -105.0409       -34.4527      0.1183016      0.0156371
      1037.5000         1.0874        -999.25        27.3716       248.6135        22.3523       38.78479         1.0375        32.8732        -999.25      -104.6146       -34.0264      0.1230807      0.0278171
      1038.0000          1.094        -999.25       120.6665       236.0735        24.4663       41.55059         1.0429        21.6719        -999.25      -103.9362        -33.348      0.1819274     0.04720001
      1038.5000         1.1067        -999.25       180.7732       208.9897        29.4164       48.05272         1.0478         1.5811        -999.25      -102.9747       -32.3865      0.3202706     0.07467139
      1039.0000         1.1227        -999.25       202.7749       183.4517        30.3476       49.26027         1.0487         0.9301        -999.25      -100.5245       -29.9363      0.3459632      0.1446771
      1039.5000         1.1436        -999.25       1267.955       149.0979        30.9947       50.09341         1.0463         0.9018        -999.25       -94.2921       -23.7039      0.3636896      0.3227457
      1040.0000         1.2508        -999.25       936.6885       130.8171        32.0089       51.41029         1.0438         0.9414        -999.25       -92.4238       -21.8356      0.3917084      0.3761257
      1040.5000         1.2753        -999.25       909.2256       128.7834        32.7159       52.32249         1.0409         0.9986        -999.25       -82.0183       -11.4301      0.4111167      0.6734257
      1041.0000          1.266        -999.25         922.54       139.8667        33.4506       53.27117         1.0348         1.0454        -999.25       -78.8945        -8.3063      0.4313014      0.7626771
      1041.5000         1.2562        -999.25       941.6309       155.7859        34.1429       54.16398         1.0286          1.064        -999.25        -74.788        -4.1998      0.4502974      0.8800057
      1042.0000         1.2413        -999.25        963.374       166.6477         34.829       55.04861         1.0218         1.0586        -999.25       -73.4556        -2.8674      0.4691194      0.9180743
      1042.5000         1.2343        -999.25        979.751       170.4512           35.3       55.64975         1.0158          1.051        -999.25       -72.7047        -2.1165      0.4819097      0.9395286
      1043.0000          1.237        -999.25       989.3096       171.6902        35.8618       56.37065         1.0113         1.0507        -999.25       -72.2108        -1.6226      0.4972479        0.95364
      1043.5000         1.2442        -999.25       986.9189       172.5583        36.3642        57.0133         1.0169         1.0707        -999.25       -72.0094        -1.4212      0.5109212      0.9593943
      1044.0000         1.2614        -999.25       982.7969       173.4417        37.1859       58.07658         1.0324          1.089        -999.25       -71.9988        -1.4106      0.5335444      0.9596971
      1044.5000          1.276        -999.25       963.3115       174.5959        37.8926       58.98837         1.0556         1.0918        -999.25       -72.0426        -1.4544       0.552944      0.9584457
      1045.0000         1.2823        -999.25       933.0879       176.6702        39.1073        60.5694         1.0849         1.0742        -999.25       -72.0863        -1.4981       0.586583      0.9571971
      1045.5000         1.2849        -999.25       900.9004       179.9956         39.371       60.89744         1.1437         1.0649        -999.25       -72.3495        -1.8359      0.5935626      0.9475457
      1046.0000         1.2872        -999.25       868.1406       180.6746        39.0043       60.39511         1.1613         1.0717        -999.25       -73.6112        -3.2293      0.5828746      0.9077343
      1046.5000         1.2932        -999.25       842.2451       182.0769         38.438       59.62981         1.1562         1.0862        -999.25       -74.5306        -4.2804      0.5665918      0.8777029
      1047.0000         1.3023        -999.25       839.7139       183.0515        36.8836       57.56279         1.1528         1.1011        -999.25       -74.7999        -4.6814      0.5226125      0.8662457
      1047.5000         1.3141        -999.25       841.3555       184.0273        36.3819        56.8826         1.1512         1.1171        -999.25       -75.0135        -5.0267      0.5081404        0.85638
      1048.0000         1.3352        -999.25        842.998       190.5852        36.1798       56.59711         1.1496         1.1205        -999.25       -75.1821         -5.327      0.5020662         0.8478
      1048.5000         1.4028        -999.25       844.6396       203.0151        36.0658       56.42756          1.167         1.0999        -999.25       -75.4148        -5.6914      0.4984588      0.8373886
      1049.0000         1.4106        -999.25       840.7393       213.8506        35.9734       56.28661         1.2047         1.0776        -999.25        -76.019        -6.4273      0.4954597      0.8163629
      1049.5000         1.4103        -999.25       828.9971       220.3884        35.9057       56.17818         1.2798         1.0752        -999.25       -81.4528       -11.9928      0.4931528      0.6573486
      1050.0000         1.4113        -999.25       794.6563       222.2126         35.838       56.06975         1.3941         1.0887        -999.25       -83.5331       -14.2048      0.4908458      0.5941486
      1050.5000         1.6283        -999.25       758.4404       219.6677        35.7702        55.9612          1.512         1.1169        -999.25       -84.7188       -15.5222      0.4885361      0.5565086
