#------------------------------------------------------------------------------
# Created by    : vladimir.rabinovich
# Created on    : 09/19/2023 17:22:38
#------------------------------------------------------------------------------
~Version Information Section
VERS.           2.0     :   CWLS log ASCII Standard - VERSION 2.0
WRAP.           NO      :   One line per depth step
~Well Information Section
#MNEM       .UNIT                                         VALUE :DESCRIPTION
#------------------------------------------------------------------------------
STRT        .FT                                             597 :START DEPTH
STOP        .FT                                            8696 :STOP DEPTH
STEP        .FT                                             0.5 :STEP      
NULL        .                                           -999.25 :NULL      
COMP        .                MURPHY EXPLORATION & PRODUCTION CO :COMPANY   
WELL        .                               OCS G13308 ST00BP00 :WELL      
FLD         .                                           WILDCAT :FIELD     
LOC         .                                                   :LOCATION  
CNTY        .                             GALVESTON LARGE BLOCK :LOCATION  
STAT        .                                             TEXAS :STATE     
CTRY        .                                     UNITED STATES :COUNTRY   
SRVC        .                                                   :SERVICE COMPANY
DATE        .                             9/13/2023 11:19:54 AM :LOG DATE  
API         .                                    42706403460000 :API NUMBER
UWI         .                                    42706403460000 :UNIQUE WELL ID
XCOORD      .                                  1110706.35492259 :SURFACE X 
YCOORD      .                                  10520329.8149831 :SURFACE Y 
LAT         .                                         28.978895 :LATITUDE  
LON         .                                        -94.657168 :LONGITUDE 
ELEV        .FT                                              71 :ELEVATION VALUE
ELEV_TYPE   .                                                KB :ELEVATION REFERENCE TYPE
~Curve Information Section
#MNEM       .UNIT                                      API CODE :CURVE DESCRIPTION
#------------------------------------------------------------------------------
DEPT        .FT                                                 :DEPTH     
DCAL        .IN                                                 :          
DPHI        .%                                                  :          
DRHO        .G/C3                                               :          
DTLN        .US/F                                               :          
GR          .GAPI                                               :          
GR_1        .GAPI                                               :          
GR_NORM     .GAPI                                               :GammaRay Normalized
ILD         .OHMM                                               :          
ILM         .OHMM                                               :          
NPHI        .%                                                  :          
SFL         .OHMM                                               :          
SP          .MV                                                 :          
VSH_GR      .V/V                                                :Volume of Shale from GR
~A        DEPTH           DCAL           DPHI           DRHO           DTLN             GR           GR_1        GR_NORM            ILD            ILM           NPHI            SFL             SP         VSH_GR
# ...
      2820.0000        -999.25        -999.25        -999.25       146.9192       101.4485        -999.25       90.46091         0.7688         0.7657        -999.25         0.7081       -76.8533              1
      2820.5000        -999.25        -999.25        -999.25       145.2141       100.0334        -999.25       89.06692         0.7738         0.7692        -999.25         0.6946       -77.2333              1
      2821.0000        -999.25        -999.25        -999.25       143.2883        92.4541        -999.25        81.6138         0.7781         0.7737        -999.25         0.7055       -77.0551              1
      2821.5000        -999.25        -999.25        -999.25       141.5884        85.7717        -999.25       75.04231         0.7806          0.778        -999.25         0.7582       -76.7689      0.8945173
      2822.0000        -999.25        -999.25        -999.25       140.4294         84.333        -999.25        73.6251         0.7835         0.7812        -999.25         0.8039        -76.689      0.8643638
      2822.5000        -999.25        -999.25        -999.25        141.198        84.4888        -999.25       73.77522         0.7883         0.7847        -999.25         0.7965       -77.0107      0.8675579
      2823.0000        -999.25        -999.25        -999.25       143.2068        86.4119        -999.25       75.66252         0.7928         0.7888        -999.25         0.7641        -77.418      0.9077132
      2823.5000        -999.25        -999.25        -999.25       144.2974        91.0605        -999.25       80.22882         0.7949         0.7925        -999.25         0.7374       -77.4304              1
      2824.0000        -999.25        -999.25        -999.25        143.824        96.7968        -999.25        85.8643         0.7969         0.7931        -999.25         0.7337       -77.4867              1
      2824.5000        -999.25        -999.25        -999.25       143.4419        100.739        -999.25       89.73626         0.7982          0.794        -999.25         0.7304       -77.4587              1
      2825.0000        -999.25        -999.25        -999.25       144.1011       100.4095        -999.25       89.40936         0.7998         0.7955        -999.25         0.7296       -76.6554              1
      2825.5000        -999.25        -999.25        -999.25       144.6494        97.1838        -999.25       86.23563         0.8019         0.7985        -999.25         0.7337       -74.8853              1
      2826.0000        -999.25        -999.25        -999.25        144.343        97.0806        -999.25       86.13115         0.8049         0.8029        -999.25         0.7404       -72.7201              1
      2826.5000        -999.25        -999.25        -999.25       142.7551        96.8456        -999.25       85.89714         0.8093         0.8064        -999.25         0.7522       -72.1921              1
      2827.0000        -999.25        -999.25        -999.25       141.0674        96.4243        -999.25          85.48         0.8123         0.8094        -999.25         0.7622       -73.1416              1
      2827.5000        -999.25        -999.25        -999.25       139.4866        97.2858        -999.25       86.32377         0.8135         0.8084        -999.25         0.7695       -72.8392              1
      2828.0000        -999.25        -999.25        -999.25       139.6604        98.7826        -999.25       87.79204         0.8138          0.806        -999.25         0.7637       -72.8745              1
      2828.5000        -999.25        -999.25        -999.25       141.8179       100.0306        -999.25       89.01573         0.8117         0.7972        -999.25         0.7385       -71.2516              1
      2829.0000        -999.25        -999.25        -999.25       143.6069        99.7853        -999.25       88.77159         0.8065         0.7871        -999.25         0.7147       -68.2605              1
      2829.5000        -999.25        -999.25        -999.25       145.1904        98.4603        -999.25       87.46616         0.8004         0.7825        -999.25          0.705       -67.9192              1
      2830.0000        -999.25        -999.25        -999.25        145.729        99.0571        -999.25       88.04974         0.7985         0.7788        -999.25         0.7053       -67.8185              1
      2830.5000        -999.25        -999.25        -999.25       145.7051       100.9121        -999.25        89.8701          0.798         0.7759        -999.25         0.7093       -67.9951              1
      2831.0000        -999.25        -999.25        -999.25       145.6548       103.2081        -999.25       92.12393         0.7997         0.7767        -999.25         0.7145       -68.2446              1
      2831.5000        -999.25        -999.25        -999.25       146.4929       104.0078        -999.25       92.90695         0.8014         0.7776        -999.25         0.7209       -68.4408              1
      2832.0000        -999.25        -999.25        -999.25       147.2917       104.2068        -999.25       93.09956         0.8022          0.777        -999.25         0.7186       -67.6118              1
      2832.5000        -999.25        -999.25        -999.25       147.8533        103.296        -999.25       92.20123            0.8         0.7734        -999.25         0.7116       -66.9482              1
      2833.0000        -999.25        -999.25        -999.25       148.3018       100.9379        -999.25       89.88033         0.7987         0.7711        -999.25         0.7058       -67.4324              1
      2833.5000        -999.25        -999.25        -999.25       148.7056        99.2866        -999.25       88.25414         0.7985         0.7688        -999.25         0.7054       -67.9318              1
      2834.0000        -999.25        -999.25        -999.25       149.0603        99.7361        -999.25       88.69294         0.8016         0.7652        -999.25         0.7085       -67.5969              1
      2834.5000        -999.25        -999.25        -999.25       149.2979        101.583        -999.25       90.50536         0.8021         0.7633        -999.25         0.7084       -67.8812              1
      2835.0000        -999.25        -999.25        -999.25       148.7488       103.0422        -999.25       91.93664          0.799         0.7674        -999.25         0.7014       -68.2651              1
      2835.5000        -999.25        -999.25        -999.25         147.24       103.8934        -999.25       92.77031         0.7972         0.7705        -999.25         0.6947       -67.2045              1
      2836.0000        -999.25        -999.25        -999.25       146.0322       103.9197        -999.25       92.79312          0.797         0.7728        -999.25         0.6973       -66.7556              1
      2836.5000        -999.25        -999.25        -999.25       145.2678       103.5867        -999.25       92.46278         0.7972         0.7744        -999.25          0.708       -67.7095              1
      2837.0000        -999.25        -999.25        -999.25       144.9258       102.8107        -999.25       91.69698         0.7979         0.7753        -999.25         0.7148       -68.3521              1
      2837.5000        -999.25        -999.25        -999.25       145.1082       103.3213        -999.25       92.19585         0.7969         0.7762        -999.25         0.7179       -68.3203              1
      2838.0000        -999.25        -999.25        -999.25       146.2446       103.9476        -999.25       92.80845         0.7952         0.7737        -999.25         0.7158       -67.8391              1
      2838.5000        -999.25        -999.25        -999.25       148.0237       103.0306        -999.25       91.90405          0.792         0.7675        -999.25         0.7047       -67.4956              1
