#------------------------------------------------------------------------------
# Created by    : vladimir.rabinovich
# Created on    : 09/19/2023 17:20:09
#------------------------------------------------------------------------------
~Version Information Section
VERS.           2.0     :   CWLS log ASCII Standard - VERSION 2.0
WRAP.           NO      :   One line per depth step
~Well Information Section
#MNEM       .UNIT                                         VALUE :DESCRIPTION
#------------------------------------------------------------------------------
STRT        .FT                                             880 :START DEPTH
STOP        .FT                                           10998 :STOP DEPTH
STEP        .FT                                             0.5 :STEP      
NULL        .                                           -999.25 :NULL      
COMP        .                        HUGHES TEXAS PETROLEUM LTD :COMPANY   
WELL        .                                ST TR 00564-L NE/4 :WELL      
FLD         .                       MATAGORDA ISLAND BLOCK 0565 :FIELD     
LOC         .                                                   :LOCATION  
CNTY        .                      MATAGORDA ISLAND LARGE BLOCK :LOCATION  
STAT        .                                             TEXAS :STATE     
CTRY        .                                     UNITED STATES :COUNTRY   
SRVC        .                                                   :SERVICE COMPANY
DATE        .                             9/13/2023 11:12:01 AM :LOG DATE  
API         .                                    42703303560000 :API NUMBER
UWI         .                                    42703303560000 :UNIQUE WELL ID
XCOORD      .                                  580856.659723482 :SURFACE X 
YCOORD      .                                  10268633.8274002 :SURFACE Y 
LAT         .                                         28.256926 :LATITUDE  
LON         .                                       -96.2914173 :LONGITUDE 
ELEV        .FT                                              25 :ELEVATION VALUE
ELEV_TYPE   .                                                KB :ELEVATION REFERENCE TYPE
~Curve Information Section
#MNEM       .UNIT                                      API CODE :CURVE DESCRIPTION
#------------------------------------------------------------------------------
DEPT        .FT                                                 :DEPTH     
ASFL        .OHMM                                               :          
GR          .GAPI                                               :          
GR_NORM     .GAPI                                               :GammaRay Normalized
ILD         .OHMM                                               :          
SP          .MV                                                 :          
SP_NORM     .MV                                                 :SP Normalized
VSH_GR      .V/V                                                :Volume of Shale from GR
VSH_SP      .V/V                                                :Volume of Shale from SP
~A        DEPTH           ASFL             GR        GR_NORM            ILD             SP        SP_NORM         VSH_GR         VSH_SP
# ...
     10290.5000         1.1553        48.3507       66.18806            0.9       -53.0756      -11.15943      0.7061289      0.8412589
     10291.0000         0.9906        49.4998       68.32433         0.8904       -52.5798      -10.66363      0.7515815      0.8490058
     10291.5000         0.9355        50.2488       69.71773         0.8673       -52.0829      -10.16673      0.7812282      0.8567698
     10292.0000         0.8909        50.8819       70.89598         0.8442       -50.9326       -9.01643      0.8062975      0.8747433
     10292.5000         0.8525        51.5162       72.07646         0.8211       -49.9997       -8.08353      0.8314141      0.8893198
     10293.0000         0.8089        52.4658       73.84229         0.7946        -49.679      -7.762833      0.8689849      0.8943307
     10293.5000         0.7696        53.4382       75.65048         0.7664       -49.4661      -7.549931      0.9074571      0.8976573
     10294.0000         0.7422        54.5287       77.67792         0.7383       -49.2869      -7.370731       0.950594      0.9004573
     10294.5000         0.7236        56.0338       80.47514         0.7102       -49.1349      -7.218731              1      0.9028323
     10295.0000         0.7106        55.6253       79.71953          0.682       -48.8243      -6.908131      0.9940325      0.9076855
     10295.5000         0.6976        50.5605       70.31895         0.6558       -48.8049      -6.888733      0.7940203      0.9079885
     10296.0000         0.6841        49.3971       68.16181         0.6388       -48.9306      -7.014431      0.7481236      0.9060245
     10296.5000         0.7255        48.7362       66.93758         0.6533       -49.2304      -7.314232      0.7220762      0.9013401
     10297.0000         0.8244         48.549       66.59283         0.7051       -49.5303      -7.614132       0.714741      0.8966542
     10297.5000         0.9725        48.4089       66.36662         0.7565       -49.8301      -7.913933       0.709928      0.8919698
     10298.0000          1.042        48.4077       66.47321          0.802       -50.1299      -8.213734      0.7121959      0.8872854
     10298.5000         1.1105        48.4066          66.58         0.8475       -50.4273      -8.511131      0.7144681      0.8826386
     10299.0000         1.1519        48.4055       66.68678          0.893       -50.6868       -8.77063      0.7167401      0.8785839
     10299.5000         1.1853        48.3549       66.70168         0.8924        -50.715      -8.798832      0.7170569      0.8781433
     10300.0000         1.1822        48.1404       66.41225         0.8837       -50.7432       -8.82703      0.7108989      0.8777027
     10300.5000         0.9367         47.926         66.123         0.8614       -50.6838      -8.767632      0.7047447      0.8786308
     10301.0000         0.8911        47.7116       65.83378         0.8378       -50.5286      -8.612431      0.6985911      0.8810558
     10301.5000         0.8646        47.4972       65.54456         0.8142       -50.3109      -8.394733      0.6924374      0.8844573
     10302.0000         0.8573        47.2828        65.2553         0.7907       -49.9376      -8.021431      0.6862831      0.8902901
     10302.5000         0.8651        47.5372       65.83646         0.7697       -49.5565      -7.640331      0.6986482      0.8962448
     10303.0000         0.8709        48.1381       67.06093         0.7554       -49.1528      -7.236633      0.7247006      0.9025526
     10303.5000         0.8618        48.7377       68.28297         0.7411        -48.749      -6.832832      0.7507016       0.908862
     10304.0000         0.8527        49.3386       69.50744         0.7268       -48.3453      -6.429131       0.776754      0.9151698
     10304.5000         0.8437        50.0612       70.95785         0.7126       -47.9421      -6.025932      0.8076138      0.9214698
     10305.0000         0.8309        50.5677       72.00704         0.6983       -47.7174      -5.801231       0.829937      0.9249808
     10305.5000         0.8178        51.0742       73.05627         0.6844       -47.8297      -5.913532       0.852261      0.9232261
     10306.0000         0.8046        51.5818       74.10748         0.6755       -47.9418      -6.025631      0.8746273      0.9214745
     10306.5000         0.7914        52.2711        75.4961         0.6666       -48.0541      -6.137932      0.9041724      0.9197198
     10307.0000         0.7806        52.0083         75.117         0.6577       -48.1664      -6.250233      0.8961065      0.9179651
     10307.5000         0.7788        50.6537       72.71088         0.6488       -48.2786      -6.362431      0.8449123       0.916212
     10308.0000         0.7877        49.5739        70.8149         0.6399       -48.3908      -6.474632      0.8045724      0.9144589
     10308.5000         0.7967        48.6852       69.27375         0.6411       -48.4131      -6.496933      0.7717819      0.9141104
     10309.0000         0.8056        48.3334       68.72944         0.6448       -48.4072      -6.491032      0.7602008      0.9142026
     10309.5000         0.8086         48.687       69.49475         0.6486       -48.4014      -6.485233      0.7764841      0.9142932
     10310.0000         0.8115        49.1057       70.38093         0.6523       -48.3954      -6.479233      0.7953389       0.914387
     10310.5000         0.8181        49.5691       71.35013         0.6561       -48.3896      -6.473431      0.8159602      0.9144776
     10311.0000         0.8386         50.032       72.31838         0.6598       -48.2255       -6.30933      0.8365613      0.9170417
     10311.5000         0.8599        50.4949       73.28664         0.6737       -48.0362      -6.120033      0.8571625      0.9199995
     10312.0000         0.8785        49.9621       72.40627         0.6982       -47.8812      -5.965031      0.8384312      0.9224214
     10312.5000         0.8934        49.3206       71.32406         0.7227       -48.2192      -6.303032      0.8154055      0.9171401
     10313.0000         0.9083        49.1268       71.07308         0.7453       -48.5418      -6.625633      0.8100656      0.9120995
     10313.5000          0.921         49.363       71.62044         0.7628       -48.8374       -6.92123      0.8217114      0.9074808
     10314.0000         0.9288        50.2416        73.3605         0.7804       -49.1337      -7.217533       0.858734       0.902851
     10314.5000         0.9363        49.6169       72.30949         0.7979       -49.0995      -7.183331      0.8363721      0.9033855
     10315.0000         0.9409        50.9572       74.90672         0.8133       -49.0239      -7.107731      0.8916324      0.9045667
     10315.5000          0.945        52.9543        78.7234         0.8236       -48.8634      -6.947231      0.9728384      0.9070745
     10316.0000         0.9445        54.0916       80.94376         0.8339       -48.6962      -6.780033              1       0.909687
     10316.5000         0.9433         52.639       78.35565         0.8442       -48.5382      -6.622032      0.9650139      0.9121557
     10317.0000         0.9407        50.9356       75.30194         0.8503       -48.3799      -6.463734      0.9000413      0.9146292
     10317.5000         0.9348        49.7352       73.18207         0.8482       -48.2681      -6.351933      0.8549376      0.9163761
     10318.0000         0.9234        48.9001       71.74046          0.846       -48.1734      -6.257233      0.8242652      0.9178557
     10318.5000          0.912        48.1464       70.44995         0.8439       -48.1514      -6.235233      0.7968075      0.9181995
     10319.0000         0.8842        49.0579       72.25107         0.8412       -48.1534      -6.237232      0.8351291      0.9181682
     10319.5000         0.8516        49.9692       74.05183         0.8165        -48.041      -6.124832      0.8734431      0.9199245
