#------------------------------------------------------------------------------
# Created by    : vladimir.rabinovich
# Created on    : 09/19/2023 17:20:06
#------------------------------------------------------------------------------
~Version Information Section
VERS.           2.0     :   CWLS log ASCII Standard - VERSION 2.0
WRAP.           NO      :   One line per depth step
~Well Information Section
#MNEM       .UNIT                                         VALUE :DESCRIPTION
#------------------------------------------------------------------------------
STRT        .FT                                             325 :START DEPTH
STOP        .FT                                           10896 :STOP DEPTH
STEP        .FT                                             0.5 :STEP      
NULL        .                                           -999.25 :NULL      
COMP        .                                      GETTY OIL CO :COMPANY   
WELL        .                               OCS G03737 ST00BP00 :WELL      
FLD         .                                           WILDCAT :FIELD     
LOC         .                                                   :LOCATION  
CNTY        .                             GALVESTON LARGE BLOCK :LOCATION  
STAT        .                                             TEXAS :STATE     
CTRY        .                                     UNITED STATES :COUNTRY   
SRVC        .                                                   :SERVICE COMPANY
DATE        .                             9/13/2023 11:10:15 AM :LOG DATE  
API         .                                    42706400540000 :API NUMBER
UWI         .                                    42706400540000 :UNIQUE WELL ID
XCOORD      .                                  1098214.74516992 :SURFACE X 
YCOORD      .                                   10573216.961531 :SURFACE Y 
LAT         .                                         29.123847 :LATITUDE  
LON         .                                        -94.698615 :LONGITUDE 
ELEV        .FT                                              99 :ELEVATION VALUE
ELEV_TYPE   .                                                KB :ELEVATION REFERENCE TYPE
~Curve Information Section
#MNEM       .UNIT                                      API CODE :CURVE DESCRIPTION
#------------------------------------------------------------------------------
DEPT        .FT                                                 :DEPTH     
ASFL        .OHMM                                               :          
DT          .US/F                                               :          
DTL         .US/F                                               :          
GR          .GAPI                                               :          
GR_1        .GAPI                                               :          
GR_NORM     .GAPI                                               :GammaRay Normalized
ILD         .OHMM                                               :          
RHOB        .G/CC                                               :          
SP          .MV                                                 :          
SP_NORM     .MV                                                 :SP Normalized
VSH_GR      .V/V                                                :Volume of Shale from GR
VSH_SP      .V/V                                                :Volume of Shale from SP
~A        DEPTH           ASFL             DT            DTL             GR           GR_1        GR_NORM            ILD           RHOB             SP        SP_NORM         VSH_GR         VSH_SP
# ...
      9468.0000         0.3908        122.438        122.631         50.393        65.5573        63.7146         0.2678          2.298       -41.9957        -2.9424         0.6535         0.9502
      9468.5000         0.3872       123.7045       124.1144        51.9865        66.3763        66.3315          0.266         2.2818       -42.2701        -3.2168         0.7092         0.9432
      9469.0000         0.3837       124.3546       124.7207        54.9448        66.8929        71.1874         0.2642         2.2824       -42.5439        -3.4906         0.8125         0.9361
      9469.5000         0.3801       124.4729       124.8154        57.7401        67.3533        75.7758         0.2623         2.2932       -42.7859        -3.7326         0.9101         0.9299
      9470.0000          0.375       124.5282       124.7822        58.7509        67.8143        77.4368         0.2605         2.3023       -42.7111        -3.6578         0.9455         0.9319
      9470.5000         0.3699       124.5255        124.667        58.6718        68.2747        77.3098         0.2618         2.3019        -42.636        -3.5827         0.9428         0.9338
      9471.0000         0.3648       124.4803       124.4779        57.0175        68.7356        74.5987         0.2636         2.2977       -42.5611        -3.5078         0.8851         0.9357
      9471.5000         0.3597       124.3911       124.1889        55.0542        68.9066        71.3807         0.2654         2.2942       -42.4862        -3.4329         0.8166         0.9376
      9472.0000         0.3559       124.1012       123.7211        54.6136        68.4708        70.6607         0.2672          2.293       -42.4113         -3.358         0.8013         0.9395
      9472.5000         0.3563       123.3335       123.1503        54.9697        67.6798        71.2476          0.269         2.2958       -42.2241        -3.1708         0.8138         0.9443
      9473.0000         0.3567       122.3754       122.3085        55.2531         66.808        71.7153         0.2709         2.3083       -41.6393         -2.586         0.8237         0.9593
      9473.5000         0.3571       121.4185       121.6299        54.5579        65.9375        70.5776         0.2727         2.3214       -41.0546        -2.0013         0.7995         0.9743
      9474.0000         0.3607       120.6815        120.471        53.5374         65.354        68.9063         0.2745         2.3329       -40.5836        -1.5303          0.764         0.9864
      9474.5000         0.3664       120.1177       119.3937        52.7461        64.9294        67.6109         0.2763         2.3334       -40.7026        -1.6493         0.7364         0.9834
      9475.0000         0.3721       118.5687       118.0181        53.1049        64.5061        68.2023         0.2781         2.3267       -41.0593         -2.006          0.749         0.9742
      9475.5000         0.3777       117.5345       117.3297        53.8281        64.2548        69.3915           0.28         2.3195       -41.4623         -2.409         0.7743         0.9639
      9476.0000         0.3834       118.3525       118.6421        55.1053        64.3315        71.4895         0.2818         2.3159       -41.8647        -2.8114         0.8189         0.9536
      9476.5000         0.3874       120.1975       121.0154         56.278        64.7937        73.4161         0.2836         2.3165       -42.2671        -3.2138         0.8599         0.9432
      9477.0000          0.389       121.1243       121.8045        57.0263        65.2313        74.6465         0.2854         2.3205       -42.6695        -3.6162         0.8861         0.9329
      9477.5000         0.3905       121.1512       121.4558        57.2489        65.6691        75.0144         0.2872         2.3269       -42.7281        -3.6748         0.8939         0.9314
      9478.0000         0.3921       120.9468       120.7073        57.4086        66.1067        75.2792         0.2891         2.3343       -42.7692        -3.7159         0.8996         0.9304
      9478.5000         0.3907       120.2332       119.9748        57.1805        66.5443        74.9078         0.2911         2.3401       -42.8104        -3.7571         0.8917         0.9293
      9479.0000         0.3893       120.0759       119.7449        56.6453        66.9821        74.0325         0.2932          2.345       -42.8516        -3.7983          0.873         0.9282
      9479.5000         0.3878       120.2386       120.2606        55.9081        67.3293         72.826         0.2953         2.3472       -42.8928        -3.8395         0.8474         0.9272
      9480.0000         0.3863       120.3436       120.3689        55.2343        66.5175        71.7233         0.2974          2.348        -42.934        -3.8807         0.8239         0.9261
      9480.5000          0.385       117.7531       118.2208        54.8848        65.7043        71.1528         0.2995          2.348       -42.9752        -3.9219         0.8118         0.9251
      9481.0000         0.3846       115.3921       116.9419        54.7471        64.8923        70.9296         0.3016          2.348       -43.0164        -3.9631          0.807          0.924
      9481.5000         0.3842       114.8835       116.0755        54.9691        64.1837        71.2966         0.3037         2.3412       -43.0576        -4.0043         0.8148          0.923
      9482.0000         0.3838       115.5677        117.324        56.3096        64.0791        73.4985         0.3058         2.3188       -43.0988        -4.0455         0.8617         0.9219
      9482.5000         0.3835       122.3079       122.1611        57.8154        63.9681        75.9715         0.3079         2.2688         -43.14        -4.0867         0.9143         0.9209
      9483.0000         0.3831        131.938        123.816        58.3896        63.8383        76.9163           0.31         2.2496       -43.1812        -4.1279         0.9344         0.9198
      9483.5000         0.3827       130.9553       124.0928        58.2369        64.2358        76.6685         0.3121         2.2489       -43.2223         -4.169         0.9291         0.9187
      9484.0000         0.3823       125.3148       123.7214        57.6385        64.8038        75.6897         0.3142         2.2529       -43.2635        -4.2102         0.9083         0.9177
      9484.5000          0.382       122.9834        123.019        57.2958        65.1226        75.1302         0.3163          2.263       -43.3047        -4.2514         0.8964         0.9166
      9485.0000         0.3823       122.8221       122.7636        57.5868        65.4407        75.6104         0.3184         2.2763       -43.2832        -4.2299         0.9066         0.9172
      9485.5000          0.384       122.7113       123.2079         58.223        65.8119        76.6569         0.3205         2.2949       -43.2479        -4.1946         0.9289         0.9181
      9486.0000         0.3856       122.4822       123.4224         57.779        66.4337        75.9313         0.3226         2.3118       -43.2128        -4.1595         0.9134          0.919
      9486.5000         0.3872       121.4233       122.9079        56.1393        66.9109        73.2441         0.3247         2.3262       -43.1775        -4.1242         0.8563         0.9199
      9487.0000         0.3888       121.1276        121.509        54.4509        66.2843        70.4771         0.3268         2.3358       -43.5179        -4.4646         0.7974         0.9112
      9487.5000         0.3905       121.5856       120.8499        53.1627        65.6577        68.3665         0.3289         2.3404        -43.928        -4.8747         0.7525         0.9006
      9488.0000          0.392       122.2307        120.133        52.4735        65.0322        67.2387           0.33         2.3416       -44.3382        -5.2849         0.7285         0.8901
