#------------------------------------------------------------------------------
# Created by    : vladimir.rabinovich
# Created on    : 09/19/2023 17:21:51
#------------------------------------------------------------------------------
~Version Information Section
VERS.           2.0     :   CWLS log ASCII Standard - VERSION 2.0
WRAP.           NO      :   One line per depth step
~Well Information Section
#MNEM       .UNIT                                         VALUE :DESCRIPTION
#------------------------------------------------------------------------------
STRT        .FT                                             692 :START DEPTH
STOP        .FT                                            6716 :STOP DEPTH
STEP        .FT                                             0.5 :STEP      
NULL        .                                           -999.25 :NULL      
COMP        .                                  FMP OPERATING CO :COMPANY   
WELL        .                                          SL 89457 :WELL      
FLD         .                                           WILDCAT :FIELD     
LOC         .                                                   :LOCATION  
CNTY        .                      MATAGORDA ISLAND LARGE BLOCK :LOCATION  
STAT        .                                             TEXAS :STATE     
CTRY        .                                     UNITED STATES :COUNTRY   
SRVC        .                                                   :SERVICE COMPANY
DATE        .                             9/13/2023 11:12:01 AM :LOG DATE  
API         .                                    42703303600000 :API NUMBER
UWI         .                                    42703303600000 :UNIQUE WELL ID
XCOORD      .                                  499223.886875127 :SURFACE X 
YCOORD      .                                  10221285.9321665 :SURFACE Y 
LAT         .                                        28.1205561 :LATITUDE  
LON         .                                       -96.5403272 :LONGITUDE 
ELEV        .FT                                              81 :ELEVATION VALUE
ELEV_TYPE   .                                                KB :ELEVATION REFERENCE TYPE
~Curve Information Section
#MNEM       .UNIT                                      API CODE :CURVE DESCRIPTION
#------------------------------------------------------------------------------
DEPT        .FT                                                 :DEPTH     
CALI        .IN                                                 :          
CILD        .MMHO                                               :          
DT          .US/F                                               :          
DTL         .US/F                                               :          
GR          .GAPI                                               :          
GR_NORM     .GAPI                                               :GammaRay Normalized
ILD         .OHMM                                               :          
ILM         .OHMM                                               :          
SFLU        .OHMM                                               :          
SP          .MV                                                 :          
SP_NORM     .MV                                                 :SP Normalized
TENS        .LBS                                                :          
VSH_GR      .V/V                                                :Volume of Shale from GR
VSH_SP      .V/V                                                :Volume of Shale from SP
~A        DEPTH           CALI           CILD             DT            DTL             GR        GR_NORM            ILD            ILM           SFLU             SP        SP_NORM           TENS         VSH_GR         VSH_SP
# ...
      3986.0000        -999.25       1933.879       129.5953       128.9026        61.2383       68.15243         0.5108         0.5251         0.5522       -19.7847        -12.366        1989.45       0.747924        0.60975
      3986.5000        -999.25       1878.187       128.4021       127.5173        58.0626       62.60716         0.5391         0.5539         0.5845       -19.5875       -12.1727       1989.649      0.6299396      0.6178042
      3987.0000        -999.25       1782.688       127.0098        125.418        58.1604       62.77473          0.569         0.5844         0.6187       -18.4939        -11.083       1989.847      0.6335048      0.6632083
      3987.5000        -999.25       1703.095       126.0157       124.6222        60.3208       66.54211         0.6005         0.6165         0.6549       -16.9022        -9.4952       1990.046      0.7136618      0.7293667
      3988.0000        -999.25       1591.659       124.0262       121.8371        62.4387       70.23534         0.6338         0.6503         0.6933       -15.8086        -8.4055       1990.244      0.7922412      0.7747708
      3988.5000        -999.25       1520.038       122.6339       121.2403        61.8403       69.18786         0.6692         0.6861         0.7338       -15.1134        -7.7142       1990.443      0.7699544       0.803575
      3989.0000        -999.25        1504.13       121.6397       120.8434        60.2729       66.44944         0.6757           0.73         0.7768       -15.4142        -8.0189       1990.641      0.7116902      0.7908792
      3989.5000        -999.25       1488.279       122.4373       121.4419        58.1489       62.73963         0.6721         0.7152         0.8037       -17.0098        -9.6183        1990.84       0.632758      0.7242375
      3990.0000        -999.25        1520.18       125.2258       124.2303        57.9489       62.38744          0.666         0.6972         0.8074       -19.7018       -12.3142       1991.039      0.6252648      0.6119083
      3990.5000        -999.25       1560.044        127.417       126.4215        57.1491       60.98866          0.635           0.67         0.7052       -21.6952       -14.3115       1991.237      0.5955033      0.5286875
      3991.0000        -999.25       1639.727         129.21       128.2151        57.1469       60.98185         0.6054         0.6438         0.5992       -23.1912       -15.8114       1991.436      0.5953586      0.4661916
      3991.5000        -999.25       1727.373       129.4104       128.6295        56.8479       60.45689         0.5772         0.6186         0.6019       -23.6912       -16.3153       1991.635      0.5841892      0.4451958
      3992.0000        -999.25       1854.838       129.4117       128.8144        57.1439       60.97051         0.5503         0.5802         0.6208       -23.8924       -16.5204       1991.833      0.5951172        0.43665
      3992.5000        -999.25       1930.584       129.2139       128.8157        57.4408       61.48569         0.5173         0.5592         0.6403       -23.7948       -16.4267       1992.032      0.6060785      0.4405541
      3993.0000        -999.25       1938.578       128.6179       128.2197        58.4348       63.21748         0.5055          0.549         0.6605       -23.2987       -15.9345        1992.23       0.642925      0.4610625
      3993.5000        -999.25       1942.609       127.6238       127.4247        60.0264       65.99203         0.5009          0.544         0.6748       -22.3047       -14.9444       1992.429      0.7019582      0.5023167
      3994.0000        -999.25       1930.713       127.2269       126.6296        60.9208       67.54999         0.5078         0.5489         0.6778       -20.8127       -13.4563       1992.628      0.7351061      0.5643209
      3994.5000        -999.25       1906.871       126.8299       125.6354        61.7157        68.9343         0.5243         0.5625         0.6531       -20.0179       -12.6654       1992.826      0.7645595       0.597275
      3995.0000        -999.25       1867.101       126.6321       125.2385        61.8133       69.10146         0.5339         0.5711         0.6293       -19.4223       -12.0737       1993.025      0.7681162      0.6219292
      3995.5000        -999.25       1831.313       126.4343       125.0406        63.3053       71.70235         0.5463         0.5799         0.6064        -19.226       -11.8812       1993.224      0.8234543        0.62995
      3996.0000        -999.25       1799.484       126.4356       125.4401        64.4985       73.78179         0.5589         0.5888         0.5932       -19.1884       -11.8475       1993.422      0.8676977      0.6313542
      3996.5000        -999.25       1767.668       127.2333       125.8396        64.8949       74.47044         0.5718         0.5986         0.6196       -19.1508       -11.8138       1993.621      0.8823498      0.6327583
      3997.0000        -999.25       1727.906       128.0309       126.8363        64.8945       74.46679         0.5797         0.5986         0.6472       -19.1132       -11.7801       1983.869      0.8822721      0.6341625
      3997.5000        -999.25       1688.135       130.2223       127.8331        61.9029       69.24282         0.5931         0.6217         0.6761       -19.0756       -11.7464       1984.068      0.7711238      0.6355667
      3998.0000        -999.25       1648.363       130.8209       126.8397        61.1042       67.84578         0.6068         0.6457         0.6994        -19.036       -11.7107       1984.266      0.7413996      0.6370541
      3998.5000        -999.25       1600.627       127.4375       126.6411        63.0942        71.3158         0.6208          0.668         0.6994       -18.7967       -11.4753       1984.465      0.8152298      0.6468625
      3999.0000        -999.25       1544.926       124.8504       125.2486        63.5902       72.17847         0.6554          0.679         0.6978       -18.6411       -11.3236       1984.663      0.8335844      0.6531833
      3999.5000        -999.25       1505.181       122.4625       123.6571        63.2894       71.65036         0.6704         0.6902         0.6929       -18.2447       -10.9311       1984.862      0.8223481      0.6695375
      4000.0000        -999.25       1485.313       121.8664       122.4637        63.1878       71.47008         0.6858         0.7015         0.7355       -17.8483       -10.5386       1985.143      0.8185123      0.6858917
      4000.5000        -999.25       1462.342       120.7319       121.6649        64.9493        75.4661         0.7015         0.7131         0.7808       -17.6602       -10.3544        1984.08      0.9035341      0.7305033
      4001.0000        -999.25       1425.427       120.4679       121.4633        66.8704       78.24821         0.7225         0.7253         0.7577       -17.2561        -9.9542       1983.114      0.9627278      0.7434129
      4001.5000        -999.25       1401.483       119.6692       122.6553        69.3569       81.85005         0.7064         0.7362         0.7353       -17.6567       -10.3586       1982.148              1      0.7303678
      4002.0000        -999.25       1377.514       119.2686       128.0275        68.7377       80.95004         0.7158         0.7388         0.7329       -18.1567       -10.8625       1981.182              1      0.7141129
      4002.5000        -999.25       1361.522       120.0625       143.0365        66.6667       77.94556         0.7254         0.7413         0.7749       -18.6568       -11.3665       1985.304      0.9562885      0.6978548
      4003.0000        -999.25        1329.61       122.2496        155.092        65.6705        76.4989         0.7351         0.7439         0.7717       -18.8271       -11.5407       1985.256      0.9255086      0.6922355
      4003.5000        -999.25       1305.674       126.4268       145.1347        62.9838       72.60193         0.7012         0.7477         0.7718       -19.4568       -12.1743       1985.209      0.8425942      0.6717967
