#------------------------------------------------------------------------------
# Created by    : vladimir.rabinovich
# Created on    : 09/19/2023 17:20:23
#------------------------------------------------------------------------------
~Version Information Section
VERS.           2.0     :   CWLS log ASCII Standard - VERSION 2.0
WRAP.           NO      :   One line per depth step
~Well Information Section
#MNEM       .UNIT                                         VALUE :DESCRIPTION
#------------------------------------------------------------------------------
STRT        .FT                                            3094 :START DEPTH
STOP        .FT                                           15705 :STOP DEPTH
STEP        .FT                                             0.5 :STEP      
NULL        .                                           -999.25 :NULL      
COMP        .                                       MONSANTO CO :COMPANY   
WELL        .                                     ST TR 00011-L :WELL      
FLD         .                                           WILDCAT :FIELD     
LOC         .                                                   :LOCATION  
CNTY        .                           HIGH ISLAND LARGE BLOCK :LOCATION  
STAT        .                                             TEXAS :STATE     
CTRY        .                                     UNITED STATES :COUNTRY   
SRVC        .                                                   :SERVICE COMPANY
DATE        .                             9/13/2023 11:19:15 AM :LOG DATE  
API         .                                    42708300660000 :API NUMBER
UWI         .                                    42708300660000 :UNIQUE WELL ID
XCOORD      .                                  1343190.12128624 :SURFACE X 
YCOORD      .                                   10724936.940093 :SURFACE Y 
LAT         .                                        29.5487141 :LATITUDE  
LON         .                                       -93.9350737 :LONGITUDE 
ELEV        .FT                                              49 :ELEVATION VALUE
ELEV_TYPE   .                                                KB :ELEVATION REFERENCE TYPE
~Curve Information Section
#MNEM       .UNIT                                      API CODE :CURVE DESCRIPTION
#------------------------------------------------------------------------------
DEPT        .FT                                                 :DEPTH     
ASN         .OHMM                                               :          
CILD        .MMHO                                               :          
ILD         .OHMM                                               :          
SP_NORM     .MV                                                 :SP Normalized
VSH_SP      .V/V                                                :Volume of Shale from SP
~A        DEPTH            ASN           CILD            ILD        SP_NORM         VSH_SP
# ...
     14842.0000         1.7731       784.2842            1.3      -20.53108      0.6849825
     14842.5000         1.8011       781.0469          1.304      -14.45854      0.7829268
     14843.0000         1.8304       781.4092          1.308       -13.5076      0.7982646
     14843.5000          1.849       781.4014          1.312      -14.02546      0.7899119
     14844.0000         1.8667       781.3174          1.316      -14.56312        0.78124
     14844.5000         1.8844       781.2344         1.2969      -15.19548      0.7710406
     14845.0000          1.848       789.5088         1.2727      -15.82664      0.7608606
     14845.5000          1.806       799.1133         1.2485       -16.4578      0.7506806
     14846.0000         1.6735       808.7422         1.2244      -14.07376      0.7891328
     14846.5000         1.5816       829.6162         1.2002      -13.34693       0.800856
     14847.0000         1.5077       862.0605         1.1773      -12.62019      0.8125777
     14847.5000         1.4615       898.9834          1.157      -11.89335      0.8243008
     14848.0000         1.3843        942.127         1.1366      -11.00401       0.838645
     14848.5000         1.3412       959.1943         1.1163      -10.01367      0.8546183
     14849.0000         1.3064       977.5566         1.0979      -8.750027      0.8749996
     14849.5000         1.2714       997.9092         1.0796      -6.966888      0.9037598
     14850.0000         1.2313       1022.889         1.0613      -5.021152      0.9351427
     14850.5000         1.2005       1055.332          1.043      -3.196213      0.9645772
     14851.0000         1.1788       1081.508         1.0267      -2.686073      0.9728053
     14851.5000         1.1571       1099.422         1.0113      -2.174633      0.9810543
     14852.0000         1.1346       1117.336         0.9959      -1.765491      0.9876534
     14852.5000         1.1102       1110.916         0.9972      -1.390755      0.9936975
     14853.0000         1.0864        1089.42         1.0067      -1.014816       0.999761
     14853.5000          1.101       1073.445         1.0161     -0.6400757              1
     14854.0000         1.1156       1058.393         1.0255     -0.3712387              1
     14854.5000         1.1301       1048.291          1.035     -0.1737938              1
     14855.0000         1.1542       1038.189         1.0342     0.02364349              1
     14855.5000          1.179       1028.088         1.0308      0.1274834              1
     14856.0000         1.2038       1023.374         1.0275     0.03952026              1
     14856.5000         1.2505       1018.796         1.0241     -0.0486412              1
     14857.0000         1.2649       1015.735         1.0121     -0.1365013              1
     14857.5000         1.2575       1022.019         0.9955     -0.3811607              1
     14858.0000         1.2404       1032.492         0.9788     -0.6367188              1
     14858.5000         1.1963       1059.016         0.9622     -0.8923836              1
     14859.0000         1.1499       1092.902         0.9455      -1.148643      0.9976025
     14859.5000         1.1322       1115.842         0.9289      -1.176403      0.9971548
     14860.0000          1.126       1138.783         0.9296      -1.163265      0.9973667
     14860.5000         1.1198       1157.045         0.9407      -1.150124      0.9975787
     14861.0000         1.1135       1173.963         0.9519      -1.136986      0.9977906
     14861.5000         1.1118       1190.832         0.9631      -1.121246      0.9980444
     14862.0000          1.111       1163.713         0.9788      -1.084808      0.9986321
     14862.5000         1.1101       1125.695         0.9983       -1.04837      0.9992198
     14863.0000         1.1093       1078.422         1.0177      -1.011929      0.9998076
     14863.5000         1.1331         1041.5         1.0372     -0.9747887              1
     14864.0000         1.1756       1015.226         1.0567     -0.9366493              1
     14864.5000         1.2115       992.3359         1.0709       -0.95541              1
     14865.0000         1.2351       970.5898         1.0831      -2.974171      0.9681585
     14865.5000         1.2815       949.5908         1.0955      -4.492931      0.9436624
     14866.0000         1.4078       937.7725         1.1077      -5.141396      0.9332033
     14866.5000         1.4064       930.6064           1.12      -5.790951      0.9227266
     14867.0000         1.3802       927.0488         1.1179      -6.339314       0.913882
     14867.5000          1.354       938.6436         1.1094      -6.465374      0.9118488
     14868.0000         1.3244        958.498         1.1009      -6.591434      0.9098155
     14868.5000         1.2931       986.8623         1.0924      -6.503296      0.9112372
     14869.0000         1.2617       1015.226         1.0716      -6.355953      0.9136137
     14869.5000         1.2376       1043.092         1.0458      -6.209114       0.915982
     14870.0000         1.2201       1068.867         1.0199      -6.062077      0.9183536
     14870.5000         1.2025       1084.145         0.9941      -5.915138      0.9207236
     14871.0000          1.185       1099.271         0.9689        -5.7682      0.9230936
     14871.5000          1.173       1114.051          0.963      -5.671162      0.9246587
     14872.0000         1.1654       1127.139         0.9572      -5.576218        0.92619
     14872.5000         1.1578       1133.408         0.9513       -5.48098      0.9277261
     14873.0000         1.1502       1115.096         0.9522       -5.38604      0.9292575
     14873.5000         1.1454       1093.898         0.9716      -5.290802      0.9307935
     14874.0000         1.1513        1072.75         0.9909      -5.195564      0.9323296
     14874.5000         1.1572       1050.059         1.0102      -5.100624      0.9338609
     14875.0000         1.1821       1025.975         1.0296      -5.170383      0.9327357
     14875.5000         1.2135       995.1221         1.0504      -5.375542      0.9294267
     14876.0000          1.245       967.5547         1.0715      -5.580105      0.9261273
     14876.5000         1.2872       945.0625         1.0927      -6.273468      0.9149441
     14877.0000           1.33        933.418         1.1139      -7.011627      0.9030383
     14877.5000         1.3729       921.7744         1.1327      -8.015789      0.8868421
     14878.0000         1.4158       907.9404         1.1512      -9.047146      0.8702073
     14878.5000         1.4587       892.8135         1.1696      -10.10801      0.8530966
     14879.0000         1.4727        881.418          1.188      -11.67847      0.8277666
     14879.5000          1.483       851.1133         1.2039      -12.97823      0.8068027
     14880.0000         1.4891       836.7324         1.2157      -14.02909      0.7898534
     14880.5000         1.4727       843.5498         1.2015      -14.60735      0.7805266
     14881.0000         1.4553       862.9561         1.1723      -13.76731      0.7940756
     14881.5000          1.428       899.3818         1.1432      -12.89517      0.8081424
     14882.0000         1.3792       946.4561         1.1139      -13.32563      0.8011994
     14882.5000         1.3397       986.0654         1.0902      -17.30429      0.7370275
     14883.0000         1.3171       1016.021         1.0684      -21.13525      0.6752378
     14883.5000         1.2804       1040.404         1.0466      -22.59752       0.651653
     14884.0000         1.2327       1060.459         1.0247      -23.23978      0.6412939
     14884.5000         1.2991       1070.758          1.007      -23.81664      0.6319897
     14885.0000         1.2905       1081.035         0.9984       -24.3936      0.6226839
     14885.5000          1.282       1091.336         0.9932      -21.84226      0.6638345
