#------------------------------------------------------------------------------
# Created by    : vladimir.rabinovich
# Created on    : 09/19/2023 17:19:36
#------------------------------------------------------------------------------
~Version Information Section
VERS.           2.0     :   CWLS log ASCII Standard - VERSION 2.0
WRAP.           NO      :   One line per depth step
~Well Information Section
#MNEM       .UNIT                                         VALUE :DESCRIPTION
#------------------------------------------------------------------------------
STRT        .FT                                            4496 :START DEPTH
STOP        .FT                                            7801 :STOP DEPTH
STEP        .FT                                             0.5 :STEP      
NULL        .                                           -999.25 :NULL      
COMP        .                             HELIS WM G CO LLC THE :COMPANY   
WELL        .                               OCS G12508 ST00BP00 :WELL      
FLD         .                              GALVESTON BLOCK 0395 :FIELD     
LOC         .                                                   :LOCATION  
CNTY        .                             GALVESTON LARGE BLOCK :LOCATION  
STAT        .                                             TEXAS :STATE     
CTRY        .                                     UNITED STATES :COUNTRY   
SRVC        .                                                   :SERVICE COMPANY
DATE        .                             9/13/2023 11:19:03 AM :LOG DATE  
API         .                                    42706404300000 :API NUMBER
UWI         .                                    42706404300000 :UNIQUE WELL ID
XCOORD      .                                  908236.382466376 :SURFACE X 
YCOORD      .                                  10386259.9403327 :SURFACE Y 
LAT         .                                         28.601028 :LATITUDE  
LON         .                                        -95.282181 :LONGITUDE 
ELEV        .FT                                             103 :ELEVATION VALUE
ELEV_TYPE   .                                                KB :ELEVATION REFERENCE TYPE
~Curve Information Section
#MNEM       .UNIT                                      API CODE :CURVE DESCRIPTION
#------------------------------------------------------------------------------
DEPT        .FT                                                 :DEPTH     
AHT10       .OHMM                                               :          
AHT20       .OHMM                                               :          
AHT30       .OHMM                                               :          
AHT60       .OHMM                                               :          
AHT90       .OHMM                                               :          
CPCHM       .MMHO                                               :          
DCAL        .IN                                                 :          
DPHZ        .FRAC                                               :          
GR          .GAPI                                               :          
GR_NORM     .GAPI                                               :GammaRay Normalized
GRAM        .GAPI                                               :          
HDRA        .G/CC                                               :          
NPOR        .FRAC                                               :          
RACHM       .OHMM                                               :          
ROPS        .F/HR                                               :          
RPCHM       .OHMM                                               :          
RWA         .OHMM                                               :          
SP          .MV                                                 :          
SP_NORM     .MV                                                 :SP Normalized
TENS        .LB/F                                               :          
VSH_GR      .V/V                                                :Volume of Shale from GR
VSH_SP      .V/V                                                :Volume of Shale from SP
~A        DEPTH          AHT10          AHT20          AHT30          AHT60          AHT90          CPCHM           DCAL           DPHZ             GR        GR_NORM           GRAM           HDRA           NPOR          RACHM           ROPS          RPCHM            RWA             SP        SP_NORM           TENS         VSH_GR         VSH_SP
# ...
      6908.0000         1.7026         1.6052         1.5335         1.4067         1.3027       1114.234        -0.4952         0.1615        48.8085       49.31872         75.674        -0.0103         0.2664          0.914         99.558          0.824         0.0417         -45.75      -32.35189           3098      0.3472069      0.5378302
      6908.5000         1.9485          1.748         1.6909         1.5094         1.3604       1171.672         -0.423         0.1448        46.8649       46.52975         76.895        -0.0129         0.2805          0.905         99.558          0.806         0.0344       -45.6875      -32.26439           3099      0.2878671      0.5390802
      6909.0000          2.301         2.0373         1.8869         1.6408          1.427       1200.417         -0.399         0.1002        45.6012        44.7153         76.382         0.0011         0.2284          0.908         99.558          0.815         0.0164        -46.625      -33.57689           3080      0.2492616      0.5203302
      6909.5000         2.1587         2.0364         1.9702         1.6513           1.39       1225.823        -0.3269         0.0518        44.7588       43.50468         72.839         0.0141         0.1575          0.924        107.701           0.88         0.0039         -47.75      -35.15189           3090      0.2235039      0.4978302
      6910.0000         1.7796         1.7138         1.6616          1.385         1.1793       1186.353        -0.3269         0.0492        43.3156       41.43295           70.7         0.0214         0.1351          0.939        107.701          0.913         0.0029            -46      -32.70189           3075      0.1794245      0.5328302
      6910.5000          1.462         1.4351         1.3913         1.2641         1.1126        1138.19         -0.399         0.0893        49.8445       50.78762         69.898          0.012         0.1571          0.949        107.701          0.897           0.01       -43.6875      -29.46439           3071        0.37846      0.5790802
      6911.0000          1.254         1.2518          1.245         1.1486         1.0124       1097.687         -0.423         0.1377        54.3646       57.26309         70.893         0.0005         0.2179          0.958        107.701          0.878          0.023       -40.4375      -24.91439           3097      0.5162359      0.6440802
      6911.5000          1.118         1.1331         1.1509         1.0828         0.9673       1104.565        -0.4832         0.1701        59.4892       64.60497         72.632        -0.0108         0.3041          0.962        107.083          0.931         0.0346       -39.1875      -23.16439           3075      0.6724463      0.6690802
      6912.0000         1.0735         1.0535         1.0811         1.0541         0.9349       1126.146        -0.4711         0.1854        58.2255       62.79052         73.566        -0.0161         0.3284          0.971        107.083          0.937         0.0402       -37.6875      -21.06439           3068      0.6338407      0.6990802
      6912.5000         1.0084         0.9975         1.0504         1.0294         0.9391       1084.953        -0.3629         0.1907        60.6121       66.20803         74.094        -0.0113         0.3381          0.976        107.083          0.947         0.0429       -37.3125      -20.53939           3098      0.7065538      0.7065802
      6913.0000         0.9493         0.9525          1.011         1.0043         0.9447       1058.982        -0.3509         0.1794        63.7713       70.73292         74.474         0.0054         0.3286          0.982        107.083          0.972         0.0379       -33.6875      -15.46439           3113       0.802828      0.7790802
      6913.5000         0.9029         0.9085          0.983         0.9953         0.9657       1041.153        -0.3509         0.1689        65.3147       72.94187         74.197         0.0206         0.3606          0.977        111.049          0.981          0.034        -31.125      -11.87689           3084      0.8498271      0.8303302
      6914.0000         0.8833         0.8869         0.9606         0.9782         0.9675       1027.154        -0.3269         0.1711        67.6748        76.3214         74.781         0.0237         0.3997          0.958        111.049          0.991          0.035       -28.0625      -7.589386           3109       0.921732      0.8915802
      6914.5000         0.8524         0.8676         0.9372         0.9623         0.9622       1012.786         -0.399         0.1896        68.5172       77.52562         75.668         0.0167          0.376           0.95        111.049          0.959         0.0435       -26.5625      -5.489386           3124      0.9473536      0.9215802
      6915.0000         0.8037         0.8367         0.9008         0.9449         0.9732       1028.543        -0.4351         0.1896        74.0256       85.41759          74.93         0.0179         0.3996          0.917        111.049          0.898          0.044         -26.25      -5.051886           3126              1      0.9278302
      6915.5000         0.7648         0.8069         0.8615         0.9077         0.9413       1062.581        -0.4952         0.1863        72.9726       83.90515         76.307         0.0238         0.4342          0.897        117.864          0.875         0.0409       -26.3125      -5.139386           3116              1      0.9265802
      6916.0000         0.7578         0.8152         0.8642         0.9023         0.9334       1118.807        -0.5192         0.1837        71.4983       81.78883         75.436          0.028         0.3947          0.872        117.864          0.807         0.0394         -25.25      -3.651886           3101              1      0.9478302
      6916.5000         0.7726         0.8464         0.8866         0.9239         0.9509       1177.023        -0.5312         0.1999        69.8426       79.41252          77.09          0.022         0.3833          0.864        117.864          0.745         0.0482            -25      -3.301886           3143      0.9875004      0.9528302
      6917.0000          0.797         0.8826         0.9169         0.9564         0.9834        1254.69        -0.4471         0.2138        70.8748       80.88877         74.924         0.0146         0.4425          0.863        117.864          0.734         0.0575       -25.1875      -3.564386           3113              1      0.9490802
      6917.5000          0.827         0.9121         0.9474         0.9828         1.0051       1288.698        -0.3028         0.2138        75.0374       86.85183         75.406         0.0108         0.3419          0.861         88.736          0.794         0.0588       -25.0625      -3.389386           3106              1      0.9515802
      6918.0000         0.8281         0.9157         0.9498         0.9806         0.9953       1333.657        -0.0864         0.2002        75.1172       86.96301         75.434         0.0155         0.3212          0.857         88.736          0.818         0.0506        -25.625      -4.176886           3107              1      0.9403302
      6918.5000          0.805         0.8865         0.9175         0.9442         0.9516        1244.79        -0.1345         0.1805        79.5129       93.26017         75.906         0.0241         0.3907          0.852         88.736          0.772         0.0387         -24.25      -2.251886           3105              1      0.9678302
      6919.0000         0.7698         0.8396         0.8632         0.8909         0.8958       1272.174        -0.1826         0.1752        80.1943       94.23361         75.143         0.0257         0.4274          0.833         88.736          0.733         0.0342       -23.4375      -1.114386           3114              1      0.9840802
      6919.5000          0.742         0.8034         0.8233         0.8515         0.8583       1323.389        -0.3028         0.1849        79.3518       93.02287         74.575         0.0185         0.3977          0.823         95.546          0.726         0.0368       -24.6875      -2.864386           3099              1      0.9590802
