#------------------------------------------------------------------------------
# Created by    : vladimir.rabinovich
# Created on    : 09/19/2023 17:20:33
#------------------------------------------------------------------------------
~Version Information Section
VERS.           2.0     :   CWLS log ASCII Standard - VERSION 2.0
WRAP.           NO      :   One line per depth step
~Well Information Section
#MNEM       .UNIT                                         VALUE :DESCRIPTION
#------------------------------------------------------------------------------
STRT        .FT                                             526 :START DEPTH
STOP        .FT                                            9568 :STOP DEPTH
STEP        .FT                                             0.5 :STEP      
NULL        .                                           -999.25 :NULL      
COMP        .                       BLUE DOLPHIN EXPLORATION CO :COMPANY   
WELL        .                                OCS 00713 ST00BP00 :WELL      
FLD         .                              GALVESTON BLOCK 0288 :FIELD     
LOC         .                                                   :LOCATION  
CNTY        .                             GALVESTON LARGE BLOCK :LOCATION  
STAT        .                                             TEXAS :STATE     
CTRY        .                                     UNITED STATES :COUNTRY   
SRVC        .                                                   :SERVICE COMPANY
DATE        .                             9/13/2023 11:19:25 AM :LOG DATE  
API         .                                    42706000630000 :API NUMBER
UWI         .                                    42706000630000 :UNIQUE WELL ID
XCOORD      .                                  1101981.32688909 :SURFACE X 
YCOORD      .                                  10481575.8265757 :SURFACE Y 
LAT         .                                          28.87198 :LATITUDE  
LON         .                                        -94.682732 :LONGITUDE 
ELEV        .FT                                              58 :ELEVATION VALUE
ELEV_TYPE   .                                                KB :ELEVATION REFERENCE TYPE
~Curve Information Section
#MNEM       .UNIT                                      API CODE :CURVE DESCRIPTION
#------------------------------------------------------------------------------
DEPT        .FT                                                 :DEPTH     
ASN         .OHMM                                               :          
CALI        .IN                                                 :          
DT          .US/F                                               :          
ILD         .OHMM                                               :          
SP          .MV                                                 :          
SP_NORM     .MV                                                 :SP Normalized
VSH_SP      .V/V                                                :Volume of Shale from SP
~A        DEPTH            ASN           CALI             DT            ILD             SP        SP_NORM         VSH_SP
# ...
      3541.0000         0.8263        11.2239       149.2832         0.8581       -42.1214      -2.586517      0.9674157
      3541.5000         0.8173        11.1192       150.4929         0.8554       -42.2291      -2.694218      0.9614323
      3542.0000          0.809        11.1454       152.9089         0.8435       -42.1445      -2.609619      0.9661323
      3542.5000         0.8044        11.0144       155.8755         0.8397       -42.3508      -2.815918      0.9546712
      3543.0000         0.8003        10.5942       158.4211         0.8391       -42.4213      -2.886417      0.9507546
      3543.5000          0.796        10.2047       159.6479         0.8286       -42.5154      -2.980518      0.9455268
      3544.0000         0.7958        10.1306       159.3081         0.8177       -42.5385       -3.00362      0.9442433
      3544.5000          0.802        10.1072       158.7109         0.8051       -42.3554      -2.820518      0.9544156
      3545.0000         0.8011        10.0389       157.7139         0.8148       -41.9994       -2.46452      0.9741933
      3545.5000         0.8065         9.9652       156.9146         0.8291       -41.8477      -2.312817      0.9826213
      3546.0000         0.8155         9.9625       157.1978         0.8317        -42.011       -2.47612      0.9735489
      3546.5000         0.8277         9.9825       157.0381         0.8374       -42.3096      -2.774719        0.95696
      3547.0000         0.8464        10.0202       152.5872         0.8478       -42.2177      -2.682819      0.9620656
      3547.5000          0.847        10.0651       148.6304         0.8548       -42.0027      -2.467819      0.9740101
      3548.0000          0.826        10.1127       148.3906         0.8644       -41.6979      -2.163017      0.9909435
      3548.5000         0.8031        10.1608       154.7434         0.8739       -41.2778       -1.74292              1
      3549.0000         0.7959        10.2141       159.0996         0.8757       -40.8999      -1.365017              1
      3549.5000          0.806        10.2674       160.3015         0.8858       -41.0566      -1.521717              1
      3550.0000         0.8433        10.4856       163.8362         0.8735       -41.5287       -1.99382              1
      3550.5000         0.8822        11.5311        168.802         0.8702       -41.8842      -2.349319      0.9805934
      3551.0000         0.8926        12.0613       168.1418         0.8768       -42.1849      -2.650017      0.9638879
      3551.5000         0.8875        11.8942       151.1873          0.882       -42.3102      -2.775318      0.9569268
      3552.0000         0.8759        12.0197       149.0491         0.8854       -42.4124      -2.877518       0.951249
      3552.5000         0.8646        12.1141        155.459         0.8871       -42.4953      -2.960419      0.9466434
      3553.0000         0.8543         11.821       159.7896         0.8871       -42.3942      -2.859318      0.9522601
      3553.5000         0.8538        11.8022       162.0171         0.8882       -42.2847      -2.749817      0.9583435
      3554.0000         0.8557         12.075       160.3774         0.8811       -41.9326      -2.397717      0.9779046
      3554.5000         0.8581        11.8248       160.0361         0.8735       -41.5771      -2.042217      0.9976546
      3555.0000         0.8569        11.2942       157.8967         0.8655       -41.5797      -2.044819      0.9975101
      3555.5000          0.852        12.1051       154.7905         0.8676       -42.1431      -2.608219      0.9662101
      3556.0000         0.8509         12.217       153.1611         0.8788       -42.2493      -2.714417      0.9603102
      3556.5000         0.8543         11.952       151.2507         0.8944       -41.8128       -2.27792        0.98456
      3557.0000         0.8639        11.4636       150.3364          0.906       -41.3289      -1.794018              1
      3557.5000         0.8723        11.2345       151.8213          0.918       -40.9625       -1.42762              1
      3558.0000         0.8754         11.286       152.4797         0.9302       -40.5724      -1.037518              1
      3558.5000         0.8941        11.5103       150.8889         0.9392       -40.2953     -0.7604179              1
      3559.0000         0.9149        11.6523       148.0969         0.9522       -40.5141     -0.9792175              1
      3559.5000         0.9234         11.675        143.564         0.9743       -40.8378      -1.302917              1
      3560.0000         0.9307        12.0323       139.7883         0.9613       -41.1368      -1.601917              1
      3560.5000         0.9397        12.4324       139.1392         0.9872       -41.2945      -1.759617              1
      3561.0000         0.9602        12.2513       141.9119         0.9892       -41.0552      -1.520317              1
      3561.5000         0.9792        12.0433       146.0039          0.995       -40.8113      -1.276417              1
      3562.0000         0.9871        11.6838       149.2053         0.9958       -40.7257      -1.190819              1
      3562.5000         0.9752        11.1238       145.6089         0.9993       -40.7889      -1.254017              1
      3563.0000         0.9709        10.8255       143.5234         0.9955       -40.6127       -1.07782              1
      3563.5000         0.9717        10.8648       140.1946         0.9918       -40.4304     -0.8955193              1
      3564.0000         0.9759        10.7563       137.0706         0.9818        -40.533     -0.9981194              1
      3564.5000          0.969        10.6201       137.1646         0.9742       -40.1179     -0.5830193              1
      3565.0000         0.9602        10.9289       139.0107         0.9682       -40.1894     -0.6545181              1
      3565.5000         0.9576        11.4868       140.2427         0.9578       -40.5617      -1.026817              1
      3566.0000         0.9481        12.1794       139.6301         0.9551       -40.8802      -1.345318              1
      3566.5000         0.9328        12.7605       143.8792         0.9502       -40.3126     -0.7777176              1
      3567.0000         0.9196        12.5225       145.7151          0.947       -39.8501     -0.3152199              1
      3567.5000         0.9129        12.7452       142.1101         0.9397       -39.4401     0.09477997              1
      3568.0000         0.9153        12.9278       139.8469         0.9323        -39.659     -0.1241188              1
      3568.5000         0.9145        12.9823       143.3276         0.9266       -40.1463     -0.6114197              1
      3569.0000         0.9153        12.9233       144.4956         0.9255       -40.5221     -0.9872169              1
      3569.5000         0.9236        12.5471       144.5493         0.9254       -40.6241      -1.089218              1
      3570.0000         0.9249        11.9768       144.3398         0.9262       -40.7791      -1.244217              1
      3570.5000         0.9116        11.4814       144.3437         0.9287       -40.9551      -1.420219              1
      3571.0000         0.8878        11.6196       144.0657         0.9279        -41.106      -1.571117              1
      3571.5000         0.8667         11.984       143.6917         0.9176       -41.1071       -1.57222              1
      3572.0000         0.8621        12.0799       142.1912         0.9101       -41.1312      -1.596317              1
      3572.5000         0.8639        12.2376       141.3347         0.8934       -41.1103      -1.575417              1
      3573.0000         0.8672        12.3917       143.2871          0.892       -40.8946      -1.359718              1
      3573.5000         0.8681        12.0517       146.8501         0.8864       -40.6063      -1.071419              1
      3574.0000         0.8678        11.6174         150.01         0.8879         -40.64      -1.105118              1
