#------------------------------------------------------------------------------
# Created by    : vladimir.rabinovich
# Created on    : 09/19/2023 17:22:34
#------------------------------------------------------------------------------
~Version Information Section
VERS.           2.0     :   CWLS log ASCII Standard - VERSION 2.0
WRAP.           NO      :   One line per depth step
~Well Information Section
#MNEM       .UNIT                                         VALUE :DESCRIPTION
#------------------------------------------------------------------------------
STRT        .FT                                            2432 :START DEPTH
STOP        .FT                                            8088 :STOP DEPTH
STEP        .FT                                             0.5 :STEP      
NULL        .                                           -999.25 :NULL      
COMP        .                                  XTO OFFSHORE INC :COMPANY   
WELL        .                               OCS G23162 ST00BP00 :WELL      
FLD         .                                 BRAZOS BLOCK 0398 :FIELD     
LOC         .                                                   :LOCATION  
CNTY        .                                BRAZOS LARGE BLOCK :LOCATION  
STAT        .                                             TEXAS :STATE     
CTRY        .                                     UNITED STATES :COUNTRY   
SRVC        .                                                   :SERVICE COMPANY
DATE        .                             9/13/2023 11:09:58 AM :LOG DATE  
API         .                                    42704403400000 :API NUMBER
UWI         .                                    42704403400000 :UNIQUE WELL ID
XCOORD      .                                  869002.191083907 :SURFACE X 
YCOORD      .                                  10369331.9113669 :SURFACE Y 
LAT         .                                        28.5523806 :LATITUDE  
LON         .                                       -95.4033279 :LONGITUDE 
ELEV        .FT                                             100 :ELEVATION VALUE
ELEV_TYPE   .                                                KB :ELEVATION REFERENCE TYPE
~Curve Information Section
#MNEM       .UNIT                                      API CODE :CURVE DESCRIPTION
#------------------------------------------------------------------------------
DEPT        .FT                                                 :DEPTH     
CO12        .MMHO                                               :          
DCAL        .IN                                                 :          
DPHI        .FRAC                                               :          
DRHO        .G/CC                                               :          
GR          .GAPI                                               :          
GR_NORM     .GAPI                                               :GammaRay Normalized
HO01        .OHMM                                               :          
HO02        .OHMM                                               :          
HO03        .OHMM                                               :          
HO06        .OHMM                                               :          
HO09        .OHMM                                               :          
HO12        .OHMM                                               :          
NPHI        .FRAC                                               :          
RWA         .OHMM                                               :          
SP          .MV                                                 :          
SP_NORM     .MV                                                 :SP Normalized
TENS        .LB/F                                               :          
VSH_GR      .V/V                                                :Volume of Shale from GR
VSH_SP      .V/V                                                :Volume of Shale from SP
~A        DEPTH           CO12           DCAL           DPHI           DRHO             GR        GR_NORM           HO01           HO02           HO03           HO06           HO09           HO12           NPHI            RWA             SP        SP_NORM           TENS         VSH_GR         VSH_SP
# ...
      3606.5000       3106.167          2.758         0.3487         0.0356        35.2419       33.02354         0.5988         0.4176         0.3504         0.2983         0.3461         0.3258         0.4142         0.0553        48.1431      -17.76045       3194.076   0.0005008616      0.1244195
      3607.0000        3268.01         2.6966         0.3475         0.0281        35.9347        33.7179         0.5273         0.3825         0.3274          0.284         0.3234         0.3058         0.4061         0.0523        48.0668      -17.83466       3195.207     0.01527453      0.1202967
      3607.5000       3309.637         2.9271         0.3463         0.0148        36.8341       34.61887         0.5166         0.3754         0.3254         0.2894         0.3044         0.2887         0.4191         0.0524        47.8975      -18.00187       3172.828     0.03444396      0.1110073
      3608.0000       3272.489         2.5659         0.3487         0.0019        37.7326       35.51892         0.5289         0.4059         0.3517         0.3069         0.3321         0.3131         0.3956         0.0531        47.5622      -18.33507       3145.025     0.05359414     0.09249602
      3608.5000       3132.094           2.22         0.3508        -0.0069        36.9911       34.77899         0.5392         0.4278         0.3703         0.3187         0.3368         0.3165         0.3848         0.0564        46.8883      -19.00688       3152.258      0.0378508     0.05517345
      3609.0000        3052.45          1.951         0.3533         -0.014        34.1387       31.92815         0.5628         0.4493         0.3875         0.3304         0.3511         0.3286         0.3701         0.0576        46.0418      -19.85128       3211.482              0    0.008262211
      3609.5000       3011.206         1.7589         0.3524        -0.0187        30.5905       28.38151          0.597         0.4754         0.4063         0.3427         0.3625         0.3384         0.3627         0.0578        45.4277      -20.46329       3273.418              0              0
      3610.0000       3079.782         1.4514         0.3495          -0.02        27.7415       25.53407         0.6048         0.4481         0.3787         0.3271         0.3526         0.3294         0.3604         0.0546        45.1521      -20.73679       3264.829              0              0
      3610.5000       3287.461         1.2055         0.3467        -0.0171        27.1677       24.96184         0.5502         0.3979         0.3409         0.3038         0.3288         0.3078         0.3648         0.0515        44.9364       -20.9504       3195.885              0              0
      3611.0000       3530.559          1.144         0.3474        -0.0163        27.0166       24.81229         0.5506         0.3317         0.2897         0.2795         0.2981         0.2795         0.3588         0.0479        44.7305      -21.15421       3153.614              0              0
      3611.5000       3785.572         1.1286         0.3524        -0.0175        27.0648       24.86206         0.4987         0.2929         0.2624         0.2628         0.2844         0.2656         0.3531         0.0473         44.538      -21.34462        3202.44              0              0
      3612.0000       3966.983         1.1747         0.3589        -0.0162        25.9167       23.71552         0.4856         0.2712         0.2447         0.2514         0.2676         0.2492         0.3576         0.0475        44.4683      -21.41222       3316.141              0              0
      3612.5000       4104.906           1.29         0.3647        -0.0046        25.4526       23.25298         0.5114         0.2658         0.2364         0.2436         0.2616         0.2426         0.3567         0.0476        44.6475      -21.23093       3400.682              0              0
      3613.0000       4131.062         1.3438         0.3664         0.0198        26.3326       24.13454         0.5202         0.2695         0.2381         0.2423         0.2588         0.2393         0.3671         0.0484        45.0359      -20.84043       3397.065              0              0
      3613.5000       4077.046         1.5744         0.3665         0.0475        29.3903       27.19381         0.5025         0.2875         0.2535         0.2491          0.265         0.2444         0.3846         0.0483        45.5903      -20.28394        3334.45              0              0
      3614.0000       3957.175         1.8357          0.364         0.0651        32.0072       29.81226         0.4186         0.3462         0.3023         0.2604         0.2742         0.2525         0.3989         0.0491        46.1679      -19.70424       3275.226              0     0.01643117
      3614.5000        3812.02         1.9279         0.3625         0.0618        33.1329       30.93953         0.4398         0.3642         0.3158          0.271         0.2843         0.2619         0.4154           0.05        46.5829      -19.28715       3252.622              0     0.03960292
      3615.0000       3674.094         1.7665         0.3644         0.0375        32.6152       30.42339         0.4692         0.3802         0.3278         0.2803         0.2967         0.2735         0.4314         0.0516        46.7954      -19.07255       3251.266              0      0.0515249
      3615.5000       3574.182         1.8741         0.3664         0.0097        31.9634       29.77315         0.5077         0.3939          0.335         0.2852         0.3053         0.2819         0.4269         0.0552        46.8086      -19.05726       3250.588              0     0.05237452
      3616.0000       3521.418         1.8665         0.3671        -0.0092        32.1052       29.91651         0.5189         0.3929         0.3333         0.2871         0.3068         0.2842         0.3958         0.0554        46.6261      -19.23766       3247.423              0     0.04235204
      3616.5000        3529.85         1.6359         0.3656        -0.0147        34.0519       31.86477         0.5286         0.3859         0.3276         0.2866          0.308         0.2859         0.3827         0.0536        46.3074      -19.55427       3239.285              0     0.02476268
      3617.0000       3595.864         1.4207         0.3633        -0.0071        36.4368       34.25123         0.5112          0.368         0.3155           0.28         0.3005         0.2799           0.39         0.0528        46.0318      -19.82777       3229.565     0.02662188    0.009568108
      3617.5000       3687.153         1.3746         0.3628         0.0083        38.3805        36.1965         0.4688         0.3499          0.303         0.2687         0.2873          0.269         0.3952          0.052        45.9157      -19.94178       3216.907     0.06801053    0.003234227
      3618.0000       3733.278         1.6128         0.3635         0.0259        38.9797       36.79726         0.4392           0.35         0.3056         0.2633         0.2822         0.2651         0.4046         0.0515        45.8924      -19.96299       3208.996     0.08079269    0.002056334
      3618.5000       3668.172         1.9664         0.3636         0.0388        40.1429       37.96201         0.4435         0.3629         0.3161         0.2681         0.2866         0.2695         0.3957         0.0526        45.7995      -20.05379        3212.16      0.1055747              0
      3619.0000       3515.275         2.1585         0.3634         0.0391        41.3066       39.12728         0.4859         0.3836         0.3312         0.2839         0.3026         0.2839         0.4046         0.0536        45.5804       -20.2708        3218.49      0.1303676              0
      3619.5000         3345.1         1.5821         0.3644         0.0271        41.9637       39.78594           0.57           0.42         0.3542         0.3039          0.323         0.3018         0.4018         0.0547        45.3082       -20.5409        3232.73      0.1443817              0
