#------------------------------------------------------------------------------
# Created by    : vladimir.rabinovich
# Created on    : 09/19/2023 17:20:23
#------------------------------------------------------------------------------
~Version Information Section
VERS.           2.0     :   CWLS log ASCII Standard - VERSION 2.0
WRAP.           NO      :   One line per depth step
~Well Information Section
#MNEM       .UNIT                                         VALUE :DESCRIPTION
#------------------------------------------------------------------------------
STRT        .FT                                            3094 :START DEPTH
STOP        .FT                                           15705 :STOP DEPTH
STEP        .FT                                             0.5 :STEP      
NULL        .                                           -999.25 :NULL      
COMP        .                                       MONSANTO CO :COMPANY   
WELL        .                                     ST TR 00011-L :WELL      
FLD         .                                           WILDCAT :FIELD     
LOC         .                                                   :LOCATION  
CNTY        .                           HIGH ISLAND LARGE BLOCK :LOCATION  
STAT        .                                             TEXAS :STATE     
CTRY        .                                     UNITED STATES :COUNTRY   
SRVC        .                                                   :SERVICE COMPANY
DATE        .                             9/13/2023 11:19:15 AM :LOG DATE  
API         .                                    42708300660000 :API NUMBER
UWI         .                                    42708300660000 :UNIQUE WELL ID
XCOORD      .                                  1343190.12128624 :SURFACE X 
YCOORD      .                                   10724936.940093 :SURFACE Y 
LAT         .                                        29.5487141 :LATITUDE  
LON         .                                       -93.9350737 :LONGITUDE 
ELEV        .FT                                              49 :ELEVATION VALUE
ELEV_TYPE   .                                                KB :ELEVATION REFERENCE TYPE
~Curve Information Section
#MNEM       .UNIT                                      API CODE :CURVE DESCRIPTION
#------------------------------------------------------------------------------
DEPT        .FT                                                 :DEPTH     
ASN         .OHMM                                               :          
CILD        .MMHO                                               :          
ILD         .OHMM                                               :          
SP_NORM     .MV                                                 :SP Normalized
VSH_SP      .V/V                                                :Volume of Shale from SP
~A        DEPTH            ASN           CILD            ILD        SP_NORM         VSH_SP
# ...
      3930.0000         0.6916       1450.729         0.6084      -14.62007      0.7691513
      3930.5000         0.8107       1399.861         0.6414      -19.40277      0.6880887
      3931.0000         1.0023       1369.869         0.6744      -22.79457      0.6306006
      3931.5000         1.1516       1341.168         0.7074      -25.43946      0.5857718
      3932.0000         1.2535       1322.543         0.7404      -27.05737      0.5583497
      3932.5000         1.2937       1303.906         0.7731      -26.37046      0.5699922
      3933.0000         1.2345       1293.016         0.8007      -22.12326      0.6419786
      3933.5000         1.1632       1298.402         0.8283      -17.96515       0.712455
      3934.0000          1.092       1370.613         0.8401      -11.13285      0.8282567
      3934.5000         1.0207       1399.912            0.8      -8.754253       0.868572
      3935.0000         0.9349       1429.234         0.7598      -6.803745      0.9016314
      3935.5000         0.8418       1458.047         0.7286      -5.114445      0.9302636
      3936.0000         0.7719       1481.518         0.7049       -3.46664      0.9581925
      3936.5000          0.736       1504.975         0.6811      -3.312538      0.9608045
      3937.0000          0.733       1520.537         0.6738       -3.07774      0.9647841
      3937.5000         0.7364       1522.971         0.6699      -2.648834      0.9720536
      3938.0000         0.7399       1511.479         0.6687      -2.034233      0.9824706
      3938.5000         0.7434       1499.986         0.6705      -2.877426      0.9681792
      3939.0000         0.7401        1519.76         0.6723      -4.299126      0.9440826
      3939.5000         0.7284       1574.775         0.6741      -2.452621      0.9753793
      3940.0000         0.7062       1635.955         0.6759      0.1585808              1
      3940.5000         0.6839       1704.789         0.6686        2.25008              1
      3941.0000         0.6526       1736.197         0.6434       3.690086              1
      3941.5000         0.6227       1767.098         0.6181       4.772686              1
      3942.0000          0.604       1793.303         0.5874       5.366192              1
      3942.5000          0.585       1814.846         0.5532       5.912092              1
      3943.0000         0.5619       1793.277         0.5191       6.207994              1
      3943.5000         0.5782        1742.41         0.5369       6.503899              1
      3944.0000         0.6018       1691.543         0.5592       6.799799              1
      3944.5000         0.6253       1629.146         0.5814       7.048504              1
      3945.0000         0.6423       1565.781         0.6037       7.283007              1
      3945.5000         0.6553       1522.455         0.6259       7.517511              1
      3946.0000         0.6674       1501.682         0.6423       5.626312              1
      3946.5000         0.6744       1505.148         0.6564       3.654015              1
      3947.0000         0.6815       1541.404         0.6705       1.465019              1
      3947.5000         0.6855       1588.891         0.6847      -1.621082      0.9894732
      3948.0000         0.6894       1636.875          0.661      -5.076077       0.930914
      3948.5000         0.6932       1685.879         0.6394      -8.120075      0.8793207
      3949.0000         0.6971       1737.441         0.6244      -11.54897      0.8212038
      3949.5000         0.6914       1794.246         0.6094      -13.49477      0.7882242
      3950.0000         0.6851       1827.309         0.5945      -13.88017       0.781692
      3950.5000         0.6788       1851.014         0.5795      -10.01526       0.847199
      3951.0000         0.6724       1872.906         0.5646      -5.030563      0.9316854
      3951.5000         0.6639       1887.369         0.5496      -3.602356      0.9558923
      3952.0000         0.6477       1901.832         0.5377      -2.969654       0.966616
      3952.5000          0.618       1916.654         0.5281      -3.168255      0.9632499
      3953.0000         0.5975       1932.807         0.5185      -3.367149      0.9598788
      3953.5000         0.5794       1882.338         0.5089      -3.766048      0.9531178
      3954.0000         0.5858       1842.057          0.524      -4.884842      0.9341552
      3954.5000         0.6159        1801.75          0.553      -6.426041      0.9080332
      3955.0000         0.6357       1761.471         0.5819       -5.88694      0.9171705
      3955.5000         0.6491       1709.957         0.6107      -4.679035      0.9376435
      3956.0000         0.6604       1655.648         0.6318      -4.113335      0.9472316
      3956.5000         0.6847       1635.496          0.653      -8.394829      0.8746639
      3957.0000         0.7394       1616.201         0.6741      -11.47853      0.8223978
      3957.5000         0.7983       1662.445         0.6952      -13.94583      0.7805792
      3958.0000         0.8301       1736.447         0.6706      -15.57802      0.7529149
      3958.5000         0.8346       1797.428         0.6364      -17.23852      0.7247708
      3959.0000         0.8046       1853.984         0.6022      -26.21632      0.5726048
      3959.5000         0.7863       1929.824         0.5676      -32.66352      0.4633302
      3960.0000         0.7794       1989.338          0.533      -34.66121       0.429471
      3960.5000         0.7039       2014.109          0.509      -33.19271      0.4543608
      3961.0000         0.6918       2037.344         0.5195      -27.83681      0.5451388
      3961.5000          0.679       2011.029         0.5372       -22.4808      0.6359186
      3962.0000         0.6649       1997.334         0.5636       -15.0261      0.7622694
      3962.5000         0.6495       1999.652           0.59      -9.986897      0.8476797
      3963.0000         0.6523       1940.162         0.6164      -7.954796      0.8821221
      3963.5000         0.6622       1716.119         0.6428      -2.158295      0.9803679
      3964.0000         0.6621       1558.549         0.6692       1.296909              1
      3964.5000         0.6506       1544.914         0.6733       3.213909              1
      3965.0000           0.64       1532.893         0.6483       3.657814              1
      3965.5000         0.6296       1474.732         0.6267       4.103416              1
      3966.0000         0.6191        1410.82         0.6085       4.610622              1
      3966.5000         0.6177       1346.857         0.5902       5.118122              1
      3967.0000         0.6382       1282.945         0.5913       5.529123              1
      3967.5000         0.6588       1219.033         0.6242       5.915628              1
      3968.0000         0.6803       1166.178         0.6571       6.302229              1
      3968.5000         0.7069        1105.67           0.69       6.688835              1
      3969.0000         0.7336       1068.707         0.7185       7.023535              1
      3969.5000         0.7614       1055.424         0.7467       7.271936              1
      3970.0000         0.7803       1120.678         0.7749       7.466442              1
      3970.5000         0.7933       1185.883         0.8032       6.337942              1
      3971.0000         0.7816       1251.088         0.8314       5.367947              1
      3971.5000         0.7467       1316.293         0.8058       4.807848              1
      3972.0000         0.7235       1381.547         0.7713       4.338352              1
      3972.5000         0.7058       1456.643         0.7444       3.869156              1
      3973.0000         0.6882       1535.217         0.7175       3.262356              1
      3973.5000          0.678        1613.74         0.6905       1.322159              1
