#------------------------------------------------------------------------------
# Created by    : vladimir.rabinovich
# Created on    : 09/19/2023 17:21:39
#------------------------------------------------------------------------------
~Version Information Section
VERS.           2.0     :   CWLS log ASCII Standard - VERSION 2.0
WRAP.           NO      :   One line per depth step
~Well Information Section
#MNEM       .UNIT                                         VALUE :DESCRIPTION
#------------------------------------------------------------------------------
STRT        .FT                                             930 :START DEPTH
STOP        .FT                                           10010 :STOP DEPTH
STEP        .FT                                             0.5 :STEP      
NULL        .                                           -999.25 :NULL      
COMP        .                 FAIRWAYS SPEC SALES & SERVICE INC :COMPANY   
WELL        .                               OCS G02357 ST00BP00 :WELL      
FLD         .                            HIGH ISLAND BLOCK 0154 :FIELD     
LOC         .                                                   :LOCATION  
CNTY        .                           HIGH ISLAND LARGE BLOCK :LOCATION  
STAT        .                                             TEXAS :STATE     
CTRY        .                                     UNITED STATES :COUNTRY   
SRVC        .                                                   :SERVICE COMPANY
DATE        .                             9/13/2023 11:20:04 AM :LOG DATE  
API         .                                    42708400540000 :API NUMBER
UWI         .                                    42708400540000 :UNIQUE WELL ID
XCOORD      .                                  1183911.52517142 :SURFACE X 
YCOORD      .                                  10615048.6542629 :SURFACE Y 
LAT         .                                         29.242029 :LATITUDE  
LON         .                                        -94.431816 :LONGITUDE 
ELEV        .FT                                              73 :ELEVATION VALUE
ELEV_TYPE   .                                                KB :ELEVATION REFERENCE TYPE
~Curve Information Section
#MNEM       .UNIT                                      API CODE :CURVE DESCRIPTION
#------------------------------------------------------------------------------
DEPT        .FT                                                 :DEPTH     
CALI        .IN                                                 :          
DRHO        .G/C3                                               :          
DT          .US/F                                               :          
GR          .GAPI                                               :          
GR_1        .GAPI                                               :          
GR_NORM     .GAPI                                               :GammaRay Normalized
ILD         .OHMM                                               :          
NPHI        .%                                                  :          
RHOB        .G/C3                                               :          
SFL         .OHMM                                               :          
SP          .MV                                                 :          
SP_NORM     .MV                                                 :SP Normalized
VSH_GR      .V/V                                                :Volume of Shale from GR
VSH_SP      .V/V                                                :Volume of Shale from SP
~A        DEPTH           CALI           DRHO             DT             GR           GR_1        GR_NORM            ILD           NPHI           RHOB            SFL             SP        SP_NORM         VSH_GR         VSH_SP
# ...
      4062.0000        -999.25        -999.25        -999.25        -999.25         60.523       77.80441         0.7648        -999.25        -999.25         0.7095        51.8221       1.322521      0.9532852              1
      4062.5000        -999.25        -999.25        -999.25        -999.25        56.3809       72.12213         0.7093        -999.25        -999.25         0.6952        50.2515     -0.2530975      0.8323858              1
      4063.0000        -999.25        -999.25        -999.25        -999.25        53.1792       67.72987         0.6468        -999.25        -999.25         0.6701        47.1042      -3.405415      0.7389333      0.9248308
      4063.5000        -999.25        -999.25        -999.25        -999.25        50.1676       63.59834         0.5738        -999.25        -999.25         0.6266        42.2708      -8.243828      0.6510284      0.7736304
      4064.0000        -999.25        -999.25        -999.25        -999.25         48.223       60.93048         0.5069        -999.25        -999.25          0.584        37.1486      -13.37104      0.5942656      0.6134049
      4064.5000        -999.25        -999.25        -999.25        -999.25        47.5152       59.95919         0.4477        -999.25        -999.25         0.5521        34.3851      -16.13956      0.5735998      0.5268887
      4065.0000        -999.25        -999.25        -999.25        -999.25        47.0949       59.38227         0.4116        -999.25        -999.25         0.5073        32.0759      -18.45378      0.5613249      0.4545695
      4065.5000        -999.25        -999.25        -999.25        -999.25        46.5321       58.60988           0.37        -999.25        -999.25         0.4668        29.9782      -20.55649      0.5448911      0.3888597
      4066.0000        -999.25        -999.25        -999.25        -999.25        44.4628       55.77096         0.3315        -999.25        -999.25         0.4548        28.1756      -22.36411      0.4844885      0.3323717
      4066.5000        -999.25        -999.25        -999.25        -999.25        41.3254        51.4669         0.3015        -999.25        -999.25         0.4534         27.382      -23.16272      0.3929127      0.3074149
      4067.0000        -999.25        -999.25        -999.25        -999.25        38.4989       47.58929         0.2905        -999.25        -999.25         0.4626        27.7057      -22.84404      0.3104104      0.3173738
      4067.5000        -999.25        -999.25        -999.25        -999.25        37.3628       46.03048         0.2862        -999.25        -999.25         0.4762         27.066      -23.48876      0.2772442      0.2972264
      4068.0000        -999.25        -999.25        -999.25        -999.25        38.2817        47.2906         0.2981        -999.25        -999.25         0.4907        27.7411      -22.81867      0.3040553      0.3181665
      4068.5000        -999.25        -999.25        -999.25        -999.25         39.764       49.32355         0.3175        -999.25        -999.25         0.4938         29.068      -21.49679      0.3473097      0.3594754
      4069.0000        -999.25        -999.25        -999.25        -999.25        40.7149       50.62758         0.3365        -999.25        -999.25         0.4894        29.4413      -21.12851      0.3750549      0.3709842
      4069.5000        -999.25        -999.25        -999.25        -999.25        41.6019       51.84394         0.3512        -999.25        -999.25         0.4884        30.4281      -20.14672      0.4009348       0.401665
      4070.0000        -999.25        -999.25        -999.25        -999.25        44.5961       55.95083         0.3656        -999.25        -999.25         0.4906        33.8878      -16.69204      0.4883155      0.5096238
      4070.5000        -999.25        -999.25        -999.25        -999.25        48.2792       61.00272         0.3783        -999.25        -999.25         0.4942        36.8154      -13.76945      0.5958026      0.6009545
      4071.0000        -999.25        -999.25        -999.25        -999.25        50.7792        64.4317         0.3898        -999.25        -999.25         0.4765        38.1055      -12.48437      0.6687596      0.6411134
      4071.5000        -999.25        -999.25        -999.25        -999.25        50.4416       63.96824         0.3958        -999.25        -999.25         0.4414        37.4862      -13.10869      0.6588986      0.6216035
      4072.0000        -999.25        -999.25        -999.25        -999.25         47.082       59.35936         0.3981        -999.25        -999.25         0.4233        36.2081       -14.3918      0.5608374      0.5815061
      4072.5000        -999.25        -999.25        -999.25        -999.25        44.6468       56.01852         0.3947        -999.25        -999.25         0.4525        34.0112      -16.59372      0.4897557      0.5126963
      4073.0000        -999.25        -999.25        -999.25        -999.25        46.0143         57.894         0.3717        -999.25        -999.25         0.4844         32.714      -17.89594      0.5296597       0.472002
      4073.5000        -999.25        -999.25        -999.25        -999.25        49.3135       62.41927         0.3509        -999.25        -999.25         0.5025        35.5565      -15.05845       0.625942      0.5606734
      4074.0000        -999.25        -999.25        -999.25        -999.25        53.1224       67.64374         0.3285        -999.25        -999.25         0.4587        37.3634      -13.25657      0.7371008      0.6169822
      4074.5000        -999.25        -999.25        -999.25        -999.25        55.5224       70.93554         0.3063        -999.25        -999.25         0.4317         36.829      -13.79599      0.8071392      0.6001254
      4075.0000        -999.25        -999.25        -999.25        -999.25        55.3391       70.68373         0.2977        -999.25        -999.25         0.4165        32.7399       -17.8901      0.8017815      0.4721843
      4075.5000        -999.25        -999.25        -999.25        -999.25        52.5226       66.81983         0.2917        -999.25        -999.25         0.4339        30.2097      -20.42532      0.7195709      0.3929588
      4076.0000        -999.25        -999.25        -999.25        -999.25        46.7339       58.87886         0.2912        -999.25        -999.25         0.4822        31.7352      -18.90483      0.5506141       0.440474
      4076.5000        -999.25        -999.25        -999.25        -999.25        43.0607       53.83981         0.2972        -999.25        -999.25         0.5172        35.6503      -14.99475      0.4434002       0.562664
      4077.0000        -999.25        -999.25        -999.25        -999.25        47.2103       59.53162         0.3174        -999.25        -999.25         0.5106         40.417      -10.23307      0.5645025      0.7114667
      4077.5000        -999.25        -999.25        -999.25        -999.25         53.858       68.65018          0.344        -999.25        -999.25         0.4637        43.9839      -6.671185      0.7585146      0.8227755
      4078.0000        -999.25        -999.25        -999.25        -999.25        60.4613       77.70782           0.37        -999.25        -999.25         0.4272        47.1832      -3.476898      0.9512303      0.9225969
      4078.5000        -999.25        -999.25        -999.25        -999.25        62.5287       80.54339         0.3933        -999.25        -999.25            0.4        45.8317      -4.833416              1      0.8802058
      4079.0000        -999.25        -999.25        -999.25        -999.25        63.7253       82.18445         0.4126        -999.25        -999.25         0.3736        44.3358      -6.334332              1      0.8333021
      4079.5000        -999.25        -999.25        -999.25        -999.25        60.0638       77.16145         0.3884        -999.25        -999.25         0.3858        41.9647      -8.710449      0.9396054      0.7590485
