#------------------------------------------------------------------------------
# Created by    : vladimir.rabinovich
# Created on    : 09/19/2023 17:21:39
#------------------------------------------------------------------------------
~Version Information Section
VERS.           2.0     :   CWLS log ASCII Standard - VERSION 2.0
WRAP.           NO      :   One line per depth step
~Well Information Section
#MNEM       .UNIT                                         VALUE :DESCRIPTION
#------------------------------------------------------------------------------
STRT        .FT                                             930 :START DEPTH
STOP        .FT                                           10010 :STOP DEPTH
STEP        .FT                                             0.5 :STEP      
NULL        .                                           -999.25 :NULL      
COMP        .                 FAIRWAYS SPEC SALES & SERVICE INC :COMPANY   
WELL        .                               OCS G02357 ST00BP00 :WELL      
FLD         .                            HIGH ISLAND BLOCK 0154 :FIELD     
LOC         .                                                   :LOCATION  
CNTY        .                           HIGH ISLAND LARGE BLOCK :LOCATION  
STAT        .                                             TEXAS :STATE     
CTRY        .                                     UNITED STATES :COUNTRY   
SRVC        .                                                   :SERVICE COMPANY
DATE        .                             9/13/2023 11:20:04 AM :LOG DATE  
API         .                                    42708400540000 :API NUMBER
UWI         .                                    42708400540000 :UNIQUE WELL ID
XCOORD      .                                  1183911.52517142 :SURFACE X 
YCOORD      .                                  10615048.6542629 :SURFACE Y 
LAT         .                                         29.242029 :LATITUDE  
LON         .                                        -94.431816 :LONGITUDE 
ELEV        .FT                                              73 :ELEVATION VALUE
ELEV_TYPE   .                                                KB :ELEVATION REFERENCE TYPE
~Curve Information Section
#MNEM       .UNIT                                      API CODE :CURVE DESCRIPTION
#------------------------------------------------------------------------------
DEPT        .FT                                                 :DEPTH     
CALI        .IN                                                 :          
DRHO        .G/C3                                               :          
DT          .US/F                                               :          
GR          .GAPI                                               :          
GR_1        .GAPI                                               :          
GR_NORM     .GAPI                                               :GammaRay Normalized
ILD         .OHMM                                               :          
NPHI        .%                                                  :          
RHOB        .G/C3                                               :          
SFL         .OHMM                                               :          
SP          .MV                                                 :          
SP_NORM     .MV                                                 :SP Normalized
VSH_GR      .V/V                                                :Volume of Shale from GR
VSH_SP      .V/V                                                :Volume of Shale from SP
~A        DEPTH           CALI           DRHO             DT             GR           GR_1        GR_NORM            ILD           NPHI           RHOB            SFL             SP        SP_NORM         VSH_GR         VSH_SP
# ...
      3666.0000        -999.25        -999.25        -999.25        -999.25        48.6271       61.78178         0.5621        -999.25        -999.25         0.4494         39.235      -3.867352      0.6123784      0.9011258
      3666.5000        -999.25        -999.25        -999.25        -999.25        51.9855       66.38829         0.5094        -999.25        -999.25         0.4819        40.4653      -2.643013      0.7103891      0.9433444
      3667.0000        -999.25        -999.25        -999.25        -999.25        53.8862       68.99518         0.4719        -999.25        -999.25         0.4941        41.4697      -1.644581      0.7658548      0.9777731
      3667.5000        -999.25        -999.25        -999.25        -999.25        55.2203       70.82484         0.4544        -999.25        -999.25         0.5083        42.3514     -0.7688446      0.8047838              1
      3668.0000        -999.25        -999.25        -999.25        -999.25        55.0116       70.53819         0.4596        -999.25        -999.25         0.5332         42.764     -0.3622093       0.798685              1
      3668.5000        -999.25        -999.25        -999.25        -999.25        53.9974       69.14658         0.4649        -999.25        -999.25         0.5414        42.8953     -0.2368698      0.7690762              1
      3669.0000        -999.25        -999.25        -999.25        -999.25        54.2878       69.54457         0.4831        -999.25        -999.25         0.5401        42.6537      -0.484436      0.7775441              1
      3669.5000        -999.25        -999.25        -999.25        -999.25         54.871       70.34421         0.5042        -999.25        -999.25         0.5324        42.2961     -0.8480034      0.7945576              1
      3670.0000        -999.25        -999.25        -999.25        -999.25        55.7969       71.61392         0.5261        -999.25        -999.25         0.5343        41.9385      -1.211567      0.8215728      0.9927046
      3670.5000        -999.25        -999.25        -999.25        -999.25        54.9238       70.41589         0.5551        -999.25        -999.25         0.5504        41.5744      -1.581631      0.7960827      0.9799438
      3671.0000        -999.25        -999.25        -999.25        -999.25        54.0311       69.19096         0.5877        -999.25        -999.25         0.5789        41.8013      -1.360695      0.7700204      0.9875622
      3671.5000        -999.25        -999.25        -999.25        -999.25        53.1151       67.93406         0.6254        -999.25        -999.25         0.6179        43.8476      0.6796379      0.7432778              1
      3672.0000        -999.25        -999.25        -999.25        -999.25        53.2364        68.1001         0.6723        -999.25        -999.25         0.6717        45.1823       2.008377      0.7468106              1
      3672.5000        -999.25        -999.25        -999.25        -999.25        54.1404       69.33977         0.7236        -999.25        -999.25         0.6987        45.2495       2.069611      0.7731866              1
      3673.0000        -999.25        -999.25        -999.25        -999.25        52.1193       66.56698         0.7839        -999.25        -999.25         0.6954        45.1751       1.989243       0.714191              1
      3673.5000        -999.25        -999.25        -999.25        -999.25        50.4579       64.28758         0.8564        -999.25        -999.25         0.6977         45.417       2.225182      0.6656932              1
      3674.0000        -999.25        -999.25        -999.25        -999.25        50.8653       64.84605         0.8882        -999.25        -999.25         0.7175        45.2222       2.024414      0.6775756              1
      3674.5000        -999.25        -999.25        -999.25        -999.25        49.0299       62.32797         0.8708        -999.25        -999.25         0.7966        43.5044      0.3006516      0.6239994              1
      3675.0000        -999.25        -999.25        -999.25        -999.25        45.5894       57.60814         0.8382        -999.25        -999.25         0.8807        41.6772      -1.532513      0.5235775      0.9816375
      3675.5000        -999.25        -999.25        -999.25        -999.25        42.1611       52.90501         0.7718        -999.25        -999.25         0.9101        39.6623      -3.553375      0.4235109      0.9119526
      3676.0000        -999.25        -999.25        -999.25        -999.25        39.2018       48.84525         0.7139        -999.25        -999.25          0.763        38.2078       -5.01384      0.3371329      0.8615918
      3676.5000        -999.25        -999.25        -999.25        -999.25        36.7952       45.54364         0.6997        -999.25        -999.25         0.6248        39.2853      -3.942307      0.2668859      0.8985412
      3677.0000        -999.25        -999.25        -999.25        -999.25        35.3714       43.59018         0.7244        -999.25        -999.25         0.5196        41.1247      -2.108871       0.225323       0.961763
      3677.5000        -999.25        -999.25        -999.25        -999.25        37.8284       46.96018           0.75        -999.25        -999.25          0.512        43.0869     -0.1526375      0.2970251              1
      3678.0000        -999.25        -999.25        -999.25        -999.25        40.1267       50.11248         0.7787        -999.25        -999.25         0.5903        44.8416         1.5961      0.3640953              1
      3678.5000        -999.25        -999.25        -999.25        -999.25        40.3062       50.35833         0.8119        -999.25        -999.25         0.7753        45.3376       2.086136      0.3693262              1
      3679.0000        -999.25        -999.25        -999.25        -999.25        40.9395       51.22668         0.8465        -999.25        -999.25         1.0481        44.4849       1.227474      0.3878018              1
      3679.5000        -999.25        -999.25        -999.25        -999.25        42.9858       54.03331         0.8944        -999.25        -999.25         1.2735        43.5283      0.2649078      0.4475172              1
      3680.0000        -999.25        -999.25        -999.25        -999.25        45.0726       56.89549         0.9518        -999.25        -999.25         1.1662        42.4423     -0.8270569      0.5084146              1
      3680.5000        -999.25        -999.25        -999.25        -999.25        47.2061       59.82173         1.0077        -999.25        -999.25          0.976         41.766      -1.511677      0.5706751       0.982356
      3681.0000        -999.25        -999.25        -999.25        -999.25        49.4344       62.87801         1.0554        -999.25        -999.25          0.813        41.4001      -1.913467      0.6357023      0.9685012
      3681.5000        -999.25        -999.25        -999.25        -999.25        49.6914       63.23018         0.9867        -999.25        -999.25         0.7527        41.1636      -2.185856      0.6431952      0.9591084
      3682.0000        -999.25        -999.25        -999.25        -999.25        48.1014       61.04874         0.8791        -999.25        -999.25         0.7476        40.9927      -2.392651      0.5967816      0.9519776
      3682.5000        -999.25        -999.25        -999.25        -999.25        46.6946       59.11859         0.7928        -999.25        -999.25         0.7678        40.7621      -2.659142      0.5557146      0.9427882
      3683.0000        -999.25        -999.25        -999.25        -999.25        44.5524       56.17966         0.7349        -999.25        -999.25         0.7364        40.4319       -3.02523      0.4931844      0.9301645
      3683.5000        -999.25        -999.25        -999.25        -999.25         44.668       56.33786         0.7091        -999.25        -999.25         0.7167        39.6525      -3.840523      0.4965503      0.9020509
