#------------------------------------------------------------------------------
# Created by    : vladimir.rabinovich
# Created on    : 09/19/2023 17:22:56
#------------------------------------------------------------------------------
~Version Information Section
VERS.           2.0     :   CWLS log ASCII Standard - VERSION 2.0
WRAP.           NO      :   One line per depth step
~Well Information Section
#MNEM       .UNIT                                         VALUE :DESCRIPTION
#------------------------------------------------------------------------------
STRT        .FT                                             890 :START DEPTH
STOP        .FT                                            9495 :STOP DEPTH
STEP        .FT                                             0.5 :STEP      
NULL        .                                           -999.25 :NULL      
COMP        .                                   MARATHON OIL CO :COMPANY   
WELL        .                               OCS G04138 ST00BP00 :WELL      
FLD         .                                           WILDCAT :FIELD     
LOC         .                                                   :LOCATION  
CNTY        .                      MATAGORDA ISLAND LARGE BLOCK :LOCATION  
STAT        .                                             TEXAS :STATE     
CTRY        .                                     UNITED STATES :COUNTRY   
SRVC        .                                                   :SERVICE COMPANY
DATE        .                             9/13/2023 11:12:11 AM :LOG DATE  
API         .                                    42703402070000 :API NUMBER
UWI         .                                    42703402070000 :UNIQUE WELL ID
XCOORD      .                                  590883.400226114 :SURFACE X 
YCOORD      .                                  10259990.6406746 :SURFACE Y 
LAT         .                                         28.233929 :LATITUDE  
LON         .                                        -96.259589 :LONGITUDE 
ELEV        .FT                                              90 :ELEVATION VALUE
ELEV_TYPE   .                                                KB :ELEVATION REFERENCE TYPE
~Curve Information Section
#MNEM       .UNIT                                      API CODE :CURVE DESCRIPTION
#------------------------------------------------------------------------------
DEPT        .FT                                                 :DEPTH     
SP          .MV                                                 :          
SP_NORM     .MV                                                 :SP Normalized
VSH_SP      .V/V                                                :Volume of Shale from SP
~A        DEPTH             SP        SP_NORM         VSH_SP
# ...
      6566.0000        22.7302      -1.868286      0.9802662
      6566.5000        22.5976      -1.737038      0.9832491
      6567.0000        22.5031      -1.643888      0.9853662
      6567.5000        22.4085       -1.55064      0.9874855
      6568.0000        22.3139       -1.45739      0.9896048
      6568.5000        22.2193      -1.364141      0.9917241
      6569.0000        22.1248      -1.270992      0.9938411
      6569.5000        22.0302      -1.177742      0.9959604
      6570.0000        21.9093      -1.058193      0.9986774
      6570.5000        21.7841     -0.9343452              1
      6571.0000        21.6589     -0.8104954              1
      6571.5000        21.5338     -0.6867466              1
      6572.0000        21.4084     -0.5626984              1
      6572.5000        21.3789     -0.5345497              1
      6573.0000        21.3607     -0.5177002              1
      6573.5000        21.3426     -0.5009499              1
      6574.0000        21.3244     -0.4841022              1
      6574.5000        21.3589     -0.5199528              1
      6575.0000        21.4128     -0.5752029              1
      6575.5000        21.4667     -0.6304531              1
      6576.0000        21.5206     -0.6857052              1
      6576.5000        21.5745     -0.7409554              1
      6577.0000        21.6284     -0.7962074              1
      6577.5000        21.6823     -0.8514595              1
      6578.0000        21.6864     -0.8569088              1
      6578.5000        21.6185     -0.7903595              1
      6579.0000        21.5507     -0.7239094              1
      6579.5000        21.4828      -0.657362              1
      6580.0000         21.415     -0.5909138              1
      6580.5000        21.3219     -0.4991627              1
      6581.0000        21.2242     -0.4028149              1
      6581.5000        21.1264      -0.306366              1
      6582.0000        21.0287     -0.2100163              1
      6582.5000        20.9309     -0.1135674              1
      6583.0000        20.8332    -0.01721954              1
      6583.5000        20.7412     0.07343102              1
      6584.0000        20.7024      0.1108799              1
      6584.5000        20.6636      0.1483288              1
      6585.0000        20.6248      0.1857777              1
      6585.5000         20.586      0.2232265              1
      6586.0000        20.5472      0.2606773              1
      6586.5000        20.5085      0.2980251              1
      6587.0000         20.472      0.3331738              1
      6587.5000         20.448      0.3558235              1
      6588.0000         20.424      0.3784733              1
      6588.5000        20.3999      0.4012203              1
      6589.0000        20.3759      0.4238701              1
      6589.5000        20.3512      0.4472198              1
      6590.0000        20.3255      0.4715672              1
      6590.5000        20.2998      0.4959164              1
      6591.0000        20.2742      0.5201664              1
      6591.5000        20.2485      0.5445156              1
      6592.0000        20.2228      0.5688648              1
      6592.5000        20.1953      0.5950146              1
      6593.0000        20.1656      0.6233635              1
      6593.5000        20.1359      0.6517124              1
      6594.0000        20.1062      0.6800613              1
      6594.5000        20.0765      0.7084103              1
      6595.0000        20.0683      0.7152596              1
      6595.5000        20.1104      0.6718082              1
      6596.0000        20.1525      0.6283569              1
      6596.5000        20.1945      0.5850067              1
      6597.0000        20.2367      0.5414562              1
      6597.5000        20.2787      0.4981041              1
      6598.0000        20.3208      0.4546528              1
      6598.5000        20.3629      0.4112034              1
      6599.0000        20.3405       0.432251              1
      6599.5000        20.2996      0.4717999              1
      6600.0000        20.2586      0.5114498              1
      6600.5000        20.2177      0.5510006              1
      6601.0000        20.1767      0.5906467              1
      6601.5000        20.1357      0.6302967              1
      6602.0000        20.0976      0.6670456              1
      6602.5000        20.0719      0.6913967              1
      6603.0000        20.0461      0.7158432              1
      6603.5000        20.0204      0.7401943              1
      6604.0000        19.9946      0.7646427              1
      6604.5000        19.9689        0.78899              1
      6605.0000        19.9431      0.8134403              1
      6605.5000        19.9174      0.8377895              1
      6606.0000        19.9171      0.8367386              1
      6606.5000        19.9231      0.8293877              1
      6607.0000        19.9291      0.8220367              1
      6607.5000        19.9351      0.8146858              1
      6608.0000        19.9411      0.8073349              1
      6608.5000        19.9471       0.799984              1
      6609.0000         19.953      0.7927341              1
      6609.5000        19.9754      0.7689819              1
      6610.0000        20.0189      0.7241306              1
      6610.5000        20.0623      0.6793804              1
      6611.0000        20.1058      0.6345291              1
      6611.5000        20.1493      0.5896797              1
      6612.0000        20.1928      0.5448265              1
      6612.5000         20.242       0.494276              1
      6613.0000        20.3972      0.3377266              1
      6613.5000        20.5523      0.1812744              1
      6614.0000        20.7073     0.02492332              1
      6614.5000        20.8625     -0.1316261              1
      6615.0000        20.9728     -0.2432766              1
      6615.5000        20.9484     -0.2202301              1
      6616.0000         20.924     -0.1971798              1
      6616.5000        20.8995     -0.1740303              1
      6617.0000        20.8752      -0.151083              1
      6617.5000        20.8507     -0.1279335              1
      6618.0000        20.8237     -0.1022835              1
      6618.5000        20.7165    0.003566742              1
      6619.0000        20.6092      0.1095142              1
      6619.5000         20.502      0.2153625              1
      6620.0000        20.3946       0.321413              1
      6620.5000        20.2874      0.4272633              1
      6621.0000        20.1803      0.5330105              1
      6621.5000        20.0729      0.6390591              1
      6622.0000        19.9657      0.7449093              1
      6622.5000        19.8584      0.8508568              1
      6623.0000        19.7418      0.9661064              1
      6623.5000        19.5983       1.108255              1
      6624.0000         19.455       1.250206              1
      6624.5000        19.3116       1.392254              1
      6625.0000        19.1683       1.534203              1
      6625.5000         19.025       1.676153              1
      6626.0000        18.8817         1.8181              1
      6626.5000        18.7787        1.91975              1
      6627.0000        18.8198         1.8773              1
      6627.5000        18.8608       1.834949              1
      6628.0000        18.9032       1.791197              1
      6628.5000        18.9488       1.744247              1
      6629.0000        18.9943       1.697395              1
      6629.5000        19.0398       1.650543              1
      6630.0000        19.0854       1.603594              1
      6630.5000        19.1181       1.569544              1
      6631.0000        19.0278       1.658493              1
      6631.5000        18.9375        1.74744              1
