#------------------------------------------------------------------------------
# Created by    : vladimir.rabinovich
# Created on    : 09/19/2023 17:22:28
#------------------------------------------------------------------------------
~Version Information Section
VERS.           2.0     :   CWLS log ASCII Standard - VERSION 2.0
WRAP.           NO      :   One line per depth step
~Well Information Section
#MNEM       .UNIT                                         VALUE :DESCRIPTION
#------------------------------------------------------------------------------
STRT        .FT                                            2981 :START DEPTH
STOP        .FT                                           10477 :STOP DEPTH
STEP        .FT                                             0.5 :STEP      
NULL        .                                           -999.25 :NULL      
COMP        .                          SEAGULL ENERGY E & P INC :COMPANY   
WELL        .                               OCS G13783 ST00BP00 :WELL      
FLD         .                                           WILDCAT :FIELD     
LOC         .                                                   :LOCATION  
CNTY        .                             GALVESTON LARGE BLOCK :LOCATION  
STAT        .                                             TEXAS :STATE     
CTRY        .                                     UNITED STATES :COUNTRY   
SRVC        .                                                   :SERVICE COMPANY
DATE        .                             9/13/2023 11:19:39 AM :LOG DATE  
API         .                                    42706403890000 :API NUMBER
UWI         .                                    42706403890000 :UNIQUE WELL ID
XCOORD      .                                  1047250.65699841 :SURFACE X 
YCOORD      .                                  10470150.2239286 :SURFACE Y 
LAT         .                                         28.838318 :LATITUDE  
LON         .                                         -94.85315 :LONGITUDE 
ELEV        .FT                                              94 :ELEVATION VALUE
ELEV_TYPE   .                                                KB :ELEVATION REFERENCE TYPE
~Curve Information Section
#MNEM       .UNIT                                      API CODE :CURVE DESCRIPTION
#------------------------------------------------------------------------------
DEPT        .FT                                                 :DEPTH     
CILD        .MMHO                                               :          
CNC         .%                                                  :          
DT24        .US/F                                               :          
GR          .GAPI                                               :          
GR_NORM     .GAPI                                               :GammaRay Normalized
PORZ        .%                                                  :          
RFOC        .OHMM                                               :          
RILD        .OHMM                                               :          
RILM        .OHMM                                               :          
RWAZ        .OHMM                                               :          
SP          .MV                                                 :          
SP_NORM     .MV                                                 :SP Normalized
TEN         .LBF                                                :          
VSH_GR      .V/V                                                :Volume of Shale from GR
VSH_SP      .V/V                                                :Volume of Shale from SP
ZCOR        .G/C3                                               :          
ZDEN        .G/C3                                               :          
~A        DEPTH           CILD            CNC           DT24             GR        GR_NORM           PORZ           RFOC           RILD           RILM           RWAZ             SP        SP_NORM            TEN         VSH_GR         VSH_SP           ZCOR           ZDEN
# ...
      6956.0000       1377.143        38.2339       102.4419        72.5609       61.04254         22.266          1.116          0.726          0.867          0.046        -15.699       -14.5014        -64.599      0.5966498      0.7928372          0.075          2.283
      6956.5000       1428.447         36.948        107.475        70.3579       58.40091         24.662          1.114            0.7          0.849          0.056        -16.239       -15.0414       -66.7419      0.5404449      0.7851229          0.104          2.243
      6957.0000       1477.156        35.3719       111.9819         66.705       54.01939         26.439          1.042          0.677           0.83          0.063        -17.177      -15.97939       -71.4629       0.447221      0.7717229           0.12          2.214
      6957.5000       1519.135         33.165       112.8779         62.675       49.18534         27.005           1.01          0.658          0.808          0.064        -20.203      -19.00539        -78.673       0.344369      0.7284943          0.096          2.204
      6958.0000       1552.643         30.688       110.6799          58.93        44.6933         25.771          1.089          0.644          0.784          0.056        -25.499       -24.3014       -73.8579      0.2487937      0.6528372          0.055          2.225
      6958.5000       1578.533         28.867        104.428        56.2209       41.44434         22.628          1.221          0.633          0.767          0.042        -30.669       -29.4714       -58.6899      0.1796669      0.5789801          0.047          2.277
      6959.0000       1590.119         27.811         94.309         54.671       39.58642         18.447          1.342          0.629          0.763          0.027       -34.0099      -32.81229        -53.589      0.1401366      0.5312529          0.062          2.346
      6959.5000       1570.777         26.983         84.579         54.991       39.97238         15.634          1.552          0.637          0.765          0.019        -35.079      -33.88139          -62.5      0.1483485      0.5159801          0.059          2.392
      6960.0000       1514.621         27.088          78.96        58.4059       44.07222         16.231          1.794           0.66          0.777          0.021        -33.285      -32.08739       -70.6089      0.2355791      0.5416086          0.052          2.382
      6960.5000       1425.225         29.448         82.356        64.6919       51.61738         18.737           1.62          0.702           0.81          0.031        -28.367       -27.1694        -66.929      0.3961144      0.6118658          0.073          2.341
      6961.0000       1307.051         33.257         92.762        71.0389       59.23574         20.441          1.248          0.765          0.869          0.041        -21.695      -20.49739       -49.4189      0.5582072      0.7071801          0.103          2.313
      6961.5000        1179.01         34.625        103.709        74.9779       63.96449         20.972          1.076          0.848          0.942          0.048        -15.648      -14.45039        -33.186       0.658819      0.7935658          0.116          2.304
      6962.0000       1072.971         33.949       110.1479         76.141       65.36217         21.154          1.083          0.932          1.003          0.053        -12.017       -10.8194         -35.61      0.6885569      0.8454372          0.114          2.301
      6962.5000       1001.023          33.84       107.5129        75.9559       65.14201         21.119          1.147          0.999          1.052          0.057        -10.407      -9.209394        -49.836      0.6838726      0.8684372           0.11          2.302
      6963.0000       954.2256         34.494       102.2129         76.502       65.79929         20.545          1.164          1.048          1.093          0.056          -9.45      -8.252395        -55.563      0.6978573      0.8821086          0.111          2.311
      6963.5000       924.8252         35.954        99.4629        76.9569       66.34714         19.703          1.158          1.081          1.113          0.053         -8.619      -7.421396          -54.7      0.7095135      0.8939801          0.111          2.325
      6964.0000       908.4063         37.983        98.6229         75.095       64.11481         19.596          1.192          1.101          1.102          0.053         -8.162      -6.964395       -57.3799      0.6620173      0.9005086          0.114          2.327
      6964.5000       898.4189          39.59        100.756        71.8579       60.23225          20.69          1.239          1.113          1.073          0.061         -8.186      -6.988395        -62.618      0.5794097      0.9001658          0.124          2.309
      6965.0000       889.3613        40.6819       103.5389        70.6819       58.82301         22.058          1.217          1.124          1.054           0.07         -8.278      -7.080395       -66.1129      0.5494257      0.8988515          0.129          2.286
      6965.5000        881.252        41.0959        107.584         71.776       60.13789         22.609          1.147          1.135          1.051          0.075         -7.818      -6.620395        -65.424      0.5774019      0.9054229          0.119          2.277
      6966.0000       879.5762        41.3199        109.427        73.4569       62.15693         22.358          1.112          1.137          1.057          0.073         -6.819      -5.621395        -55.603      0.6203602      0.9196944          0.108          2.281
      6966.5000       886.5615         42.241       106.1169         74.828       63.80421         21.999          1.129          1.128          1.061           0.07         -5.956      -4.758395        -39.672      0.6554087      0.9320229          0.106          2.287
      6967.0000        896.375         41.831       102.0299        74.2939       63.16525         21.913          1.167          1.116          1.066          0.069         -5.416      -4.218395        -31.503      0.6418137      0.9397372          0.108          2.288
      6967.5000       902.9063         39.272         99.283        72.3529       60.83801         21.851          1.196          1.107          1.074          0.068         -4.691      -3.493395       -35.2469       0.592298      0.9500943          0.112          2.289
      6968.0000       905.7852         38.598         98.793          71.59       59.92448         21.534          1.203          1.104          1.086          0.066         -3.844      -2.646395        -42.916      0.5728613      0.9621944          0.113          2.295
      6968.5000       907.0547         41.176        99.2749        72.8979       61.49593         21.053          1.208          1.102          1.091          0.062         -3.681      -2.483395        -47.278      0.6062964      0.9645229           0.11          2.303
      6969.0000       910.1533         42.646         99.918         74.777        63.7528         20.805          1.225          1.099          1.084          0.061         -4.154      -2.956395        -47.658       0.654315      0.9577658          0.102          2.307
      6969.5000        917.127         41.326        100.464         76.626       65.97356         20.972          1.237           1.09          1.067          0.061          -4.51      -3.312396        -50.358      0.7015652      0.9526801          0.096          2.304
      6970.0000       924.8682         40.667       101.7949        78.3739       68.07301         21.282          1.224          1.081          1.048          0.063         -4.434      -3.236395        -47.437      0.7462342      0.9537658          0.098          2.299
      6970.5000       930.3965         40.973        104.052        80.4039       70.51096         21.249          1.186          1.075          1.036          0.062         -3.927      -2.729395        -33.357      0.7981056      0.9610086          0.101          2.299
