#------------------------------------------------------------------------------
# Created by    : vladimir.rabinovich
# Created on    : 09/19/2023 17:22:41
#------------------------------------------------------------------------------
~Version Information Section
VERS.           2.0     :   CWLS log ASCII Standard - VERSION 2.0
WRAP.           NO      :   One line per depth step
~Well Information Section
#MNEM       .UNIT                                         VALUE :DESCRIPTION
#------------------------------------------------------------------------------
STRT        .FT                                            2948 :START DEPTH
STOP        .FT                                            8770 :STOP DEPTH
STEP        .FT                                             0.5 :STEP      
NULL        .                                           -999.25 :NULL      
COMP        .                 BROOKLYN UNION EXPLORATION CO INC :COMPANY   
WELL        .                               OCS G07238 ST00BP00 :WELL      
FLD         .                                           WILDCAT :FIELD     
LOC         .                                                   :LOCATION  
CNTY        .                             GALVESTON LARGE BLOCK :LOCATION  
STAT        .                                             TEXAS :STATE     
CTRY        .                                     UNITED STATES :COUNTRY   
SRVC        .                                                   :SERVICE COMPANY
DATE        .                             9/13/2023 11:19:34 AM :LOG DATE  
API         .                                    42706402470000 :API NUMBER
UWI         .                                    42706402470000 :UNIQUE WELL ID
XCOORD      .                                  1057740.92261072 :SURFACE X 
YCOORD      .                                   10547901.298013 :SURFACE Y 
LAT         .                                         29.052568 :LATITUDE  
LON         .                                        -94.824133 :LONGITUDE 
ELEV        .FT                                              85 :ELEVATION VALUE
ELEV_TYPE   .                                                KB :ELEVATION REFERENCE TYPE
~Curve Information Section
#MNEM       .UNIT                                      API CODE :CURVE DESCRIPTION
#------------------------------------------------------------------------------
DEPT        .FT                                                 :DEPTH     
DCAL        .IN                                                 :          
DT          .US/F                                               :          
GR          .GAPI                                               :          
GR_NORM     .GAPI                                               :GammaRay Normalized
ILD         .OHMM                                               :          
ILM         .OHMM                                               :          
SFL         .OHMM                                               :          
SP          .MV                                                 :          
SP_NORM     .MV                                                 :SP Normalized
VSH_GR      .V/V                                                :Volume of Shale from GR
VSH_SP      .V/V                                                :Volume of Shale from SP
~A        DEPTH           DCAL             DT             GR        GR_NORM            ILD            ILM            SFL             SP        SP_NORM         VSH_GR         VSH_SP
# ...
      7605.5000         1.3046       100.5084         55.532       50.67007         0.5698         0.6317         0.9158       -84.5314      -38.20372      0.3759589      0.3053869
      7606.0000         1.3611        97.9052        51.0233       43.39829         0.6158         0.6727         0.9476       -83.3005      -36.97282      0.2212403       0.327767
      7606.5000         1.4004        95.1101        47.1459        37.1447         0.6804         0.7401          1.006       -82.4274      -36.09972     0.08818509      0.3436415
      7607.0000         1.4076        92.8606        45.8094       34.98915         0.7573         0.8242         1.1328       -82.1592      -35.83152     0.04232236      0.3485178
      7607.5000          1.373        91.3853        47.1509       37.15277         0.8287         0.8927         1.2778       -82.0068      -35.67912     0.08835675      0.3512888
      7608.0000         1.2323        91.6375        50.9887       43.34249         0.8562         0.9375         1.3478       -81.5616      -35.23392      0.2200531      0.3593833
      7608.5000         1.1064        93.1545        53.8942       48.02857         0.8308         0.9408         1.2943        -81.019      -34.69131      0.3197569      0.3692488
      7609.0000          0.998        94.7863        55.0288       49.85849         0.7817         0.9188         1.2051       -80.3932      -34.06552      0.3586913      0.3806269
      7609.5000         0.9396          96.53        53.0137       46.60847         0.7228         0.8574         1.0944       -80.0295      -33.70182       0.289542      0.3872396
      7610.0000         0.9073        98.6824        50.4954       42.54688         0.6411         0.7661         0.9543       -81.3113      -34.98362      0.2031252      0.3639342
      7610.5000         0.8794       100.8124        48.8848       39.94925         0.5676         0.6661         0.8206       -83.0107      -36.68301      0.1478564      0.3330361
      7611.0000         0.8659       101.6226        48.5397       39.39267         0.5097         0.5952          0.731       -85.5487      -39.22102      0.1360142      0.2868906
      7611.5000         0.8523       101.3766        48.4541       39.25461         0.4543         0.5425         0.7604       -89.1572      -42.82952      0.1330768      0.2212814
      7612.0000          0.858       101.2594        48.1911       38.83044         0.4175         0.4954         0.8368       -92.3488      -46.02112      0.1240518      0.1632524
      7612.5000          0.864       101.3369         47.453          37.64         0.3895         0.4679         0.8938       -94.5995      -48.27182     0.09872347      0.1223305
      7613.0000         0.8628       101.3789          46.48       36.07072         0.3748         0.4503         0.8408       -95.8894      -49.56171      0.0653344     0.09887792
      7613.5000         0.8544       101.4066        45.8992       35.13399         0.3712         0.4439         0.7479        -96.855      -50.52732     0.04540407     0.08132144
      7614.0000         0.8223       101.4185        46.1199       35.48993         0.3716         0.4456         0.6504       -97.3971      -51.06942      0.0529773     0.07146509
      7614.5000         0.7893        101.059        46.9795       36.87633          0.374         0.4537         0.5892       -97.7494      -51.42171     0.08247505     0.06505973
      7615.0000         0.7528        99.8806        47.8687       38.31046         0.3807         0.4657         0.6543       -97.9338      -51.60612      0.1129884     0.06170696
      7615.5000         0.7168        98.0671        47.2002       37.23228         0.3959         0.4788         0.7975       -97.1991      -50.87141     0.09004853      0.0750652
      7616.0000         0.7155        96.7667        46.5151       36.12732         0.4136         0.4967         0.8837       -95.1951      -48.86742     0.06653879      0.1115015
      7616.5000         0.7141        95.7379        47.9599       38.45754         0.4366         0.5224         0.9076       -93.3033      -46.97562      0.1161179      0.1458979
      7617.0000         0.7125        92.5243        50.6607       42.81349         0.4601         0.5555          0.939       -91.7865      -45.45882      0.2087976      0.1734761
      7617.5000         0.7163         88.688        51.4595       44.10181         0.4832         0.5832         1.0143        -90.806      -44.47832      0.2362086      0.1913033
      7618.0000         0.7311        85.8381        50.7902       43.02234         0.5059         0.6072          1.113       -90.3818      -44.05412      0.2132413      0.1990161
      7618.5000          0.746        87.9307        49.8024       41.42919         0.5295          0.631          1.168       -89.9915      -43.66382      0.1793445      0.2061124
      7619.0000         0.7609        92.7983        48.9341       40.02877         0.5558         0.6542         1.1331       -89.5586      -43.23092      0.1495482      0.2139833
      7619.5000           0.77        95.0366        48.5506       39.41024         0.5831         0.6767         1.0802       -89.0142      -42.68652      0.1363882      0.2238815
      7620.0000         0.7545        94.9802        49.5927       41.09097          0.611         0.7084          1.049       -88.0127      -41.68502      0.1721484      0.2420905
      7620.5000         0.7402        95.1418        52.6561       46.03173         0.6372         0.7445         1.0583       -86.2764      -39.94872      0.2772709      0.2736597
      7621.0000         0.7401        95.5791        56.3459       51.98275         0.6637          0.772         1.0981       -84.8076      -38.47992      0.4038883      0.3003651
      7621.5000           0.74        96.0325        58.1267       54.85488         0.6896         0.7898         1.1499       -83.3906      -37.06292      0.4649974      0.3261287
      7622.0000         0.7464        96.3728        58.6113       55.63647         0.7156         0.8071         1.2221       -81.7109      -35.38322       0.481627      0.3566688
      7622.5000         0.7536        95.5909        57.5125       53.86428         0.7413         0.8252         1.3084       -81.1981      -34.87041      0.4439208      0.3659925
      7623.0000         0.7815        93.7026        56.0302       51.47358         0.7649         0.8347         1.3762       -81.3218      -34.99412       0.393055      0.3637433
      7623.5000         0.8235        91.8778        54.7192       49.35916         0.7857         0.8504         1.4124       -81.3942      -35.06652      0.3480673      0.3624269
      7624.0000         0.8975         90.996        53.5619       47.49262         0.8059         0.8679         1.4461       -81.1898      -34.86211      0.3083537      0.3661434
      7624.5000         0.9831        91.6935        54.0594       48.29501         0.8297          0.886         1.4581       -80.7465      -34.41882      0.3254257      0.3742034
      7625.0000         1.0962        92.5754        55.6799       50.90861          0.862         0.9171          1.347        -78.798      -32.47031      0.3810342      0.4096307
      7625.5000         1.2041        90.4716        57.3177        53.5501         0.9059         0.9626         1.1925       -76.3439      -30.01622      0.4372361      0.4542505
      7626.0000         1.2467        84.7072        58.6323       55.67033         0.9499         1.0386         1.0265       -74.1414      -27.81372      0.4823475       0.494296
      7626.5000         1.1809        79.8843        56.7159        52.5795         0.9803         1.1338         1.0459       -72.0472      -25.71952      0.4165851      0.5323724
      7627.0000         1.1028         76.028        52.7942       46.25446         0.9315         1.1939          1.744       -71.3208      -24.99312      0.2820099      0.5455797
      7627.5000         1.0264        72.7596        48.7837       39.78619         0.8607         1.1579         3.1784       -72.2841      -25.95642       0.144387      0.5280651
