#------------------------------------------------------------------------------
# Created by    : vladimir.rabinovich
# Created on    : 09/19/2023 17:20:04
#------------------------------------------------------------------------------
~Version Information Section
VERS.           2.0     :   CWLS log ASCII Standard - VERSION 2.0
WRAP.           NO      :   One line per depth step
~Well Information Section
#MNEM       .UNIT                                         VALUE :DESCRIPTION
#------------------------------------------------------------------------------
STRT        .FT                                             723 :START DEPTH
STOP        .FT                                            8219 :STOP DEPTH
STEP        .FT                                             0.5 :STEP      
NULL        .                                           -999.25 :NULL      
COMP        .                                    MOBIL OIL CORP :COMPANY   
WELL        .                               OCS G02338 ST00BP00 :WELL      
FLD         .                                           WILDCAT :FIELD     
LOC         .                                                   :LOCATION  
CNTY        .                             GALVESTON LARGE BLOCK :LOCATION  
STAT        .                                             TEXAS :STATE     
CTRY        .                                     UNITED STATES :COUNTRY   
SRVC        .                                                   :SERVICE COMPANY
DATE        .                             9/13/2023 11:18:53 AM :LOG DATE  
API         .                                    42706400200000 :API NUMBER
UWI         .                                    42706400200000 :UNIQUE WELL ID
XCOORD      .                                  941616.333010477 :SURFACE X 
YCOORD      .                                  10405518.1254327 :SURFACE Y 
LAT         .                                         28.655687 :LATITUDE  
LON         .                                        -95.179294 :LONGITUDE 
ELEV        .FT                                              84 :ELEVATION VALUE
ELEV_TYPE   .                                                KB :ELEVATION REFERENCE TYPE
~Curve Information Section
#MNEM       .UNIT                                      API CODE :CURVE DESCRIPTION
#------------------------------------------------------------------------------
DEPT        .FT                                                 :DEPTH     
ASFL        .OHMM                                               :          
CALI        .IN                                                 :          
CILD        .MMHO                                               :          
DPHI        .%                                                  :          
DT          .US/F                                               :          
GR          .GAPI                                               :          
GR_1        .GAPI                                               :          
GR_NORM     .GAPI                                               :GammaRay Normalized
ILD         .OHMM                                               :          
NPHI        .DEC                                                :          
SP          .MV                                                 :          
SP_NORM     .MV                                                 :SP Normalized
VSH_GR      .V/V                                                :Volume of Shale from GR
VSH_SP      .V/V                                                :Volume of Shale from SP
~A        DEPTH           ASFL           CALI           CILD           DPHI             DT             GR           GR_1        GR_NORM            ILD           NPHI             SP        SP_NORM         VSH_GR         VSH_SP
# ...
      5709.0000         2.1361        11.4565       1678.699        33.6694       103.3873        -999.25        44.1427       33.93404         0.3032         0.3367         10.077      -67.18175     0.01987311     0.04026075
      5709.5000         1.9371        11.5217       2113.355        34.5795        98.6152        -999.25        43.2007       33.08624         0.3127         0.3458         8.3436      -68.91781    0.001834788     0.01545988
      5710.0000         1.6298        11.4722       2108.875        35.0037        88.4821        -999.25        42.6403       32.58188         0.3223           0.35          6.854      -70.41006              0              0
      5710.5000         1.4908        11.3003       2085.652        35.1847        83.2208        -999.25        43.2457       33.12674         0.3318         0.3518         6.1477      -71.11903    0.002696585              0
      5711.0000         1.3227        11.0452       1995.609        36.3305        93.2292        -999.25        43.9263       33.73928         0.3413         0.3633         5.5266      -71.74278      0.0157293              0
      5711.5000         1.1547        10.8694       1905.564         36.736        95.8623        -999.25        44.8076       34.53245         0.3494         0.3674         5.0143      -72.25774     0.03260527              0
      5712.0000         1.1038         10.935        1815.42        37.2507        96.5562        -999.25         46.178       35.76581         0.3542         0.3725         5.0808       -72.1939     0.05884698              0
      5712.5000         1.0867         11.274       1752.119        36.8148         99.067        -999.25        48.2032       37.58849          0.359         0.3681         5.5433      -71.73407     0.09762744              0
      5713.0000         1.0697        11.3838       1716.934        35.6329       100.9888        -999.25        51.5533       40.60358         0.3638         0.3563         7.5677      -69.71232      0.1617782    0.004109737
      5713.5000         1.0527        11.3113       1698.236        35.5579        103.285        -999.25         57.673       46.11131         0.3685         0.3556        11.1514      -66.13129       0.278964     0.05526733
      5714.0000         1.0357        11.0482       1709.098        36.7607       106.2277        -999.25        62.7969       50.72282         0.3733         0.3676        16.9757      -60.30965      0.3770813      0.1384336
      5714.5000         1.0186        10.1509       1726.363        36.9774        108.998        -999.25        65.8517       53.47214         0.3744         0.3698         23.765        -53.523      0.4355774      0.2353857
      5715.0000         1.0011         9.8512       1747.381        36.9244       110.1523        -999.25        68.4712       55.82969         0.3663         0.3692        29.3606      -47.93007       0.485738      0.3152848
      5715.5000          0.981         9.8563       1766.201        35.5999       111.0708        -999.25        70.1437       57.33494         0.3582          0.356        33.4316      -43.86173      0.5177646      0.3734039
      5716.0000         0.9611         9.9156        1780.76        33.7197       111.4252        -999.25        71.0294       58.13207         0.3501         0.3372         34.026      -43.26998       0.534725      0.3818574
      5716.5000         0.9411         9.9489       1785.467        31.7525       111.4772        -999.25        69.4869       56.74382          0.342         0.3175        33.7102      -43.58844      0.5051876       0.377308
      5717.0000         0.8953          9.955        1789.49        31.2843       111.4371        -999.25        67.8632       55.28249          0.334         0.3128        34.2722      -43.02911      0.4740954      0.3852985
      5717.5000         0.8699         9.9956       1798.191        31.9477       111.1963        -999.25        66.2269       53.80981         0.3266         0.3195        28.5249      -48.77906       0.442762      0.3031563
      5718.0000           0.85        10.1516       1901.318        32.3138       110.7913        -999.25        65.6691        53.3078         0.3195         0.3231        23.3572      -53.94942      0.4320808      0.2292939
      5718.5000         0.8312        10.3969       2111.027        33.0364       110.2316        -999.25        68.1809       55.56842         0.3124         0.3304        20.0396      -57.26969      0.4801791      0.1818616
      5719.0000         0.8149        10.7366       2167.199        34.4706       109.8531        -999.25        74.9611        61.6706         0.3054         0.3447        24.6902      -52.62174      0.6100127      0.2482608
      5719.5000         0.7987        10.8239       2161.285        34.5112       109.8766        -999.25        80.7004       66.83597         0.2983         0.3451        42.7949      -34.51971      0.7199142      0.5068613
      5720.0000         0.7781        10.7213       2107.672        32.9689       110.5717        -999.25        84.3433       70.11458         0.2912         0.3297        52.7227      -24.59457      0.7896719       0.648649
      5720.5000         0.7567        10.6258       1908.822        30.2958       111.1476        -999.25        86.4398       72.00143         0.2852          0.303        55.4948      -21.82512      0.8298176      0.6882125
      5721.0000         0.7431          10.58       1781.258        27.7902       111.7672        -999.25        86.4214       71.98487         0.2794         0.2779        55.2939      -22.02869      0.8294653      0.6853045
      5721.5000         0.7471        10.5857        1652.51        25.8312       112.5397        -999.25        85.6379       71.27972         0.2785         0.2583        55.3572      -21.96805      0.8144621      0.6861708
      5722.0000         0.7512        10.5061       1504.805        24.4331       112.1304        -999.25        84.7173       70.45118         0.3078         0.2443        56.4828       -20.8451      0.7968336      0.7022128
      5722.5000         0.7553        10.3257       1356.902        26.5505       112.5834        -999.25         83.769        69.5977          0.337         0.2655        54.7557      -22.57487      0.7786745      0.6775019
      5723.0000         0.7606        10.2216       1209.197        28.2054       113.6366        -999.25        83.4077       69.27254         0.3663         0.2821        54.5729      -22.76033      0.7717561      0.6748524
      5723.5000         0.7694        10.3701       1061.293        29.1365       114.3722        -999.25         84.265       70.04411         0.3956         0.2914         56.085      -21.25089      0.7881725      0.6964159
      5724.0000         0.7783         10.542       1009.336        28.3256       114.6068        -999.25         85.374       71.04221         0.4249         0.2833        60.4121      -16.92645      0.8094086      0.7581937
      5724.5000         0.7872        10.7057       998.7773        27.7673       115.5154        -999.25        86.5074       72.06227         0.4542         0.2777        67.5745      -9.766708      0.8311121      0.8604756
      5725.0000         0.7961        10.7798       991.4521         27.176       115.5758        -999.25        87.8634       73.28267         0.4835         0.2718        73.7681      -3.575768      0.8570781      0.9489176
      5725.5000         0.8049        10.8539        982.918        25.3356       115.7131        -999.25        89.0894       74.38607            0.5         0.2534        72.4015       -4.94503      0.8805547      0.9293567
      5726.0000         0.8139          10.89       979.6787        24.9241       116.5709        -999.25        89.8856       75.10265         0.5147         0.2492        69.6311      -7.718086      0.8958009      0.8897416
      5726.5000         0.8234         10.918       975.7227        27.2773       116.7028        -999.25        89.5747       74.82284         0.5294         0.2728        67.5098      -9.842041      0.8898476      0.8593994
