#------------------------------------------------------------------------------
# Created by    : vladimir.rabinovich
# Created on    : 09/19/2023 17:20:35
#------------------------------------------------------------------------------
~Version Information Section
VERS.           2.0     :   CWLS log ASCII Standard - VERSION 2.0
WRAP.           NO      :   One line per depth step
~Well Information Section
#MNEM       .UNIT                                         VALUE :DESCRIPTION
#------------------------------------------------------------------------------
STRT        .FT                                             501 :START DEPTH
STOP        .FT                                            8659 :STOP DEPTH
STEP        .FT                                             0.5 :STEP      
NULL        .                                           -999.25 :NULL      
COMP        .                                      SHELL OIL CO :COMPANY   
WELL        .                                OCS 00705 ST00BP00 :WELL      
FLD         .                                           WILDCAT :FIELD     
LOC         .                                                   :LOCATION  
CNTY        .                             GALVESTON LARGE BLOCK :LOCATION  
STAT        .                                             TEXAS :STATE     
CTRY        .                                     UNITED STATES :COUNTRY   
SRVC        .                                                   :SERVICE COMPANY
DATE        .                             9/13/2023 11:19:25 AM :LOG DATE  
API         .                                    42706000440000 :API NUMBER
UWI         .                                    42706000440000 :UNIQUE WELL ID
XCOORD      .                                  1104214.94625617 :SURFACE X 
YCOORD      .                                  10500066.5450575 :SURFACE Y 
LAT         .                                         28.922918 :LATITUDE  
LON         .                                        -94.676571 :LONGITUDE 
ELEV        .FT                                              41 :ELEVATION VALUE
ELEV_TYPE   .                                                KB :ELEVATION REFERENCE TYPE
~Curve Information Section
#MNEM       .UNIT                                      API CODE :CURVE DESCRIPTION
#------------------------------------------------------------------------------
DEPT        .FT                                                 :DEPTH     
ASN         .OHMM                                               :          
CILD        .MMHO                                               :          
DT          .US/F                                               :          
ILD         .OHMM                                               :          
LAT         .OHMM                                               :          
SP          .MV                                                 :          
SP_NORM     .MV                                                 :SP Normalized
VSH_SP      .V/V                                                :Volume of Shale from SP
~A        DEPTH            ASN           CILD             DT            ILD            LAT             SP        SP_NORM         VSH_SP
# ...
      5398.0000         0.6758       1415.498       131.9093         0.7812        -999.25       -45.2509       2.470127              1
      5398.5000         0.6721       1419.475         131.98         0.7741        -999.25       -45.0858        2.63599              1
      5399.0000         0.6684       1423.449       132.2817         0.7669        -999.25       -45.0303       2.692249              1
      5399.5000         0.6646       1430.082       132.7019         0.7597        -999.25       -44.9749       2.748413              1
      5400.0000         0.6623       1441.906       132.9917         0.7525        -999.25       -44.9194       2.804676              1
      5400.5000         0.6607       1453.732       133.1352         0.7454        -999.25       -45.2256       2.499237              1
      5401.0000          0.659       1465.369        132.407         0.7382        -999.25        -45.589         2.1366              1
      5401.5000         0.6574       1476.975       130.0812          0.731        -999.25       -45.9523       1.774059              1
      5402.0000         0.6557       1475.031       129.9346         0.7258        -999.25       -46.3157       1.411423              1
      5402.5000          0.654       1476.008       130.0724         0.7208        -999.25        -46.882      0.8458862              1
      5403.0000         0.6537        1482.24       130.2945         0.7158        -999.25       -47.5026      0.2260475              1
      5403.5000          0.662       1493.359        129.636         0.7108        -999.25       -48.1226     -0.3931885              1
      5404.0000         0.6704       1510.893       124.2342         0.7058        -999.25       -48.7426      -1.012428      0.9996548
      5404.5000         0.6788       1528.426       118.8323         0.7008        -999.25       -49.9515      -2.220566      0.9660954
      5405.0000         0.6871       1546.777       114.4664         0.6958        -999.25       -51.3693      -3.637604      0.9267333
      5405.5000         0.6955       1565.414       113.3858         0.6909        -999.25       -54.6448      -6.912338      0.8357684
      5406.0000         0.7048       1605.252       113.3391         0.6859        -999.25       -58.9181      -11.18488      0.7170867
      5406.5000         0.7094       1644.117       114.1952         0.6809        -999.25       -60.9647      -13.23072      0.6602579
      5407.0000         0.6958       1692.213       114.9533         0.6759        -999.25       -65.1246      -17.38986      0.5447261
      5407.5000         0.6822       1737.482       115.8466         0.6709        -999.25       -68.4291      -20.69359      0.4529558
      5408.0000         0.6685       1801.875       116.4057         0.6702        -999.25       -68.8055      -21.06923      0.4425215
      5408.5000         0.6564       1889.232       116.4197         0.6767        -999.25       -69.4918      -21.75477      0.4234787
      5409.0000         0.6486        1947.52       116.1115         0.6833        -999.25       -70.2363       -22.4985      0.4028193
      5409.5000         0.6409       1956.309       115.0554         0.6899        -999.25       -71.0179      -23.27934      0.3811294
      5410.0000         0.6331       1948.502       114.7284         0.6965        -999.25       -72.8846      -25.14528      0.3292978
      5410.5000         0.6349       1880.443       114.8718         0.7031        -999.25       -74.1525      -26.41242      0.2940995
      5411.0000         0.6531        1812.43       113.3546         0.7097        -999.25        -74.394      -26.65316      0.2874123
      5411.5000         0.6712       1744.416       110.7322         0.7162        -999.25       -73.6324       -25.8908       0.308589
      5412.0000         0.6935       1676.402       108.2917         0.7228        -999.25       -72.8702      -25.12783      0.3297824
      5412.5000         0.7204       1608.344       106.9487         0.7343        -999.25        -72.108      -24.36487      0.3509758
      5413.0000         0.7474       1540.328        106.802         0.7477        -999.25        -71.308      -23.56411      0.3732192
      5413.5000         0.7744       1472.314       107.5264         0.7611        -999.25        -70.308      -22.56335      0.4010181
      5414.0000          0.787       1420.078       110.2247         0.7744        -999.25       -69.3069      -21.56149      0.4288476
      5414.5000         0.7968       1427.703       109.9918         0.7878        -999.25       -68.3069      -20.56072      0.4566466
      5415.0000         0.7855       1435.326        111.576         0.8011        -999.25        -67.598      -19.85106      0.4763595
      5415.5000          0.771       1442.955       114.3887         0.8145        -999.25       -67.4913       -19.7436      0.4793444
      5416.0000         0.7564        1450.58        116.255         0.8218        -999.25       -67.9941      -20.24564      0.4653989
      5416.5000         0.7441       1458.203        116.526         0.8159        -999.25       -68.4907      -20.74147      0.4516257
      5417.0000         0.7319       1438.484       115.7202           0.81        -999.25       -68.8239      -21.07391      0.4423914
      5417.5000         0.7197        1409.18       114.3385         0.8041        -999.25         -68.47      -20.71925       0.452243
      5418.0000         0.7075       1387.563       113.6831         0.7983        -999.25       -68.1163      -20.36479      0.4620891
      5418.5000         0.7104        1365.92       114.5267         0.7924        -999.25       -66.4314      -18.67912      0.5089133
      5419.0000         0.7229       1347.271       116.0515         0.7912        -999.25       -54.9247      -7.171665      0.8285649
      5419.5000         0.7354       1336.959       118.0295         0.7923        -999.25       -53.0759      -5.322102      0.8799416
      5420.0000         0.7459       1326.646       119.2708         0.7935        -999.25       -52.0081       -4.25354      0.9096239
      5420.5000         0.7562       1323.555       120.0835         0.7946        -999.25       -51.0815       -3.32618      0.9353839
      5421.0000         0.7446       1335.203       121.5139         0.7958        -999.25       -50.1798      -2.423714      0.9604524
      5421.5000         0.7234       1346.852       125.0827          0.797        -999.25       -49.5953      -1.838451      0.9767097
      5422.0000         0.7022       1358.502       131.0423         0.7981        -999.25       -49.0104      -1.252792       0.992978
      5422.5000         0.6927        1370.16       131.7922         0.7993        -999.25       -48.4254     -0.6670303              1
      5423.0000         0.6837       1383.123       132.4971         0.8004        -999.25       -47.8404    -0.08126831              1
      5423.5000         0.6747       1400.834       133.4306         0.7999        -999.25       -47.2854      0.4744949              1
      5424.0000         0.6658       1418.566       133.2099         0.7923        -999.25        -46.934      0.8266602              1
      5424.5000         0.6568       1447.207       133.6046         0.7848        -999.25       -46.5826       1.178818              1
      5425.0000         0.6478        1476.51       134.9474         0.7772        -999.25       -46.2312       1.530979              1
      5425.5000         0.6462       1475.273       134.7985         0.7697        -999.25        -45.916       1.846943              1
      5426.0000         0.6496       1461.891        133.603         0.7621        -999.25       -46.4031       1.360607              1
      5426.5000         0.6531        1448.51       132.1318         0.7546        -999.25       -46.8909      0.8735695              1
      5427.0000         0.6565       1435.127       129.4887          0.747        -999.25       -47.3787       0.386528              1
