#------------------------------------------------------------------------------
# Created by    : vladimir.rabinovich
# Created on    : 09/19/2023 17:19:46
#------------------------------------------------------------------------------
~Version Information Section
VERS.           2.0     :   CWLS log ASCII Standard - VERSION 2.0
WRAP.           NO      :   One line per depth step
~Well Information Section
#MNEM       .UNIT                                         VALUE :DESCRIPTION
#------------------------------------------------------------------------------
STRT        .FT                                             290 :START DEPTH
STOP        .FT                                         11377.5 :STOP DEPTH
STEP        .FT                                             0.5 :STEP      
NULL        .                                           -999.25 :NULL      
COMP        .                         SONAT EXPLORATION GOM INC :COMPANY   
WELL        .                               OCS G04571 ST00BP00 :WELL      
FLD         .                                           WILDCAT :FIELD     
LOC         .                                                   :LOCATION  
CNTY        .                           HIGH ISLAND LARGE BLOCK :LOCATION  
STAT        .                                             TEXAS :STATE     
CTRY        .                                     UNITED STATES :COUNTRY   
SRVC        .                                                   :SERVICE COMPANY
DATE        .                             9/13/2023 11:19:19 AM :LOG DATE  
API         .                                    42708401190000 :API NUMBER
UWI         .                                    42708401190000 :UNIQUE WELL ID
XCOORD      .                                  1324427.25220013 :SURFACE X 
YCOORD      .                                  10679041.7751219 :SURFACE Y 
LAT         .                                         29.422046 :LATITUDE  
LON         .                                        -93.992863 :LONGITUDE 
ELEV        .FT                                             116 :ELEVATION VALUE
ELEV_TYPE   .                                                KB :ELEVATION REFERENCE TYPE
~Curve Information Section
#MNEM       .UNIT                                      API CODE :CURVE DESCRIPTION
#------------------------------------------------------------------------------
DEPT        .FT                                                 :DEPTH     
ASFL        .OHMM                                               :          
CALI        .IN                                                 :          
CILD        .MMHO                                               :          
GR          .GAPI                                               :          
GR_NORM     .GAPI                                               :GammaRay Normalized
ILD         .OHMM                                               :          
RHOB        .G/C3                                               :          
SP          .MV                                                 :          
SP_NORM     .GAPI                                               :SP Normalized
VSH_GR      .V/V                                                :Volume of Shale from GR
VSH_SP      .V/V                                                :Volume of Shale from SP
~A        DEPTH           ASFL           CALI           CILD             GR        GR_NORM            ILD           RHOB             SP        SP_NORM         VSH_GR         VSH_SP
# ...
     10617.5000         0.9865        12.6488       1155.473        82.5106       82.43694         0.8531         2.3449       -41.6739     -0.6627085              1      0.9905328
     10618.0000         0.9868        12.7259       1157.543        83.9401       84.50671         0.8542         2.3263       -41.6305      -0.622202              1      0.9911114
     10618.5000         0.9879        12.6333       1159.527        85.1595       86.27227         0.8561         2.3283       -41.5871     -0.5816956              1        0.99169
     10619.0000         0.9946        12.4218       1161.371        85.9376       87.39887         0.8957         2.3391       -41.5437     -0.5411891              1      0.9922687
     10619.5000         1.0012        12.4601       1163.217        85.0153       86.06348         0.9353         2.3362       -41.5002     -0.5005865              1      0.9928488
     10620.0000         1.0213         12.545       1165.063         84.093        84.7281         0.9749         2.3193       -41.4569     -0.4601761              1      0.9934261
     10620.5000         1.0406        12.5801       1164.967        84.9171       85.92131         1.0068         2.2961       -41.5859      -0.580574              1      0.9917061
     10621.0000          1.058        12.2478       1156.883        88.0197       90.41354         1.0193         2.2784       -41.8131      -0.792627              1      0.9886768
     10621.5000         1.0798        11.7175       1085.611         86.702       88.50565         1.0317         2.2809         -42.04      -1.004402              1      0.9856514
     10622.0000         1.1038        11.4865       1018.796        85.3845       86.59804         1.0442         2.2922       -42.2668      -1.216081              1      0.9826274
     10622.5000         1.1465         11.397       1004.823        84.0669       84.69032         1.0412         2.3078       -42.3435      -1.287666              1      0.9816048
     10623.0000          1.162         11.412       993.3213        83.1371       83.34404         1.0319         2.3296        -42.394      -1.334802              1      0.9809314
     10623.5000         1.1772        11.4659       1004.948        82.3864       82.25712         1.0227         2.3569       -42.5424      -1.473308              1      0.9789528
     10624.0000         1.1923        11.5741        1016.55        83.2266       83.47363         1.0134         2.3951       -42.7379      -1.655774              1      0.9763461
     10624.5000         1.1723        11.5968       1028.176        84.0681       84.69204         1.0041         2.4203       -42.9337      -1.838522              1      0.9737354
     10625.0000          1.057        11.5559       1042.123        84.6678       85.56035         0.9949         2.4204       -43.1761      -2.064763              1      0.9705034
     10625.5000         0.9853        11.4718       1057.119        85.0774        86.1534         0.9856         2.3965       -43.5366      -2.401226              1      0.9656968
     10626.0000           0.96        11.3978       1072.139        82.2148       82.00866         0.9764         2.3689        -43.897      -2.737601              1      0.9608914
     10626.5000         0.9444        11.3231       1087.135        73.5983       69.53289         0.9806         2.3492       -44.4327      -3.237589      0.7772955      0.9537487
     10627.0000         0.9322        11.2435       1085.039        63.2963        54.6167         0.9901         2.3247       -45.4495      -4.186602      0.4599299      0.9401914
     10627.5000         1.0009        11.1455       934.1143         59.622       49.29672         0.9997         2.3062       -53.3252      -11.53725      0.3467387      0.8351821
     10628.0000         1.2165        10.7103       866.9482        57.0266       45.53886         1.0092         2.2897       -54.5856      -12.71363      0.2667842      0.8183767
     10628.5000         1.7579          9.974       809.1641        54.6848       42.14819         1.0188         2.2951        -55.278      -13.35987      0.1946422      0.8091447
     10629.0000         1.8285         9.7472       670.7402        52.4573         38.923         1.0283         2.3216       -55.8671      -13.90969      0.1260212      0.8012901
     10629.5000         2.5371         9.4209       594.8916        49.4542       34.57484         1.7813         2.3457       -56.4563      -14.45961     0.03350716      0.7934341
     10630.0000         3.0177         9.1202       524.4316        51.6618       37.77121         2.6312         2.3479       -57.0443      -15.00841       0.101515      0.7855941
     10630.5000         2.9245         9.0765       471.0884         54.645       42.09055         2.3567         2.3396       -57.7242      -15.64299      0.1934159      0.7765287
     10631.0000         2.8312         9.1251       447.6353        57.6282        46.4099         2.2831         2.3451       -57.5862      -15.51419      0.2853171      0.7783687
     10631.5000         2.5242         9.1947       424.6309        60.0595       49.93018         2.2096         2.3659       -56.2562      -14.27285      0.3602165      0.7961021
     10632.0000         2.2413         9.2831       428.9722        62.1627       52.97538          2.137         2.3903       -54.9237      -13.02919      0.4250081      0.8138688
     10632.5000         2.1262         9.3202       448.9824        64.8475       56.86268         2.0704         2.4005       -53.5912      -11.78552      0.5077165      0.8316354
     10633.0000         2.0364         9.2552       468.9927        67.5026       60.70698          2.004         2.3757       -52.2612      -10.54419      0.5895101      0.8493688
     10633.5000         2.0021         9.1607       489.0024        69.8494        64.1049         1.9376         2.3533       -50.9436      -9.314427      0.6618063      0.8669367
     10634.0000         1.9258         9.4018       509.0127        72.1763       67.47398          1.871         2.3296       -49.6285      -8.087003       0.733489      0.8844714
     10634.5000         1.8556          9.707       529.0225        74.4684        70.7927         1.8292         2.3396       -48.3109      -6.857243         0.8041      0.9020394
     10635.0000         1.8434         9.9866       549.0322        69.8693       64.13371         1.7997         2.3435       -46.9958      -5.629815      0.6624193      0.9195741
     10635.5000         1.8377        10.1259        569.043        67.1497         60.196         1.7702         2.3331       -45.7429      -4.460442      0.5786384      0.9362794
     10636.0000          1.832        10.0019       588.6289        70.8737       65.58798         1.7407         2.3356       -44.7286      -3.513761      0.6933613      0.9498034
     10636.5000         1.8264         9.9936        608.165        73.8668       69.92166         1.7028         2.3867       -43.8311      -2.676095      0.7855673      0.9617701
     10637.0000         1.7691        10.1503       627.7012        76.7307       74.06827         1.6604         2.4728       -43.2158      -2.101816      0.8737929       0.969974
     10637.5000         1.6673        10.4906       647.2119        79.8531       78.58917         1.6179         2.5237       -42.5993      -1.526415      0.9699824      0.9781941
     10638.0000         1.5974        10.7327       679.0234        82.1104       81.85751         1.5753         2.4712       -42.2059       -1.15924              1      0.9834394
     10638.5000         1.5609         10.891       721.4385         78.625       76.81102         1.5017         2.4163       -41.8834     -0.8582413      0.9321494      0.9877394
     10639.0000          1.523        10.6074       753.3252        75.1346       71.75729         1.4279         2.3041       -41.5614     -0.5577093      0.8246231      0.9920327
     10639.5000         1.5097        10.4377       785.1621        73.7325        69.7272         1.3554         2.3362       -41.2388     -0.2566147      0.7814299      0.9963341
