#------------------------------------------------------------------------------
# Created by    : vladimir.rabinovich
# Created on    : 09/19/2023 17:22:34
#------------------------------------------------------------------------------
~Version Information Section
VERS.           2.0     :   CWLS log ASCII Standard - VERSION 2.0
WRAP.           NO      :   One line per depth step
~Well Information Section
#MNEM       .UNIT                                         VALUE :DESCRIPTION
#------------------------------------------------------------------------------
STRT        .FT                                            2432 :START DEPTH
STOP        .FT                                            8088 :STOP DEPTH
STEP        .FT                                             0.5 :STEP      
NULL        .                                           -999.25 :NULL      
COMP        .                                  XTO OFFSHORE INC :COMPANY   
WELL        .                               OCS G23162 ST00BP00 :WELL      
FLD         .                                 BRAZOS BLOCK 0398 :FIELD     
LOC         .                                                   :LOCATION  
CNTY        .                                BRAZOS LARGE BLOCK :LOCATION  
STAT        .                                             TEXAS :STATE     
CTRY        .                                     UNITED STATES :COUNTRY   
SRVC        .                                                   :SERVICE COMPANY
DATE        .                             9/13/2023 11:09:58 AM :LOG DATE  
API         .                                    42704403400000 :API NUMBER
UWI         .                                    42704403400000 :UNIQUE WELL ID
XCOORD      .                                  869002.191083907 :SURFACE X 
YCOORD      .                                  10369331.9113669 :SURFACE Y 
LAT         .                                        28.5523806 :LATITUDE  
LON         .                                       -95.4033279 :LONGITUDE 
ELEV        .FT                                             100 :ELEVATION VALUE
ELEV_TYPE   .                                                KB :ELEVATION REFERENCE TYPE
~Curve Information Section
#MNEM       .UNIT                                      API CODE :CURVE DESCRIPTION
#------------------------------------------------------------------------------
DEPT        .FT                                                 :DEPTH     
CO12        .MMHO                                               :          
DCAL        .IN                                                 :          
DPHI        .FRAC                                               :          
DRHO        .G/CC                                               :          
GR          .GAPI                                               :          
GR_NORM     .GAPI                                               :GammaRay Normalized
HO01        .OHMM                                               :          
HO02        .OHMM                                               :          
HO03        .OHMM                                               :          
HO06        .OHMM                                               :          
HO09        .OHMM                                               :          
HO12        .OHMM                                               :          
NPHI        .FRAC                                               :          
RWA         .OHMM                                               :          
SP          .MV                                                 :          
SP_NORM     .MV                                                 :SP Normalized
TENS        .LB/F                                               :          
VSH_GR      .V/V                                                :Volume of Shale from GR
VSH_SP      .V/V                                                :Volume of Shale from SP
~A        DEPTH           CO12           DCAL           DPHI           DRHO             GR        GR_NORM           HO01           HO02           HO03           HO06           HO09           HO12           NPHI            RWA             SP        SP_NORM           TENS         VSH_GR         VSH_SP
# ...
      4727.0000       1507.634         1.3592         0.2464         0.0053        73.0866       58.82297         0.9224          0.704         0.6685         0.6641         0.7062         0.6911         0.3422         0.0506        60.5287      -7.326683       3769.136      0.5494248      0.7578781
      4727.5000       1522.133         1.4284         0.2335         0.0112        77.0043       64.50546         0.7498         0.6657         0.6551         0.6243         0.6667         0.6567         0.3433         0.0428        63.2741      -4.582069       3742.688       0.670329      0.8826332
      4728.0000       1570.463         1.3361         0.2307         0.0129        79.1664        67.6431         0.6479         0.6485         0.6411         0.5961         0.6317         0.6263         0.3626         0.0432        64.7679      -3.089058       3729.352      0.7370872      0.9504974
      4728.5000       1597.512         1.2593         0.2406          0.009        79.8392       68.62195         0.6065         0.6445         0.6337         0.5762         0.6308         0.6282         0.3895         0.0476        65.0534      -2.804344       3746.531      0.7579138      0.9634389
      4729.0000       1567.097         1.2516         0.2578          0.004        78.3191       66.42207          0.654         0.6365         0.6258         0.5908         0.6246         0.6235         0.4072         0.0582         64.582      -3.276527       3810.954       0.711108       0.941976
      4729.5000       1526.799         1.0517         0.2775         -0.001        77.7707       65.63071         0.7136          0.664         0.6501          0.618         0.6652         0.6642         0.3924         0.0686        63.6027      -4.256615       3902.955      0.6942704      0.8974266
      4730.0000       1580.106          0.875         0.2948        -0.0036        78.3708       66.50418         0.7937         0.6917         0.6807         0.6547         0.6819         0.6798         0.3798         0.0763        62.4973      -5.362801        3972.35      0.7128549      0.8471454
      4730.5000       1666.978         0.8673         0.3045        -0.0046        80.8547       70.10827         0.6775         0.6107         0.6164         0.5757         0.5701          0.567         0.3839         0.0782        61.3786      -6.482285       3992.243      0.7895376      0.7962598
      4731.0000       1769.593         0.8673         0.3035        -0.0034        82.4752       72.46085         0.6359         0.5976         0.5789         0.5388         0.5716         0.5662         0.3765         0.0731        61.0765      -6.785172       3988.174      0.8395926      0.7824922
      4731.5000       1795.833          0.875         0.2916         0.0011        84.2478       75.03391         0.5597         0.5938         0.5821         0.5284         0.5699         0.5622         0.3816         0.0644        62.1885      -5.673958       4003.318      0.8943385      0.8330019
      4732.0000       1855.369         0.9288         0.2736         0.0086        86.1818       77.84093         0.5612         0.5669         0.5503         0.5103         0.5518         0.5428         0.3786         0.0534        64.1272      -3.736046       4032.931      0.9540623      0.9210888
      4732.5000       1927.284         1.0287          0.261         0.0156        88.6019       81.35257         0.5628         0.5451         0.5237         0.4882         0.5232         0.5142         0.3953         0.0436        65.3057      -2.558327       4031.348              1      0.9746215
      4733.0000       1983.578         0.9672         0.2598         0.0194         87.924        80.3735         0.5994         0.5292         0.5061         0.4761         0.5103         0.5013         0.3906         0.0459        64.3032      -3.561615       3986.817              1      0.9290175
      4733.5000       2006.362         1.1747         0.2723         0.0164        81.8159       71.52309         0.6577         0.5315         0.4984         0.4758         0.5063         0.4972         0.3874         0.0504        61.0134        -6.8522       3944.094      0.8196403      0.7794455
      4734.0000       2007.286         1.2055         0.2863          0.012        75.7403        62.7198         0.6534         0.5285         0.4939         0.4684         0.5064         0.4967         0.3688         0.0588        57.5776      -10.28879       3949.972      0.6323363      0.6232369
      4734.5000       2000.336         1.1901         0.2936           0.01        74.1161       60.36902         0.6059         0.5336         0.5069           0.49         0.5111         0.5007         0.3561         0.0602        57.2522      -10.61497       3995.407      0.5823196      0.6084104
      4735.0000       2022.688         1.1901         0.2941         0.0101        77.3001       64.98798         0.5483         0.5347         0.5178         0.4799         0.5136         0.5024         0.3579         0.0566        60.1602       -7.70776       4027.731      0.6805952      0.7405564
      4735.5000       2070.592         1.2593          0.288         0.0139        78.8253       67.20241         0.5181         0.5082         0.4879         0.4508         0.4918         0.4807         0.3849         0.0553         62.796      -5.072742       4014.395      0.7277108      0.8603299
      4736.0000       2091.079         1.0594         0.2806         0.0171        77.5318       65.33099         0.5745         0.4937         0.4752         0.4377         0.4785          0.467         0.4006         0.0515        62.7695      -5.100029       3971.898      0.6878933      0.8590896
      4736.5000       2040.754         1.3054         0.2744         0.0172        75.5647       62.48317         0.6096         0.5211         0.4982         0.4459         0.5011         0.4873         0.3833         0.0489        62.2251      -5.645214       3929.628      0.6273014      0.8343084
      4737.0000       1954.359         1.0056         0.2663         0.0165         75.084       61.78995         0.5525         0.5308         0.5138          0.478         0.5346         0.5183         0.3759         0.0493        62.9288      -4.942303       3906.345      0.6125522       0.866259
      4737.5000       1898.692          1.267         0.2593         0.0132        76.7162       64.15949         0.5779         0.5424         0.5152         0.5032         0.5472         0.5314          0.395         0.0445        64.7414      -3.130486       3907.927      0.6629679      0.9486143
      4738.0000       1878.544         1.2823         0.2495         0.0142        79.5277       68.23849         0.6703         0.5365         0.5147         0.5134         0.5429         0.5305         0.4233         0.0439        66.1555      -1.717171       3921.264       0.749755              1
      4738.5000       1847.028         1.2746         0.2421         0.0154        85.1804       76.43591         0.6613         0.5168         0.5147         0.5329         0.5437         0.5351         0.4293         0.0404        67.2344      -0.639061       3936.635      0.9241682              1
      4739.0000       1807.327          1.267          0.237         0.0178        91.0472       84.94371         0.6734         0.5171         0.5302         0.5409          0.566         0.5595          0.417         0.0409        67.7158     -0.1584473       3948.615              1              1
      4739.5000       1726.301         1.2285         0.2413         0.0157        94.6455       90.16322         0.6629           0.57         0.5694         0.5457         0.5728         0.5663         0.4201         0.0431        68.3033      0.4282684        3947.26              1              1
      4740.0000       1618.924         1.3361         0.2506         0.0114        93.9298       89.12935         0.6343         0.6196         0.6102         0.5771         0.6251         0.6151         0.4125         0.0532        68.9639       1.088081       3929.176              1              1
