#------------------------------------------------------------------------------
# Created by    : vladimir.rabinovich
# Created on    : 09/19/2023 17:22:45
#------------------------------------------------------------------------------
~Version Information Section
VERS.           2.0     :   CWLS log ASCII Standard - VERSION 2.0
WRAP.           NO      :   One line per depth step
~Well Information Section
#MNEM       .UNIT                                         VALUE :DESCRIPTION
#------------------------------------------------------------------------------
STRT        .FT                                             270 :START DEPTH
STOP        .FT                                            9392 :STOP DEPTH
STEP        .FT                                             0.5 :STEP      
NULL        .                                           -999.25 :NULL      
COMP        .                                     TALOS ERT LLC :COMPANY   
WELL        .                               OCS G12363 ST00BP00 :WELL      
FLD         .                                 BRAZOS BLOCK 0453 :FIELD     
LOC         .                                                   :LOCATION  
CNTY        .                                BRAZOS LARGE BLOCK :LOCATION  
STAT        .                                             TEXAS :STATE     
CTRY        .                                     UNITED STATES :COUNTRY   
SRVC        .                                                   :SERVICE COMPANY
DATE        .                             9/13/2023 11:19:08 AM :LOG DATE  
API         .                                    42704401340000 :API NUMBER
UWI         .                                    42704401340000 :UNIQUE WELL ID
XCOORD      .                                  788791.944469438 :SURFACE X 
YCOORD      .                                  10354739.7167093 :SURFACE Y 
LAT         .                                         28.507622 :LATITUDE  
LON         .                                        -95.652007 :LONGITUDE 
ELEV        .FT                                             100 :ELEVATION VALUE
ELEV_TYPE   .                                                KB :ELEVATION REFERENCE TYPE
~Curve Information Section
#MNEM       .UNIT                                      API CODE :CURVE DESCRIPTION
#------------------------------------------------------------------------------
DEPT        .FT                                                 :DEPTH     
DPHI        .%                                                  :          
DT          .US/F                                               :          
GR          .GAPI                                               :          
GR_NORM     .GAPI                                               :GammaRay Normalized
ILD         .OHMM                                               :          
ILM         .OHMM                                               :          
LL          .OHMM                                               :          
NPHI        .%                                                  :          
SP          .MV                                                 :          
SP_NORM     .MV                                                 :SP Normalized
VSH_GR      .V/V                                                :Volume of Shale from GR
VSH_SP      .V/V                                                :Volume of Shale from SP
~A        DEPTH           DPHI             DT             GR        GR_NORM            ILD            ILM             LL           NPHI             SP        SP_NORM         VSH_GR         VSH_SP
# ...
      8142.0000        16.2848        99.6544        64.1207       71.62715         1.0574          1.143         0.9675        37.3703       -38.8329        -5.9834      0.8218543      0.8983393
      8142.5000        14.3546        94.3594        62.2686       69.30143          1.106         1.1256         1.0448        36.9136       -39.0495        -6.1901      0.7723709      0.8907357
      8143.0000        14.5838         89.969         61.374       68.17976         1.1348          1.119         1.1236        35.7687       -39.4395        -6.5702      0.7485056      0.8769393
      8143.5000        15.6527        92.5845        61.0076       67.72227          1.151         1.1173         1.1614        35.4564       -39.7723        -6.8931      0.7387718      0.8651857
      8144.0000        16.7489        97.0438        61.6184       68.49363         1.1587         1.1109         1.1394        36.4377       -40.0403        -7.1512      0.7551836        0.85575
      8144.5000        17.5445       101.2424        63.6971       71.11082         1.1586         1.1086          1.098        36.3743       -40.1051        -7.2062      0.8108686      0.8535678
      8145.0000        18.1931       104.4922         64.572       72.21425         1.1417         1.1124         1.0474        36.7029        -39.945        -7.0362      0.8343457      0.8594179
      8145.5000        18.5118       105.3551        65.0732       72.84776         1.1222         1.1058          0.992        38.3472       -39.7411        -6.8224      0.8478246      0.8668357
      8146.0000         18.449       104.7429        65.7992       73.76397         1.1117         1.0926         0.9629        38.3427       -39.4802        -6.5516      0.8673185      0.8762857
      8146.5000        18.3799       104.1296        66.6322       74.81472         1.1168         1.0805         0.9609        37.6046       -39.1791        -6.2406      0.8896749      0.8871714
      8147.0000        18.3723       103.4548        67.2473       75.59146         1.1234         1.0821         0.9783        39.0544       -38.9194        -5.9711      0.9062013      0.8965786
      8147.5000        18.2974       102.7788         67.752       76.22938         1.1286          1.086         0.9909        39.9325       -38.7412         -5.783       0.919774      0.9030786
      8148.0000        18.0996        102.045        67.8003       76.29339         1.1272         1.0925         0.9992        38.0378        -38.592        -5.6239      0.9211359      0.9085393
      8148.5000        17.7659       101.2941        66.7584       74.98648         1.1215         1.0985         1.0074        36.6336       -38.4933        -5.5153      0.8933294      0.9121965
      8149.0000        17.9364       100.6014        65.7339       73.70145         1.1165         1.0993         1.0127        38.4562       -38.4124        -5.4245      0.8659884      0.9152179
      8149.5000         18.626       100.4374        66.0146        74.0577         1.1078         1.1048         1.0163        39.6739       -38.3922        -5.3944      0.8735681       0.916075
      8150.0000        19.2271       101.6874         66.868       75.13409         1.0946         1.1126         1.0151        39.4073        -38.606        -5.5984      0.8964701      0.9085714
      8150.5000        19.4577       103.1083        68.2522       76.87796         1.0763         1.0768         1.0107        38.6625       -38.8483        -5.8308      0.9335736        0.90005
      8151.0000         19.505       104.5045        69.2849       78.17985         1.0561         1.0574         1.0013        37.7932        -38.917        -5.8896      0.9612734      0.8977321
      8151.5000        19.5892       105.5898         70.298       79.45705         1.0359         1.0351         0.9842        36.9033       -38.9035        -5.8662       0.988448      0.8983464
      8152.0000        20.0743       106.5804        68.2251       76.85369         1.0156         1.0068         0.9564        35.9647       -39.0443        -5.9971      0.9330572        0.89345
      8152.5000        20.8036       108.2017        67.1979       75.56527         0.9953         0.9749         0.9385        35.6811       -39.4265        -6.3694      0.9056441      0.8799322
      8153.0000        21.2044       109.8389         68.135       76.74694         0.9707         0.9486         0.9272        36.4214       -39.6588        -6.5919       0.930786      0.8717714
      8153.5000        20.9955       110.4362         69.275       78.18372         0.9468         0.9267         0.9174        36.8542        -39.601        -6.5242      0.9613558      0.8739678
      8154.0000        20.6077       108.4279        70.3547       79.54469         0.9234         0.9163         0.9107        37.1423        -39.342        -6.2553      0.9903126        0.88335
      8154.5000        19.9653       106.3998        69.7279       78.75977         0.9148         0.9143         0.9043        37.9066        -39.007        -5.9104       0.973612      0.8954464
      8155.0000         19.556       105.6476        68.4447       77.14944         0.9143          0.916          0.914        38.8422       -39.0535         -5.947      0.9393497      0.8939214
      8155.5000        19.6546       108.0763        67.8025       76.34515          0.918         0.9203         0.9265        40.1992       -39.2161        -6.0997      0.9222372      0.8882464
      8156.0000         19.875       110.2593        67.5288       76.00425         0.9307         0.9243         0.9325        41.3588       -39.4872         -6.361       0.914984      0.8786964
      8156.5000         20.047       111.6997        66.9159        75.2368         0.9286         0.9213         0.9268        41.5803       -39.6221         -6.486      0.8986554      0.8740107
      8157.0000        20.0406       111.8976        65.8856       73.94448         0.9092         0.9105         0.9188        42.7452       -39.6613        -6.5153      0.8711592      0.8727464
      8157.5000        20.0484       112.1576        65.3889       73.32316         0.8916         0.8943         0.9103        44.3615       -39.6277        -6.4718      0.8579395      0.8740786
      8158.0000        20.2872        113.182        66.1842        74.3265          0.876         0.8763         0.9025        45.8172       -39.5833        -6.4175      0.8792872      0.8757964
      8158.5000         20.923       114.8684         67.998       76.61059         0.8619         0.8636         0.8969        45.3502       -39.3638        -6.1881      0.9278849      0.8837714
      8159.0000        21.7495        115.993        70.1697       79.34473         0.8485         0.8519          0.891        44.4602       -39.0582        -5.8727      0.9860582      0.8948179
      8159.5000        22.1518       117.0004        72.0525       81.71558         0.8412         0.8441         0.8851        43.5721       -38.7834         -5.588              1      0.9047643
      8160.0000        22.3588       116.1749         74.276       84.51486          0.834         0.8378          0.883        43.4127       -38.7018        -5.4965              1      0.9078107
      8160.5000         22.561        115.365        76.2607       87.01385         0.8357         0.8369         0.8821        45.2691       -38.7487        -5.5335              1      0.9062714
      8161.0000        22.7897       114.8623        73.6591       83.74566         0.8386         0.8385         0.8813          46.85       -38.9999        -5.7748              1      0.8974321
      8161.5000        22.9754       114.7197        70.7273       80.06223           0.85         0.8464         0.8804        47.3031       -39.2457        -6.0107              1      0.8887857
      8162.0000        22.6844       114.9496        69.1418       78.07177         0.8633          0.859          0.879        46.4832        -39.407        -6.1622      0.9589738      0.8831571
