#------------------------------------------------------------------------------
# Created by    : vladimir.rabinovich
# Created on    : 09/19/2023 17:20:03
#------------------------------------------------------------------------------
~Version Information Section
VERS.           2.0     :   CWLS log ASCII Standard - VERSION 2.0
WRAP.           NO      :   One line per depth step
~Well Information Section
#MNEM       .UNIT                                         VALUE :DESCRIPTION
#------------------------------------------------------------------------------
STRT        .FT                                             945 :START DEPTH
STOP        .FT                                           12004 :STOP DEPTH
STEP        .FT                                             0.5 :STEP      
NULL        .                                           -999.25 :NULL      
COMP        .                                    EXXON CO U S A :COMPANY   
WELL        .                                     ST TR 00819-L :WELL      
FLD         .                                           WILDCAT :FIELD     
LOC         .                                                   :LOCATION  
CNTY        .                        MUSTANG ISLAND LARGE BLOCK :LOCATION  
STAT        .                                             TEXAS :STATE     
CTRY        .                                     UNITED STATES :COUNTRY   
SRVC        .                                                   :SERVICE COMPANY
DATE        .                             9/13/2023 11:18:55 AM :LOG DATE  
API         .                                    42702301310000 :API NUMBER
UWI         .                                    42702301310000 :UNIQUE WELL ID
XCOORD      .                                  274042.524369281 :SURFACE X 
YCOORD      .                                  9990401.22532542 :SURFACE Y 
LAT         .                                        27.4671591 :LATITUDE  
LON         .                                       -97.2129423 :LONGITUDE 
ELEV        .FT                                              93 :ELEVATION VALUE
ELEV_TYPE   .                                                KB :ELEVATION REFERENCE TYPE
~Curve Information Section
#MNEM       .UNIT                                      API CODE :CURVE DESCRIPTION
#------------------------------------------------------------------------------
DEPT        .FT                                                 :DEPTH     
ASFL        .OHMM                                               :          
CILD        .MMHO                                               :          
GR          .GAPI                                               :          
GR_NORM     .GAPI                                               :GammaRay Normalized
ILD         .OHMM                                               :          
SP          .MV                                                 :          
SP_NORM     .MV                                                 :SP Normalized
VSH_GR      .V/V                                                :Volume of Shale from GR
VSH_SP      .V/V                                                :Volume of Shale from SP
~A        DEPTH           ASFL           CILD             GR        GR_NORM            ILD             SP        SP_NORM         VSH_GR         VSH_SP
# ...
      9769.5000         0.9923       1065.146        -999.25        -999.25         0.7838       -39.6237      -4.335091        -999.25      0.9414896
      9770.0000         0.9624       1099.176        -999.25        -999.25         0.7573       -39.1409      -3.851307        -999.25      0.9499771
      9770.5000         0.9299       1152.094        -999.25        -999.25         0.7201       -38.6768      -3.386227        -999.25      0.9581364
      9771.0000          0.899       1201.686        -999.25        -999.25         0.6828       -38.2126      -2.921043        -999.25      0.9662975
      9771.5000         0.8769       1241.248        -999.25        -999.25         0.6917       -38.4573      -3.164761        -999.25      0.9620218
      9772.0000         0.8548       1257.631        -999.25        -999.25          0.699       -38.7691      -3.475578        -999.25      0.9565688
      9772.5000         0.8616       1269.568        -999.25        -999.25         0.7017       -39.0802      -3.785698        -999.25      0.9511281
      9773.0000         0.8809       1281.383        -999.25        -999.25         0.7043       -39.3431      -4.047615        -999.25      0.9465331
      9773.5000         0.9003       1292.578        -999.25        -999.25         0.7021       -39.4437      -4.147232        -999.25      0.9447854
      9774.0000         0.8885       1303.797        -999.25        -999.25         0.6869       -39.5441      -4.246651        -999.25      0.9430412
      9774.5000         0.8699       1315.016        -999.25        -999.25         0.6716       -39.6445      -4.346069        -999.25      0.9412971
      9775.0000         0.8512       1330.627        -999.25        -999.25         0.6563       -39.7449      -4.445484        -999.25      0.9395529
      9775.5000         0.8286       1350.162        -999.25        -999.25         0.6539       -39.4917      -4.191303        -999.25      0.9440122
      9776.0000          0.806       1369.695        -999.25        -999.25         0.6715       -39.2036      -3.902222        -999.25      0.9490838
      9776.5000         0.7834       1384.314        -999.25        -999.25         0.6906       -38.9166      -3.614239        -999.25      0.9541361
      9777.0000         0.7657        1356.02        -999.25        -999.25         0.7196       -38.6284      -3.325054        -999.25      0.9592096
      9777.5000         0.8527       1307.967        -999.25        -999.25         0.7485       -39.2395      -3.935173        -999.25      0.9485058
      9778.0000         0.8959       1255.348        -999.25        -999.25         0.7774        -40.101      -4.795692        -999.25      0.9334089
      9778.5000          0.939       1194.785        -999.25        -999.25         0.8032       -40.8546      -5.548309        -999.25      0.9202051
      9779.0000         0.9825       1134.322        -999.25        -999.25         0.8249       -41.6082      -6.300926        -999.25      0.9070013
      9779.5000         1.0293       1082.695        -999.25        -999.25         0.8467       -42.3456      -7.037346        -999.25      0.8940817
      9780.0000         1.1541       1045.961        -999.25        -999.25         0.8592       -42.9294      -7.620163        -999.25      0.8838568
      9780.5000         1.0538       1036.777        -999.25        -999.25         0.8107        -43.512      -8.201782        -999.25      0.8736529
      9781.0000          0.821       1087.957        -999.25        -999.25         0.7623       -43.5901      -8.278896        -999.25      0.8723001
      9781.5000         0.7599       1150.307        -999.25        -999.25         0.7139       -42.1399      -6.827717        -999.25      0.8977594
      9782.0000         0.7113       1216.031        -999.25        -999.25         0.6654       -40.7591      -5.445934        -999.25      0.9220011
      9782.5000         0.6922       1308.164        -999.25        -999.25         0.6262       -39.3783      -4.064152        -999.25      0.9462429
      9783.0000          0.673       1403.674        -999.25        -999.25         0.5975       -38.0397      -2.724567        -999.25      0.9697444
      9783.5000         0.6563         1787.4        -999.25        -999.25         0.5687       -36.8423      -1.526188        -999.25      0.9907686
      9784.0000         0.6426       1852.729        -999.25        -999.25         0.5398       -35.6425     -0.3254051        -999.25              1
      9784.5000          0.629       1881.744        -999.25        -999.25          0.511       -34.7686      0.5494766        -999.25              1
      9785.0000         0.6153       1892.418        -999.25        -999.25         0.4822         -33.94       1.379063        -999.25              1
      9785.5000         0.6238       1895.533        -999.25        -999.25         0.4785        -33.557       1.763042        -999.25              1
      9786.0000         0.6329        1892.25        -999.25        -999.25         0.4752        -33.174       2.147026        -999.25              1
      9786.5000         0.6418       1887.428        -999.25        -999.25         0.4718       -32.9469       2.375107        -999.25              1
      9787.0000         0.6493       1864.941        -999.25        -999.25         0.4685       -32.9363       2.386692        -999.25              1
      9787.5000         0.6534       1842.404        -999.25        -999.25         0.4722       -33.1291        2.19487        -999.25              1
      9788.0000         0.6575       1819.916        -999.25        -999.25          0.494       -33.3218       2.003155        -999.25              1
      9788.5000         0.6706         1780.6        -999.25        -999.25         0.5159       -33.5143       1.811634        -999.25              1
      9789.0000         0.6964       1740.639        -999.25        -999.25         0.5377       -33.7336       1.593319        -999.25              1
      9789.5000         0.7221       1700.678        -999.25        -999.25         0.5596       -34.0596       1.268299        -999.25              1
      9790.0000         0.7465       1653.469        -999.25        -999.25         0.5913       -34.3862      0.9426804        -999.25              1
      9790.5000         0.7692       1604.721        -999.25        -999.25         0.6313       -34.7128      0.6170654        -999.25              1
      9791.0000          0.784       1555.479        -999.25        -999.25         0.6702       -35.2954     0.03544617        -999.25              1
      9791.5000         0.7929       1501.766        -999.25        -999.25         0.6937       -35.8854     -0.5535698        -999.25              1
      9792.0000         0.8018       1448.055        -999.25        -999.25         0.7172       -36.3162     -0.9833908        -999.25              1
      9792.5000         0.8106       1394.242        -999.25        -999.25         0.7398       -36.7394      -1.405605        -999.25      0.9928841
      9793.0000          0.835       1340.135        -999.25        -999.25         0.7591       -37.1379      -1.803127        -999.25      0.9859101
      9793.5000         0.8682       1286.074        -999.25        -999.25         0.7847       -37.5364      -2.200642        -999.25      0.9789361
      9794.0000         0.8996       1246.412        -999.25        -999.25         0.8123       -37.9355      -2.598763        -999.25      0.9719515
      9794.5000         0.9266       1206.699        -999.25        -999.25         0.8405        -38.334      -2.996277        -999.25      0.9649776
      9795.0000         0.9536       1166.291        -999.25        -999.25         0.8687       -38.7325      -3.393795        -999.25      0.9580036
      9795.5000         0.9806       1137.002        -999.25        -999.25         0.8938       -39.1317      -3.792011        -999.25      0.9510173
