#------------------------------------------------------------------------------
# Created by    : vladimir.rabinovich
# Created on    : 09/19/2023 17:20:06
#------------------------------------------------------------------------------
~Version Information Section
VERS.           2.0     :   CWLS log ASCII Standard - VERSION 2.0
WRAP.           NO      :   One line per depth step
~Well Information Section
#MNEM       .UNIT                                         VALUE :DESCRIPTION
#------------------------------------------------------------------------------
STRT        .FT                                             325 :START DEPTH
STOP        .FT                                           10896 :STOP DEPTH
STEP        .FT                                             0.5 :STEP      
NULL        .                                           -999.25 :NULL      
COMP        .                                      GETTY OIL CO :COMPANY   
WELL        .                               OCS G03737 ST00BP00 :WELL      
FLD         .                                           WILDCAT :FIELD     
LOC         .                                                   :LOCATION  
CNTY        .                             GALVESTON LARGE BLOCK :LOCATION  
STAT        .                                             TEXAS :STATE     
CTRY        .                                     UNITED STATES :COUNTRY   
SRVC        .                                                   :SERVICE COMPANY
DATE        .                             9/13/2023 11:10:15 AM :LOG DATE  
API         .                                    42706400540000 :API NUMBER
UWI         .                                    42706400540000 :UNIQUE WELL ID
XCOORD      .                                  1098214.74516992 :SURFACE X 
YCOORD      .                                   10573216.961531 :SURFACE Y 
LAT         .                                         29.123847 :LATITUDE  
LON         .                                        -94.698615 :LONGITUDE 
ELEV        .FT                                              99 :ELEVATION VALUE
ELEV_TYPE   .                                                KB :ELEVATION REFERENCE TYPE
~Curve Information Section
#MNEM       .UNIT                                      API CODE :CURVE DESCRIPTION
#------------------------------------------------------------------------------
DEPT        .FT                                                 :DEPTH     
ASFL        .OHMM                                               :          
DT          .US/F                                               :          
DTL         .US/F                                               :          
GR          .GAPI                                               :          
GR_1        .GAPI                                               :          
GR_NORM     .GAPI                                               :GammaRay Normalized
ILD         .OHMM                                               :          
RHOB        .G/CC                                               :          
SP          .MV                                                 :          
SP_NORM     .MV                                                 :SP Normalized
VSH_GR      .V/V                                                :Volume of Shale from GR
VSH_SP      .V/V                                                :Volume of Shale from SP
~A        DEPTH           ASFL             DT            DTL             GR           GR_1        GR_NORM            ILD           RHOB             SP        SP_NORM         VSH_GR         VSH_SP
# ...
      6659.5000         1.0385        113.126       110.4588        52.3003        54.8339        71.0196          0.358         2.2593       -52.7998       -11.6196         0.8089         0.8545
      6660.0000         1.0382       115.5736       110.8882        52.4956        57.5269         71.345         0.3593         2.2669       -50.8824        -9.7071         0.8159         0.8807
      6660.5000         1.0245        115.625        109.743        50.7006        59.3187        68.4053          0.366         2.2869       -49.7849        -8.6144         0.7533         0.8957
      6661.0000           1.01       109.8805        104.735        46.8575        58.8937        62.1057         0.3727         2.3227       -48.7867         -7.621         0.6193         0.9093
      6661.5000         0.9915       101.5096        96.3228        44.7852        57.9578         58.711           0.38         2.3584        -47.749        -6.5881          0.547         0.9235
      6662.0000         0.9617         94.573        91.2989        44.7686        56.8495        58.6888         0.3894         2.3782       -48.8788        -7.7227         0.5466         0.9079
      6662.5000          0.918         92.681        88.0814        45.4323        55.2935        59.7826         0.3988         2.3775       -50.0195        -8.8682         0.5698         0.8922
      6663.0000         0.9797        92.2543        87.4008        46.3391        53.6323        61.2752         0.4092         2.3704       -50.8154        -9.6689         0.6016         0.8812
      6663.5000         0.9848        93.2979        87.8678        47.6541        52.3026        63.4374         0.4214         2.3669       -51.5569       -10.4152         0.6476          0.871
      6664.0000         0.9973         94.108         88.388        49.3918        51.4833        66.2931         0.4322         2.3658       -52.2732       -11.1363         0.7084         0.8611
      6664.5000         1.0245        93.8678        88.1873        50.3624        50.8759        67.8904         0.4416         2.3694       -52.7783       -11.6462         0.7423         0.8542
      6665.0000         1.0593         94.182        88.9848        50.2239          50.29        67.6681          0.451         2.3703       -53.0718       -11.9445         0.7376         0.8501
      6665.5000         1.1357         94.614        90.3948        49.3948        49.7053         66.313          0.458          2.369       -53.2714        -12.149         0.7088         0.8473
      6666.0000          1.177        94.3876        90.0578        48.9448        49.0153        65.5797         0.4637          2.361       -53.2676         -12.15         0.6932         0.8473
      6666.5000         1.2065        94.0214        88.9016        49.4493        48.5339        66.4124         0.4694         2.3442       -53.2385       -12.1257         0.7109         0.8476
      6667.0000         1.2391        94.0908         88.871        50.3771          49.84        67.9394         0.4724           2.33        -53.053        -11.945         0.7434         0.8501
      6667.5000         1.2531        95.9584        90.8114        51.3452        50.1287        69.5326         0.4754         2.3183       -52.3779       -11.2747         0.7773         0.8593
      6668.0000         1.2515       100.5061        95.5968         52.404        50.6461        71.2745         0.4734         2.3161       -51.6365       -10.5381         0.8144         0.8693
      6668.5000         1.2394         103.48        98.3919        53.9334        51.4324        73.7885         0.4664         2.3176        -50.424        -9.3304         0.8678         0.8859
      6669.0000         1.1776       106.1356       103.2967        55.9309        52.3085        77.0704         0.4595         2.3193       -49.2175        -8.1287         0.9377         0.9023
      6669.5000         1.1279       108.3531       104.3528         57.415        53.1093          79.51         0.4525         2.3196       -47.8076        -6.7236         0.9896         0.9216
      6670.0000         1.0795       108.6298       102.8236        57.6061        53.7208        79.8285         0.4454         2.3146        -46.485        -5.4058         0.9964         0.9396
      6670.5000         1.0282       107.8661       102.9112        56.9843        54.5616        78.8134          0.438         2.2928       -45.6251        -4.5507         0.9748         0.9514
      6671.0000         0.9867       107.9685       105.7492         56.464        55.2271        77.9649         0.4307         2.2639       -44.8058        -3.7363         0.9567         0.9625
      6671.5000         0.9046       108.6909       107.9645         55.453        56.0679        76.3113         0.4239          2.217        -43.904        -2.8393         0.9215         0.9748
      6672.0000         0.8742       110.9868       108.9176         54.377        56.5999        74.5511         0.4189         2.2093        -43.299        -2.2391         0.8841          0.983
      6672.5000         0.8641       112.3263       108.4421        53.1111        57.5724        72.4794         0.4139          2.217       -42.7269        -1.6718           0.84         0.9908
      6673.0000         0.8504       112.7915       107.5545        53.8035        58.4976        73.6203         0.4089         2.2351       -42.2227        -1.1724         0.8643         0.9976
      6673.5000         0.8335       112.5031       107.1617        56.0804        59.4198        77.3605         0.4037         2.2617       -41.8469        -0.8014         0.9438              1
      6674.0000           0.81       112.3018       107.0814        58.3696        60.1026        81.1209         0.3979          2.271       -41.4872        -0.4465              1              1
      6674.5000         0.7951       112.2787       107.9022        59.0406        60.8279        82.2267          0.392          2.271       -41.2131        -0.1772              1              1
      6675.0000         0.7851       113.3169         109.23        59.3972        61.3997        82.8167         0.3862         2.2672       -40.9725         0.0586              1              1
      6675.5000         0.7678         115.04       110.9607        58.8163        61.6968        81.8687         0.3821         2.2538       -40.7679         0.2584              1              1
      6676.0000         0.7574       116.0375        112.518         58.385        62.0984        81.1661         0.3784         2.2404       -40.5879         0.4336              1              1
      6676.5000         0.7453       116.8562       113.8572        58.7961        62.5463        81.8455         0.3747         2.2321        -40.486         0.5307              1              1
      6677.0000         0.7364       117.7006       114.9158        59.8071         62.777        83.5091          0.371         2.2297       -40.3841         0.6277              1              1
      6677.5000         0.7292       118.3773       115.0852        60.7152        62.9892        85.0038         0.3671         2.2291       -40.3115         0.6955              1              1
      6678.0000         0.7219       118.3608       114.6619        60.4376        63.1938        84.5534         0.3628         2.2301       -40.2584         0.7438              1              1
      6678.5000         0.7186       117.9209       113.8744        59.6172         63.205        83.2125         0.3586         2.2309       -40.2053         0.7921              1              1
      6679.0000         0.7154       117.4056       112.8403        59.6362        63.1799        83.2486         0.3544         2.2321       -40.1523         0.8403              1              1
      6679.5000         0.7134       116.9009       111.9264         59.858        63.1548        83.6175         0.3515          2.234       -40.1036         0.8842              1              1
