#------------------------------------------------------------------------------
# Created by    : vladimir.rabinovich
# Created on    : 09/19/2023 17:22:50
#------------------------------------------------------------------------------
~Version Information Section
VERS.           2.0     :   CWLS log ASCII Standard - VERSION 2.0
WRAP.           NO      :   One line per depth step
~Well Information Section
#MNEM       .UNIT                                         VALUE :DESCRIPTION
#------------------------------------------------------------------------------
STRT        .FT                                            1142 :START DEPTH
STOP        .FT                                           15630 :STOP DEPTH
STEP        .FT                                             0.5 :STEP      
NULL        .                                           -999.25 :NULL      
COMP        .                                     PRIMARY FUELS :COMPANY   
WELL        .                                ST TR 00520-L SE/4 :WELL      
FLD         .                                          EL GORDO :FIELD     
LOC         .                                                   :LOCATION  
CNTY        .                      MATAGORDA ISLAND LARGE BLOCK :LOCATION  
STAT        .                                             TEXAS :STATE     
CTRY        .                                     UNITED STATES :COUNTRY   
SRVC        .                                                   :SERVICE COMPANY
DATE        .                             9/13/2023 11:19:05 AM :LOG DATE  
API         .                                    42703303520000 :API NUMBER
UWI         .                                    42703303520000 :UNIQUE WELL ID
XCOORD      .                                  629148.716839967 :SURFACE X 
YCOORD      .                                   10306131.761235 :SURFACE Y 
LAT         .                                        28.3634759 :LATITUDE  
LON         .                                       -96.1446235 :LONGITUDE 
ELEV        .FT                                             101 :ELEVATION VALUE
ELEV_TYPE   .                                                KB :ELEVATION REFERENCE TYPE
~Curve Information Section
#MNEM       .UNIT                                      API CODE :CURVE DESCRIPTION
#------------------------------------------------------------------------------
DEPT        .FT                                                 :DEPTH     
DT          .US/F                                               :          
ILD         .OHMM                                               :          
SP          .MV                                                 :          
SP_NORM     .MV                                                 :SP Normalized
VSH_SP      .V/V                                                :Volume of Shale from SP
~A        DEPTH             DT            ILD             SP        SP_NORM         VSH_SP
# ...
      2110.0000       176.3293         0.6191        87.9083     -0.8081818              1
      2110.5000       177.0444         0.6119        87.7321     -0.9909821              1
      2111.0000       177.7595         0.5925        87.4537      -1.275978              1
      2111.5000       177.8879         0.5733        86.9161      -1.820168              1
      2112.0000        177.991         0.5508        86.3652       -2.37767      0.9730235
      2112.5000       177.9736         0.5312        85.7767      -2.972755      0.9305175
      2113.0000       177.8665         0.5144        85.1881      -3.567947      0.8880038
      2113.5000       177.7593         0.5024        84.5387      -4.223946      0.8411468
      2114.0000       177.6782         0.4953        83.9767      -4.792542      0.8005328
      2114.5000       177.6343         0.5002        83.8877       -4.88813       0.793705
      2115.0000       177.5903         0.5078        84.1675      -4.614922      0.8132199
      2115.5000       177.4241         0.5171        84.4471      -4.341919      0.8327201
      2116.0000       176.9124         0.5344        84.8458      -3.949814      0.8607276
      2116.5000       176.3994         0.5523        85.5189       -3.28331       0.908335
      2117.0000       175.0686         0.5707        86.1436      -2.665199      0.9524857
      2117.5000       173.7375         0.5898        86.6454      -2.169991      0.9878578
      2118.0000       172.5073         0.5992        87.1307      -1.691292              1
      2118.5000       171.3528         0.6079        87.6083      -1.220284              1
      2119.0000        170.198         0.6167         87.813      -1.022171              1
      2119.5000       169.2446          0.622        87.7894      -1.052368              1
      2120.0000       168.3008         0.6256        87.6647      -1.183662              1
      2120.5000       167.8198         0.6292         87.264      -1.590958              1
      2121.0000       167.5281          0.631        86.7579      -2.103653      0.9925962
      2121.5000       167.6348         0.6326         85.993      -2.875145      0.9374896
      2122.0000       167.8523         0.6342        85.2158      -3.658943      0.8815041
      2122.5000       167.9983         0.6355        84.5736      -4.307732       0.835162
      2123.0000       168.0176         0.6355        84.3368      -4.551125      0.8177768
      2123.5000       168.0371         0.6355         84.458      -4.436516      0.8259631
      2124.0000       167.7124         0.6355        84.8009      -4.100212      0.8499848
      2124.5000       167.3777         0.6336        85.4833      -3.424408      0.8982566
      2125.0000       167.3931         0.6254        86.1093         -2.805         0.9425
      2125.5000        168.115         0.6174        86.5675      -2.353394      0.9747576
      2126.0000       169.0142         0.6095        86.7845       -2.14299      0.9897864
      2126.5000       169.9128         0.5969        86.8442      -2.089882      0.9935799
      2127.0000       170.5969         0.5828        86.7999      -2.140778      0.9899445
      2127.5000       171.1809         0.5689        86.5339      -2.413368      0.9704737
      2128.0000       171.3708         0.5515        86.2103      -2.743568       0.946888
      2128.5000       171.3928          0.532        85.7158      -3.244659      0.9110957
      2129.0000       171.2209          0.521        85.2212       -3.74585      0.8752965
      2129.5000       171.3154         0.5134         84.868      -4.105644      0.8495969
      2130.0000       171.6558         0.5181        84.5309      -4.449341      0.8250471
      2130.5000       171.9717         0.5227        84.8649      -4.121933      0.8484334
      2131.0000       171.4526         0.5275        85.4618      -3.531624      0.8905983
      2131.5000       170.9365         0.5318        86.0494      -2.950615      0.9320989
      2132.0000       170.4336         0.5362         86.766      -2.240616      0.9828132
      2132.5000       169.9307         0.5406        87.2665      -1.746704              1
      2133.0000       169.4448         0.5451        87.4506      -1.569199              1
      2133.5000       169.0334           0.55        87.5812       -1.44519              1
      2134.0000       168.6221         0.5552        87.5614      -1.471588              1
      2134.5000       168.2107         0.5604        87.5416      -1.497978              1
      2135.0000       167.7996         0.5657        87.5219      -1.524277              1
      2135.5000       167.4565         0.5713        87.5021      -1.550667              1
      2136.0000       167.1523         0.5785        87.4161      -1.643265              1
      2136.5000       166.8481         0.5857        87.0977      -1.968254              1
      2137.0000       166.4131         0.5931        87.3192      -1.753349              1
      2137.5000       165.8005         0.6006        87.3403      -1.738838              1
      2138.0000       165.1877         0.6084        87.3585      -1.727242              1
      2138.5000       164.3994         0.6164        87.0651      -2.027229       0.998055
      2139.0000       163.6035         0.6245        86.8733      -2.225624       0.983884
      2139.5000       162.8376         0.6327        86.8317      -2.273811       0.980442
      2140.0000       162.3091         0.6397         86.613      -2.499115      0.9643489
      2140.5000       161.7803         0.6459        86.2271      -2.891609      0.9363136
      2141.0000       161.2515         0.6521        85.6423      -3.482994      0.8940719
      2141.5000       160.7229         0.6583        85.2943      -3.837593      0.8687434
      2142.0000       160.4766         0.6634        86.0267      -3.111786      0.9205867
      2142.5000       160.2434         0.6624        87.1469      -1.998184              1
      2143.0000       160.0103         0.6613        87.9082      -1.243469              1
      2143.5000       160.4116         0.6623        88.2128     -0.9454651              1
      2144.0000       160.9836         0.6668        88.3789      -0.785965              1
      2144.5000       161.3276         0.6712         88.192      -0.979454              1
      2145.0000       161.4812         0.6753        87.9027      -1.275345              1
      2145.5000       161.0664         0.6791        87.6388      -1.545837              1
      2146.0000       160.4695         0.6828        87.3326      -1.858635              1
      2146.5000       159.8726         0.6873         87.024      -2.173828      0.9875837
      2147.0000       159.6333          0.709        86.7589      -2.445518      0.9681773
      2147.5000        159.406         0.7239        86.5098       -2.70121      0.9499136
      2148.0000       159.1787         0.7391        86.3705      -2.847115      0.9394918
      2148.5000       158.9897         0.7472        86.2622      -2.962006      0.9312853
      2149.0000       158.9226         0.7552        86.1705      -3.060295      0.9242646
      2149.5000       158.8555         0.7626        86.6616       -2.57579      0.9588721
      2150.0000       158.7878         0.7679        87.4066      -1.837387              1
      2150.5000       158.6216         0.7732        88.3065     -0.9440765              1
      2151.0000       158.4551         0.7786        88.7843     -0.4728699              1
      2151.5000       158.2886         0.7816        88.8099     -0.4538727              1
      2152.0000       158.0642         0.7846         88.757     -0.5133591              1
      2152.5000       157.7949         0.7876        88.5488      -0.728157              1
      2153.0000       157.5256         0.7904        88.8049     -0.4786453              1
      2153.5000       157.2563         0.7904        88.7308     -0.5593491              1
