#------------------------------------------------------------------------------
# Created by    : vladimir.rabinovich
# Created on    : 09/19/2023 17:20:35
#------------------------------------------------------------------------------
~Version Information Section
VERS.           2.0     :   CWLS log ASCII Standard - VERSION 2.0
WRAP.           NO      :   One line per depth step
~Well Information Section
#MNEM       .UNIT                                         VALUE :DESCRIPTION
#------------------------------------------------------------------------------
STRT        .FT                                             504 :START DEPTH
STOP        .FT                                            9361 :STOP DEPTH
STEP        .FT                                             0.5 :STEP      
NULL        .                                           -999.25 :NULL      
COMP        .                                      SHELL OIL CO :COMPANY   
WELL        .                                OCS 00704 ST00BP00 :WELL      
FLD         .                                           WILDCAT :FIELD     
LOC         .                                                   :LOCATION  
CNTY        .                             GALVESTON LARGE BLOCK :LOCATION  
STAT        .                                             TEXAS :STATE     
CTRY        .                                     UNITED STATES :COUNTRY   
SRVC        .                                                   :SERVICE COMPANY
DATE        .                             9/13/2023 11:19:25 AM :LOG DATE  
API         .                                    42706000430000 :API NUMBER
UWI         .                                    42706000430000 :UNIQUE WELL ID
XCOORD      .                                  1136254.96267488 :SURFACE X 
YCOORD      .                                  10526383.5552877 :SURFACE Y 
LAT         .                                         28.996505 :LATITUDE  
LON         .                                        -94.577519 :LONGITUDE 
ELEV        .FT                                              42 :ELEVATION VALUE
ELEV_TYPE   .                                                KB :ELEVATION REFERENCE TYPE
~Curve Information Section
#MNEM       .UNIT                                      API CODE :CURVE DESCRIPTION
#------------------------------------------------------------------------------
DEPT        .FT                                                 :DEPTH     
ASN         .OHMM                                               :          
DT          .US/F                                               :          
LN          .OHMM                                               :          
SP          .MV                                                 :          
SP_NORM     .MV                                                 :SP Normalized
VSH_SP      .V/V                                                :Volume of Shale from SP
~A        DEPTH            ASN             DT             LN             SP        SP_NORM         VSH_SP
# ...
      5216.0000         0.7914       125.3084        -999.25       -65.7623      -10.88085       0.659281
      5216.5000         0.7808       125.3091        -999.25        -66.337      -11.45951      0.6393272
      5217.0000           0.77       124.7948        -999.25       -66.9119      -12.03837      0.6193665
      5217.5000         0.7591       123.3904        -999.25       -67.4866      -12.61703      0.5994127
      5218.0000         0.7519       121.1477        -999.25       -67.9984      -13.13279      0.5816281
      5218.5000         0.7611        118.905        -999.25        -68.451      -13.58934      0.5658847
      5219.0000         0.7703       116.5317        -999.25       -68.9038       -14.0461      0.5501343
      5219.5000         0.7794       113.7579        -999.25       -69.0664      -14.21266       0.544391
      5220.0000         0.7882       113.9039        -999.25       -68.9312      -14.08142      0.5489165
      5220.5000          0.796       114.6191        -999.25       -68.7959      -13.95008      0.5534456
      5221.0000         0.8039       116.7394        -999.25       -68.6003      -13.75844      0.5600537
      5221.5000         0.8117       113.9787        -999.25       -68.2646       -13.4267      0.5714931
      5222.0000         0.8196       114.1454        -999.25       -67.9286      -13.09465       0.582943
      5222.5000         0.8251       114.7909        -999.25       -67.8463      -13.01631      0.5856444
      5223.0000         0.8244       118.3462        -999.25       -68.0034      -13.17738      0.5800905
      5223.5000         0.8225       122.5552        -999.25       -68.2782      -13.45613      0.5704783
      5224.0000         0.8029       124.1564        -999.25       -68.5649       -13.7468      0.5604553
      5224.5000         0.7834       124.5931        -999.25       -68.8514      -14.03725      0.5504397
      5225.0000         0.7636       125.3931        -999.25       -68.7762      -13.96601      0.5528963
      5225.5000         0.7434       124.0131        -999.25       -68.6591      -13.85287      0.5567976
      5226.0000         0.7264       123.6992        -999.25       -68.5417      -13.73943      0.5607094
      5226.5000         0.7293       123.2134        -999.25       -68.4247      -13.62638      0.5646076
      5227.0000         0.7323       123.0702        -999.25       -68.8542      -14.05984      0.5496605
      5227.5000         0.7353       125.5796        -999.25       -69.3413       -14.5509      0.5327275
      5228.0000         0.7441       126.9232        -999.25       -69.2684      -14.48196      0.5351047
      5228.5000         0.7552       125.4706        -999.25       -68.9414      -14.15892      0.5462443
      5229.0000         0.7664       126.0017        -999.25       -68.6144      -13.83588      0.5573834
      5229.5000         0.7775       128.8916        -999.25       -68.2875      -13.51294      0.5685195
      5230.0000         0.7919       131.7815        -999.25       -67.9604       -13.1898      0.5796621
      5230.5000         0.8159       133.4674        -999.25       -67.6241      -12.85745      0.5911223
      5231.0000         0.8399       132.4507        -999.25       -67.2788      -12.51611      0.6028926
      5231.5000         0.8468       132.2333        -999.25       -66.9332      -12.17447      0.6146735
      5232.0000          0.849       132.5974        -999.25       -66.5876      -11.83283      0.6264541
      5232.5000         0.8539       135.6747        -999.25       -66.2179      -11.46709      0.6390659
      5233.0000         0.8606       135.8833        -999.25       -65.6948      -10.94795      0.6569673
      5233.5000         0.8672       136.1719        -999.25       -65.1719        -10.429      0.6748619
      5234.0000         0.8739       137.7471        -999.25       -64.6488       -9.90987      0.6927631
      5234.5000         0.8806         138.18        -999.25       -63.9048      -9.169823       0.718282
      5235.0000         0.8873       138.3425        -999.25       -63.0928      -8.361782      0.7461454
      5235.5000         0.8962       136.5604        -999.25        -62.306      -7.578941        0.77314
      5236.0000           0.91       132.5146        -999.25       -61.5372      -6.814102      0.7995137
      5236.5000         0.9092       128.4688        -999.25       -61.0573      -6.338158      0.8159256
      5237.0000         0.8928        127.022        -999.25       -61.0879      -6.372715       0.814734
      5237.5000         0.8665       129.6682        -999.25       -61.7206      -7.009377      0.7927801
      5238.0000         0.8305        132.818        -999.25       -62.3533      -7.646034      0.7708264
      5238.5000         0.8049       134.9331        -999.25       -62.9859      -8.282593      0.7488761
      5239.0000         0.7972       134.8099        -999.25       -63.6917      -8.992352      0.7244017
      5239.5000         0.7895       132.1007        -999.25       -64.5161      -9.820709      0.6958376
      5240.0000         0.7819         131.52        -999.25       -65.3406      -10.64917        0.66727
      5240.5000         0.7742       131.5209        -999.25       -65.4542      -10.76673      0.6632163
      5241.0000         0.7705       132.0306        -999.25       -64.9795      -10.29599      0.6794487
      5241.5000          0.768       133.3396        -999.25       -64.5043      -9.824749      0.6956983
      5242.0000         0.7721       132.8318        -999.25       -64.0297      -9.354103      0.7119275
      5242.5000         0.7781       132.6872        -999.25        -63.424      -8.752361      0.7326772
      5243.0000         0.7842       135.1865        -999.25       -63.7524      -9.084721      0.7212166
      5243.5000         0.7902       138.3664        -999.25       -64.7012      -10.03748      0.6883627
      5244.0000         0.7948       138.1471        -999.25       -65.5138      -10.85404      0.6602056
      5244.5000         0.7968       137.5132        -999.25       -66.3258      -11.66999      0.6320692
      5245.0000         0.7988       136.7616        -999.25       -66.7173      -12.06546      0.6184325
      5245.5000         0.8008       136.4716        -999.25       -66.9563      -12.30841      0.6100547
      5246.0000          0.801       136.3272        -999.25       -67.0591      -12.41517      0.6063735
      5246.5000         0.7975       138.1258        -999.25       -66.8785      -12.23853      0.6124644
      5247.0000         0.7939       140.8545        -999.25        -66.698      -12.06199      0.6185521
      5247.5000         0.7903       142.6428        -999.25       -66.4158      -11.78375      0.6281465
      5248.0000         0.7867       143.0584        -999.25       -65.9327      -11.30461      0.6446687
      5248.5000         0.7831       144.1669        -999.25       -65.4491      -10.82496      0.6612082
      5249.0000         0.7689       145.2717        -999.25       -64.9655      -10.34533      0.6777474
      5249.5000         0.7536       144.4026        -999.25       -64.3362      -9.719982       0.699311
      5250.0000         0.7383       142.3252        -999.25       -64.1349      -9.522644      0.7061157
      5250.5000         0.7236       140.8378        -999.25       -64.7202       -10.1119      0.6857966
      5251.0000         0.7123        140.842        -999.25       -65.9321      -11.32776      0.6438704
      5251.5000         0.7011       139.1715        -999.25       -67.2391      -12.63872      0.5986649
      5252.0000         0.6898        139.027        -999.25       -69.7811      -15.18467      0.5108733
      5252.5000         0.6785       135.9124        -999.25       -71.8175      -17.22503      0.4405161
      5253.0000         0.6673       131.2485        -999.25       -73.7739       -19.1854      0.3729173
      5253.5000         0.6588       126.5846        -999.25       -75.5939      -21.00936      0.3100221
