#------------------------------------------------------------------------------
# Created by    : vladimir.rabinovich
# Created on    : 09/19/2023 17:19:58
#------------------------------------------------------------------------------
~Version Information Section
VERS.           2.0     :   CWLS log ASCII Standard - VERSION 2.0
WRAP.           NO      :   One line per depth step
~Well Information Section
#MNEM       .UNIT                                         VALUE :DESCRIPTION
#------------------------------------------------------------------------------
STRT        .FT                                             782 :START DEPTH
STOP        .FT                                            8251 :STOP DEPTH
STEP        .FT                                             0.5 :STEP      
NULL        .                                           -999.25 :NULL      
COMP        .                                     TALOS ERT LLC :COMPANY   
WELL        .                               OCS G06037 ST00BP00 :WELL      
FLD         .                       MATAGORDA ISLAND BLOCK 0619 :FIELD     
LOC         .                                                   :LOCATION  
CNTY        .                      MATAGORDA ISLAND LARGE BLOCK :LOCATION  
STAT        .                                             TEXAS :STATE     
CTRY        .                                     UNITED STATES :COUNTRY   
SRVC        .                                                   :SERVICE COMPANY
DATE        .                             9/13/2023 11:18:52 AM :LOG DATE  
API         .                                    42703402240000 :API NUMBER
UWI         .                                    42703402240000 :UNIQUE WELL ID
XCOORD      .                                  606760.800591327 :SURFACE X 
YCOORD      .                                  10227689.0556145 :SURFACE Y 
LAT         .                                        28.1463556 :LATITUDE  
LON         .                                       -96.2076889 :LONGITUDE 
ELEV        .FT                                              77 :ELEVATION VALUE
ELEV_TYPE   .                                                KB :ELEVATION REFERENCE TYPE
~Curve Information Section
#MNEM       .UNIT                                      API CODE :CURVE DESCRIPTION
#------------------------------------------------------------------------------
DEPT        .FT                                                 :DEPTH     
ASFL        .OHMM                                               :          
CALI        .IN                                                 :          
CILD        .MMHO                                               :          
DRHO        .G/C3                                               :          
DT          .US/F                                               :          
GR          .GAPI                                               :          
GR_NORM     .GAPI                                               :GammaRay Normalized
ILD         .OHMM                                               :          
ILM         .OHMM                                               :          
NPHI        .%                                                  :          
RHOB        .G/C3                                               :          
SFL         .OHMM                                               :          
SP          .MV                                                 :          
SP_NORM     .MV                                                 :SP Normalized
VSH_GR      .V/V                                                :Volume of Shale from GR
VSH_SP      .V/V                                                :Volume of Shale from SP
~A        DEPTH           ASFL           CALI           CILD           DRHO             DT             GR        GR_NORM            ILD            ILM           NPHI           RHOB            SFL             SP        SP_NORM         VSH_GR         VSH_SP
# ...
      4766.0000         0.9849        10.8833       1099.813         0.0011       109.9037        65.3358        77.5981         0.8684         0.8911        36.6199         2.2833         0.9666        -44.998     -0.6503983      0.9488957              1
      4766.5000         0.9971        10.9957       1082.627         0.0043       108.7606         66.767       79.02959         0.9028         0.9075        38.0406          2.293         0.9643       -44.9588     -0.6163254      0.9793529              1
      4767.0000         1.0165        11.1303       1065.453         0.0047       106.8608        67.1017       79.36458         0.9349          0.931        38.7253         2.3012         0.9679       -44.9063     -0.5689507      0.9864804              1
      4767.5000         1.0392        11.1147        1048.18         0.0029       105.8583        65.6058       77.86897         0.9559         0.9553        37.6145         2.2939          0.989       -44.8453     -0.5130768      0.9546588              1
      4768.0000         1.0588        11.0118       1023.764         0.0007       105.3474        64.4049       76.66836         0.9767         0.9804        35.3595         2.2935         1.0359       -44.8072     -0.4801025       0.929114              1
      4768.5000         1.0702        10.9487       999.3721        -0.0001        104.927        63.6683       75.93204         0.9943         1.0048        32.9293         2.3029         1.0931       -44.6771     -0.3551292      0.9134476              1
      4769.0000         1.0816        10.8984       974.9551         0.0007        104.981        63.5649       75.82893         1.0147         1.0287        32.9557          2.313         1.1254       -44.5253     -0.2084541      0.9112539              1
      4769.5000         1.0895        10.8874       956.3701         0.0019         105.28        63.7004       75.96472         1.0333         1.0452        34.0397         2.3122         1.1382       -44.4383     -0.1265831       0.914143              1
      4770.0000         1.0918        10.8837       943.4687         0.0021       106.0937         63.798       76.06261         1.0469         1.0615        35.0307         2.3017         1.1089       -43.8231      0.4882774      0.9162257              1
      4770.5000         1.0919        10.9037       930.5674         0.0007       106.4758        63.8193        76.0842         1.0586         1.0716        34.8514         2.2978         1.0577       -43.2194        1.09198       0.916685              1
      4771.0000         1.0919        10.9254        917.665        -0.0018        105.318        62.5532       74.81839         1.0651         1.0802        34.4421         2.2963         1.0199       -42.7767       1.534679       0.889753              1
      4771.5000         1.0919        10.9567       918.2656        -0.0046       103.3458        60.8396       73.10508         1.0677         1.0858        33.6887         2.2988         1.0114       -43.0778       1.233578      0.8532996              1
      4772.0000         1.0919         10.988       921.7393        -0.0075       101.4371        60.3941       72.65987         1.0644         1.0805        32.4305         2.3041         1.0887       -43.9316      0.3797798      0.8438269              1
      4772.5000         1.0976        11.0308       925.2119        -0.0088       104.4595        62.1127       74.37875         1.0601         1.0695        31.7694         2.2938         1.1501       -44.6467     -0.3353233       0.880399              1
      4773.0000         1.1035        11.0745       931.2109        -0.0074       112.0095        64.0752       76.34155         1.0473          1.056        32.0475         2.2715          1.174       -45.0535     -0.7421227      0.9221605              1
      4773.5000         1.1094        11.1008       949.9443        -0.0071       118.0583        66.5828       78.84943         1.0291         1.0422        33.5439         2.2574         1.1315       -45.3099     -0.9985199      0.9755199              1
      4774.0000         1.1042        11.1329       968.6777        -0.0068       118.8286        66.0087       78.27562         1.0062         1.0254        35.2393         2.2643         1.0856       -45.3983      -1.086922      0.9633111              1
      4774.5000         1.0703        11.1749       987.4111        -0.0066       113.9424        65.6008       77.86801         0.9891         1.0046         35.957         2.2745         1.0515       -45.5147      -1.203323      0.9546385              1
      4775.0000         1.0459        11.2287       1001.638        -0.0049       104.6827        65.8591        78.1266         0.9626         0.9802         36.022         2.2846         1.0244       -45.5827       -1.27132      0.9601405              1
      4775.5000         1.0254        11.3049       1011.804        -0.0069       105.3389        65.6357       77.90348         0.9452         0.9629        36.0735         2.2874         0.9958       -45.6741       -1.36272      0.9553932              1
      4776.0000          1.016        11.4289       1021.678        -0.0134       108.1143        64.5419       76.80997         0.9447         0.9584        36.0913         2.2844         0.9684       -45.8978      -1.586422      0.9321271              1
      4776.5000         1.0083        11.7175       1022.043        -0.0127       109.5676          63.42       75.68836         0.9523         0.9641        35.9697         2.3026         0.9573       -46.3881      -2.076721       0.908263        0.99726
      4777.0000         1.0103        12.3044       1022.408        -0.0016       109.3727        62.7784       75.04706         0.9609         0.9713        34.3812         2.3244         0.9901       -46.8051      -2.493721      0.8946183      0.9823671
      4777.5000         1.0122        12.8057       1022.773         0.0105       105.9165        63.2949       75.56384         0.9727         0.9629        32.9738          2.347         1.0225       -47.2094      -2.898022      0.9056137      0.9679278
      4778.0000         1.0142        12.9995       1023.139         0.0237       104.6111        64.0776       76.34683         0.9781         0.9491        32.3671         2.3369         1.0487       -47.7006      -3.389221       0.922273       0.950385
      4778.5000         1.0162          12.61       1023.735         0.0248       106.3899        64.9543       77.22382         0.9672         0.9332        32.3519         2.2964         1.0654       -48.3152      -4.003822      0.9409324      0.9284349
      4779.0000         1.0182        12.3639        1024.49         0.0135       109.4242        65.8722       78.14201         0.9525         0.9189        32.7731         2.2628         1.0433        -48.931      -4.619621      0.9604684      0.9064421
      4779.5000         1.0031        12.3537       1025.244         0.0045        111.969        66.8403        79.1104         0.9548         0.9064        33.4667         2.2488         0.9801       -49.6531      -5.341721      0.9810723      0.8806528
      4780.0000         0.9865        11.9517           1026        -0.0003       111.4135        67.9454       80.21578         0.9616         0.8981        34.4688         2.2427          0.941       -48.6818      -4.370422              1       0.915342
      4780.5000         0.9699        11.8544       1030.945        -0.0006       110.3464        68.3187       80.58938         0.9609         0.8867        35.8138         2.2354          0.922       -48.1399      -3.828522              1      0.9346957
      4781.0000         0.9557        11.9836       1043.586        -0.0004        110.071        66.8889       79.15987         0.9476         0.8749        37.9723         2.2254         0.8959       -47.7593      -3.447922      0.9821248      0.9482885
      4781.5000         0.9425        12.1867       1056.217        -0.0008       110.8567        65.8802       78.15146         0.9254         0.8644        40.3824         2.2175           0.87       -48.1662       -3.85482      0.9606693      0.9337564
