#------------------------------------------------------------------------------
# Created by    : vladimir.rabinovich
# Created on    : 09/19/2023 17:21:04
#------------------------------------------------------------------------------
~Version Information Section
VERS.           2.0     :   CWLS log ASCII Standard - VERSION 2.0
WRAP.           NO      :   One line per depth step
~Well Information Section
#MNEM       .UNIT                                         VALUE :DESCRIPTION
#------------------------------------------------------------------------------
STRT        .FT                                            4500 :START DEPTH
STOP        .FT                                           11014 :STOP DEPTH
STEP        .FT                                             0.5 :STEP      
NULL        .                                           -999.25 :NULL      
COMP        .                              FIELDWOOD ENERGY LLC :COMPANY   
WELL        .                               OCS G06156 ST00BP00 :WELL      
FLD         .                            HIGH ISLAND BLOCK 0116 :FIELD     
LOC         .                                                   :LOCATION  
CNTY        .                           HIGH ISLAND LARGE BLOCK :LOCATION  
STAT        .                                             TEXAS :STATE     
CTRY        .                                     UNITED STATES :COUNTRY   
SRVC        .                                                   :SERVICE COMPANY
DATE        .                             9/13/2023 11:19:57 AM :LOG DATE  
API         .                                    42708404240000 :API NUMBER
UWI         .                                    42708404240000 :UNIQUE WELL ID
XCOORD      .                                  1333979.30181128 :SURFACE X 
YCOORD      .                                  10635798.2403082 :SURFACE Y 
LAT         .                                         29.303317 :LATITUDE  
LON         .                                        -93.961735 :LONGITUDE 
ELEV        .FT                                             101 :ELEVATION VALUE
ELEV_TYPE   .                                                KB :ELEVATION REFERENCE TYPE
~Curve Information Section
#MNEM       .UNIT                                      API CODE :CURVE DESCRIPTION
#------------------------------------------------------------------------------
DEPT        .FT                                                 :DEPTH     
AT10        .OHMM                                               :          
AT20        .OHMM                                               :          
AT30        .OHMM                                               :          
AT60        .OHMM                                               :          
AT90        .OHMM                                               :          
CALI        .IN                                                 :          
DCAL        .IN                                                 :          
DPHI        .DEC                                                :          
DRHO        .G/C3                                               :          
DT2R        .US/F                                               :          
DT4P        .US/F                                               :          
GR          .GAPI                                               :          
GR_NORM     .GAPI                                               :GammaRay Normalized
NPOR        .DEC                                                :          
SP          .MV                                                 :          
SP_NORM     .MV                                                 :SP Normalized
TENS        .LBF                                                :          
VSH_GR      .V/V                                                :Volume of Shale from GR
VSH_SP      .V/V                                                :Volume of Shale from SP
~A        DEPTH           AT10           AT20           AT30           AT60           AT90           CALI           DCAL           DPHI           DRHO           DT2R           DT4P             GR        GR_NORM           NPOR             SP        SP_NORM           TENS         VSH_GR         VSH_SP
# ...
      6606.0000         0.8374         0.9655         0.8602         0.8811         0.9568        12.1083        -999.25         0.1704        -0.0193       217.7822        98.4614        62.9272       68.96444        -999.25       -43.3662      -19.75193       3263.293      0.7652009      0.7178296
      6606.5000         0.7946          0.937         0.8525         0.8709         0.9265        12.0477        -999.25          0.177        -0.0224       219.3806        98.6613        62.7222       68.72626        -999.25       -44.0681      -20.94514       3253.809      0.7601331      0.7007837
      6607.0000         0.7702         0.9105         0.8708          0.888         0.9058        12.0171        -999.25         0.1878        -0.0234       222.5767        98.7612        64.4199       70.70052        -999.25       -44.4689      -21.62606       3254.305      0.8021388      0.6910563
      6607.5000         0.8268         0.9034         0.9018         0.9054         0.9254        11.9966        -999.25         0.1998        -0.0275       227.3726        98.8611        66.0177       72.55862        -999.25       -44.4689      -21.62507       3264.785      0.8416728      0.6910704
      6608.0000         0.8629         0.9225         0.9368         0.9312         0.9506         11.986        -999.25         0.2005        -0.0275       230.9702        99.5605        67.6165       74.41788        -999.25       -43.7673      -20.43038       3265.277      0.8812316      0.7081374
      6608.5000         0.8872         0.9588         0.9701         0.9584         0.9569        11.9355        -999.25         0.1975        -0.0276       238.1631       101.4604        69.4152       76.50959        -999.25       -42.8654      -18.89491       3265.777       0.925736      0.7300728
      6609.0000         0.8893         0.9593         0.9648         0.8984         0.9283        11.8347        -999.25         0.1969        -0.0246       244.1599       105.2557        69.9111       77.08641        -999.25       -42.1638      -17.70022       3236.332      0.9380087      0.7471397
      6609.5000         0.8682         0.9131          0.888         0.8504         0.8815         11.754        -999.25         0.1994        -0.0237       250.1475       107.3521        69.6056       76.73137        -999.25       -41.9639      -17.35912       3226.848      0.9304547      0.7520126
      6610.0000           0.83         0.8706          0.827         0.8057         0.8446        11.7034        -999.25          0.209        -0.0257       246.9561       106.2552        68.0967       74.97704        -999.25       -43.0653      -19.23204       3247.305      0.8931284      0.7252566
      6610.5000         0.7993         0.8354         0.7986         0.7943         0.8784        11.6929        -999.25         0.2234        -0.0238       237.3643       103.4562        65.0863       71.47677        -999.25       -45.1707      -22.81315        3237.82      0.8186547      0.6740978
      6611.0000         0.7778           0.83         0.8269          0.819         0.9314        11.7125        -999.25         0.2384        -0.0218       225.7756        97.5625        62.8795       68.91091        -999.25       -47.7754      -27.24376       3228.297      0.7640619      0.6108034
      6611.5000         0.7723         0.8782         0.8562         0.8725         0.9888        11.6719        -999.25         0.2396        -0.0189       218.1812        95.1647         58.963       64.35703        -999.25       -49.1783      -29.62965       3248.793      0.6671709      0.5767193
      6612.0000         0.7655          0.929         0.8892         0.8716         1.0421        11.5732        -999.25         0.2311        -0.0148       218.9019        95.1445        56.2723        61.2285        -999.25       -49.3787      -29.96962       3247.547      0.6006065      0.5718626
      6612.5000         0.7485         0.8944         0.8387         0.8009         0.9884         11.453        -999.25         0.2186        -0.0138       221.6802        98.4391        56.0717       60.99545        -999.25       -49.2785      -29.79815       3267.465      0.5956478      0.5743122
      6613.0000         0.7253         0.8399          0.779         0.7467         0.9061        11.4529        -999.25         0.2102        -0.0128       227.6531       105.4243        57.5734        62.7418        -999.25       -48.8777      -29.11524       3287.422      0.6328042      0.5840681
      6613.5000            0.7          0.794         0.7311         0.7062         0.8313         11.493        -999.25         0.2084        -0.0158       236.4229       108.5167        60.9823       66.70583        -999.25       -48.4769      -28.43232       3277.445      0.7171454       0.593824
      6614.0000         0.6631         0.7528         0.6755         0.6534         0.7705        11.5731        -999.25          0.215        -0.0178        244.002       108.3119        61.7832       67.63731        -999.25       -48.6768      -28.77144       3227.566      0.7369641      0.5889794
      6614.5000         0.6291         0.7112         0.6149         0.6063         0.7373        11.6533        -999.25         0.2311        -0.0208       253.1704       108.3071        60.4818       66.12424        -999.25       -49.7795      -30.64657       3217.598      0.7047712      0.5621919
      6615.0000         0.6003         0.6557         0.5904         0.5762         0.7074        11.6934        -999.25         0.2509        -0.0277       257.5439       107.6025        55.0704       59.83211        -999.25       -50.8817      -32.52084        3287.41      0.5708959      0.5354165
      6615.5000         0.6019         0.6232         0.5883         0.5971         0.7228        11.7435        -999.25         0.2647        -0.0387       250.7327        104.901        53.2662        57.7344        -999.25        -51.583      -33.71304       3277.445      0.5262638      0.5183852
      6616.0000         0.6237         0.6735         0.6211         0.6418         0.7581        11.8036        -999.25         0.2527        -0.0367       241.9202       103.3971        53.3667       57.85145        -999.25        -50.681      -32.17739       3297.402      0.5287543       0.540323
      6616.5000         0.6437         0.7177         0.6568         0.6849         0.7942        11.8237        -999.25         0.2377        -0.0327       235.5066       102.2932        55.3709       60.18211        -999.25         -50.28      -31.49414       3307.383      0.5783427      0.5500838
      6617.0000         0.6744          0.769         0.7002         0.7124         0.8236        11.7936        -999.25         0.2323        -0.0297        233.885       101.9882        56.0723       60.99789        -999.25       -49.8797      -30.81208       3277.445      0.5956997      0.5598274
      6617.5000         0.6865           0.81         0.7307         0.7295         0.8462        11.7735        -999.25         0.2365        -0.0267       229.8704       101.8833        55.6713        60.5318        -999.25       -49.9799      -30.98157       3267.504      0.5857831      0.5574061
      6618.0000         0.6948         0.7942         0.7481         0.7412         0.8584        11.8337        -999.25         0.2371        -0.0277       226.6543       101.6786        54.6698       59.36747        -999.25       -50.5812      -32.00362       3267.465      0.5610099      0.5428054
      6618.5000         0.6966         0.7807          0.756         0.7467         0.8567        11.8838        -999.25         0.2305        -0.0307       228.2344       101.7736        54.0686       58.66858        -999.25       -51.4833      -33.53745       3257.484      0.5461401      0.5208936
      6619.0000         0.6939         0.7721         0.7532         0.7435         0.8381        11.8938        -999.25         0.2275        -0.0377       230.2112       101.7686        53.4674       57.96971        -999.25       -52.0848      -34.55984       3237.523      0.5312704      0.5062879
