#------------------------------------------------------------------------------
# Created by    : vladimir.rabinovich
# Created on    : 09/19/2023 17:22:30
#------------------------------------------------------------------------------
~Version Information Section
VERS.           2.0     :   CWLS log ASCII Standard - VERSION 2.0
WRAP.           NO      :   One line per depth step
~Well Information Section
#MNEM       .UNIT                                         VALUE :DESCRIPTION
#------------------------------------------------------------------------------
STRT        .FT                                             456 :START DEPTH
STOP        .FT                                           11667 :STOP DEPTH
STEP        .FT                                             0.5 :STEP      
NULL        .                                           -999.25 :NULL      
COMP        .                              PATRICK PETROLEUM CO :COMPANY   
WELL        .                                     ST TR 00693-L :WELL      
FLD         .                                           WILDCAT :FIELD     
LOC         .                                                   :LOCATION  
CNTY        .                      MATAGORDA ISLAND LARGE BLOCK :LOCATION  
STAT        .                                             TEXAS :STATE     
CTRY        .                                     UNITED STATES :COUNTRY   
SRVC        .                                                   :SERVICE COMPANY
DATE        .                             9/13/2023 11:12:01 AM :LOG DATE  
API         .                                    42703302660000 :API NUMBER
UWI         .                                    42703302660000 :UNIQUE WELL ID
XCOORD      .                                  384413.417453263 :SURFACE X 
YCOORD      .                                  10143960.4717662 :SURFACE Y 
LAT         .                                        27.8986234 :LATITUDE  
LON         .                                       -96.8882217 :LONGITUDE 
ELEV        .FT                                              92 :ELEVATION VALUE
ELEV_TYPE   .                                                KB :ELEVATION REFERENCE TYPE
~Curve Information Section
#MNEM       .UNIT                                      API CODE :CURVE DESCRIPTION
#------------------------------------------------------------------------------
DEPT        .FT                                                 :DEPTH     
CILD        .MMHO                                               :          
DPHI        .%                                                  :          
DT          .US/F                                               :          
GR          .GAPI                                               :          
GR_NORM     .GAPI                                               :GammaRay Normalized
ILD         .OHMM                                               :          
SN          .OHMM                                               :          
SP          .MV                                                 :          
SP_NORM     .MV                                                 :SP Normalized
VSH_GR      .V/V                                                :Volume of Shale from GR
VSH_SP      .V/V                                                :Volume of Shale from SP
~A        DEPTH           CILD           DPHI             DT             GR        GR_NORM            ILD             SN             SP        SP_NORM         VSH_GR         VSH_SP
# ...
     10153.5000         1339.2        -999.25       127.7727          95.65       91.88976          0.719         0.7832         -29.33      -3.139523              1      0.9610996
     10154.0000         1318.4        -999.25          126.3          94.65       90.82299         0.7347         0.7879          -29.4      -3.209522              1      0.9598269
     10154.5000         1289.6        -999.25         125.24          93.35       89.43707         0.7504         0.7949          -29.3      -3.109522              1      0.9616451
     10155.0000           1260        -999.25         124.57          91.21       87.15753         0.7637            0.8          -29.4      -3.209522              1      0.9598269
     10155.5000           1222        -999.25         123.89        90.0088       85.87672         0.7729            0.8         -29.47      -3.279522              1      0.9585541
     10156.0000           1212        -999.25            123        88.6593       84.43815         0.7808          0.798         -29.21      -3.019522              1      0.9632815
     10156.5000         1214.4        -999.25         121.96        87.2626       82.94936         0.7818         0.7993         -28.53      -2.339523              1       0.975645
     10157.0000         1239.6        -999.25          121.5        87.4242       83.11833         0.7778         0.7982         -27.95      -1.759523              1      0.9861905
     10157.5000         1260.8        -999.25         122.18        89.1515       84.95293         0.7672         0.7887         -27.75      -1.559523              1      0.9898269
     10158.0000       1282.909        -999.25         123.68        90.0452       85.90074         0.7553         0.7753          -27.3      -1.109522              1      0.9980087
     10158.5000           1306        -999.25         125.75        89.9289       85.77409         0.7435         0.7623         -27.66      -1.469522              1      0.9914632
     10159.0000         1322.4        -999.25         127.95        89.0303       84.81518         0.7306         0.7466         -27.98      -1.789522              1      0.9856451
     10159.5000         1342.4        -999.25         129.25        88.0808       83.80214         0.7209         0.7293         -27.81      -1.619522              1       0.988736
     10160.0000         1358.4        -999.25       130.0535        88.0992       83.81877          0.713         0.7166         -27.63      -1.439522              1      0.9920087
     10160.5000         1380.4        -999.25       130.3663        89.2929       85.08573         0.7114          0.713          -27.5      -1.309523              1      0.9943723
     10161.0000         1395.2        -999.25       130.2177        90.5667        86.4379         0.7226         0.7153          -27.9      -1.709522              1      0.9870996
     10161.5000           1400        -999.25         129.32          91.81       87.75761         0.7333         0.7219         -28.35      -2.159523              1      0.9789178
     10162.0000           1400        -999.25         128.77           92.5       88.48872          0.731         0.7216         -28.45      -2.259523              1      0.9770996
     10162.5000           1396        -999.25         128.89          92.24       88.20918         0.7147         0.7127         -28.27      -2.079523              1      0.9803723
     10163.0000         1400.8        -999.25       130.2758          91.52       87.44028         0.6977         0.7058         -28.11      -1.919523              1      0.9832814
     10163.5000         1407.6        -999.25       132.6238        88.7879       84.53085          0.681         0.7032         -28.46      -2.269522              1      0.9769178
     10164.0000       1418.545        -999.25       134.9595        89.4444       85.22631         0.6729         0.7053          -28.7      -2.509523              1      0.9725541
     10164.5000         1434.4        -999.25       136.2079           90.5       86.34636         0.6712         0.7065         -28.57      -2.379522              1      0.9749178
     10165.0000         1449.2        -999.25        136.198             91       86.87533         0.6668         0.7058         -28.31      -2.119522              1      0.9796451
     10165.5000         1466.8        -999.25       134.9109          90.76       86.61707           0.66         0.7006         -28.11      -1.919523              1      0.9832814
     10166.0000         1486.8        -999.25       133.6535          90.23       86.05031         0.6471         0.6891          -26.9     -0.7095222              1              1
     10166.5000         1509.6        -999.25       133.5148         89.899       85.69524         0.6319         0.6784         -25.54      0.6504765              1              1
     10167.0000         1532.8        -999.25       134.4653          90.23       86.04442         0.6202         0.6696         -25.25      0.9404774              1              1
     10167.5000         1555.2        -999.25       135.5049          92.12       88.05212          0.611         0.6615         -25.84      0.3504772              1              1
     10168.0000       1573.091        -999.25       136.6427        94.7455       90.84226         0.6009         0.6526       -25.8182      0.3722782              1              1
     10168.5000         1584.8        -999.25       137.4951           95.5       91.64198         0.5927         0.6557         -25.75      0.4404774              1              1
     10169.0000         1596.8        -999.25       137.9208          95.09       91.20287         0.5865         0.6588         -26.07      0.1204777              1              1
     10169.5000           1600        -999.25       136.8911          95.24        91.3595         0.5838         0.6603         -26.05      0.1404781              1              1
     10170.0000         1599.2        -999.25       136.2673          96.53        92.7289         0.5838         0.6658         -26.53     -0.3395233              1              1
     10170.5000           1586        -999.25       135.8119          97.88       94.16214         0.5838         0.6699          -27.2      -1.009523              1      0.9998268
     10171.0000         1563.2        -999.25       135.5175          97.41        93.6592         0.5851         0.6712         -27.57      -1.379522              1      0.9930996
     10171.5000         1533.2        -999.25       135.3069          95.42       91.53923         0.5924         0.6797         -27.96      -1.769522              1      0.9860087
     10172.0000       1520.727        -999.25       134.9703        94.9636       91.05077         0.6015         0.6919          -28.2      -2.009523              1       0.981645
     10172.5000         1508.4        -999.25       134.1386          94.74       90.80995         0.6076         0.7026         -27.77      -1.579523              1      0.9894632
     10173.0000           1500        -999.25       132.9307          94.19       90.22191         0.6127         0.7097         -27.63      -1.439522              1      0.9920087
     10173.5000           1482        -999.25       130.5836           92.6       88.52747         0.6205          0.712            -28      -1.809523              1      0.9852814
     10174.0000       1465.864        -999.25       128.0546        90.4951       86.28528         0.6316         0.7172       -27.6372      -1.446722              1      0.9918778
     10174.5000       1451.983        -999.25         126.03        88.4073       84.06128          0.643         0.7226       -26.9083      -0.717823              1              1
     10175.0000       1437.616        -999.25         125.81        86.5253       82.05621         0.6548         0.7229       -27.1641     -0.9736233              1              1
     10175.5000       1418.552        -999.25         126.45        85.3607       80.81433         0.6659         0.7246       -27.5482      -1.357723              1      0.9934959
