#------------------------------------------------------------------------------
# Created by    : vladimir.rabinovich
# Created on    : 09/19/2023 17:20:31
#------------------------------------------------------------------------------
~Version Information Section
VERS.           2.0     :   CWLS log ASCII Standard - VERSION 2.0
WRAP.           NO      :   One line per depth step
~Well Information Section
#MNEM       .UNIT                                         VALUE :DESCRIPTION
#------------------------------------------------------------------------------
STRT        .FT                                            2310 :START DEPTH
STOP        .FT                                           12118 :STOP DEPTH
STEP        .FT                                             0.5 :STEP      
NULL        .                                           -999.25 :NULL      
COMP        .                                   FOREST OIL CORP :COMPANY   
WELL        .                               OCS G01793 ST00BP00 :WELL      
FLD         .                                           WILDCAT :FIELD     
LOC         .                                                   :LOCATION  
CNTY        .                             GALVESTON LARGE BLOCK :LOCATION  
STAT        .                                             TEXAS :STATE     
CTRY        .                                     UNITED STATES :COUNTRY   
SRVC        .                                                   :SERVICE COMPANY
DATE        .                             9/13/2023 11:19:24 AM :LOG DATE  
API         .                                    42706001380000 :API NUMBER
UWI         .                                    42706001380000 :UNIQUE WELL ID
XCOORD      .                                  1024149.02927821 :SURFACE X 
YCOORD      .                                  10425384.3690734 :SURFACE Y 
LAT         .                                         28.714212 :LATITUDE  
LON         .                                        -94.923031 :LONGITUDE 
ELEV        .FT                                              60 :ELEVATION VALUE
ELEV_TYPE   .                                                KB :ELEVATION REFERENCE TYPE
~Curve Information Section
#MNEM       .UNIT                                      API CODE :CURVE DESCRIPTION
#------------------------------------------------------------------------------
DEPT        .FT                                                 :DEPTH     
ASN         .OHMM                                               :          
CALI        .IN                                                 :          
CILD        .MMHO                                               :          
DT          .US/F                                               :          
ILD         .OHMM                                               :          
RHOB        .G/C3                                               :          
SP          .MV                                                 :          
SP_NORM     .MV                                                 :SP Normalized
VSH_SP      .V/V                                                :Volume of Shale from SP
~A        DEPTH            ASN           CALI           CILD             DT            ILD           RHOB             SP        SP_NORM         VSH_SP
# ...
     10790.0000          0.853         9.4419       1143.744       100.3882         0.8246         2.4429       -49.8882      -3.694269      0.9431651
     10790.5000         0.8473         9.5114       1155.143        100.157         0.8234         2.4473       -49.9862      -3.835671      0.9409897
     10791.0000         0.8417          9.581       1166.539        99.7911         0.8222         2.4495       -50.0418      -3.917718      0.9397274
     10791.5000         0.8357         9.6505       1177.938        99.2413         0.8211          2.448       -50.0029      -3.867458      0.9405006
     10792.0000         0.8295         9.7144       1189.334        98.6904         0.8198         2.4465       -49.9639      -3.817065       0.941276
     10792.5000         0.8233         9.7069       1197.893        98.1406         0.8185         2.4439       -49.9002      -3.732091      0.9425832
     10793.0000         0.8191         9.6697       1195.447        97.7585         0.8172         2.4409       -49.6385      -3.369914      0.9481552
     10793.5000         0.8319         9.6199       1192.998        97.4675         0.8159         2.4379       -49.3769      -3.007877       0.953725
     10794.0000         0.8414         9.5703        1189.51        97.1764         0.8146         2.4379       -49.1146      -2.644862      0.9593098
     10794.5000         0.8508         9.5304       1182.563        96.8828         0.8133         2.4412       -48.9011      -2.350163      0.9638436
     10795.0000         0.8603         9.5464       1175.617        96.5786         0.8119         2.4463       -49.0202      -2.521104      0.9612138
     10795.5000         0.8698         9.5491       1168.684        96.2745         0.8106         2.4523       -49.1395      -2.692334      0.9585795
     10796.0000         0.8792         9.5297       1161.738        95.9703         0.8093         2.4582       -49.2587      -2.863419      0.9559474
     10796.5000         0.8849         9.5103       1154.793        95.6575          0.808         2.4635       -49.3778       -3.03436      0.9533175
     10797.0000         0.8894          9.491       1150.217        95.3308         0.8067         2.4679       -49.4971      -3.205585      0.9506833
     10797.5000         0.8857         9.4716       1150.184        95.3047         0.8075         2.4624       -49.6445      -3.416148      0.9474439
     10798.0000         0.8818         9.4408       1150.152        95.5814         0.8085         2.4549       -49.8177      -3.662829      0.9436488
     10798.5000         0.8779         9.4092       1150.121        96.0034         0.8094         2.4452       -49.9911      -3.909798      0.9398493
     10799.0000          0.874          9.412        1154.17        96.4253         0.8103         2.4392       -50.1644      -4.156619       0.936052
     10799.5000           0.87         9.4308       1161.465        96.8467         0.8112          2.441       -50.3379      -4.403722      0.9322504
     10800.0000         0.8656         9.4478        1168.76        97.2687         0.8122         2.4427        -50.463      -4.583069      0.9294912
     10800.5000         0.8607         9.4608       1176.066        97.6907         0.8131         2.4444       -50.5399      -4.694932      0.9277703
     10801.0000         0.8559         9.4555       1182.938          98.37          0.814         2.4462        -50.617      -4.807074       0.926045
     10801.5000          0.851         9.4258       1183.723        98.5209          0.815         2.4479       -50.4388      -4.561803      0.9298184
     10802.0000         0.8503         9.4024       1179.439        97.7455         0.8159         2.4495        -50.251      -4.303084      0.9337987
     10802.5000          0.854         9.4081       1175.156        96.9689         0.8172         2.4503       -50.0631      -4.044226      0.9377812
     10803.0000         0.8578         9.4137       1171.715        96.5637          0.819         2.4512        -49.562      -3.346891      0.9485094
     10803.5000         0.8616         9.4193       1174.146         96.234         0.8208          2.452       -49.1356      -2.754135      0.9576287
     10804.0000         0.8653         9.4249       1176.578        95.9561         0.8226         2.4528       -49.1337      -2.755679      0.9576049
     10804.5000         0.8691         9.4067        1179.01        96.4341         0.8244         2.4537        -49.132      -2.757505      0.9575769
     10805.0000         0.8657         9.3716       1181.441         97.536         0.8262         2.4545        -49.129       -2.75751      0.9575768
     10805.5000         0.8596         9.3415       1185.693        98.6293          0.828         2.4532       -49.1201      -2.749249      0.9577039
     10806.0000         0.8534         9.3483       1190.119        99.1765         0.8298         2.4516       -49.1112      -2.740992      0.9578309
     10806.5000         0.8473          9.355       1194.553         98.845         0.8316           2.45       -49.1024       -2.73288      0.9579557
     10807.0000         0.8412         9.3618       1198.986        98.0447         0.8334         2.4485       -49.0934      -2.724479      0.9580849
     10807.5000          0.835         9.3686       1203.412        97.1296          0.837          2.446       -49.0845      -2.716228      0.9582119
     10808.0000         0.8289         9.3524       1207.846        95.9579         0.8409         2.4418       -49.0744      -2.706294      0.9583647
     10808.5000           0.84         9.3278       1199.934        94.5741         0.8447         2.4377       -49.0632      -2.694817      0.9585413
     10809.0000          0.857         9.3031       1161.027        93.8175         0.8486         2.4335       -49.0519      -2.683196        0.95872
     10809.5000         0.8755         9.2407       1122.221        93.1069         0.8524         2.4293       -49.0406      -2.671581      0.9588988
     10810.0000          0.894         9.1731       1095.037        92.7064         0.8563         2.4296       -49.0735      -2.721846      0.9581255
     10810.5000         0.9119         9.1054       1074.586        92.5513         0.8601         2.4342       -49.1978      -2.900072      0.9553835
     10811.0000         0.9299         9.1107       1054.137         92.609          0.864         2.4389       -49.3326      -3.092995      0.9524155
     10811.5000         0.9478         9.1448       1033.686        92.6667         0.8672         2.4436       -49.5498      -3.401279      0.9476726
     10812.0000         0.9574         9.1788       1017.999        92.7245         0.8688         2.4433       -49.7669       -3.70942       0.942932
     10812.5000         0.9659         9.2129       1003.809        92.7822         0.8704         2.4427        -49.984      -4.017566      0.9381913
     10813.0000          0.973         9.2469       989.5928        92.7104          0.872         2.4408       -50.1865      -4.305268      0.9337651
     10813.5000         0.9788         9.2713       975.7139        92.5529         0.8736          2.439       -50.3525      -4.541877       0.930125
     10814.0000         0.9845           9.29       968.5059        92.2131         0.8751         2.4371       -50.5186      -4.778619      0.9264828
     10814.5000         0.9903         9.3089       965.6377        91.8311         0.8767         2.4352       -50.5296      -4.798219      0.9261813
     10815.0000         0.9931          9.328       974.6533         91.449         0.8783         2.4333       -50.4656      -4.712823       0.927495
     10815.5000         0.9903         9.3471       986.0508        91.0824         0.8795         2.4353       -50.4017      -4.627566      0.9288067
     10816.0000         0.9748         9.3862       1004.955        91.1785         0.8774         2.4382       -50.2697       -4.44697      0.9315851
