#------------------------------------------------------------------------------
# Created by    : vladimir.rabinovich
# Created on    : 09/19/2023 17:19:48
#------------------------------------------------------------------------------
~Version Information Section
VERS.           2.0     :   CWLS log ASCII Standard - VERSION 2.0
WRAP.           NO      :   One line per depth step
~Well Information Section
#MNEM       .UNIT                                         VALUE :DESCRIPTION
#------------------------------------------------------------------------------
STRT        .FT                                            3926 :START DEPTH
STOP        .FT                                            8446 :STOP DEPTH
STEP        .FT                                             0.5 :STEP      
NULL        .                                           -999.25 :NULL      
COMP        .                             WALTER OIL & GAS CORP :COMPANY   
WELL        .                               OCS G06101 ST00BP00 :WELL      
FLD         .                                           WILDCAT :FIELD     
LOC         .                                                   :LOCATION  
CNTY        .                             GALVESTON LARGE BLOCK :LOCATION  
STAT        .                                             TEXAS :STATE     
CTRY        .                                     UNITED STATES :COUNTRY   
SRVC        .                                                   :SERVICE COMPANY
DATE        .                             9/13/2023 11:19:36 AM :LOG DATE  
API         .                                    42706402050000 :API NUMBER
UWI         .                                    42706402050000 :UNIQUE WELL ID
XCOORD      .                                  1036351.71170487 :SURFACE X 
YCOORD      .                                  10440832.2127806 :SURFACE Y 
LAT         .                                         28.757227 :LATITUDE  
LON         .                                        -94.885733 :LONGITUDE 
ELEV        .FT                                              88 :ELEVATION VALUE
ELEV_TYPE   .                                                KB :ELEVATION REFERENCE TYPE
~Curve Information Section
#MNEM       .UNIT                                      API CODE :CURVE DESCRIPTION
#------------------------------------------------------------------------------
DEPT        .FT                                                 :DEPTH     
ASFL        .OHMM                                               :          
CALI        .IN                                                 :          
CILD        .MMHO                                               :          
GR          .GAPI                                               :          
GR_1        .GAPI                                               :          
GR_NORM     .GAPI                                               :GammaRay Normalized
ILD         .OHMM                                               :          
ILM         .OHMM                                               :          
NPHI        .%                                                  :          
RFOC        .OHMM                                               :          
RHOB        .G/C3                                               :          
SP          .MV                                                 :          
SP_NORM     .MV                                                 :SP Normalized
VSH_GR      .V/V                                                :Volume of Shale from GR
VSH_SP      .V/V                                                :Volume of Shale from SP
~A        DEPTH           ASFL           CALI           CILD             GR           GR_1        GR_NORM            ILD            ILM           NPHI           RFOC           RHOB             SP        SP_NORM         VSH_GR         VSH_SP
# ...
      5167.0000         1.0535        10.6355       1368.846        62.9122        61.3307       62.11062         0.6893         0.7587        39.2994         1.0617         2.3594       -58.5165      -9.438862      0.6193749      0.8651591
      5167.5000         1.0534         10.633       1370.736        62.4941        60.2233       61.56077         0.7079         0.7644        39.0286         1.0597         2.3764       -55.9852      -6.920204      0.6076759      0.9011399
      5168.0000         1.0533         10.623       1385.816         62.076         60.912       61.01093         0.7242         0.7692        38.2178         1.0369         2.3897       -57.0711      -8.018749      0.5959771      0.8854464
      5168.5000         1.0536        10.6113       1400.883         61.658        61.5875        60.4612         0.7274         0.7717        37.3174         1.0335         2.3989       -58.5605      -9.520798       0.584281      0.8639886
      5169.0000         1.0555        10.5992       1419.523        61.2399        62.1827       59.91135         0.7301         0.7733        36.5149         1.0512         2.3945       -59.7705      -10.74344       0.572582      0.8465223
      5169.5000         1.0573        10.5825       1440.383        60.8825        62.2385       59.44118          0.728          0.774        35.7266         1.0692         2.3727       -60.7715      -11.75708      0.5625783      0.8320417
      5170.0000         1.0602        10.5654       1465.236        60.5255        61.1733       58.97152         0.7246         0.7743        35.0389         1.0534         2.3505       -61.4545      -12.45273      0.5525856      0.8221039
      5170.5000         1.0651        10.5138       1497.189        60.1688        59.8538       58.50227         0.7149         0.7731        34.7066         1.0204         2.3301       -60.0966      -11.10747      0.5426014      0.8413218
      5171.0000         1.0551        10.4428       1537.063        59.8118        58.9057       58.03261         0.7013         0.7702        36.3668         1.0086         2.3306        -59.068      -10.09152      0.5326087      0.8558354
      5171.5000         1.0387        10.3386       1584.641        59.4207        58.1653        57.5182         0.6817         0.7596        38.1836          1.047         2.3648       -60.1659      -11.20206      0.5216638      0.8399706
      5172.0000         1.0213        10.2416       1634.738        59.0215        57.7341       56.99316         0.6618         0.7447        38.4778         1.1191         2.3915       -61.2978       -12.3466      0.5104927        0.82362
      5172.5000         1.0041         10.159       1690.164        58.6223        57.8279       56.46812         0.6415         0.7273        38.3332         1.1499         2.3692       -60.6355      -11.69695      0.4993216      0.8329007
      5173.0000           0.99        10.1097       1758.332        58.1776        58.4254       55.88336         0.6189         0.7068        38.1803          1.052         2.3348       -59.0919      -10.16599        0.48688      0.8547716
      5173.5000         0.9774        10.0731       1846.316        58.1517        59.3017       55.84827         0.5952         0.6843        38.0182         0.9858         2.3108       -57.7548      -8.841537      0.4861334      0.8736923
      5174.0000         0.9705        10.0413       1914.631        58.2227         59.252       55.94036         0.5715         0.6588         37.846         0.9816         2.2944       -57.5458       -8.64518      0.4880929      0.8764974
      5174.5000         0.9635        10.0164       1977.615        58.2936        58.1566       56.03233         0.5488         0.6345        37.8341         0.9988         2.2871       -60.2943      -11.40633      0.4900496      0.8370525
      5175.0000         0.9602        10.0002       1947.406        58.3619        57.0083       56.12088          0.528         0.6122        38.3538         1.0081          2.289       -64.4719      -15.59657      0.4919335      0.7771918
      5175.5000         0.9598         9.9958       1911.893        58.4293         56.326       56.20824          0.514         0.5924        39.2045         0.9811         2.2936        -66.927      -18.06432      0.4937924      0.7419384
      5176.0000         0.9608        10.0099       1876.404        58.5795        57.5006       56.40429         0.5065         0.5796        39.3334         0.9337         2.2919       -68.9856      -20.13556      0.4979636      0.7123491
      5176.5000         0.9661         10.027       1806.201        60.6386        58.2031       59.10577         0.5076         0.5782        38.7934         0.9179         2.2843       -70.1062       -21.2688      0.5554419        0.69616
      5177.0000         0.9714        10.0515       1708.525        62.0109        58.2344       60.90582         0.5153          0.586         38.793         0.9169          2.279       -69.9413      -21.11655      0.5937408      0.6983351
      5177.5000         0.9766        10.0768       1664.729        63.4316        58.1923        62.7694          0.529         0.6002        39.6366         0.9364         2.2836       -67.4105      -18.59839      0.6333914      0.7343087
      5178.0000         0.9819        10.0974       1630.619        65.0593        61.2551       64.90466         0.5466         0.6202        40.3186         0.9479         2.2932       -63.4495      -14.65004      0.6788226      0.7907138
      5178.5000          0.989        10.1148       1596.535        66.3263        64.5488       66.56651         0.5665         0.6461        40.6081          0.955         2.2994       -59.3903      -10.60348      0.7141811      0.8485217
      5179.0000         0.9987        10.1211       1570.904        66.4899        66.2511       66.78014         0.5878         0.6709        40.3047         0.9424         2.3039       -55.8951      -7.120922      0.7187263      0.8982725
      5179.5000         1.0084        10.1129       1550.229        62.0828        66.0043       60.99474         0.6074         0.6942        39.6246         0.9334         2.3063       -53.5507      -4.789169      0.5956327      0.9315833
      5180.0000         1.0177        10.0648       1565.467        58.6192         64.501       56.44767         0.6222         0.7024        38.7003         0.9333         2.3065       -51.3826      -2.633713      0.4988866      0.9623755
      5180.5000         1.0267        10.0036       1592.611        57.3039        63.2193       54.72025         0.6323         0.7016        37.5406         0.9422         2.3006       -50.1198      -1.383556      0.4621329      0.9802349
      5181.0000         1.0358         9.9304       1619.693        55.9898        61.7311       52.99439         0.6373         0.6946        36.1609         0.9642         2.2886       -52.5586      -3.835003      0.4254126      0.9452143
      5181.5000         1.0292         9.8852       1641.594        54.3386        59.0996       50.82611         0.6304          0.685        34.8909         1.0025         2.2759        -56.361      -7.650043      0.3792789      0.8907137
      5182.0000         1.0171         9.8711       1645.016        55.2175        56.0451       51.97857         0.6215         0.6778        33.6351         1.0479         2.2707       -61.1631      -12.46479      0.4037994      0.8219315
      5182.5000         1.0039         9.9344       1635.869        58.3638        53.9903       56.10699         0.6128         0.6724        32.8212           1.08         2.2834       -66.6777      -17.99203      0.4916382       0.742971
      5183.0000         0.9894         10.009       1624.758        61.3564        53.4852       60.03369          0.613         0.6718        32.5845         1.0927         2.2984        -70.455      -21.78198      0.5751849      0.6888289
      5183.5000         0.9749        10.0928       1608.381        62.7287        54.8289       61.83374         0.6157         0.6714        34.1213         1.0894         2.3099       -67.1814      -18.52102      0.6134839       0.735414
