#------------------------------------------------------------------------------
# Created by    : vladimir.rabinovich
# Created on    : 09/19/2023 17:20:34
#------------------------------------------------------------------------------
~Version Information Section
VERS.           2.0     :   CWLS log ASCII Standard - VERSION 2.0
WRAP.           NO      :   One line per depth step
~Well Information Section
#MNEM       .UNIT                                         VALUE :DESCRIPTION
#------------------------------------------------------------------------------
STRT        .FT                                             500 :START DEPTH
STOP        .FT                                            9234 :STOP DEPTH
STEP        .FT                                             0.5 :STEP      
NULL        .                                           -999.25 :NULL      
COMP        .                                      SHELL OIL CO :COMPANY   
WELL        .                                OCS 00713 ST00BP00 :WELL      
FLD         .                                           WILDCAT :FIELD     
LOC         .                                                   :LOCATION  
CNTY        .                             GALVESTON LARGE BLOCK :LOCATION  
STAT        .                                             TEXAS :STATE     
CTRY        .                                     UNITED STATES :COUNTRY   
SRVC        .                                                   :SERVICE COMPANY
DATE        .                             9/13/2023 11:19:25 AM :LOG DATE  
API         .                                    42706000510000 :API NUMBER
UWI         .                                    42706000510000 :UNIQUE WELL ID
XCOORD      .                                  1104646.85179908 :SURFACE X 
YCOORD      .                                   10481381.387581 :SURFACE Y 
LAT         .                                         28.871549 :LATITUDE  
LON         .                                        -94.674396 :LONGITUDE 
ELEV        .FT                                              82 :ELEVATION VALUE
ELEV_TYPE   .                                                KB :ELEVATION REFERENCE TYPE
~Curve Information Section
#MNEM       .UNIT                                      API CODE :CURVE DESCRIPTION
#------------------------------------------------------------------------------
DEPT        .FT                                                 :DEPTH     
ASN         .OHMM                                               :          
ASN_1       .OHMM                                               :          
GR_NORM     .                                                   :GammaRay Normalized
ILD         .OHMM                                               :          
LAT         .OHMM                                               :          
LN          .OHMM                                               :          
SP          .MV                                                 :          
SP_1        .MV                                                 :          
SP_NORM     .MV                                                 :SP Normalized
VSH_SP      .V/V                                                :Volume of Shale from SP
~A        DEPTH            ASN          ASN_1        GR_NORM            ILD            LAT             LN             SP           SP_1        SP_NORM         VSH_SP
# ...
      1088.0000        -999.25         1.4251        -999.25        -999.25         1.5362         1.1152        -999.25       -81.7949      -1.427841              1
      1088.5000        -999.25         1.4126        -999.25        -999.25         1.5143         1.1454        -999.25       -82.0603      -1.695313              1
      1089.0000        -999.25         1.3997        -999.25        -999.25         1.5029         1.1854        -999.25       -81.7738      -1.410873              1
      1089.5000        -999.25         1.3901        -999.25        -999.25         1.5106         1.2356        -999.25        -81.783      -1.422127              1
      1090.0000        -999.25         1.3808        -999.25        -999.25         1.5146           1.27        -999.25       -82.4485      -2.089691      0.9965503
      1090.5000        -999.25          1.423        -999.25        -999.25         1.5003         1.2935        -999.25       -82.8982      -2.541458      0.9791747
      1091.0000        -999.25         1.4352        -999.25        -999.25         1.4816         1.3077        -999.25       -83.1563       -2.80162      0.9691684
      1091.5000        -999.25         1.4344        -999.25        -999.25         1.4572         1.3192        -999.25       -83.1653      -2.812675      0.9687433
      1092.0000        -999.25         1.4298        -999.25        -999.25         1.4342         1.3284        -999.25       -82.9456      -2.595047      0.9771136
      1092.5000        -999.25         1.4224        -999.25        -999.25         1.4176         1.3331        -999.25       -82.9308      -2.582306      0.9776036
      1093.0000        -999.25         1.4142        -999.25        -999.25         1.4073         1.3351        -999.25        -82.847      -2.500565      0.9807475
      1093.5000        -999.25         1.4091        -999.25        -999.25          1.408          1.334        -999.25       -82.3647      -2.020332       0.999218
      1094.0000        -999.25         1.4055        -999.25        -999.25         1.4159         1.3329        -999.25       -82.2568       -1.91449              1
      1094.5000        -999.25         1.4004        -999.25        -999.25         1.4398         1.3317        -999.25       -82.6754      -2.335152      0.9871095
      1095.0000        -999.25         1.3948        -999.25        -999.25         1.4701         1.3258        -999.25       -83.0435      -2.705322      0.9728722
      1095.5000        -999.25         1.3848        -999.25        -999.25         1.5022          1.316        -999.25       -83.3832      -3.047081      0.9597276
      1096.0000        -999.25         1.3754        -999.25        -999.25         1.5297         1.3066        -999.25       -83.6182      -3.284142      0.9506099
      1096.5000        -999.25         1.3659        -999.25        -999.25         1.5562         1.2977        -999.25       -83.6349       -3.30291      0.9498881
      1097.0000        -999.25         1.3641        -999.25        -999.25         1.5752         1.2901        -999.25       -83.2728      -2.942863       0.963736
      1097.5000        -999.25         1.3728        -999.25        -999.25         1.5848          1.289        -999.25       -82.6385      -2.310623       0.988053
      1098.0000        -999.25         1.3885        -999.25        -999.25         1.5859         1.2879        -999.25       -82.0065      -1.680687              1
      1098.5000        -999.25         1.4166        -999.25        -999.25         1.5864         1.2867        -999.25       -81.5498      -1.226051              1
      1099.0000        -999.25         1.4387        -999.25        -999.25         1.5868         1.2828        -999.25       -82.2585      -1.936813              1
      1099.5000        -999.25         1.4464        -999.25        -999.25         1.5843         1.2758        -999.25       -82.7609      -2.441277      0.9830278
      1100.0000        -999.25         1.4478        -999.25        -999.25         1.6076         1.2605        -999.25       -82.7079      -2.390343      0.9849868
      1100.5000        -999.25         1.4511        -999.25        -999.25         1.6488         1.2442        -999.25       -82.3953      -2.079803      0.9969307
      1101.0000        -999.25         1.4674        -999.25        -999.25         1.6915         1.2296        -999.25       -82.0453      -1.731865              1
      1101.5000        -999.25         1.4865        -999.25        -999.25         1.7321         1.2192        -999.25       -82.0808      -1.769432              1
      1102.0000        -999.25         1.4955        -999.25        -999.25         1.7493         1.2182        -999.25       -82.3889       -2.07959      0.9969388
      1102.5000        -999.25         1.4949        -999.25        -999.25         1.7565         1.2233        -999.25       -82.6935      -2.386246      0.9851444
      1103.0000        -999.25         1.4912        -999.25        -999.25         1.7367          1.236        -999.25       -82.7263       -2.42112      0.9838031
      1103.5000        -999.25         1.4786        -999.25        -999.25         1.7165         1.2503        -999.25       -83.1501      -2.846977       0.967424
      1104.0000        -999.25         1.4582        -999.25        -999.25         1.6868         1.2678        -999.25       -83.8341      -3.533035      0.9410371
      1104.5000        -999.25         1.4312        -999.25        -999.25         1.6571          1.275        -999.25       -84.5891      -4.290108      0.9119189
      1105.0000        -999.25         1.4136        -999.25        -999.25         1.6229         1.2793        -999.25       -85.4177      -5.120766      0.8799706
      1105.5000        -999.25         1.4016        -999.25        -999.25         1.5831         1.2878        -999.25       -86.2758      -5.980927      0.8468875
      1106.0000        -999.25         1.3925        -999.25        -999.25         1.5441         1.2981        -999.25       -87.1134      -6.820587      0.8145928
      1106.5000        -999.25         1.3728        -999.25        -999.25         1.5066         1.3077        -999.25       -87.7927      -7.501953      0.7883864
      1107.0000        -999.25         1.3372        -999.25        -999.25         1.4728         1.3128        -999.25       -87.4397      -7.151009      0.8018843
      1107.5000        -999.25         1.3255        -999.25        -999.25         1.4415          1.318        -999.25       -86.4955       -6.20887      0.8381204
      1108.0000        -999.25         1.3195        -999.25        -999.25          1.426         1.3168        -999.25       -86.0392      -5.754639      0.8555908
      1108.5000        -999.25         1.3039        -999.25        -999.25         1.4278          1.314        -999.25       -85.7433        -5.4608      0.8668923
      1109.0000        -999.25         1.3015        -999.25        -999.25         1.4328         1.3089        -999.25       -85.9797      -5.699257      0.8577209
      1109.5000        -999.25         1.3053        -999.25        -999.25         1.4341         1.3031        -999.25       -86.8472      -6.568825       0.824276
      1110.0000        -999.25         1.3236        -999.25        -999.25         1.4349         1.3043        -999.25       -87.8813      -7.604988      0.7844235
      1110.5000        -999.25         1.3059        -999.25        -999.25         1.4344         1.3116        -999.25       -88.2665      -7.992249      0.7695289
      1111.0000        -999.25         1.2936        -999.25        -999.25         1.4393          1.322        -999.25       -88.4572      -8.185013      0.7621149
      1111.5000        -999.25          1.296        -999.25        -999.25         1.4479         1.3386        -999.25       -88.7029      -8.432777      0.7525855
      1112.0000        -999.25         1.3288        -999.25        -999.25         1.4596         1.3429        -999.25       -88.6616      -8.393532       0.754095
