#------------------------------------------------------------------------------
# Created by    : vladimir.rabinovich
# Created on    : 09/19/2023 17:22:15
#------------------------------------------------------------------------------
~Version Information Section
VERS.           2.0     :   CWLS log ASCII Standard - VERSION 2.0
WRAP.           NO      :   One line per depth step
~Well Information Section
#MNEM       .UNIT                                         VALUE :DESCRIPTION
#------------------------------------------------------------------------------
STRT        .FT                                             712 :START DEPTH
STOP        .FT                                            8940 :STOP DEPTH
STEP        .FT                                             0.5 :STEP      
NULL        .                                           -999.25 :NULL      
COMP        .                                      SHELL OIL CO :COMPANY   
WELL        .                               OCS G03086 ST00BP00 :WELL      
FLD         .                                           WILDCAT :FIELD     
LOC         .                                                   :LOCATION  
CNTY        .                      MATAGORDA ISLAND LARGE BLOCK :LOCATION  
STAT        .                                             TEXAS :STATE     
CTRY        .                                     UNITED STATES :COUNTRY   
SRVC        .                                                   :SERVICE COMPANY
DATE        .                             9/13/2023 11:19:05 AM :LOG DATE  
API         .                                    42703400050000 :API NUMBER
UWI         .                                    42703400050000 :UNIQUE WELL ID
XCOORD      .                                  597395.628989583 :SURFACE X 
YCOORD      .                                    10217429.66268 :SURFACE Y 
LAT         .                                         28.117488 :LATITUDE  
LON         .                                        -96.235866 :LONGITUDE 
ELEV        .FT                                              93 :ELEVATION VALUE
ELEV_TYPE   .                                                KB :ELEVATION REFERENCE TYPE
~Curve Information Section
#MNEM       .UNIT                                      API CODE :CURVE DESCRIPTION
#------------------------------------------------------------------------------
DEPT        .FT                                                 :DEPTH     
CALI        .IN                                                 :          
DRHO        .G/C3                                               :          
DT          .US/F                                               :          
GR          .GAPI                                               :          
GR_1        .GAPI                                               :          
GR_NORM     .GAPI                                               :GammaRay Normalized
ILD         .OHMM                                               :          
NPHI        .%                                                  :          
RHOB        .G/C3                                               :          
SFL         .OHMM                                               :          
SP          .MV                                                 :          
SP_NORM     .MV                                                 :SP Normalized
VSH_GR      .V/V                                                :Volume of Shale from GR
VSH_SP      .V/V                                                :Volume of Shale from SP
~A        DEPTH           CALI           DRHO             DT             GR           GR_1        GR_NORM            ILD           NPHI           RHOB            SFL             SP        SP_NORM         VSH_GR         VSH_SP
# ...
      8920.0000        12.7295        -0.0403        -999.25        56.1171        -999.25        -999.25         0.5775        42.7151         2.3416         0.6736       -41.7123      0.1697121        -999.25              1
      8920.5000        12.8653        -0.0396        -999.25        56.4658        -999.25        -999.25         0.6239        41.0292         2.3566         0.6936        -41.808     0.08018112        -999.25              1
      8921.0000        12.4435        -0.0445        -999.25        58.3433        -999.25        -999.25         0.7049        38.7712         2.3554         0.7315       -42.1156     -0.2212486        -999.25              1
      8921.5000        12.1956        -0.0436        -999.25        59.1655        -999.25        -999.25         0.8225        35.4323         2.3713         0.7653       -42.7222     -0.8216782        -999.25              1
      8922.0000        11.2375        -0.0299        -999.25        59.1891        -999.25        -999.25         0.9362        30.4552         2.4412         0.9013       -43.3821       -1.47541        -999.25      0.9891952
      8922.5000        10.6437        -0.0046        -999.25        61.3124        -999.25        -999.25          1.078        27.6762         2.5066         1.0637       -44.2326       -2.31974        -999.25      0.9700059
      8923.0000         10.253           0.01        -999.25        62.7199        -999.25        -999.25         1.2521        25.1667         2.5242         1.2911       -44.8516      -2.355106        -999.25      0.9692021
      8923.5000        10.1889         0.0172        -999.25        62.4576        -999.25        -999.25          1.371        23.0945         2.5386         1.5501       -45.4781      -1.730072        -999.25      0.9834074
      8924.0000        10.0691          0.011        -999.25        61.7291        -999.25        -999.25         1.4622        22.0554         2.5346         1.7494       -46.9414      -1.941841        -999.25      0.9785945
      8924.5000         10.002        -0.0035        -999.25        62.4951        -999.25        -999.25         1.5455        21.4257         2.5171         1.5908       -48.1027      -1.851612        -999.25      0.9806452
      8925.0000         9.9964        -0.0064        -999.25        64.8104        -999.25        -999.25          1.598        22.5704         2.4909         1.3853       -49.2169      -1.714279        -999.25      0.9837664
      8925.5000         9.9622        -0.0078        -999.25        66.6567        -999.25        -999.25         1.6084        24.4031         2.4587         1.2793       -50.1281      -1.373951        -999.25      0.9915011
      8926.0000         9.8508        -0.0124        -999.25        67.6984        -999.25        -999.25         1.5758         25.303          2.438         1.2767       -51.3615       -1.35582        -999.25      0.9919132
      8926.5000         9.7283        -0.0093        -999.25        -999.25        -999.25        -999.25         1.5381        24.7864         2.4298         1.3273       -51.3943      -0.137085        -999.25              1
      8927.0000         9.7839         0.0012        -999.25        -999.25        -999.25        -999.25         1.5098        21.9056         2.4668         1.4672       -50.3646       1.132404        -999.25              1
      8927.5000         9.7776              0        -999.25        -999.25        -999.25        -999.25         1.4918        20.5378         2.4769         1.6366       -49.4967       2.000305        -999.25              1
      8928.0000         9.7017         0.0018        -999.25        -999.25        -999.25        -999.25         1.4789         20.293         2.5161         1.7354       -49.4788       2.018204        -999.25              1
      8928.5000         9.6941        -0.0042        -999.25        -999.25        -999.25        -999.25         1.4597        21.7289         2.5096         1.5316       -49.9628       1.534206        -999.25              1
      8929.0000         9.7729        -0.0189        -999.25        -999.25        -999.25        -999.25          1.436        22.8399         2.4736         1.4775       -50.4463       1.050705        -999.25              1
      8929.5000         9.6921        -0.0277        -999.25        -999.25        -999.25        -999.25          1.408        23.7188         2.4284         1.3405       -50.8362      0.6608047        -999.25              1
      8930.0000          9.444        -0.0286        -999.25        -999.25        -999.25        -999.25         1.3846        24.0123         2.4243         1.3228       -50.8658      0.6312065        -999.25              1
      8930.5000          9.024         -0.036        -999.25        -999.25        -999.25        -999.25         1.3674        23.1064         2.4122         1.4441         -50.67      0.8270073        -999.25              1
      8931.0000         8.5072        -0.0463        -999.25        -999.25        -999.25        -999.25         1.3597        22.6999         2.4101         1.4917       -50.4448       1.052204        -999.25              1
      8931.5000         8.3263         -0.056        -999.25        -999.25        -999.25        -999.25         1.3596        23.5122         2.4067         1.3267       -50.2922       1.204807        -999.25              1
      8932.0000         7.2036        -0.0608        -999.25        -999.25        -999.25        -999.25         1.3655        24.3484         2.4078         1.1493       -50.4261       1.070904        -999.25              1
      8932.5000         6.5778        -0.0655        -999.25        -999.25        -999.25        -999.25         1.3728        23.1394          2.393         1.2301       -50.5905      0.9065056        -999.25              1
      8933.0000         6.5805        -0.0734        -999.25        -999.25        -999.25        -999.25         1.3827        21.8757         2.3432         1.3875       -50.6874      0.8096046        -999.25              1
      8933.5000         6.6574        -0.0763        -999.25        -999.25        -999.25        -999.25         1.3892        20.0969         2.3314         1.4087       -50.7228      0.7742043        -999.25              1
      8934.0000          6.736        -0.0737        -999.25        -999.25        -999.25        -999.25         1.3958        18.0186         2.3067         1.3048       -50.7549      0.7421036        -999.25              1
      8934.5000         6.8154         -0.066        -999.25        -999.25        -999.25        -999.25         1.4068        15.7457         2.3103         1.2989       -50.7836      0.7134056        -999.25              1
      8935.0000         6.8972        -0.0549        -999.25        -999.25        -999.25        -999.25         1.4161        11.6551         2.3353         1.3832        -51.246      0.2510071        -999.25              1
      8935.5000         6.9697        -0.0628        -999.25        -999.25        -999.25        -999.25         1.4219           5.63         2.3293         1.3795       -51.8124     -0.3153954        -999.25              1
      8936.0000         7.0433        -0.0665        -999.25        -999.25        -999.25        -999.25         1.4262        -0.4341         2.3181         1.3331        -52.162     -0.6649933        -999.25              1
      8936.5000         7.0804        -0.0645        -999.25        -999.25        -999.25        -999.25          1.427        -999.25         2.3235         1.3281       -52.0417      -0.544693        -999.25              1
      8937.0000         7.1044        -0.0496        -999.25        -999.25        -999.25        -999.25         1.4272        -999.25          2.342         1.3495       -52.0604     -0.5633926        -999.25              1
      8937.5000         7.1761        -0.0428        -999.25        -999.25        -999.25        -999.25        -999.25        -999.25         2.3521        -999.25        -999.25        -999.25        -999.25        -999.25
