#------------------------------------------------------------------------------
# Created by    : vladimir.rabinovich
# Created on    : 09/19/2023 17:20:23
#------------------------------------------------------------------------------
~Version Information Section
VERS.           2.0     :   CWLS log ASCII Standard - VERSION 2.0
WRAP.           NO      :   One line per depth step
~Well Information Section
#MNEM       .UNIT                                         VALUE :DESCRIPTION
#------------------------------------------------------------------------------
STRT        .FT                                            3532 :START DEPTH
STOP        .FT                                           13690 :STOP DEPTH
STEP        .FT                                             0.5 :STEP      
NULL        .                                           -999.25 :NULL      
COMP        .                              VASTAR RESOURCES INC :COMPANY   
WELL        .                                     ST TR 00023-L :WELL      
FLD         .                          HIGH ISLAND BLOCK 0024-L :FIELD     
LOC         .                                                   :LOCATION  
CNTY        .                           HIGH ISLAND LARGE BLOCK :LOCATION  
STAT        .                                             TEXAS :STATE     
CTRY        .                                     UNITED STATES :COUNTRY   
SRVC        .                                                   :SERVICE COMPANY
DATE        .                             9/13/2023 11:19:15 AM :LOG DATE  
API         .                                    42708300330000 :API NUMBER
UWI         .                                    42708300330000 :UNIQUE WELL ID
XCOORD      .                                  1290562.53578251 :SURFACE X 
YCOORD      .                                  10712997.1214806 :SURFACE Y 
LAT         .                                        29.5146054 :LATITUDE  
LON         .                                       -94.1002609 :LONGITUDE 
ELEV        .FT                                              79 :ELEVATION VALUE
ELEV_TYPE   .                                                KB :ELEVATION REFERENCE TYPE
~Curve Information Section
#MNEM       .UNIT                                      API CODE :CURVE DESCRIPTION
#------------------------------------------------------------------------------
DEPT        .FT                                                 :DEPTH     
ASN         .OHMM                                               :          
CILD        .MMHO                                               :          
ILD         .OHMM                                               :          
SP          .MV                                                 :          
SP_NORM     .MV                                                 :SP Normalized
VSH_SP      .V/V                                                :Volume of Shale from SP
~A        DEPTH            ASN           CILD            ILD             SP        SP_NORM         VSH_SP
# ...
     10258.0000          0.542       2027.934         0.5055       -53.2294      0.8586502              1
     10258.5000         0.5764       2027.363         0.5352        -52.984        1.10405              1
     10259.0000         0.6056       2027.264         0.5648        -52.733       1.355049              1
     10259.5000         0.6318       2027.164         0.5945       -53.1135      0.9745522              1
     10260.0000          0.658       1989.582         0.6242       -53.6024      0.4856491              1
     10260.5000         0.6841       1890.855         0.6538       -54.0914   -0.003349304              1
     10261.0000         0.7002       1639.275         0.6835       -54.5804     -0.4923477              1
     10261.5000         0.7099       1421.775         0.7162       -54.9975     -0.9094505              1
     10262.0000         0.7195       1407.197         0.7501       -55.1871      -1.099049      0.9983212
     10262.5000         0.7291       1488.957         0.7542       -55.3767      -1.288651      0.9951076
     10263.0000         0.7388       1589.037         0.7318       -55.5663      -1.478249      0.9918941
     10263.5000         0.7527         1663.9         0.7093       -55.7562      -1.668148      0.9886755
     10264.0000          0.736       1716.404         0.6868       -55.9458       -1.85775      0.9854619
     10264.5000         0.7191       1768.563         0.6643       -56.1354      -2.047348      0.9822484
     10265.0000         0.7021       1803.434         0.6419        -56.325       -2.23695      0.9790347
     10265.5000         0.6852       1838.303         0.6194       -56.5146      -2.426548      0.9758212
     10266.0000         0.6687       1873.174         0.5987       -56.6043      -2.516251      0.9743009
     10266.5000         0.6536       1908.883         0.5914       -56.5649      -2.476849      0.9749687
     10267.0000         0.6385        1945.23         0.5841       -56.5254      -2.437347      0.9756382
     10267.5000         0.6234       1978.057         0.5768        -56.486      -2.397949       0.976306
     10268.0000         0.6094       2000.125         0.5695       -56.4465      -2.358448      0.9769754
     10268.5000         0.5987       2000.172         0.5623       -56.4071       -2.31905      0.9776433
     10269.0000          0.588       1996.158          0.555       -56.3677      -2.279648      0.9783111
     10269.5000         0.5843       1972.221         0.5477       -56.3282       -2.24015      0.9789805
     10270.0000         0.5931       1912.725         0.5404       -56.1693      -2.081249      0.9816737
     10270.5000          0.602       1858.152         0.5455       -55.9594      -1.871349      0.9852313
     10271.0000         0.6108       1846.184         0.5524       -55.7497      -1.661648      0.9887856
     10271.5000         0.6198       1863.471         0.5594       -55.5401      -1.452049      0.9923381
     10272.0000         0.6289        1880.76         0.5664       -55.3304      -1.242348      0.9958924
     10272.5000          0.638       1901.346         0.5733       -55.1217      -1.033649      0.9994296
     10273.0000         0.6472       1933.361         0.5803        -54.926     -0.8379478              1
     10273.5000         0.6448       2030.176         0.5872       -54.7302     -0.6421509              1
     10274.0000         0.6299       2035.975         0.5942       -54.5344     -0.4463501              1
     10274.5000          0.615       2041.762         0.6012       -54.6324     -0.5443497              1
     10275.0000         0.6002       2035.076         0.5958       -54.8634     -0.7753487              1
     10275.5000         0.5889       2016.754         0.5899       -55.1078      -1.019749      0.9996653
     10276.0000         0.5814       2015.238          0.584       -55.3521       -1.26405      0.9955246
     10276.5000         0.5796       1948.383          0.578       -55.5962      -1.508148      0.9913873
     10277.0000         0.6036       1815.598         0.5721       -55.8404       -1.75235      0.9872483
     10277.5000         0.6277       1778.166         0.5662       -56.0848       -1.99675       0.983106
     10278.0000         0.6518       1746.693         0.5603       -56.2376      -2.149548      0.9805161
     10278.5000          0.673       1719.162         0.5614       -56.1573      -2.069248      0.9818771
     10279.0000          0.669       1693.994           0.57        -56.077      -1.988949      0.9832382
     10279.5000         0.6586       1668.826         0.5786       -55.9966       -1.90855      0.9846008
     10280.0000         0.6482       1637.945         0.5872       -56.7446      -2.656548      0.9719229
     10280.5000         0.6378       1639.373         0.5958       -57.5844      -3.496349       0.957689
     10281.0000         0.6275       1745.463         0.6043       -58.3354      -4.247349      0.9449602
     10281.5000         0.6182       1883.172         0.6098       -58.8386      -4.750549      0.9364313
     10282.0000         0.6089       2026.285         0.5973       -58.6659       -4.57785      0.9393585
     10282.5000         0.5996       2043.055         0.5848        -57.905      -3.816948      0.9522551
     10283.0000         0.5903       2064.035         0.5723       -57.1454       -3.05735      0.9651297
     10283.5000         0.5811       2084.969         0.5598       -56.3845      -2.296448      0.9780263
     10284.0000         0.5718       2105.898         0.5474       -55.8308      -1.742748       0.987411
     10284.5000         0.5625       2127.078         0.5364       -55.3264       -1.23835      0.9959602
     10285.0000         0.5546       2148.801         0.5254       -54.8233     -0.7352486              1
     10285.5000         0.5481        2170.57         0.5144       -54.3793     -0.2912483              1
     10286.0000         0.5416        2192.34         0.5034       -54.3228     -0.2347488              1
     10286.5000         0.5351       2214.797         0.4924       -54.2661      -0.178051              1
     10287.0000           0.53       2242.281         0.4814       -54.2095     -0.1214485              1
     10287.5000         0.5311       2269.762         0.4704        -54.153    -0.06494904              1
     10288.0000         0.5322       2286.852         0.4593       -54.1202    -0.03215027              1
     10288.5000         0.5335       2280.797         0.4483       -54.1282    -0.04014969              1
     10289.0000         0.5349       2267.398         0.4534       -54.1363    -0.04824829              1
     10289.5000         0.5363           2254         0.4675       -54.1443    -0.05624771              1
     10290.0000         0.5377       2249.176         0.4816       -54.1523    -0.06425095              1
     10290.5000         0.5391        2269.32         0.4958       -54.1604    -0.07234955              1
     10291.0000         0.5405       2289.465         0.5099       -54.0229     0.06515121              1
     10291.5000         0.5401       2302.551          0.524         -53.77      0.3180504              1
     10292.0000         0.5352        2310.68         0.5382       -53.7614      0.3266525              1
     10292.5000         0.5304       2198.348         0.5523       -53.7528      0.3352509              1
     10293.0000         0.5255       2037.145         0.5787       -53.7443        0.34375              1
     10293.5000         0.5316       2017.006         0.6068       -54.0291     0.05895233              1
     10294.0000         0.5828        2017.85         0.6348       -55.1168      -1.028748      0.9995127
     10294.5000         0.6245       2018.693         0.6628       -56.2069      -2.118851      0.9810364
     10295.0000         0.6641       1406.164         0.6908       -57.2823      -3.194248      0.9628093
     10295.5000         0.7037       1374.297         0.7188        -58.254      -4.165951      0.9463398
