#------------------------------------------------------------------------------
# Created by    : vladimir.rabinovich
# Created on    : 09/19/2023 17:22:32
#------------------------------------------------------------------------------
~Version Information Section
VERS.           2.0     :   CWLS log ASCII Standard - VERSION 2.0
WRAP.           NO      :   One line per depth step
~Well Information Section
#MNEM       .UNIT                                         VALUE :DESCRIPTION
#------------------------------------------------------------------------------
STRT        .FT                                          2841.5 :START DEPTH
STOP        .FT                                          6769.5 :STOP DEPTH
STEP        .FT                                             0.5 :STEP      
NULL        .                                           -999.25 :NULL      
COMP        .                      SPINNAKER EXPLORATION CO LLC :COMPANY   
WELL        .                               OCS G18941 ST00BP00 :WELL      
FLD         .                            HIGH ISLAND BLOCK 0235 :FIELD     
LOC         .                                                   :LOCATION  
CNTY        .                           HIGH ISLAND LARGE BLOCK :LOCATION  
STAT        .                                             TEXAS :STATE     
CTRY        .                                     UNITED STATES :COUNTRY   
SRVC        .                                                   :SERVICE COMPANY
DATE        .                             9/13/2023 11:20:02 AM :LOG DATE  
API         .                                    42708405540000 :API NUMBER
UWI         .                                    42708405540000 :UNIQUE WELL ID
XCOORD      .                                  1178439.61066162 :SURFACE X 
YCOORD      .                                  10526520.2311607 :SURFACE Y 
LAT         .                                         28.998365 :LATITUDE  
LON         .                                        -94.445565 :LONGITUDE 
ELEV        .FT                                              98 :ELEVATION VALUE
ELEV_TYPE   .                                                KB :ELEVATION REFERENCE TYPE
~Curve Information Section
#MNEM       .UNIT                                      API CODE :CURVE DESCRIPTION
#------------------------------------------------------------------------------
DEPT        .FT                                                 :DEPTH     
CNCF        .%                                                  :          
DCAL        .IN                                                 :          
DT24        .US/F                                               :          
GR          .GAPI                                               :          
GR_NORM     .GAPI                                               :GammaRay Normalized
M2R1        .OHMM                                               :          
M2R2        .OHMM                                               :          
M2R3        .OHMM                                               :          
M2R6        .OHMM                                               :          
M2R9        .OHMM                                               :          
M2RX        .OHMM                                               :          
PORZ        .%                                                  :          
RWAZ        .OHMM                                               :          
SPCH        .MV                                                 :          
TEN         .LB/F                                               :          
VSH_GR      .V/V                                                :Volume of Shale from GR
ZCOR        .G/CC                                               :          
~A        DEPTH           CNCF           DCAL           DT24             GR        GR_NORM           M2R1           M2R2           M2R3           M2R6           M2R9           M2RX           PORZ           RWAZ           SPCH            TEN         VSH_GR           ZCOR
# ...
      6456.5000         34.091          0.447         97.988         97.377       59.93443          0.882          0.822          0.795          0.784           0.78          0.789         18.351          0.033        -35.973         -5.317      0.5730729          0.029
      6457.0000         34.834          0.462         98.068         97.468       60.02325          0.885          0.829          0.803          0.792          0.789          0.797         18.344          0.034        -34.026         -31.99      0.5749627          0.029
      6457.5000         34.802          0.468         98.802         97.693       60.24606          0.884          0.835          0.811            0.8          0.797          0.805         18.437          0.034         -31.71         -3.252      0.5797035          0.033
      6458.0000          33.72          0.469        100.081         97.718       60.26888          0.874          0.832          0.811            0.8          0.797          0.805         18.553          0.035        -30.319          6.941       0.580189          0.037
      6458.5000         32.946          0.471          101.3         97.233        59.7817          0.857          0.822          0.803          0.793          0.791          0.798          18.74          0.035        -29.689        -22.226      0.5698234          0.037
      6459.0000         32.849           0.47        102.851         97.042       59.58852          0.838           0.81          0.792          0.784          0.781          0.788         19.114          0.036        -28.808        -37.731      0.5657133          0.033
      6459.5000         32.942           0.47        104.467         98.178       60.72234           0.82          0.797          0.782          0.774          0.772          0.778          19.61          0.038        -27.897        -30.012      0.5898371          0.032
      6460.0000         33.898          0.469        104.278        100.294       62.83616          0.812          0.792          0.778           0.77          0.768          0.773         20.027          0.039        -27.399         -28.11      0.6348119          0.032
      6460.5000         35.702          0.467        103.237        101.549       64.08898          0.816          0.797          0.784          0.776          0.774          0.779         20.283          0.041        -27.313        -23.799      0.6614677          0.035
      6461.0000          36.22          0.464        101.976        103.225       65.76279          0.826          0.808          0.795          0.787          0.785           0.79          20.35          0.042        -27.704         -3.448      0.6970807          0.048
      6461.5000         35.506          0.465        100.205        106.376       68.91162          0.835          0.818          0.804          0.796          0.794          0.799         20.157          0.041        -28.511           6.79      0.7640771          0.055
      6462.0000         35.388          0.468        100.268        108.661       71.19444          0.842          0.827          0.813          0.805          0.803          0.808         19.734           0.04        -29.262         -9.688      0.8126477          0.046
      6462.5000         35.772          0.469        101.373        107.856       70.38726          0.847          0.834          0.821          0.813          0.811          0.816         19.443          0.039        -29.717        -28.067      0.7954736          0.036
      6463.0000         35.843          0.469        102.272        105.323       67.85207          0.847          0.836          0.824          0.816          0.814          0.819         19.657           0.04        -29.968        -31.143      0.7415335          0.037
      6463.5000         35.521          0.467         103.42         104.03       66.55689          0.842          0.833          0.822          0.814          0.812          0.817         20.197          0.042        -30.295        -28.487      0.7139764           0.04
      6464.0000         34.879          0.468        104.241        105.541       68.06571          0.838          0.829          0.819          0.811          0.809          0.813         20.552          0.044        -30.753        -28.827       0.746079          0.045
      6464.5000         34.486          0.472          104.6        108.171       70.69353          0.836          0.827          0.817          0.809          0.807          0.812         20.532          0.044        -30.967        -30.298      0.8019901          0.055
      6465.0000         34.975          0.475        104.634        108.329       70.84936          0.833          0.824          0.815          0.806          0.804          0.809         20.156          0.042        -30.559        -26.062      0.8053055          0.066
      6465.5000         35.415          0.474         104.59        106.283       68.80117          0.826          0.818          0.809            0.8          0.798          0.803         19.472          0.038        -29.796        -14.404       0.761727           0.07
      6466.0000         35.666          0.462        104.923        106.363       68.87899          0.811          0.806          0.797          0.788          0.787          0.791         18.677          0.035        -29.051        -10.164      0.7633828          0.061
      6466.5000         37.142          0.439        106.178        111.612       74.12581          0.788          0.786          0.779           0.77          0.769          0.773         18.096          0.032        -28.191        -14.762      0.8750172          0.044
      6467.0000         39.337          0.414        107.838        118.783       81.29463          0.763          0.764          0.757          0.748          0.747          0.752          17.92           0.03        -27.073         -4.165              1          0.032
      6467.5000         39.856          0.397        109.014        122.045       84.55445          0.747          0.751          0.744          0.735          0.735          0.739         17.972           0.03        -25.943         16.045              1          0.034
      6468.0000         39.018          0.386        109.676        121.024       83.53127           0.75          0.754          0.748          0.738          0.738          0.742         17.966           0.03        -25.221         12.529              1          0.041
      6468.5000         39.115          0.382        109.993        120.212       82.71709          0.762          0.766          0.758          0.749          0.748          0.753          17.95           0.03        -24.923         -5.405              1           0.04
      6469.0000         39.922          0.382        110.502        121.152       83.65491          0.764          0.765          0.757          0.748          0.747          0.752         18.144          0.031        -24.941         -8.445              1          0.039
      6469.5000          40.28          0.379        111.892        122.054       84.55473          0.747          0.747          0.739           0.73           0.73          0.734         18.485          0.031        -25.145          -8.17              1          0.042
      6470.0000         40.265          0.372         113.55        122.833       85.33155          0.726          0.725          0.717          0.709          0.709          0.713         18.762          0.032        -25.242        -15.871              1          0.043
      6470.5000         41.036          0.377        114.686        124.517       87.01337          0.709          0.708          0.701          0.693          0.693          0.698          19.02          0.032        -25.051        -15.358              1          0.044
      6471.0000         42.165          0.405        115.672        126.593       89.08719          0.695          0.694          0.688           0.68          0.681          0.685         19.467          0.033        -24.838         -6.816              1          0.048
