#------------------------------------------------------------------------------
# Created by    : vladimir.rabinovich
# Created on    : 09/19/2023 17:22:51
#------------------------------------------------------------------------------
~Version Information Section
VERS.           2.0     :   CWLS log ASCII Standard - VERSION 2.0
WRAP.           NO      :   One line per depth step
~Well Information Section
#MNEM       .UNIT                                         VALUE :DESCRIPTION
#------------------------------------------------------------------------------
STRT        .FT                                            3080 :START DEPTH
STOP        .FT                                           13004 :STOP DEPTH
STEP        .FT                                             0.5 :STEP      
NULL        .                                           -999.25 :NULL      
COMP        .                                     INEXCO OIL CO :COMPANY   
WELL        .                                     ST TR 00006-L :WELL      
FLD         .                                           WILDCAT :FIELD     
LOC         .                                                   :LOCATION  
CNTY        .                           HIGH ISLAND LARGE BLOCK :LOCATION  
STAT        .                                             TEXAS :STATE     
CTRY        .                                     UNITED STATES :COUNTRY   
SRVC        .                                                   :SERVICE COMPANY
DATE        .                             9/13/2023 11:19:15 AM :LOG DATE  
API         .                                    42708302350000 :API NUMBER
UWI         .                                    42708302350000 :UNIQUE WELL ID
XCOORD      .                                  1306008.37969423 :SURFACE X 
YCOORD      .                                  10751503.0860356 :SURFACE Y 
LAT         .                                          29.62091 :LATITUDE  
LON         .                                         -94.05279 :LONGITUDE 
ELEV        .FT                                              84 :ELEVATION VALUE
ELEV_TYPE   .                                                KB :ELEVATION REFERENCE TYPE
~Curve Information Section
#MNEM       .UNIT                                      API CODE :CURVE DESCRIPTION
#------------------------------------------------------------------------------
DEPT        .FT                                                 :DEPTH     
DT          .US/F                                               :          
GR          .GAPI                                               :          
GR_NORM     .GAPI                                               :GammaRay Normalized
ILD         .OHMM                                               :          
SFL         .OHMM                                               :          
SP          .MV                                                 :          
SP_NORM     .MV                                                 :SP Normalized
VSH_GR      .V/V                                                :Volume of Shale from GR
VSH_SP      .V/V                                                :Volume of Shale from SP
~A        DEPTH             DT             GR        GR_NORM            ILD            SFL             SP        SP_NORM         VSH_GR         VSH_SP
# ...
      3769.0000       132.2942        33.1589       32.67288         0.3482         0.7491       -94.5371       -49.9463              0      0.2105435
      3769.5000       130.9297        33.6004       33.59162         0.3532         0.7661        -94.537      -49.92614     0.01258769      0.2108687
      3770.0000       128.9517        34.3591       35.17355         0.3585         0.7785       -94.3568      -49.72588     0.04624582      0.2140987
      3770.5000       126.6793        35.5572       37.67417         0.3644          0.785       -94.2865      -49.63552     0.09945045      0.2155561
      3771.0000       127.6815         36.688       40.03406         0.3678         0.7821       -94.7562      -50.08516      0.1496609      0.2083038
      3771.5000       130.1531        37.4263       41.57334         0.3662          0.767       -95.7864       -51.0953      0.1824115      0.1920113
      3772.0000        131.085        37.5089       41.74171         0.3557         0.7262       -96.9442      -52.23304      0.1859939      0.1736607
      3772.5000       131.1013        36.9036       40.47185         0.3444         0.6906       -97.8243      -53.09308      0.1589756      0.1597891
      3773.0000       136.4829        36.6047        39.8426         0.3345         0.6729        -98.214      -53.46271      0.1455873      0.1538272
      3773.5000       140.0381        36.5159       39.65263         0.3253         0.6599        -98.176      -53.40466      0.1415452      0.1547636
      3774.0000       141.9646        36.6057       39.83606         0.3162         0.6491       -97.1846      -52.39319      0.1454481      0.1710775
      3774.5000       141.9102        37.0261       40.71069         0.3095         0.6506       -95.0292      -50.21773      0.1640572      0.2061657
      3775.0000       140.0857        38.7026        44.2115          0.304          0.664       -91.8103      -46.97877      0.2385425      0.2584069
      3775.5000       136.8511        42.2829        51.6927            0.3         0.6822       -89.3268      -44.47521      0.3977171       0.298787
      3776.0000       132.9126        45.3353       58.07016         0.3017          0.686       -86.9866      -42.11495      0.5334076      0.3368556
      3776.5000       128.9092        46.7876       61.10226         0.3079         0.6699       -85.1481      -40.25639      0.5979204      0.3668324
      3777.0000       126.0925        46.5598       60.62165         0.3137         0.6502       -85.0266      -40.11483      0.5876946      0.3691157
      3777.5000       127.4523        45.5848       58.57886         0.3212         0.6426       -85.0396      -40.10776      0.5442311      0.3692296
      3778.0000        128.908        43.8757       55.00124         0.3311         0.6534       -84.1609        -39.209      0.4681114      0.3837258
      3778.5000       129.9326        42.1811       51.45391          0.343         0.6899       -82.9899      -38.01794      0.3926363      0.4029364
      3779.0000       129.9841        42.1437       51.37141         0.3575         0.7465       -80.7467      -35.75468       0.390881      0.4394407
      3779.5000       129.8506        42.8505       52.84483         0.3785         0.7692       -75.0293      -30.01722      0.4222303      0.5319804
      3780.0000       130.2178        44.4741       56.23503         0.4062         0.7657       -71.2351      -26.20296      0.4943624      0.5935007
      3780.5000        130.405        46.0807       59.58972         0.4437         0.7502       -68.9789       -23.9267      0.5657387      0.6302146
      3781.0000       130.2756         47.507       62.56744          0.483         0.7534       -67.6683      -22.59604      0.6290944      0.6516768
      3781.5000       129.9761        48.5759       64.79793           0.52         0.7776       -66.7736      -21.68127      0.6765516      0.6664311
      3782.0000        129.553        48.3003       64.21739         0.5476         0.8228       -65.9208      -20.80841      0.6641998      0.6805094
      3782.5000       129.8599        47.5202       62.58207         0.5729         0.8515       -64.4503      -19.31786      0.6294057      0.7045507
      3783.0000       130.5784        46.9765       61.44102         0.5936         0.8294       -62.6891      -17.53659       0.605128      0.7332808
      3783.5000       131.7766        47.5378       62.61023         0.6108         0.8018       -60.8769      -15.70433      0.6300049      0.7628334
      3784.0000       133.6418        48.5222       64.66405         0.6236          0.787       -59.4532      -14.26057      0.6737031      0.7861198
      3784.5000       135.7236        49.4172       66.53092         0.6346         0.7915       -58.3967      -13.18401      0.7134238      0.8034837
      3785.0000       138.0137        49.4587       66.61337         0.6469         0.7858       -57.5095      -12.27674      0.7151781       0.818117
      3785.5000        140.197        48.6403       64.89797         0.6606         0.7554       -56.6661      -11.41328      0.6786802      0.8320438
      3786.0000       140.6875        47.5095       62.52942         0.6758         0.7375       -56.0245      -10.75163      0.6282854      0.8427157
      3786.5000       138.3494        46.4233       60.25415          0.693         0.7909       -55.3508      -10.05787      0.5798755      0.8539054
      3787.0000       134.2732        46.2213       59.82749         0.7072         0.8994       -54.3608      -9.047806      0.5707976      0.8701967
      3787.5000       129.5505        46.9224       61.28899         0.7216         1.0899       -53.1011      -7.768044      0.6018935       0.890838
      3788.0000       125.8651        48.3952       64.36391         0.7366         1.1415       -51.1711      -5.817982      0.6673173      0.9222906
      3788.5000       126.6719        50.7888       69.36402         0.7526         1.0086       -45.8307     -0.4575195      0.7737026              1
      3789.0000       137.0291        53.4552       74.93448         0.7638         0.8224       -42.2233       3.169941      0.8922229              1
      3789.5000       152.0664        55.5157       79.23813         0.7695         0.7209       -39.7946       5.618702        0.98379              1
      3790.0000        157.022        56.8759       82.07765          0.768         0.6965       -38.1174       7.315964              1              1
      3790.5000       158.8103        57.8722       84.15636         0.7616         0.6983       -38.0011       7.452328              1              1
      3791.0000        159.323        58.5787       85.62915         0.7523         0.7171       -37.9875       7.485989              1              1
      3791.5000       159.2029        58.9824       86.46887         0.7459         0.7457       -38.1928       7.300747              1              1
      3792.0000       159.4778        58.6039       85.67319         0.7453         0.7643       -38.5752       6.938408              1              1
      3792.5000       160.2014        57.4605        83.2783         0.7526         0.7562       -39.0878       6.445869              1              1
      3793.0000       160.4797        56.2643       80.77303          0.762         0.7596       -39.5341        6.01963              1              1
      3793.5000       159.7937        55.1794       78.50046         0.7771         0.8437       -39.9478       5.625992      0.9680948              1
      3794.0000       158.4111        54.8178        77.7401         0.7911         0.8399       -40.2742       5.319653      0.9519169              1
      3794.5000       156.8179        54.7869       77.67118         0.8015         0.8152       -40.5468       5.067116      0.9504507              1
      3795.0000       155.7368        54.9933        78.0984         0.8028         0.7981       -40.6373       4.996677      0.9595404              1
