#------------------------------------------------------------------------------
# Created by    : vladimir.rabinovich
# Created on    : 09/19/2023 17:20:03
#------------------------------------------------------------------------------
~Version Information Section
VERS.           2.0     :   CWLS log ASCII Standard - VERSION 2.0
WRAP.           NO      :   One line per depth step
~Well Information Section
#MNEM       .UNIT                                         VALUE :DESCRIPTION
#------------------------------------------------------------------------------
STRT        .FT                                             945 :START DEPTH
STOP        .FT                                           12004 :STOP DEPTH
STEP        .FT                                             0.5 :STEP      
NULL        .                                           -999.25 :NULL      
COMP        .                                    EXXON CO U S A :COMPANY   
WELL        .                                     ST TR 00819-L :WELL      
FLD         .                                           WILDCAT :FIELD     
LOC         .                                                   :LOCATION  
CNTY        .                        MUSTANG ISLAND LARGE BLOCK :LOCATION  
STAT        .                                             TEXAS :STATE     
CTRY        .                                     UNITED STATES :COUNTRY   
SRVC        .                                                   :SERVICE COMPANY
DATE        .                             9/13/2023 11:18:55 AM :LOG DATE  
API         .                                    42702301310000 :API NUMBER
UWI         .                                    42702301310000 :UNIQUE WELL ID
XCOORD      .                                  274042.524369281 :SURFACE X 
YCOORD      .                                  9990401.22532542 :SURFACE Y 
LAT         .                                        27.4671591 :LATITUDE  
LON         .                                       -97.2129423 :LONGITUDE 
ELEV        .FT                                              93 :ELEVATION VALUE
ELEV_TYPE   .                                                KB :ELEVATION REFERENCE TYPE
~Curve Information Section
#MNEM       .UNIT                                      API CODE :CURVE DESCRIPTION
#------------------------------------------------------------------------------
DEPT        .FT                                                 :DEPTH     
ASFL        .OHMM                                               :          
CILD        .MMHO                                               :          
GR          .GAPI                                               :          
GR_NORM     .GAPI                                               :GammaRay Normalized
ILD         .OHMM                                               :          
SP          .MV                                                 :          
SP_NORM     .MV                                                 :SP Normalized
VSH_GR      .V/V                                                :Volume of Shale from GR
VSH_SP      .V/V                                                :Volume of Shale from SP
~A        DEPTH           ASFL           CILD             GR        GR_NORM            ILD             SP        SP_NORM         VSH_GR         VSH_SP
# ...
     11969.0000         0.7007       1585.908        -999.25        -999.25         0.6261       -42.0717      -1.595509        -999.25      0.9895525
     11969.5000         0.7369       1601.619        -999.25        -999.25         0.6384       -42.6245      -2.148308        -999.25      0.9798542
     11970.0000         0.7701       1569.973        -999.25        -999.25         0.6506       -43.2133      -2.737106        -999.25      0.9695244
     11970.5000          0.802       1507.326        -999.25        -999.25         0.6629       -43.8442      -3.368008        -999.25       0.958456
     11971.0000         0.8312       1412.709        -999.25        -999.25         0.6759       -44.5024      -4.026207        -999.25      0.9469087
     11971.5000          0.757       1386.996        -999.25        -999.25         0.6806       -45.3651      -4.888908        -999.25      0.9317735
     11972.0000         0.6861        1422.34        -999.25        -999.25         0.6545       -46.3083      -5.832108        -999.25      0.9152262
     11972.5000         0.6645       1455.748        -999.25        -999.25          0.633       -47.2144      -6.738209        -999.25      0.8993297
     11973.0000         0.6462        1485.83        -999.25        -999.25         0.6184        -48.144      -7.667809        -999.25      0.8830209
     11973.5000         0.6298       1515.963        -999.25        -999.25         0.6038       -48.9305      -8.454308        -999.25      0.8692227
     11974.0000         0.6155       1579.703        -999.25        -999.25         0.5892       -48.6794      -8.203209        -999.25      0.8736279
     11974.5000         0.6049       1679.283        -999.25        -999.25         0.5747       -48.4728      -7.996609        -999.25      0.8772525
     11975.0000         0.6041       1764.863        -999.25        -999.25          0.564       -48.4576      -7.981407        -999.25      0.8775192
     11975.5000         0.6061       1846.326        -999.25        -999.25         0.5569       -48.7482      -8.272007        -999.25      0.8724209
     11976.0000         0.6058       1863.576        -999.25        -999.25         0.5498        -48.936      -8.459808        -999.25      0.8691261
     11976.5000         0.6012       1882.414        -999.25        -999.25         0.5427       -49.0866      -8.610409        -999.25       0.866484
     11977.0000         0.5965       1904.506        -999.25        -999.25         0.5356       -49.1308      -8.654606        -999.25      0.8657086
     11977.5000         0.5917       1926.545        -999.25        -999.25         0.5285       -49.1628      -8.686607        -999.25      0.8651472
     11978.0000          0.585       1948.785        -999.25        -999.25         0.5277       -49.1291      -8.652908        -999.25      0.8657385
     11978.5000         0.5784       1973.457        -999.25        -999.25         0.5352       -49.0151      -8.538906        -999.25      0.8677385
     11979.0000         0.5717       1998.078        -999.25        -999.25         0.5427       -48.8964      -8.420208        -999.25      0.8698209
     11979.5000          0.565       2022.701        -999.25        -999.25         0.5502       -48.3262      -7.850006        -999.25      0.8798245
     11980.0000         0.5581       2047.322        -999.25        -999.25         0.5587        -47.756      -7.279808        -999.25      0.8898279
     11980.5000         0.5506       2062.313        -999.25        -999.25          0.572       -47.1884      -6.712208        -999.25      0.8997858
     11981.0000          0.543        2054.57        -999.25        -999.25         0.5854       -46.6194      -6.143208        -999.25      0.9097683
     11981.5000         0.5354       1975.145        -999.25        -999.25         0.5988       -45.7914      -5.315208        -999.25      0.9242946
     11982.0000         0.6549       1895.719        -999.25        -999.25         0.6121       -44.7032      -4.227009        -999.25      0.9433858
     11982.5000         0.6858       1726.541        -999.25        -999.25         0.6277       -44.0326      -3.556408        -999.25      0.9551507
     11983.0000         0.7154       1635.996        -999.25        -999.25         0.6444       -43.7692      -3.293007        -999.25      0.9597718
     11983.5000         0.7321       1558.357        -999.25        -999.25          0.661        -43.639      -3.162807        -999.25       0.962056
     11984.0000         0.7488        1501.07        -999.25        -999.25         0.6776       -43.6752      -3.199009        -999.25      0.9614209
     11984.5000         0.7634       1445.076        -999.25        -999.25         0.6893       -43.7345      -3.258308        -999.25      0.9603806
     11985.0000          0.773       1399.803        -999.25        -999.25         0.6982       -43.8597      -3.383507        -999.25      0.9581841
     11985.5000         0.7755       1363.094        -999.25        -999.25          0.707       -44.2117      -3.735508        -999.25      0.9520086
     11986.0000          0.778        1350.51        -999.25        -999.25         0.7159       -44.5637      -4.087509        -999.25      0.9458331
     11986.5000         0.7804       1337.949        -999.25        -999.25         0.7145       -45.2572      -4.781006        -999.25      0.9336666
     11987.0000         0.7863       1325.365        -999.25        -999.25         0.7053       -45.9972      -5.521008        -999.25      0.9206841
     11987.5000         0.7983       1326.871        -999.25        -999.25         0.6962       -46.3182      -5.842007        -999.25      0.9150525
     11988.0000         0.8103       1328.484        -999.25        -999.25         0.6868       -46.1664      -5.690208        -999.25      0.9177157
     11988.5000         0.8064       1347.879        -999.25        -999.25         0.6749       -45.7307      -5.254509        -999.25      0.9253595
     11989.0000         0.7775       1368.182        -999.25        -999.25         0.6631       -45.1605      -4.684307        -999.25      0.9353631
     11989.5000          0.746       1388.436        -999.25        -999.25         0.6513       -44.3611      -3.884907        -999.25      0.9493876
     11990.0000         0.7236       1408.688        -999.25        -999.25         0.6394       -43.0001      -2.523907        -999.25      0.9732648
     11990.5000         0.7024       1429.588        -999.25        -999.25         0.6352       -42.9369      -2.460709        -999.25      0.9743735
     11991.0000         0.6771       1457.586        -999.25        -999.25         0.6401       -43.3658      -2.889606        -999.25       0.966849
     11991.5000         0.6721       1485.633        -999.25        -999.25         0.6451       -43.7946      -3.318409        -999.25      0.9593261
     11992.0000         0.6912       1513.631        -999.25        -999.25         0.6553       -44.2991      -3.822906        -999.25      0.9504753
     11992.5000         0.7104       1541.678        -999.25        -999.25         0.6865       -44.8271      -4.350906        -999.25      0.9412122
     11993.0000         0.7398       1545.848        -999.25        -999.25         0.7163       -44.8897      -4.413509        -999.25      0.9401138
     11993.5000         0.7761       1479.924        -999.25        -999.25         0.7388       -44.5154      -4.039207        -999.25      0.9466805
     11994.0000         0.8135       1405.064        -999.25        -999.25         0.7614       -44.1436      -3.667408        -999.25      0.9532034
     11994.5000         0.8511        1343.51        -999.25        -999.25          0.779       -43.7964      -3.320206        -999.25      0.9592946
     11995.0000         0.8795       1287.217        -999.25        -999.25          0.779       -43.5963      -3.120106        -999.25      0.9628052
