#------------------------------------------------------------------------------
# Created by    : vladimir.rabinovich
# Created on    : 09/19/2023 17:19:44
#------------------------------------------------------------------------------
~Version Information Section
VERS.           2.0     :   CWLS log ASCII Standard - VERSION 2.0
WRAP.           NO      :   One line per depth step
~Well Information Section
#MNEM       .UNIT                                         VALUE :DESCRIPTION
#------------------------------------------------------------------------------
STRT        .FT                                            3520 :START DEPTH
STOP        .FT                                           13769 :STOP DEPTH
STEP        .FT                                             0.5 :STEP      
NULL        .                                           -999.25 :NULL      
COMP        .                           WILLIAMS EXPLORATION CO :COMPANY   
WELL        .                                          SL 73414 :WELL      
FLD         .                                           WILDCAT :FIELD     
LOC         .                                                   :LOCATION  
CNTY        .                           HIGH ISLAND LARGE BLOCK :LOCATION  
STAT        .                                             TEXAS :STATE     
CTRY        .                                     UNITED STATES :COUNTRY   
SRVC        .                                                   :SERVICE COMPANY
DATE        .                             9/13/2023 11:19:15 AM :LOG DATE  
API         .                                    42708301040000 :API NUMBER
UWI         .                                    42708301040000 :UNIQUE WELL ID
XCOORD      .                                  1272749.25589155 :SURFACE X 
YCOORD      .                                  10699068.0748216 :SURFACE Y 
LAT         .                                        29.4758188 :LATITUDE  
LON         .                                       -94.1558378 :LONGITUDE 
ELEV        .FT                                             106 :ELEVATION VALUE
ELEV_TYPE   .                                                KB :ELEVATION REFERENCE TYPE
~Curve Information Section
#MNEM       .UNIT                                      API CODE :CURVE DESCRIPTION
#------------------------------------------------------------------------------
DEPT        .FT                                                 :DEPTH     
ASFL        .OHMM                                               :          
CILD        .MMHO                                               :          
ILD         .OHMM                                               :          
SP          .MV                                                 :          
SP_NORM     .MV                                                 :SP Normalized
VSH_SP      .V/V                                                :Volume of Shale from SP
~A        DEPTH           ASFL           CILD            ILD             SP        SP_NORM         VSH_SP
# ...
      5572.0000          0.549       2187.117         0.5478       -80.5752      -3.808411      0.9389476
      5572.5000         0.5507       2171.613         0.5485       -79.5774      -2.811813      0.9606128
      5573.0000         0.5437       2156.098         0.5492       -78.5806      -1.816223       0.982256
      5573.5000         0.5368       2140.594         0.5499       -77.5837     -0.8205338              1
      5574.0000         0.5298       2125.078         0.5506       -76.5869      0.1750641              1
      5574.5000         0.5225       2109.578         0.5514       -76.2129      0.5478592              1
      5575.0000         0.5146       2094.063         0.5521       -75.8536      0.9059525              1
      5575.5000         0.5067       2078.547         0.5528       -75.4943       1.264046              1
      5576.0000         0.4987       2063.652         0.5535       -75.1355       1.621635              1
      5576.5000         0.4954       2048.996         0.5543       -74.9037       1.852226              1
      5577.0000         0.4971        2034.34          0.555       -75.1189       1.635826              1
      5577.5000         0.4988        2019.67         0.5557       -75.3342       1.419319              1
      5578.0000         0.5005         2005.1         0.5564       -75.5627       1.189613              1
      5578.5000         0.5021       1995.084         0.5569       -75.7911      0.9600067              1
      5579.0000         0.5037       1985.068         0.5574       -76.0197      0.7301941              1
      5579.5000         0.5054       1975.039         0.5578       -76.2482      0.5004883              1
      5580.0000          0.507       1965.023         0.5583       -76.5446      0.2028809              1
      5580.5000         0.5086       1973.162         0.5587       -76.8815     -0.1352234              1
      5581.0000         0.5113       1988.988         0.5592       -77.2188      -0.473732              1
      5581.5000         0.5147       2004.814         0.5596       -78.0674      -1.323532      0.9929667
      5582.0000          0.518       2020.652         0.5601       -79.0283      -2.285645      0.9720512
      5582.5000         0.5215       2032.914         0.5606       -79.9893      -3.247856      0.9511335
      5583.0000         0.5286       2036.508          0.561       -80.6956       -3.95536       0.935753
      5583.5000         0.5357       2038.496         0.5615       -80.9906      -4.251564      0.9293138
      5584.0000         0.5427       2027.271         0.5619       -81.2859      -4.548065      0.9228681
      5584.5000         0.5495       2016.037         0.5624       -81.5812      -4.844582      0.9164221
      5585.0000          0.552       2004.814         0.5628       -81.5579      -4.822487      0.9169025
      5585.5000         0.5501       1993.578         0.5633       -81.4443      -4.710091      0.9193459
      5586.0000         0.5428       1982.355         0.5633       -81.3309        -4.5979      0.9217848
      5586.5000         0.5347       1971.121         0.5626       -81.2175      -4.485703      0.9242238
      5587.0000         0.5266        1971.48         0.5619        -81.104      -4.373405      0.9266651
      5587.5000         0.5185        1973.26         0.5611       -80.9905      -4.261124       0.929106
      5588.0000         0.5129       1960.047         0.5604       -80.8771      -4.148926      0.9315451
      5588.5000          0.508       1946.846         0.5596       -80.7562      -4.029236      0.9341471
      5589.0000         0.5067       1919.959         0.5589       -80.3379      -3.612137      0.9432144
      5589.5000         0.5083       1879.943         0.5582       -79.9202      -3.195641      0.9522687
      5590.0000         0.5099        1839.93         0.5574       -79.5018       -2.77845       0.961338
      5590.5000         0.5114       1802.652         0.5567       -79.0836      -2.361465      0.9704029
      5591.0000         0.5128       1766.869          0.556       -78.6653      -1.944366      0.9794703
      5591.5000         0.5142       1734.158         0.5552       -78.2471      -1.527374      0.9885353
      5592.0000         0.5156       1723.338         0.5545       -77.8289      -1.110382      0.9976004
      5592.5000          0.517       1718.664         0.5534       -77.5162     -0.7988815              1
      5593.0000         0.5184       1734.133         0.5522       -77.2479     -0.5317917              1
      5593.5000         0.5198       1749.961          0.551       -76.9794     -0.2645035              1
      5594.0000          0.521       1769.109         0.5497       -76.7111    0.002593994              1
      5594.5000          0.522       1790.709         0.5485       -76.6807     0.03178406              1
      5595.0000          0.523       1812.309         0.5473       -76.8557     -0.1444168              1
      5595.5000         0.5239       1833.883         0.5461       -77.0308     -0.3207245              1
      5596.0000         0.5249       1855.482         0.5448       -77.2056      -0.496727              1
      5596.5000         0.5256       1870.064         0.5436        -77.356     -0.6483459              1
      5597.0000         0.5259       1884.211         0.5424       -77.3566     -0.6501465              1
      5597.5000         0.5262       1898.371         0.5411       -77.3572     -0.6519547              1
      5598.0000         0.5266       1912.518         0.5399       -77.3577      -0.653656              1
      5598.5000         0.5269       1926.664         0.5387       -77.3269     -0.6240616              1
      5599.0000         0.5271       1936.236         0.5375       -77.1287     -0.4270706              1
      5599.5000         0.5263        1936.74          0.536       -76.9303     -0.2298813              1
      5600.0000         0.5255       1937.244         0.5345       -76.7321    -0.03289032              1
      5600.5000         0.5247       1937.748          0.533       -76.5339      0.1641083              1
      5601.0000         0.5239        1921.24         0.5315       -76.3357      0.3610992              1
      5601.5000         0.5227       1903.484           0.53       -76.1373      0.5582962              1
      5602.0000         0.5215       1885.717         0.5284       -75.9391      0.7552872              1
      5602.5000         0.5202       1867.949         0.5269        -75.741       0.952179              1
      5603.0000         0.5189       1853.877         0.5254       -75.5426       1.149368              1
      5603.5000         0.5167       1845.945         0.5239       -75.6685       1.022263              1
      5604.0000         0.5145       1841.734         0.5224       -75.8586      0.8309631              1
      5604.5000         0.5197       1853.891         0.5208        -76.049      0.6393509              1
      5605.0000         0.5189       1866.047         0.5187       -76.2391      0.4480515              1
      5605.5000         0.5166       1878.203         0.5166       -76.4294      0.2565384              1
      5606.0000         0.5143       1893.693         0.5145       -76.6196     0.06513214              1
      5606.5000          0.512       1910.229         0.5123       -76.8101     -0.1265717              1
      5607.0000         0.5093       1926.752         0.5102       -76.9967     -0.3143768              1
      5607.5000         0.5067       1943.287         0.5081       -77.1724     -0.4912872              1
      5608.0000         0.5041       1958.604          0.506       -77.3484     -0.6684952              1
      5608.5000         0.5076       1965.012         0.5034        -77.524     -0.8453064              1
      5609.0000          0.511       1971.426         0.4999       -77.6998      -1.022308      0.9995151
      5609.5000         0.5148       1978.094         0.4964       -78.2278      -1.551514      0.9880106
