#------------------------------------------------------------------------------
# Created by    : vladimir.rabinovich
# Created on    : 09/19/2023 17:20:32
#------------------------------------------------------------------------------
~Version Information Section
VERS.           2.0     :   CWLS log ASCII Standard - VERSION 2.0
WRAP.           NO      :   One line per depth step
~Well Information Section
#MNEM       .UNIT                                         VALUE :DESCRIPTION
#------------------------------------------------------------------------------
STRT        .FT                                             222 :START DEPTH
STOP        .FT                                            9192 :STOP DEPTH
STEP        .FT                                             0.5 :STEP      
NULL        .                                           -999.25 :NULL      
COMP        .                                      PAN AMERICAN :COMPANY   
WELL        .                                     ST TR 00060-L :WELL      
FLD         .                                           WILDCAT :FIELD     
LOC         .                                                   :LOCATION  
CNTY        .                             GALVESTON LARGE BLOCK :LOCATION  
STAT        .                                             TEXAS :STATE     
CTRY        .                                     UNITED STATES :COUNTRY   
SRVC        .                                                   :SERVICE COMPANY
DATE        .                             9/13/2023 11:19:24 AM :LOG DATE  
API         .                                    42706000830000 :API NUMBER
UWI         .                                    42706000830000 :UNIQUE WELL ID
XCOORD      .                                  1150669.84230747 :SURFACE X 
YCOORD      .                                  10684730.4394491 :SURFACE Y 
LAT         .                                        29.4325033 :LATITUDE  
LON         .                                       -94.5389235 :LONGITUDE 
ELEV        .FT                                              11 :ELEVATION VALUE
ELEV_TYPE   .                                                KB :ELEVATION REFERENCE TYPE
~Curve Information Section
#MNEM       .UNIT                                      API CODE :CURVE DESCRIPTION
#------------------------------------------------------------------------------
DEPT        .FT                                                 :DEPTH     
ASN         .OHMM                                               :          
CILD        .MMHO                                               :          
ILD         .OHMM                                               :          
SP          .MV                                                 :          
SP_NORM     .MV                                                 :SP Normalized
VSH_SP      .V/V                                                :Volume of Shale from SP
~A        DEPTH            ASN           CILD            ILD             SP        SP_NORM         VSH_SP
# ...
      2008.0000         0.5277       1744.367         0.6669       -64.7515       2.975502              1
      2008.5000          0.534       1748.008         0.6605       -64.9395        2.78537              1
      2009.0000         0.5403       1751.648          0.654       -65.1274       2.595322              1
      2009.5000         0.5456       1752.297         0.6476       -65.3156       2.404991              1
      2010.0000         0.5488       1748.736         0.6412       -65.4056       2.312851              1
      2010.5000         0.5519       1745.174         0.6348       -65.4001       2.316216              1
      2011.0000          0.555       1741.611         0.6284       -65.1881       2.526077              1
      2011.5000         0.5581       1738.051          0.622       -64.5892       3.122833              1
      2012.0000         0.5608        1735.42         0.6155       -63.9907         3.7192              1
      2012.5000         0.5542       1761.182         0.6091       -63.3918       4.315964              1
      2013.0000         0.5475       1786.957         0.5974        -62.793       4.912628              1
      2013.5000         0.5409       1847.965         0.5842       -62.3348        5.36869              1
      2014.0000         0.5328       1911.125         0.5709       -61.9088       5.792549              1
      2014.5000         0.5246       1949.928         0.5577       -61.4828       6.216412              1
      2015.0000         0.5164       1983.658         0.5445       -61.0569       6.640175              1
      2015.5000         0.5081        1970.74         0.5312         -60.82       6.874939              1
      2016.0000         0.4999        1978.93          0.518       -60.7405       6.952301              1
      2016.5000         0.4917       2004.648         0.5047       -60.6611        7.02956              1
      2017.0000         0.4835       2030.359         0.4915       -60.5817       7.106823              1
      2017.5000         0.4742       2056.078         0.4773       -60.7133       6.973087              1
      2018.0000         0.4646       2081.797         0.4627       -60.9104       6.773849              1
      2018.5000         0.4836       2107.516         0.4481       -61.7212       5.960915              1
      2019.0000         0.5355       2233.184         0.4334       -63.1232        4.55677              1
      2019.5000         0.5917        2405.43         0.4188        -66.632        1.04583              1
      2020.0000         0.6314       2500.977         0.4275         -75.37      -7.694305      0.8031087
      2020.5000         0.6159       2618.203          0.444       -89.0203      -21.34674      0.4015664
      2021.0000         0.6005       2751.234         0.4605       -92.3744      -24.70297      0.3028538
      2021.5000         0.5851       2787.055         0.4769       -94.0228      -26.35352      0.2543084
      2022.0000         0.5667       2802.758         0.4934       -96.3413      -28.67416      0.1860542
      2022.5000         0.5442       2811.176         0.5099       -91.1914      -23.52639      0.3374591
      2023.0000         0.5218       2732.156         0.5264       -88.2734      -20.61053      0.4232198
      2023.5000         0.5202       2660.441         0.5411       -83.2576      -15.59686      0.5706805
      2024.0000         0.5289       2575.039         0.5556        -79.823      -12.16441      0.6716352
      2024.5000         0.5376       2454.879         0.5701       -77.1396      -9.483147      0.7504957
      2025.0000         0.5463       2296.438         0.5846       -74.9192      -7.264877      0.8157389
      2025.5000         0.5538       2174.664          0.599       -72.5525      -4.900314      0.8852849
      2026.0000          0.559       2052.844         0.6135       -70.4491      -2.799049      0.9470868
      2026.5000         0.5641        1928.92         0.6235       -69.1466      -1.498695      0.9853325
      2027.0000         0.5692       1808.711          0.627       -68.0073     -0.3615341              1
      2027.5000         0.5744       1732.461         0.6306       -67.6548    -0.01116943              1
      2028.0000         0.5795       1689.883         0.6341       -67.3022      0.3392944              1
      2028.5000         0.5824       1643.563         0.6376        -67.276      0.3633575              1
      2029.0000         0.5772       1614.268         0.6412       -67.8455     -0.2082825              1
      2029.5000         0.5721       1617.215         0.6447       -68.4703     -0.8352203              1
      2030.0000         0.5669       1640.154         0.6482       -69.0951      -1.462158      0.9864071
      2030.5000         0.5617       1663.094         0.6445       -69.7198      -2.088997      0.9679707
      2031.0000         0.5568       1683.527         0.6407       -70.2374      -2.608727      0.9526845
      2031.5000         0.5536       1701.004          0.637        -70.697      -3.070473      0.9391037
      2032.0000         0.5504        1718.48         0.6333       -71.0432      -3.418808      0.9288586
      2032.5000         0.5472       1760.252         0.6296       -70.6637      -3.041443      0.9399576
      2033.0000          0.544       1781.775         0.6259       -70.2842      -2.664085      0.9510563
      2033.5000         0.5402       1798.371         0.6221       -69.9048      -2.286819      0.9621524
      2034.0000         0.5356       1817.119         0.6184       -69.5253      -1.909462      0.9732511
      2034.5000          0.531       1827.061         0.6147       -69.1458      -1.532097      0.9843501
      2035.0000         0.5285       1832.621          0.611       -68.7664      -1.154839      0.9954459
      2035.5000         0.5317       1852.291         0.6073       -68.3762     -0.7667694              1
      2036.0000         0.5349       1871.963         0.6035       -67.7537     -0.1464081              1
      2036.5000          0.538       1891.633         0.5992       -67.1311      0.4740448              1
      2037.0000         0.5412       1914.779         0.5946       -66.5085       1.094513              1
      2037.5000         0.5444       1936.607           0.59       -65.8859       1.714973              1
      2038.0000         0.5438       1953.496         0.5854       -65.2633       2.335442              1
      2038.5000         0.5407       1986.164         0.5808         -64.51       3.086601              1
      2039.0000         0.5376       2004.371         0.5762       -63.7235        3.87096              1
      2039.5000         0.5345        2004.27         0.5715        -64.312       3.280327              1
      2040.0000         0.5314       2004.168         0.5669       -66.9402      0.6499863              1
      2040.5000         0.5285       2004.068         0.5623       -71.4858      -3.897751       0.914772
      2041.0000         0.5256       2003.967         0.5632       -70.7062      -3.120285      0.9376387
      2041.5000         0.5227       2003.865         0.5662       -69.6998       -2.11602      0.9671759
      2042.0000         0.5198       2003.764         0.5692        -68.172     -0.5903625              1
      2042.5000          0.517       2003.664         0.5722       -66.6448         0.9347              1
      2043.0000         0.5141        2009.77         0.5752       -65.1169       2.460464              1
      2043.5000         0.5129       2018.262         0.5782       -63.5892       3.986027              1
      2044.0000         0.5131       2026.748         0.5812       -62.0029        5.57019              1
      2044.5000         0.5132        2035.24         0.5841       -63.2803       4.290646              1
      2045.0000         0.5134       2043.727         0.5867       -64.6675       2.901306              1
      2045.5000         0.5136       2052.219         0.5893       -66.1167       1.449974              1
