#------------------------------------------------------------------------------
# Created by    : vladimir.rabinovich
# Created on    : 09/19/2023 17:21:40
#------------------------------------------------------------------------------
~Version Information Section
VERS.           2.0     :   CWLS log ASCII Standard - VERSION 2.0
WRAP.           NO      :   One line per depth step
~Well Information Section
#MNEM       .UNIT                                         VALUE :DESCRIPTION
#------------------------------------------------------------------------------
STRT        .FT                                             957 :START DEPTH
STOP        .FT                                           10053 :STOP DEPTH
STEP        .FT                                             0.5 :STEP      
NULL        .                                           -999.25 :NULL      
COMP        .                                    EXXON CO U S A :COMPANY   
WELL        .                               OCS G03237 ST00BP00 :WELL      
FLD         .                                           WILDCAT :FIELD     
LOC         .                                                   :LOCATION  
CNTY        .                           HIGH ISLAND LARGE BLOCK :LOCATION  
STAT        .                                             TEXAS :STATE     
CTRY        .                                     UNITED STATES :COUNTRY   
SRVC        .                                                   :SERVICE COMPANY
DATE        .                             9/13/2023 11:20:04 AM :LOG DATE  
API         .                                    42708400420000 :API NUMBER
UWI         .                                    42708400420000 :UNIQUE WELL ID
XCOORD      .                                  1163347.66403634 :SURFACE X 
YCOORD      .                                  10583934.5995257 :SURFACE Y 
LAT         .                                         29.155753 :LATITUDE  
LON         .                                        -94.495054 :LONGITUDE 
ELEV        .FT                                              94 :ELEVATION VALUE
ELEV_TYPE   .                                                KB :ELEVATION REFERENCE TYPE
~Curve Information Section
#MNEM       .UNIT                                      API CODE :CURVE DESCRIPTION
#------------------------------------------------------------------------------
DEPT        .FT                                                 :DEPTH     
CALI        .IN                                                 :          
DRHO        .G/C3                                               :          
DT          .US/F                                               :          
GR          .GAPI                                               :          
GR_1        .GAPI                                               :          
GR_NORM     .GAPI                                               :GammaRay Normalized
ILD         .OHMM                                               :          
NPHI        .%                                                  :          
RHOB        .G/C3                                               :          
SFL         .OHMM                                               :          
SP          .MV                                                 :          
SP_NORM     .MV                                                 :SP Normalized
VSH_GR      .V/V                                                :Volume of Shale from GR
VSH_SP      .V/V                                                :Volume of Shale from SP
~A        DEPTH           CALI           DRHO             DT             GR           GR_1        GR_NORM            ILD           NPHI           RHOB            SFL             SP        SP_NORM         VSH_GR         VSH_SP
# ...
      3477.0000        -999.25        -999.25        -999.25        -999.25        81.8861       68.51813          0.429        -999.25        -999.25         0.8796       -72.1156      -11.76054      0.7557048      0.7240886
      3477.5000        -999.25        -999.25        -999.25        -999.25         79.386       66.72632         0.4129        -999.25        -999.25         0.7696       -73.0381      -12.67474      0.7175812      0.7006476
      3478.0000        -999.25        -999.25        -999.25        -999.25        77.2378       65.18699         0.3999        -999.25        -999.25          0.651       -76.6094      -16.23774      0.6848295      0.6092886
      3478.5000        -999.25        -999.25        -999.25        -999.25        76.4072       64.59299         0.3888        -999.25        -999.25         0.6519       -79.5912      -19.21125      0.6721912      0.5330449
      3479.0000        -999.25        -999.25        -999.25        -999.25        78.2294       65.90228         0.3777        -999.25        -999.25         0.6764         -80.02      -19.63174      0.7000484       0.522263
      3479.5000        -999.25        -999.25        -999.25        -999.25        80.0057       67.17863         0.3617        -999.25        -999.25         0.6619       -77.4027      -17.00615      0.7272049      0.5895858
      3480.0000        -999.25        -999.25        -999.25        -999.25        81.6321       68.34743         0.3469        -999.25        -999.25         0.5627        -74.318      -13.91315      0.7520731      0.6688936
      3480.5000        -999.25        -999.25        -999.25        -999.25         83.422       69.63354         0.3448        -999.25        -999.25          0.545       -75.0946      -14.68145      0.7794371      0.6491936
      3481.0000        -999.25        -999.25        -999.25        -999.25        85.0111        70.7756         0.3628        -999.25        -999.25         0.5538       -75.4106      -14.98915      0.8037363      0.6413037
      3481.5000        -999.25        -999.25        -999.25        -999.25        86.6002       71.91763         0.3883        -999.25        -999.25         0.5727        -71.475      -11.04525      0.8280348      0.7424294
      3482.0000        -999.25        -999.25        -999.25        -999.25        87.7971       72.77831         0.4185        -999.25        -999.25          0.606       -67.6075      -7.169456      0.8463469      0.8418088
      3482.5000        -999.25        -999.25        -999.25        -999.25         88.349       73.17619         0.4554        -999.25        -999.25         0.6897       -62.5253      -2.078957      0.8548124      0.9723344
      3483.0000        -999.25        -999.25        -999.25        -999.25        88.3726       73.19505         0.4914        -999.25        -999.25          0.668       -60.9454     -0.4907608      0.8552139              1
      3483.5000        -999.25        -999.25        -999.25        -999.25        87.9349       72.88293         0.5229        -999.25        -999.25         0.6512       -61.4093     -0.9463654      0.8485731              1
      3484.0000        -999.25        -999.25        -999.25        -999.25        87.0378       72.24123         0.5466        -999.25        -999.25         0.6267       -61.7606      -1.289364      0.8349197      0.9925804
      3484.5000        -999.25        -999.25        -999.25        -999.25        86.1931        71.6371         0.5748        -999.25        -999.25         0.6151       -61.4301     -0.9505653      0.8220659              1
      3485.0000        -999.25        -999.25        -999.25        -999.25        85.3495       71.03378         0.5946        -999.25        -999.25         0.6177       -60.7253     -0.2374687      0.8092294              1
      3485.5000        -999.25        -999.25        -999.25        -999.25         85.291       70.99374         0.6096        -999.25        -999.25         0.6327       -61.0521     -0.5559692      0.8083775              1
      3486.0000        -999.25        -999.25        -999.25        -999.25        86.5172        71.8754         0.6196        -999.25        -999.25         0.6484       -61.2467     -0.7422714      0.8271363              1
      3486.5000        -999.25        -999.25        -999.25        -999.25        88.2328       73.10822         0.6264        -999.25        -999.25         0.6675       -61.1427     -0.6299706      0.8533663              1
      3487.0000        -999.25        -999.25        -999.25        -999.25        88.4552       73.26971         0.6309        -999.25        -999.25         0.6846       -60.7384     -0.2173729      0.8568023              1
      3487.5000        -999.25        -999.25        -999.25        -999.25        88.8727       73.57117         0.6299        -999.25        -999.25         0.7014       -60.0901      0.4392242      0.8632165              1
      3488.0000        -999.25        -999.25        -999.25        -999.25        90.1443       74.48542         0.6276        -999.25        -999.25         0.7113       -59.0575       1.480125      0.8826685              1
      3488.5000        -999.25        -999.25        -999.25        -999.25        92.2974       76.03213         0.6195        -999.25        -999.25         0.6965       -57.9996       2.546322      0.9155772              1
      3489.0000        -999.25        -999.25        -999.25        -999.25        94.4331       77.56634           0.61        -999.25        -999.25         0.6622       -57.1669       3.387318        0.94822              1
      3489.5000        -999.25        -999.25        -999.25        -999.25        96.4109       78.98726         0.6039        -999.25        -999.25         0.6252       -56.7068       3.855721      0.9784523              1
      3490.0000        -999.25        -999.25        -999.25        -999.25        96.2548       78.87719         0.5952        -999.25        -999.25         0.5896       -56.2595       4.311317      0.9761104              1
      3490.5000        -999.25        -999.25        -999.25        -999.25         94.505       77.62369         0.5878        -999.25        -999.25         0.5886       -55.9554       4.623714      0.9494402              1
      3491.0000        -999.25        -999.25        -999.25        -999.25        92.8514       76.43922         0.5773        -999.25        -999.25         0.5958       -56.1441       4.443314      0.9242386              1
      3491.5000        -999.25        -999.25        -999.25        -999.25        91.4805       75.45757         0.5669        -999.25        -999.25         0.6061       -56.7048       3.890911      0.9033526              1
      3492.0000        -999.25        -999.25        -999.25        -999.25        90.8368       74.99766         0.5571        -999.25        -999.25         0.5818       -56.8895       3.714512      0.8935672              1
      3492.5000        -999.25        -999.25        -999.25        -999.25        90.7189         74.915         0.5468        -999.25        -999.25         0.5419       -55.8898       4.722507      0.8918085              1
      3493.0000        -999.25        -999.25        -999.25        -999.25        91.0079       75.12427         0.5307        -999.25        -999.25         0.5546       -55.2251       5.395504       0.896261              1
      3493.5000        -999.25        -999.25        -999.25        -999.25        91.9509       75.80276         0.5165        -999.25        -999.25         0.6154       -55.4957       5.133205      0.9106971              1
      3494.0000        -999.25        -999.25        -999.25        -999.25        92.4591        76.1693         0.5017        -999.25        -999.25         0.6271       -57.3785       3.258701      0.9184957              1
      3494.5000        -999.25        -999.25        -999.25        -999.25        91.4579        75.4529         0.4883        -999.25        -999.25         0.5037       -60.5543     0.09120178      0.9032533              1
