#------------------------------------------------------------------------------
# Created by    : vladimir.rabinovich
# Created on    : 09/19/2023 17:20:24
#------------------------------------------------------------------------------
~Version Information Section
VERS.           2.0     :   CWLS log ASCII Standard - VERSION 2.0
WRAP.           NO      :   One line per depth step
~Well Information Section
#MNEM       .UNIT                                         VALUE :DESCRIPTION
#------------------------------------------------------------------------------
STRT        .FT                                            1590 :START DEPTH
STOP        .FT                                            8991 :STOP DEPTH
STEP        .FT                                             0.5 :STEP      
NULL        .                                           -999.25 :NULL      
COMP        .                                 C & K OFFSHORE CO :COMPANY   
WELL        .                                OCS 00507 ST00BP00 :WELL      
FLD         .                                           WILDCAT :FIELD     
LOC         .                                                   :LOCATION  
CNTY        .                           HIGH ISLAND LARGE BLOCK :LOCATION  
STAT        .                                             TEXAS :STATE     
CTRY        .                                     UNITED STATES :COUNTRY   
SRVC        .                                                   :SERVICE COMPANY
DATE        .                             9/13/2023 11:19:15 AM :LOG DATE  
API         .                                    42708300260000 :API NUMBER
UWI         .                                    42708300260000 :UNIQUE WELL ID
XCOORD      .                                  1287575.74118613 :SURFACE X 
YCOORD      .                                  10681645.7296129 :SURFACE Y 
LAT         .                                         29.428295 :LATITUDE  
LON         .                                        -94.108714 :LONGITUDE 
ELEV        .FT                                              73 :ELEVATION VALUE
ELEV_TYPE   .                                                KB :ELEVATION REFERENCE TYPE
~Curve Information Section
#MNEM       .UNIT                                      API CODE :CURVE DESCRIPTION
#------------------------------------------------------------------------------
DEPT        .FT                                                 :DEPTH     
ASN         .OHMM                                               :          
CALI        .IN                                                 :          
CILD        .MMHO                                               :          
DT          .US/F                                               :          
GR          .GAPI                                               :          
GR_NORM     .GAPI                                               :GammaRay Normalized
ILD         .OHMM                                               :          
SP          .MV                                                 :          
SP_NORM     .MV                                                 :SP Normalized
VSH_GR      .V/V                                                :Volume of Shale from GR
VSH_SP      .V/V                                                :Volume of Shale from SP
~A        DEPTH            ASN           CALI           CILD             DT             GR        GR_NORM            ILD             SP        SP_NORM         VSH_GR         VSH_SP
# ...
      6022.5000         0.6204        12.0896       2062.938       129.2019        62.7018       64.62725         0.4521       -43.1053      -4.185482      0.6729202      0.9402074
      6023.0000         0.6248          12.08       2047.191       129.1174        64.3522       66.69025         0.4581       -42.9075      -3.991997      0.7168139      0.9429715
      6023.5000         0.6292        12.0715       2023.299       128.7312        64.0096       66.26199         0.4641       -42.8022      -3.891006       0.707702      0.9444142
      6024.0000         0.6336        12.0656       2018.998       128.3096        63.7179       65.89738         0.4646       -42.9896      -4.082718      0.6999442      0.9416755
      6024.5000          0.638        12.0624       2028.869       127.8267        63.8476        66.0595         0.4595       -42.8201      -3.917526      0.7033936      0.9440354
      6025.0000         0.6425        12.0435       2038.738       127.3005        63.0226       65.02824         0.4545       -42.6507      -3.752438       0.681452      0.9463937
      6025.5000         0.6465        11.9663       2048.605       126.7128        61.9963       63.74538         0.4511       -42.4813      -3.587349      0.6541569      0.9487522
      6026.0000          0.644        11.8565       2060.004         126.12        61.7729       63.46613          0.451       -42.3119       -3.42226      0.6482154      0.9511105
      6026.5000         0.6362        11.7126       2072.859       125.5458        62.6341       64.54263          0.451       -42.1425      -3.257172      0.6711197       0.953469
      6027.0000         0.6284        11.6351       2085.711       124.8198        63.1677       65.20963          0.451       -42.0007      -3.119682      0.6853112      0.9554331
      6027.5000         0.6318        11.6304       2120.082       124.4557         63.421       65.52625         0.4501       -41.8956       -3.01889       0.692048       0.956873
      6028.0000          0.637        11.6758       2147.629       124.3441        63.8488         66.061          0.449       -41.7905      -2.918106      0.7034256      0.9583127
      6028.5000          0.642         11.715       2080.652       123.9298        64.5709       66.96362          0.448       -41.7218      -2.853718      0.7226303      0.9592326
      6029.0000          0.647        11.7419       2030.832       123.1335        66.5068        69.3835         0.4469       -41.7009      -2.837128       0.774117      0.9594696
      6029.5000          0.652        11.8009       1979.738       120.9971        69.5837       73.22963         0.5197       -41.9449      -3.085438      0.8559496      0.9559223
      6030.0000         0.6582        11.8783       1932.926         93.269        69.8124        73.5155         0.5953       -42.3394      -3.484249       0.862032       0.950225
      6030.5000         0.7036        11.8922       1870.227       115.3153        66.9503       69.93788         0.6708        -42.734       -3.88316      0.7859124      0.9445263
      6031.0000         0.7539        11.7031       1791.766       115.0587        62.8569       64.82112         0.7293       -43.2145       -4.36797      0.6770451      0.9376004
      6031.5000         0.8168        11.5299       1596.658        111.274        60.9435       62.42937         0.7861        -43.733      -4.890781      0.6261569      0.9301317
      6032.0000         0.9222        11.3634       1421.641       105.1013        58.7751       59.71888          0.843       -44.2516      -5.413689      0.5684868      0.9226616
      6032.5000         1.0282        11.2603       1218.777       100.0782        58.3292        59.1615         0.9015       -44.8606         -6.027      0.5566276         0.9139
      6033.0000         1.1341        11.2829       1015.913        87.7427        57.7567       58.44587         0.9811       -45.4977      -6.668415      0.5414016      0.9047369
      6033.5000         1.2402        11.4049       758.2822        83.8717        54.6935       54.61687         1.0607       -46.1242      -7.299225      0.4599335      0.8957254
      6034.0000         1.3462        11.5856        726.373        82.7073          51.33        50.4125         1.1741         -46.77      -7.949337      0.3704788      0.8864381
      6034.5000         1.4522         11.785       713.8184        83.3807         49.403       48.00375         1.3239       -47.4159      -8.599548      0.3192287      0.8771493
      6035.0000         1.5582        12.0151       750.8486        95.8546        47.7919       45.98988         1.4305       -48.7999      -9.987858      0.2763803      0.8573163
      6035.5000         1.5566        12.3001       810.3652       109.8481        48.0294       46.28675         1.3951        -50.758      -11.95027      0.2826968      0.8292819
      6036.0000         1.4426        12.7161        907.123       120.0422        51.5498       50.68725         1.2702        -52.041      -13.23758      0.3763245      0.8108917
      6036.5000         1.3286        12.8383       1015.615       122.3182        54.8505       54.81312         1.1483       -53.0612      -14.26209       0.464109      0.7962559
      6037.0000         1.2145        12.5658       1144.791       121.1919        57.2112         57.764         1.0359       -53.8087       -15.0139      0.5268936      0.7855157
      6037.5000         1.0171        12.5968        1278.74       117.2125        59.5307       60.66338          0.925       -54.4988      -15.70831      0.5885825      0.7755956
      6038.0000         0.9239        12.6993       1362.869       116.5636        61.8423       63.55288         0.8245       -54.4458      -15.65963      0.6500612      0.7762911
      6038.5000         0.8684        12.5677       1558.572       116.2435        63.9813       66.22662         0.7447       -54.1722      -15.39034      0.7069494      0.7801381
      6039.0000          0.819        12.3553       1601.582       115.8407        65.0468        67.5585         0.6703       -53.8661      -15.08855      0.7352873      0.7844493
      6039.5000         0.7963        12.3912       1641.459       115.4121        64.0322       66.29025         0.6185       -53.3825      -14.60926      0.7083033      0.7912963
      6040.0000         0.7789        12.4285        1675.33        114.804        62.6606       64.57574         0.5863       -52.8989      -14.12997      0.6718243      0.7981433
      6040.5000         0.7682        12.4609       1690.496       113.8634        60.6982       62.12275           0.58       -52.5641      -13.79948       0.619633      0.8028646
      6041.0000         0.7608        12.4635       1691.129       114.1002        59.0818       60.10225         0.5737       -52.3663      -13.60599      0.5766436      0.8056288
      6041.5000         0.7573        12.5067       1683.447       114.9858        58.8591       59.82388         0.5686       -52.1687       -13.4127      0.5707207        0.80839
      6042.0000         0.7596        12.5615       1675.766       115.2927        60.6276        62.0345         0.5669       -51.8946      -13.14291      0.6177553      0.8122441
      6042.5000         0.7609        12.6003       1668.084       115.4475        63.6653       65.83162         0.5651       -51.5895      -12.84212      0.6985451      0.8165411
      6043.0000         0.7557         12.451       1659.955        115.673         67.484         70.605         0.5634       -51.2444      -12.50134      0.8001065      0.8214095
      6043.5000         0.7506        12.3738       1651.203       115.9872        69.1401       72.67513         0.5616       -50.8588      -12.12004      0.8441516      0.8268565
      6044.0000         0.7454        12.3969       1650.668       116.4957        69.6141       73.26762         0.5598       -50.4728      -11.73836      0.8567579      0.8323092
      6044.5000         0.7401        12.4537       1655.436       117.0046        70.8573       74.82162         0.5581       -50.0872      -11.35707      0.8898218      0.8377562
