#------------------------------------------------------------------------------
# Created by    : vladimir.rabinovich
# Created on    : 09/19/2023 17:22:38
#------------------------------------------------------------------------------
~Version Information Section
VERS.           2.0     :   CWLS log ASCII Standard - VERSION 2.0
WRAP.           NO      :   One line per depth step
~Well Information Section
#MNEM       .UNIT                                         VALUE :DESCRIPTION
#------------------------------------------------------------------------------
STRT        .FT                                             597 :START DEPTH
STOP        .FT                                            8696 :STOP DEPTH
STEP        .FT                                             0.5 :STEP      
NULL        .                                           -999.25 :NULL      
COMP        .                MURPHY EXPLORATION & PRODUCTION CO :COMPANY   
WELL        .                               OCS G13308 ST00BP00 :WELL      
FLD         .                                           WILDCAT :FIELD     
LOC         .                                                   :LOCATION  
CNTY        .                             GALVESTON LARGE BLOCK :LOCATION  
STAT        .                                             TEXAS :STATE     
CTRY        .                                     UNITED STATES :COUNTRY   
SRVC        .                                                   :SERVICE COMPANY
DATE        .                             9/13/2023 11:19:54 AM :LOG DATE  
API         .                                    42706403460000 :API NUMBER
UWI         .                                    42706403460000 :UNIQUE WELL ID
XCOORD      .                                  1110706.35492259 :SURFACE X 
YCOORD      .                                  10520329.8149831 :SURFACE Y 
LAT         .                                         28.978895 :LATITUDE  
LON         .                                        -94.657168 :LONGITUDE 
ELEV        .FT                                              71 :ELEVATION VALUE
ELEV_TYPE   .                                                KB :ELEVATION REFERENCE TYPE
~Curve Information Section
#MNEM       .UNIT                                      API CODE :CURVE DESCRIPTION
#------------------------------------------------------------------------------
DEPT        .FT                                                 :DEPTH     
DCAL        .IN                                                 :          
DPHI        .%                                                  :          
DRHO        .G/C3                                               :          
DTLN        .US/F                                               :          
GR          .GAPI                                               :          
GR_1        .GAPI                                               :          
GR_NORM     .GAPI                                               :GammaRay Normalized
ILD         .OHMM                                               :          
ILM         .OHMM                                               :          
NPHI        .%                                                  :          
SFL         .OHMM                                               :          
SP          .MV                                                 :          
VSH_GR      .V/V                                                :Volume of Shale from GR
~A        DEPTH           DCAL           DPHI           DRHO           DTLN             GR           GR_1        GR_NORM            ILD            ILM           NPHI            SFL             SP         VSH_GR
# ...
      8653.0000         0.6096        23.3254         0.0325        -999.25        -999.25        -999.25       80.89286         0.7102         0.7389        -999.25         0.8027        -46.776              1
      8653.5000         0.7437        23.5581         0.0265        -999.25        -999.25        -999.25       80.89286         0.7179         0.7458        -999.25         0.7977       -47.7161              1
      8654.0000         0.7943        22.8545         0.0251        -999.25        -999.25        -999.25       80.89286         0.7278         0.7656        -999.25         0.7936       -47.9288              1
      8654.5000         0.4506        21.7505         0.0272        -999.25        -999.25        -999.25       80.89286          0.737         0.7923        -999.25            0.8       -46.3835              1
      8655.0000         0.0337        20.4471         0.0317        -999.25        -999.25        -999.25       80.89286         0.7454         0.8105        -999.25         0.8253       -45.5484              1
      8655.5000        -0.2184        19.8163         0.0386        -999.25        -999.25        -999.25       80.89286          0.748         0.8157        -999.25         0.8598       -44.7463              1
      8656.0000        -0.0552        19.3814         0.0479        -999.25        -999.25        -999.25       80.89286         0.7467         0.8048        -999.25         0.8747       -44.4848              1
      8656.5000         0.1048        18.7732         0.0601        -999.25        -999.25        -999.25       80.89286         0.7434         0.7692        -999.25         0.8683       -44.8223              1
      8657.0000         0.1474        17.6617         0.0756        -999.25        -999.25        -999.25       80.89286         0.7377         0.7447        -999.25          0.856       -45.5986              1
      8657.5000         0.1257        16.6253         0.0874        -999.25        -999.25        -999.25       80.89286         0.7279         0.7383        -999.25         0.8446        -46.394              1
      8658.0000         0.1141        15.8738         0.0931        -999.25        -999.25        -999.25       80.89286         0.7145         0.7368        -999.25         0.8319       -46.6429              1
      8658.5000         0.1406        15.7034         0.0942        -999.25        -999.25        -999.25       80.89286         0.7067         0.7265        -999.25         0.8129       -46.1585              1
      8659.0000         0.2069        15.9428         0.0921        -999.25        -999.25        -999.25       80.89286          0.703         0.7212        -999.25         0.7971       -45.8121              1
      8659.5000         0.2363        17.3842         0.0835        -999.25        -999.25        -999.25       80.89286         0.7058          0.728        -999.25         0.7917       -45.4662              1
      8660.0000         0.1964         22.148         0.0646        -999.25        -999.25        -999.25       80.89286         0.7102         0.7434        -999.25         0.8014       -44.9597              1
      8660.5000         0.1276        27.4757         0.0421        -999.25        -999.25        -999.25       80.89286         0.7152         0.7573        -999.25           0.82       -45.6342              1
      8661.0000         0.0792        32.0715          0.021        -999.25        -999.25        -999.25       80.89286         0.7192         0.7509        -999.25         0.8397       -46.4995              1
      8661.5000         0.1257        35.4973         0.0037        -999.25        -999.25        -999.25       80.89286         0.7205         0.7402        -999.25         0.8589       -46.8607              1
      8662.0000          0.325        38.8691        -0.0039        -999.25        -999.25        -999.25       80.89286         0.7178          0.739        -999.25         0.8506       -45.4454              1
      8662.5000           0.47        39.0281         -0.006        -999.25        -999.25        -999.25       80.89286          0.712         0.7325        -999.25         0.8267       -43.9357              1
      8663.0000         0.4201        36.5352        -0.0045        -999.25        -999.25        -999.25       80.89286         0.7079         0.7293        -999.25         0.7992       -43.4741              1
      8663.5000         0.3269        33.3194        -0.0024        -999.25        -999.25        -999.25       80.89286         0.7026         0.7298        -999.25         0.7742       -43.9688              1
      8664.0000         0.2542        28.5977          0.001        -999.25        -999.25        -999.25       80.89286         0.7005          0.731        -999.25         0.7456       -45.1363              1
      8664.5000         0.2102        25.4028         0.0059        -999.25        -999.25        -999.25       80.89286         0.7004         0.7326        -999.25         0.7403       -46.1039              1
      8665.0000         0.2123        23.7004         0.0109        -999.25        -999.25        -999.25       80.89286         0.7043         0.7363        -999.25         0.7648       -45.7029              1
      8665.5000         0.3011        22.6287         0.0158        -999.25        -999.25        -999.25       80.89286         0.7126         0.7441        -999.25         0.8142       -44.8763              1
      8666.0000         0.3851        22.3317         0.0215        -999.25        -999.25        -999.25       80.89286         0.7209          0.752        -999.25         0.8604       -44.3287              1
      8666.5000         0.4021          22.52         0.0263        -999.25        -999.25        -999.25       80.89286         0.7314         0.7666        -999.25         0.8953       -44.3568              1
      8667.0000         0.3683        23.3959         0.0307        -999.25        -999.25        -999.25       80.89286         0.7457         0.7821        -999.25         0.9039        -44.425              1
      8667.5000         0.3321        24.1819          0.033        -999.25        -999.25        -999.25       80.89286         0.7567         0.7974        -999.25         0.8931       -44.0227              1
      8668.0000         0.3155        24.6724         0.0289        -999.25        -999.25        -999.25       80.89286         0.7628         0.8021        -999.25         0.8683       -43.5101              1
      8668.5000            0.3        24.5164         0.0232        -999.25        -999.25        -999.25       80.89286         0.7628         0.7925        -999.25         0.8433       -42.9177              1
      8669.0000         0.2812        24.1703         0.0168        -999.25        -999.25        -999.25       80.89286         0.7586         0.7842        -999.25         0.8291       -42.3892              1
      8669.5000          0.245        24.5749         0.0125        -999.25        -999.25        -999.25       80.89286         0.7554         0.7746        -999.25          0.819       -42.1093              1
      8670.0000         0.2017        25.1373         0.0101        -999.25        -999.25        -999.25       80.89286         0.7472         0.7742        -999.25          0.815       -42.4885              1
      8670.5000        -999.25        -999.25        -999.25        -999.25        -999.25        -999.25        -999.25         0.7409         0.7756        -999.25         0.8203       -43.6352        -999.25
      8671.0000        -999.25        -999.25        -999.25        -999.25        -999.25        -999.25        -999.25         0.7415         0.7708        -999.25         0.8291        -44.837        -999.25
      8671.5000        -999.25        -999.25        -999.25        -999.25        -999.25        -999.25        -999.25         0.7532         0.7665        -999.25         0.8355       -45.5465        -999.25
