#------------------------------------------------------------------------------
# Created by    : vladimir.rabinovich
# Created on    : 09/19/2023 17:19:44
#------------------------------------------------------------------------------
~Version Information Section
VERS.           2.0     :   CWLS log ASCII Standard - VERSION 2.0
WRAP.           NO      :   One line per depth step
~Well Information Section
#MNEM       .UNIT                                         VALUE :DESCRIPTION
#------------------------------------------------------------------------------
STRT        .FT                                             490 :START DEPTH
STOP        .FT                                           13420 :STOP DEPTH
STEP        .FT                                             0.5 :STEP      
NULL        .                                           -999.25 :NULL      
COMP        .                                 MESA PETROLEUM CO :COMPANY   
WELL        .                                     ST TR 00012-L :WELL      
FLD         .                                           WILDCAT :FIELD     
LOC         .                                                   :LOCATION  
CNTY        .                           HIGH ISLAND LARGE BLOCK :LOCATION  
STAT        .                                             TEXAS :STATE     
CTRY        .                                     UNITED STATES :COUNTRY   
SRVC        .                                                   :SERVICE COMPANY
DATE        .                             9/13/2023 11:19:15 AM :LOG DATE  
API         .                                    42708302120000 :API NUMBER
UWI         .                                    42708302120000 :UNIQUE WELL ID
XCOORD      .                                  1361115.25412243 :SURFACE X 
YCOORD      .                                  10723579.9964947 :SURFACE Y 
LAT         .                                        29.5453665 :LATITUDE  
LON         .                                       -93.8786547 :LONGITUDE 
ELEV        .FT                                              80 :ELEVATION VALUE
ELEV_TYPE   .                                                KB :ELEVATION REFERENCE TYPE
~Curve Information Section
#MNEM       .UNIT                                      API CODE :CURVE DESCRIPTION
#------------------------------------------------------------------------------
DEPT        .FT                                                 :DEPTH     
ASFL        .OHMM                                               :          
CILD        .MMHO                                               :          
GR          .GAPI                                               :          
GR_NORM     .GAPI                                               :GammaRay Normalized
ILD         .OHMM                                               :          
SP          .MV                                                 :          
SP_NORM     .MV                                                 :SP Normalized
VSH_GR      .V/V                                                :Volume of Shale from GR
~A        DEPTH           ASFL           CILD             GR        GR_NORM            ILD             SP        SP_NORM         VSH_GR
# ...
      7363.5000         0.6788       5543.594        34.9553       31.23734         0.3509       -205.811      -93.08373              0
      7364.0000         0.6926       5749.211        36.0209       33.47388         0.3412      -203.4915      -90.76423     0.01008249
      7364.5000         0.6958       5879.844        36.5181       34.51608         0.3314      -201.1719      -88.44463     0.03225708
      7365.0000         0.6775       5966.281          36.68       34.85377         0.3217      -198.8521      -86.12482     0.03944194
      7365.5000         0.6558       5806.438        36.8421       35.19188          0.312      -199.8616      -87.13433     0.04663573
      7366.0000         0.6341       5388.094         37.004       35.52956         0.3023      -201.5383      -88.81103     0.05382043
      7366.5000         0.6124       5086.172        37.1661       35.86766         0.2926      -203.3813      -90.65403     0.06101405
      7367.0000         0.5908       4968.367        37.6837       36.95272         0.2905      -205.2073      -92.48003     0.08410052
      7367.5000         0.5691       4868.219        38.3541       38.35887         0.2908      -202.6165      -89.88923      0.1140185
      7368.0000         0.5668       4842.695        39.0244       39.76479          0.291      -200.0229      -87.29563      0.1439318
      7368.5000          0.575       4842.008         38.029       37.67077         0.2916      -198.1799      -85.45263     0.09937814
      7369.0000         0.5989       4853.109        36.6821       34.83817         0.2987      -202.5161      -89.78883     0.03911006
      7369.5000         0.6229       5004.281        35.3365       32.00832         0.3057      -207.0356      -94.30833              0
      7370.0000         0.6435       5197.859        34.1364       29.48417         0.3127      -208.6074      -95.88013              0
      7370.5000         0.6278       5381.188        33.7807       28.73429         0.3197      -210.1792      -97.45193              0
      7371.0000         0.6121       5554.445         35.218       31.75182         0.3267      -211.2388      -98.51153              0
      7371.5000         0.6005        5733.82        35.9977       33.38762         0.3301      -212.1309      -99.40363    0.008247294
      7372.0000         0.5905       5985.227        36.4255       39.60535         0.3211      -211.5186      -98.79133      0.1405394
      7372.5000         0.5804       6163.813        36.8533        40.3974         0.3121       -210.783      -98.05573      0.1573916
      7373.0000         0.5703       6306.875        37.2816       41.19038         0.3031      -210.3936      -97.66633      0.1742634
      7373.5000         0.5831       6394.195        37.7094       41.98242          0.294      -210.0491      -97.32183      0.1911154
      7374.0000         0.6106       6446.391        38.1265       42.75462          0.285      -209.7043      -96.97703       0.207545
      7374.5000         0.6381       5709.352         38.007       42.53054         0.2905      -209.3596      -96.63233      0.2027775
      7375.0000         0.6654       4050.176        35.9758       38.75718         0.3021      -208.5049      -95.77763      0.1224931
      7375.5000         0.6822       3575.785         33.947       34.98827         0.3137      -207.4487      -94.72143     0.04230369
      7376.0000          0.699       3482.543        31.8668       31.12393         0.3271      -206.3928      -93.66553              0
      7376.5000         0.7158       3405.535        29.7305       27.15545          0.347      -204.8359      -92.10863              0
      7377.0000         0.7333       3354.523        27.8092       23.58613         0.3669      -202.6287      -89.90142              0
      7377.5000         0.7422        3311.68        27.0197       22.11812         0.3867      -200.6755      -87.94823              0
      7378.0000         0.7458       3341.551        28.4276       24.72984         0.4054      -199.1455      -86.41822              0
      7378.5000          0.734       3518.754        30.8867       29.29323         0.4199      -197.6917      -84.96442              0
      7379.0000         0.7223       3704.445        31.8839       31.14244         0.4343      -197.3755      -84.64823              0
      7379.5000         0.7105       3944.797        32.6465       32.55608         0.4227      -198.0454      -85.31812              0
      7380.0000         0.6988        4737.68         33.408       33.96767         0.3926      -199.5439      -86.81663     0.02058873
      7380.5000          0.687       5553.852        34.1694       35.37909         0.3549      -201.0398      -88.31252     0.05061884
      7381.0000          0.684       6369.234        34.9308        36.7905         0.3172      -202.5381      -89.81083     0.08064903
      7381.5000         0.6845       7223.094        35.4417       37.73684         0.2795      -203.7109      -90.98363      0.1007839
      7382.0000         0.6898       7301.039         35.845        38.4834         0.2418      -203.4451      -90.71783      0.1166681
      7382.5000         0.6952       7373.367        36.2483       39.22997         0.2253      -198.1897      -85.46243      0.1325525
      7383.0000         0.7006       7040.953        37.3715        41.3131         0.2396      -193.3401      -80.61283      0.1768745
      7383.5000         0.7018       6268.195        39.6862       45.60841         0.2539      -188.7056      -75.97832       0.268264
      7384.0000         0.6972       5495.445        41.9986       49.89942         0.2681      -175.1836      -62.45632      0.3595622
      7384.5000         0.7077       4722.688        51.1355       66.86092         0.3449      -144.8738      -32.14652       0.720445
      7385.0000         0.7403        3949.93        54.8167       73.69327         0.4429      -127.4286      -14.70132      0.8658142
      7385.5000         0.7729       3177.172        55.4761       74.91531         0.5408      -125.3044      -12.57713      0.8918152
      7386.0000         0.8015       2404.414        55.8763       75.65612         0.6387      -121.5499      -8.822624       0.907577
      7386.5000         0.8173       1631.658        56.2766       76.39711         0.7244       -119.861      -7.133728      0.9233428
      7387.0000          0.833        1154.26        56.6628       77.11192         0.8043      -118.5166       -5.78933      0.9385514
      7387.5000         0.8487       1098.906        56.9965       77.72927         0.8832      -117.1062      -4.378929      0.9516866
      7388.0000         0.8507       1043.012        57.3298       78.34585         0.9558       -115.576      -2.848724      0.9648053
      7388.5000         0.8149       980.9521        57.6048       78.85423         1.0283      -114.0435      -1.316231      0.9756218
      7389.0000         0.7915       1000.981        57.8391       79.28702         1.0555      -122.1904      -9.463127      0.9848301
      7389.5000         0.7681       1081.689        56.7453       77.25404         1.0813      -134.5684      -21.84113      0.9415754
      7390.0000         0.7447       1179.764        55.5084       74.95539         1.0671      -139.9851      -27.25784      0.8926679
      7390.5000         0.7213        1277.84        54.1714       72.47089          1.012      -141.9846      -29.25733      0.8398063
      7391.0000         0.7009       1371.572        52.8221       69.96357         0.9568      -143.2446      -30.51733      0.7864589
      7391.5000         0.6979       1464.912        51.4728       67.45622          0.891      -143.4585      -30.73122      0.7331111
      7392.0000         0.6949       1572.063        51.9202       68.28466         0.8253      -142.6396      -29.91233      0.7507374
      7392.5000         0.6941       1756.176        54.3792       72.84785         0.7595      -143.7788      -31.05152      0.8478265
