#------------------------------------------------------------------------------
# Created by    : vladimir.rabinovich
# Created on    : 09/19/2023 17:20:38
#------------------------------------------------------------------------------
~Version Information Section
VERS.           2.0     :   CWLS log ASCII Standard - VERSION 2.0
WRAP.           NO      :   One line per depth step
~Well Information Section
#MNEM       .UNIT                                         VALUE :DESCRIPTION
#------------------------------------------------------------------------------
STRT        .FT                                             540 :START DEPTH
STOP        .FT                                            8409 :STOP DEPTH
STEP        .FT                                             0.5 :STEP      
NULL        .                                           -999.25 :NULL      
COMP        .                                      SHELL OIL CO :COMPANY   
WELL        .                                OCS 00706 ST00BP00 :WELL      
FLD         .                                           WILDCAT :FIELD     
LOC         .                                                   :LOCATION  
CNTY        .                             GALVESTON LARGE BLOCK :LOCATION  
STAT        .                                             TEXAS :STATE     
CTRY        .                                     UNITED STATES :COUNTRY   
SRVC        .                                                   :SERVICE COMPANY
DATE        .                             9/13/2023 11:19:25 AM :LOG DATE  
API         .                                    42706000280000 :API NUMBER
UWI         .                                    42706000280000 :UNIQUE WELL ID
XCOORD      .                                  1100625.96198943 :SURFACE X 
YCOORD      .                                  10499283.7203345 :SURFACE Y 
LAT         .                                         28.920625 :LATITUDE  
LON         .                                        -94.687754 :LONGITUDE 
ELEV        .FT                                              78 :ELEVATION VALUE
ELEV_TYPE   .                                                KB :ELEVATION REFERENCE TYPE
~Curve Information Section
#MNEM       .UNIT                                      API CODE :CURVE DESCRIPTION
#------------------------------------------------------------------------------
DEPT        .FT                                                 :DEPTH     
ASN         .OHMM                                               :          
DT          .US/F                                               :          
ILD         .OHMM                                               :          
LAT         .OHMM                                               :          
LN          .OHMM                                               :          
SP          .MV                                                 :          
SP_NORM     .MV                                                 :SP Normalized
VSH_SP      .V/V                                                :Volume of Shale from SP
~A        DEPTH            ASN             DT            ILD            LAT             LN             SP        SP_NORM         VSH_SP
# ...
      6292.5000         1.2666       102.8515         0.8475        -999.25        -999.25       -46.3743      -7.349907      0.8923745
      6293.0000         1.2205       106.5026          0.771        -999.25        -999.25       -47.1604      -8.136009      0.8790507
      6293.5000         1.1471       103.8034         0.6943        -999.25        -999.25       -47.5764       -8.55201      0.8719999
      6294.0000         1.0563       103.1793         0.6177        -999.25        -999.25         -47.96      -8.935608      0.8654982
      6294.5000         0.9933       112.4957         0.5411        -999.25        -999.25       -48.3237      -9.299309      0.8593338
      6295.0000         0.9478       117.3637         0.4744        -999.25        -999.25       -51.1325      -12.10811       0.811727
      6295.5000         0.9145       113.2791         0.4326        -999.25        -999.25       -58.8173      -19.79291      0.6814761
      6296.0000         0.8768       110.9855         0.3907        -999.25        -999.25       -67.7812      -28.75681      0.5295457
      6296.5000         0.8486       103.7409         0.3489        -999.25        -999.25       -76.7454      -37.72101        0.37761
      6297.0000         0.8176         99.614         0.3226        -999.25        -999.25       -83.7457      -44.72131      0.2589609
      6297.5000         0.7556       105.7788         0.3075        -999.25        -999.25       -87.3477      -48.32331        0.19791
      6298.0000         0.7281       111.0791         0.2924        -999.25        -999.25       -86.2104      -47.18601      0.2171862
      6298.5000         0.7144       110.4962         0.2773        -999.25        -999.25       -87.2527      -48.22831      0.1995202
      6299.0000          0.695       106.1868         0.2621        -999.25        -999.25       -90.8199      -51.79551      0.1390592
      6299.5000         0.6451       105.6294         0.2515        -999.25        -999.25       -99.0706      -60.04621              0
      6300.0000         0.6241       107.0482         0.2447        -999.25        -999.25      -101.6202      -62.59581              0
      6300.5000         0.5979       107.9466          0.238        -999.25        -999.25      -103.9098      -64.88541              0
      6301.0000         0.5747       110.6052         0.2313        -999.25        -999.25       -103.235      -64.21061              0
      6301.5000         0.5602       110.5587         0.2245        -999.25        -999.25      -102.4958      -63.47141              0
      6302.0000         0.5813       109.7371         0.2178        -999.25        -999.25      -101.7969      -62.77251              0
      6302.5000         0.6171       109.2949          0.211        -999.25        -999.25       -102.564      -63.53961              0
      6303.0000         0.6544       108.5325         0.2045        -999.25        -999.25      -104.5791      -65.55471              0
      6303.5000         0.6756       106.3397         0.2128        -999.25        -999.25      -106.1234      -67.09901              0
      6304.0000          0.655       106.4855         0.2211        -999.25        -999.25       -105.939      -66.91461              0
      6304.5000          0.636       108.3886         0.2295        -999.25        -999.25      -102.2151      -63.19071              0
      6305.0000          0.617        108.725         0.2399        -999.25        -999.25       -97.9835      -58.95911     0.01764226
      6305.5000         0.5842       107.7281         0.2529        -999.25        -999.25       -95.0917      -56.06731     0.06665582
      6306.0000         0.5463       106.9163         0.2658        -999.25        -999.25       -92.6516      -53.62721      0.1080133
      6306.5000         0.5613       106.7283         0.2788        -999.25        -999.25       -87.6239      -48.59951      0.1932286
      6307.0000         0.5834       108.1162         0.2779        -999.25        -999.25       -79.6931      -40.66871       0.327649
      6307.5000         0.6197       111.8045         0.2643        -999.25        -999.25       -78.5011      -39.47671      0.3478524
      6308.0000         0.6561       116.0295         0.2507        -999.25        -999.25       -77.9934      -38.96901      0.3564575
      6308.5000         0.6925       109.6226         0.2371        -999.25        -999.25       -83.8129      -44.78851      0.2578219
      6309.0000         0.7109       106.6637         0.2234        -999.25        -999.25       -98.4578      -59.43341     0.00960321
      6309.5000         0.6648       108.8081         0.2164        -999.25        -999.25       -98.4532      -59.42881    0.009681185
      6310.0000          0.662       111.1654         0.2123        -999.25        -999.25       -97.5642      -58.53981     0.02474898
      6310.5000         0.6846       108.2476         0.2082        -999.25        -999.25       -97.5363      -58.51191     0.02522187
      6311.0000          0.703       108.0351         0.2101        -999.25        -999.25       -99.0135      -59.98911   0.0001846572
      6311.5000         0.7214        107.432         0.2185        -999.25        -999.25      -100.0569      -61.03251              0
      6312.0000          0.727       106.9762         0.2268        -999.25        -999.25       -100.611      -61.58661              0
      6312.5000         0.7142        107.358         0.2351        -999.25        -999.25      -101.1656      -62.14121              0
      6313.0000         0.7015       107.7099         0.2434        -999.25        -999.25      -101.8796      -62.85521              0
      6313.5000         0.6791       108.2029         0.2518        -999.25        -999.25      -100.1754      -61.15101              0
      6314.0000         0.7035       106.1845         0.2601        -999.25        -999.25       -97.3104      -58.28601     0.02905066
      6314.5000         0.7278        100.561         0.2684        -999.25        -999.25       -95.0693      -56.04491     0.06703548
      6315.0000         0.7548       100.7126         0.2767        -999.25        -999.25       -93.3472      -54.32281     0.09622361
      6315.5000         0.7943       105.5875         0.2786        -999.25        -999.25       -94.0383      -55.01391     0.08451003
      6316.0000         0.9141       108.5533         0.2762        -999.25        -999.25       -98.1893      -59.16491     0.01415408
      6316.5000         0.9511       107.5479          0.273        -999.25        -999.25      -101.7096      -62.68521              0
      6317.0000         0.9701       101.2228         0.2122        -999.25        -999.25      -103.2328      -64.20841              0
      6317.5000         0.6725        97.1358         0.2096        -999.25        -999.25      -104.2738      -65.24941              0
      6318.0000         0.5991         97.513         0.2069        -999.25        -999.25      -105.2042      -66.17981              0
      6318.5000         0.5753       106.0145         0.2043        -999.25        -999.25      -106.1873      -67.16291              0
      6319.0000         0.5574       111.2996         0.2017        -999.25        -999.25      -105.8115      -66.78711              0
      6319.5000         0.5364       110.9468          0.199        -999.25        -999.25      -102.8413      -63.81691              0
      6320.0000          0.548       110.8055         0.1974        -999.25        -999.25       -99.8623      -60.83791              0
      6320.5000         0.5689       112.6953         0.1964        -999.25        -999.25         -97.59      -58.56561     0.02431178
      6321.0000         0.5898       115.6724         0.1955        -999.25        -999.25       -95.4384      -56.41401     0.06077951
      6321.5000         0.6106       114.2575         0.2028        -999.25        -999.25       -93.8572      -54.83281      0.0875795
