#------------------------------------------------------------------------------
# Created by    : vladimir.rabinovich
# Created on    : 09/19/2023 17:19:58
#------------------------------------------------------------------------------
~Version Information Section
VERS.           2.0     :   CWLS log ASCII Standard - VERSION 2.0
WRAP.           NO      :   One line per depth step
~Well Information Section
#MNEM       .UNIT                                         VALUE :DESCRIPTION
#------------------------------------------------------------------------------
STRT        .FT                                             782 :START DEPTH
STOP        .FT                                            8251 :STOP DEPTH
STEP        .FT                                             0.5 :STEP      
NULL        .                                           -999.25 :NULL      
COMP        .                                     TALOS ERT LLC :COMPANY   
WELL        .                               OCS G06037 ST00BP00 :WELL      
FLD         .                       MATAGORDA ISLAND BLOCK 0619 :FIELD     
LOC         .                                                   :LOCATION  
CNTY        .                      MATAGORDA ISLAND LARGE BLOCK :LOCATION  
STAT        .                                             TEXAS :STATE     
CTRY        .                                     UNITED STATES :COUNTRY   
SRVC        .                                                   :SERVICE COMPANY
DATE        .                             9/13/2023 11:18:52 AM :LOG DATE  
API         .                                    42703402240000 :API NUMBER
UWI         .                                    42703402240000 :UNIQUE WELL ID
XCOORD      .                                  606760.800591327 :SURFACE X 
YCOORD      .                                  10227689.0556145 :SURFACE Y 
LAT         .                                        28.1463556 :LATITUDE  
LON         .                                       -96.2076889 :LONGITUDE 
ELEV        .FT                                              77 :ELEVATION VALUE
ELEV_TYPE   .                                                KB :ELEVATION REFERENCE TYPE
~Curve Information Section
#MNEM       .UNIT                                      API CODE :CURVE DESCRIPTION
#------------------------------------------------------------------------------
DEPT        .FT                                                 :DEPTH     
ASFL        .OHMM                                               :          
CALI        .IN                                                 :          
CILD        .MMHO                                               :          
DRHO        .G/C3                                               :          
DT          .US/F                                               :          
GR          .GAPI                                               :          
GR_NORM     .GAPI                                               :GammaRay Normalized
ILD         .OHMM                                               :          
ILM         .OHMM                                               :          
NPHI        .%                                                  :          
RHOB        .G/C3                                               :          
SFL         .OHMM                                               :          
SP          .MV                                                 :          
SP_NORM     .MV                                                 :SP Normalized
VSH_GR      .V/V                                                :Volume of Shale from GR
VSH_SP      .V/V                                                :Volume of Shale from SP
~A        DEPTH           ASFL           CALI           CILD           DRHO             DT             GR        GR_NORM            ILD            ILM           NPHI           RHOB            SFL             SP        SP_NORM         VSH_GR         VSH_SP
# ...
      6750.0000         0.9512        10.1484       1469.344         -0.008       101.4631        54.5217       54.80986         0.6319         0.6963        32.0285         2.1404         0.9412       -68.9773      -25.11573      0.4640396      0.1744383
      6750.5000         0.9647         10.203       1392.531        -0.0091       102.0524        58.4199       62.51076         0.6359         0.6919        31.7116         2.1429         0.9801       -67.2861      -23.42559      0.6278886      0.2348003
      6751.0000         0.9798        10.2628       1271.654        -0.0103       102.5634        61.0527       67.71236         0.6568         0.7052        31.3526         2.1668         0.9517       -65.6431      -21.78365      0.7385608      0.2934412
      6751.5000         0.9949         10.367       1100.365        -0.0141       101.9127        63.3156       72.18336         0.7021         0.7247        31.1958         2.2224         0.9006       -64.1519      -20.29351      0.8336884      0.3466602
      6752.0000         1.0182        10.4572       997.8486        -0.0197       100.4926        64.9532       75.41933         0.7775         0.7598         31.202         2.2533         0.8795       -62.2347      -18.37737      0.9025389      0.4150938
      6752.5000         1.0609        10.4668       924.6582        -0.0225        97.8506        64.3632        74.2555         0.8904         0.8306        31.2616         2.3047         0.9536       -60.7238      -16.86754      0.8777766      0.4690165
      6753.0000         1.2493        10.4365       873.5986        -0.0196        94.8191        62.2379       70.05931         0.9972          0.938        30.9543          2.327         1.0606       -59.9362        -16.081       0.788496      0.4971072
      6753.5000         1.4551        10.3992       824.5234        -0.0111        91.2164        60.7602       67.14217         1.0631         1.0615        28.9743         2.3679         1.2494       -58.5486      -14.69446      0.7264292      0.5466264
      6754.0000         1.5104        10.4008       775.9941        -0.0025        87.2218        60.3031       66.24086         1.1392         1.2187         25.447         2.4065         1.5088       -56.6772      -12.82412      0.7072523      0.6134242
      6754.5000         1.5841        10.4147       728.1602          0.009        84.6326         62.343       70.27142         1.2165         1.3197        21.6989         2.4406         1.8739       -54.7736      -10.92159      0.7930089      0.6813718
      6755.0000         1.6374        10.4075       711.4873         0.0196        84.0345        65.8884        77.2755         1.2791           1.36        22.1904         2.4393         2.4151       -52.9615       -9.11055      0.9420319      0.7460518
      6755.5000         1.5843        10.4142       729.4004         0.0201         86.913        68.7089       82.84785         1.3439         1.3743        24.6648         2.4155         1.9736       -51.3171      -7.467213              1      0.8047424
      6756.0000         1.5013        10.4203       747.7607         0.0154        91.3831        69.9966       85.39272         1.3863         1.3753        27.5988         2.3914         1.5469       -50.0506      -6.201775              1      0.8499366
      6756.5000         1.4539        10.4234       767.2607         0.0086        95.3289        68.2863       82.01615         1.3971         1.3641           29.4         2.3473         1.3385       -48.7816      -4.933838              1      0.8952201
      6757.0000         1.4066        10.4997       786.7617         0.0023        97.7048        67.0067       79.49031         1.3489         1.3212        28.5423         2.3139         1.2599       -47.5089      -3.662201      0.9891555      0.9406357
      6757.5000         1.2925          10.59       806.2627        -0.0031        98.3983         66.577        78.6431         1.3035         1.2607        28.2888          2.296         1.2297       -46.4089      -2.563263      0.9711299      0.9798835
      6758.0000         1.2411        10.6058       825.7637        -0.0069        98.4945        66.3857       78.26677         1.2367         1.2146        28.9178         2.2798         1.1967        -45.293      -1.448425      0.9631227              1
      6758.5000         1.2311        10.5553       845.4883        -0.0101        98.5313        65.5634       76.64414         1.1599         1.1879        30.4881         2.2728         1.1675       -44.4523     -0.6087875      0.9285988              1
      6759.0000         1.2147        10.5037       868.0156        -0.0118        98.6427        64.6169       74.77618         1.1492          1.178        30.9188         2.2804         1.1825        -45.622      -1.779552      0.8888548              1
      6759.5000         1.1891        10.5059       890.5439        -0.0123         98.754           64.2       73.95427         1.1509          1.173        30.3067         2.2765         1.2383       -46.1738      -2.332413      0.8713675      0.9881281
      6760.0000         1.1619        10.6397       913.0469        -0.0128        99.2415        64.0819       73.72253         1.1176         1.1211        28.5378         2.2558          1.343        -46.022      -2.181675      0.8664367      0.9935116
      6760.5000         1.1334        10.9005       935.5742        -0.0136       100.2548        63.2193       72.02029         1.0825           1.08        29.0471         2.2338         1.3286        -45.285       -1.44574      0.8302189              1
      6761.0000         1.0988        11.0272        966.042        -0.0142       101.9237        61.5103       68.64631         1.0504         1.0509        32.3052         2.2287         1.2142       -44.9393      -1.101101      0.7584321              1
      6761.5000         1.0559        10.8425       998.0469        -0.0138       103.3403        60.4245       66.50323         1.0355         1.0207        35.6005         2.2299         1.0902       -44.6329     -0.7957649      0.7128348              1
      6762.0000         1.0141        10.6842       1034.469        -0.0129       104.1245        60.2003       66.06189         1.0419         0.9911        39.6572         2.2369         1.0237       -44.1283     -0.2922249      0.7034445              1
      6762.5000         0.9919        10.8282       1072.975        -0.0117       104.6422        59.9332       65.53584         0.9908         0.9638        41.0104         2.2432         0.9941       -43.6259      0.2091103       0.692252              1
      6763.0000         0.9702         11.001       1107.709        -0.0105       105.3076        59.2787       64.24464         0.9446         0.9395        41.6201         2.2473         0.9683       -43.2813      0.5526505      0.6647797              1
      6763.5000           0.97        11.0998       1119.369        -0.0092       105.9081        58.6088       62.92304          0.915         0.9188        40.0186         2.2515         0.9609       -43.9796     -0.1467133      0.6366604              1
      6764.0000         0.9761        11.2763        1128.76        -0.0078        106.371        58.6349       62.97606         0.8971         0.9028         37.611         2.2598         0.9748       -44.9276      -1.095776      0.6377886              1
      6764.5000         0.9845        11.3268        1129.84         -0.007       106.7179        59.8525        65.3825         0.8904         0.8897        37.8252         2.2721         0.9951       -45.0909      -1.260139      0.6889893              1
      6765.0000          0.995        11.2198       1116.393        -0.0067       106.5264        60.7264       67.11005         0.8871         0.8829        39.3732         2.2784         1.0063       -44.8146     -0.9849014      0.7257459              1
      6765.5000         1.0055        11.0961       1102.957        -0.0065       105.6207        61.2306       68.10741         0.8918         0.8849        40.6584          2.281           1.01       -44.2672     -0.4385643      0.7469661              1
