#------------------------------------------------------------------------------
# Created by    : vladimir.rabinovich
# Created on    : 09/19/2023 17:19:44
#------------------------------------------------------------------------------
~Version Information Section
VERS.           2.0     :   CWLS log ASCII Standard - VERSION 2.0
WRAP.           NO      :   One line per depth step
~Well Information Section
#MNEM       .UNIT                                         VALUE :DESCRIPTION
#------------------------------------------------------------------------------
STRT        .FT                                            2932 :START DEPTH
STOP        .FT                                           14530 :STOP DEPTH
STEP        .FT                                             0.5 :STEP      
NULL        .                                           -999.25 :NULL      
COMP        .                                 MESA PETROLEUM CO :COMPANY   
WELL        .                                 ST TR 00022-L W/2 :WELL      
FLD         .                                           WILDCAT :FIELD     
LOC         .                                                   :LOCATION  
CNTY        .                           HIGH ISLAND LARGE BLOCK :LOCATION  
STAT        .                                             TEXAS :STATE     
CTRY        .                                     UNITED STATES :COUNTRY   
SRVC        .                                                   :SERVICE COMPANY
DATE        .                             9/13/2023 11:19:15 AM :LOG DATE  
API         .                                    42708300770000 :API NUMBER
UWI         .                                    42708300770000 :UNIQUE WELL ID
XCOORD      .                                  1307803.37781852 :SURFACE X 
YCOORD      .                                  10713200.3443699 :SURFACE Y 
LAT         .                                         29.515602 :LATITUDE  
LON         .                                       -94.0460534 :LONGITUDE 
ELEV        .FT                                              85 :ELEVATION VALUE
ELEV_TYPE   .                                                KB :ELEVATION REFERENCE TYPE
~Curve Information Section
#MNEM       .UNIT                                      API CODE :CURVE DESCRIPTION
#------------------------------------------------------------------------------
DEPT        .FT                                                 :DEPTH     
ASFL        .OHMM                                               :          
CILD        .MMHO                                               :          
ILD         .OHMM                                               :          
SP          .MV                                                 :          
SP_NORM     .MV                                                 :SP Normalized
VSH_SP      .V/V                                                :Volume of Shale from SP
~A        DEPTH           ASFL           CILD            ILD             SP        SP_NORM         VSH_SP
# ...
      7568.0000         0.3928       4117.938         0.2263        -125.54      -77.06774      0.0371172
      7568.5000         0.3885       4122.656         0.2276      -125.3984      -76.92758     0.03889137
      7569.0000         0.3842       4130.609          0.229      -122.9609      -74.49153     0.06972745
      7569.5000         0.3802       4138.555         0.2303      -120.6797      -72.21178     0.09858511
      7570.0000         0.3773         4146.5         0.2312      -119.2813      -70.81482      0.1162681
      7570.5000         0.3834       4149.234         0.2317      -120.7676      -72.30257     0.09743587
      7571.0000         0.3924       4145.063         0.2321      -121.8984      -73.43481     0.08310361
      7571.5000         0.4024       4140.891         0.2325      -123.0273      -74.56516     0.06879551
      7572.0000         0.4124        4131.75         0.2329      -124.1562       -75.6955      0.0544874
      7572.5000         0.4207       4111.156         0.2333      -125.4141      -76.95485     0.03854621
      7573.0000         0.4201       4090.594         0.2338      -126.6855      -78.22769     0.02243428
      7573.5000         0.4195           4070         0.2342      -127.5283      -79.07194     0.01174763
      7574.0000         0.4189       4049.406         0.2346      -128.2803      -79.82539    0.002210207
      7574.5000         0.4195       4050.438          0.235      -129.0322      -80.57872              0
      7575.0000         0.4221       4060.234         0.2354      -129.7261      -81.27408              0
      7575.5000         0.4361       4070.031         0.2359      -130.1528      -81.70222              0
      7576.0000         0.4529       4079.844         0.2363      -130.5791      -82.12997              0
      7576.5000         0.4697       4089.641         0.2367      -131.0059      -82.55821              0
      7577.0000         0.4866       4099.438          0.237      -131.3726      -82.92636              0
      7577.5000         0.5034       4086.906         0.2368      -131.7378        -83.293              0
      7578.0000         0.5182       4066.563         0.2365      -132.2119      -83.76855              0
      7578.5000         0.5281        4046.25         0.2362      -132.8594       -84.4175              0
      7579.0000         0.5337       4025.906         0.2359      -133.5059      -85.06544              0
      7579.5000         0.5312       4029.797         0.2356      -134.1533      -85.71429              0
      7580.0000          0.531       4043.016         0.2354      -134.8008      -86.36322              0
      7580.5000         0.5316       4056.234         0.2351      -135.3604      -86.92427              0
      7581.0000         0.5322       4066.844         0.2348      -135.3945      -86.95982              0
      7581.5000         0.5328       4076.453         0.2345      -135.4285      -86.99526              0
      7582.0000         0.5356       4086.078         0.2345      -135.4626      -87.03081              0
      7582.5000         0.5418       4095.703         0.2346      -135.0425      -86.61215              0
      7583.0000         0.5479       4082.141         0.2348      -134.6157      -86.18681              0
      7583.5000         0.5432       4067.219         0.2349       -134.189      -85.76154              0
      7584.0000         0.5331       4052.297          0.235      -133.7622       -85.3362              0
      7584.5000         0.5211       4037.391         0.2352      -133.3354      -84.91084              0
      7585.0000         0.5031       4021.031         0.2353       -134.207      -85.78389              0
      7585.5000         0.4851       4001.625         0.2355      -135.5234      -87.10173              0
      7586.0000         0.4671       3982.219         0.2356       -133.834      -85.41377              0
      7586.5000         0.4507       3962.844         0.2357      -131.7539      -83.33513              0
      7587.0000          0.438       3943.438         0.2363      -130.4922      -82.07487              0
      7587.5000         0.4254       3947.938         0.2371      -130.2773       -81.8614              0
      7588.0000         0.4127       3973.719         0.2379      -130.8447      -82.43025              0
      7588.5000         0.4016       3999.531         0.2387      -131.1348       -82.7218              0
      7589.0000         0.3905       4025.344         0.2395      -129.3516      -80.94004              0
      7589.5000         0.3776         3907.5         0.2403      -126.8828      -78.47269     0.01933308
      7590.0000         0.3616         3644.5         0.2445      -124.4102      -76.00154      0.0506134
      7590.5000         0.3536         3476.5         0.2517      -114.0781      -65.67088      0.1813812
      7591.0000         0.3553         3140.5         0.2589         -90.25      -41.84423      0.4829845
      7591.5000         0.3659         2861.5         0.2661       -65.2812      -16.87687       0.799027
      7592.0000         0.3811         2582.5         0.2921       -66.7227      -18.31982      0.7807618
      7592.5000         0.4039           2303         0.3314        -68.957      -20.55556      0.7524612
      7593.0000         0.4267        2181.75         0.3707       -71.1914      -22.79141      0.7241594
      7593.5000         0.4495        2050.75         0.4099       -71.5703      -23.17175      0.7193449
      7594.0000         0.4685       1984.875         0.4492       -69.1641        -20.767      0.7497848
      7594.5000         0.4853       1925.063         0.4884       -66.7539      -18.35825      0.7802753
      7595.0000         0.4899       1862.875         0.5276       -62.0938      -13.69959      0.8392457
      7595.5000          0.484         1786.5         0.5669       -58.7754      -10.38264      0.8812324
      7596.0000         0.4781       1712.125         0.6051       -57.0059      -8.614582      0.9036129
      7596.5000         0.4722       1646.688         0.6419       -55.2129      -6.823025      0.9262908
      7597.0000          0.487        1581.25         0.6788       -53.2148      -4.826374      0.9515649
      7597.5000         0.5039       1335.875         0.7156       -52.2773       -3.89032      0.9634137
      7598.0000         0.5207        1367.25         0.6945       -55.3945      -7.008965      0.9239371
      7598.5000         0.5359         1806.5         0.6508       -59.2734      -10.88931      0.8748189
      7599.0000         0.5385           2322         0.5926       -64.2187      -15.83605      0.8122019
      7599.5000         0.5302         2854.5         0.5327        -78.375       -29.9938      0.6329899
      7600.0000         0.5228           3387         0.4726       -86.9063      -38.52655      0.5249804
      7600.5000         0.5171           3873         0.4055      -111.0391      -62.66079      0.2194836
      7601.0000         0.5114       4019.094         0.3448      -117.4297      -69.05284      0.1385716
      7601.5000         0.5056       4016.813         0.3109      -120.9922      -72.61678     0.09345844
      7602.0000         0.4999       3976.063         0.2769      -123.1289      -74.75493     0.06639331
      7602.5000         0.4942       3937.906         0.2708      -124.4727      -76.10017     0.04936489
      7603.0000         0.4885       3912.766         0.2655      -125.7383      -77.36722     0.03332635
      7603.5000          0.489       3923.813         0.2601      -126.8555      -78.48586     0.01916629
      7604.0000         0.4901       3934.859         0.2548      -127.1929      -78.82471     0.01487713
      7604.5000         0.4911       3945.906         0.2525      -127.4294      -79.06265     0.01186516
      7605.0000         0.4922       3955.477         0.2522      -127.5884       -79.2231    0.009834193
      7605.5000         0.4935       3962.016         0.2519      -127.7358      -79.37195    0.007950022
