#------------------------------------------------------------------------------
# Created by    : vladimir.rabinovich
# Created on    : 09/19/2023 17:20:24
#------------------------------------------------------------------------------
~Version Information Section
VERS.           2.0     :   CWLS log ASCII Standard - VERSION 2.0
WRAP.           NO      :   One line per depth step
~Well Information Section
#MNEM       .UNIT                                         VALUE :DESCRIPTION
#------------------------------------------------------------------------------
STRT        .FT                                            3071 :START DEPTH
STOP        .FT                                           14991 :STOP DEPTH
STEP        .FT                                             0.5 :STEP      
NULL        .                                           -999.25 :NULL      
COMP        .                                        TEXACO USA :COMPANY   
WELL        .                                     ST TR 00012-L :WELL      
FLD         .                                           WILDCAT :FIELD     
LOC         .                                                   :LOCATION  
CNTY        .                           HIGH ISLAND LARGE BLOCK :LOCATION  
STAT        .                                             TEXAS :STATE     
CTRY        .                                     UNITED STATES :COUNTRY   
SRVC        .                                                   :SERVICE COMPANY
DATE        .                             9/13/2023 11:19:15 AM :LOG DATE  
API         .                                    42708000680000 :API NUMBER
UWI         .                                    42708000680000 :UNIQUE WELL ID
XCOORD      .                                  1354682.00685938 :SURFACE X 
YCOORD      .                                  10733491.7088446 :SURFACE Y 
LAT         .                                        29.5724948 :LATITUDE  
LON         .                                       -93.8991324 :LONGITUDE 
ELEV        .FT                                              44 :ELEVATION VALUE
ELEV_TYPE   .                                                KB :ELEVATION REFERENCE TYPE
~Curve Information Section
#MNEM       .UNIT                                      API CODE :CURVE DESCRIPTION
#------------------------------------------------------------------------------
DEPT        .FT                                                 :DEPTH     
ASN         .OHMM                                               :          
CILD        .MMHO                                               :          
ILD         .OHMM                                               :          
SP          .MV                                                 :          
SP_NORM     .MV                                                 :SP Normalized
VSH_SP      .V/V                                                :Volume of Shale from SP
~A        DEPTH            ASN           CILD            ILD             SP        SP_NORM         VSH_SP
# ...
     10215.0000         0.5643       2585.973         0.4202       -41.7997      -2.805992      0.9717814
     10215.5000         0.5657        2563.52         0.4201       -41.9137      -2.919991      0.9700001
     10216.0000          0.567       2541.121         0.4211       -42.0278      -3.034092      0.9682173
     10216.5000         0.5683       2518.668         0.4221       -42.1418       -3.14809      0.9664361
     10217.0000         0.5697       2507.566         0.4231        -42.256      -3.262291      0.9646517
     10217.5000          0.571       2497.258         0.4242       -42.3654      -3.371689      0.9629424
     10218.0000         0.5723       2486.945         0.4252       -42.1497      -3.155991      0.9663126
     10218.5000         0.5737       2476.637         0.4262       -41.9338       -2.94009      0.9696861
     10219.0000          0.575       2466.328         0.4273       -41.7182      -2.724491      0.9730548
     10219.5000         0.5763       2456.016         0.4283       -41.5023      -2.508591      0.9764283
     10220.0000         0.5768        2442.59         0.4293       -41.2867      -2.292992       0.979797
     10220.5000         0.5773       2426.691         0.4304       -41.0708      -2.077091      0.9831704
     10221.0000         0.5778       2509.074         0.4314       -40.8549      -1.861191      0.9865439
     10221.5000         0.5783       2530.094         0.4324       -40.6393      -1.645592      0.9899126
     10222.0000         0.5788       2551.109         0.4335       -40.4234      -1.429691      0.9932861
     10222.5000         0.5793       2572.125         0.4345       -40.2078      -1.214092      0.9966548
     10223.0000         0.5799       2565.598         0.4355       -39.9919     -0.9981918              1
     10223.5000         0.5804       2558.574         0.4366       -39.8087      -0.814991              1
     10224.0000         0.5809        2548.02         0.4376       -39.7895     -0.7957916              1
     10224.5000         0.5814       2531.973         0.4386       -39.7704     -0.7766914              1
     10225.0000         0.5819       2515.949         0.4397       -39.7512     -0.7574921              1
     10225.5000         0.5824        2499.93         0.4407       -39.7321     -0.7383919              1
     10226.0000         0.5829       2483.906         0.4417       -39.7129     -0.7191887              1
     10226.5000         0.5834       2467.883         0.4428       -39.6938     -0.7000923              1
     10227.0000         0.5839       2451.789         0.4438       -39.6746     -0.6808891              1
     10227.5000         0.5844       2435.641         0.4448       -39.6554     -0.6616898              1
     10228.0000         0.5849       2419.496         0.4459       -39.6363     -0.6425896              1
     10228.5000         0.5857       2403.352         0.4469       -39.6171     -0.6233902              1
     10229.0000         0.5874       2387.207         0.4479        -39.598       -0.60429              1
     10229.5000         0.5891       2371.063          0.449       -39.5788     -0.5850906              1
     10230.0000         0.5908       2352.367           0.45       -39.5597     -0.5659904              1
     10230.5000         0.5925       2330.414          0.451       -39.5405     -0.5467911              1
     10231.0000         0.5942       2308.457         0.4501       -39.5214     -0.5276909              1
     10231.5000         0.5959       2286.551         0.4491       -39.5021     -0.5083923              1
     10232.0000         0.5976       2264.594          0.448        -39.483     -0.4892921              1
     10232.5000         0.5993       2239.723          0.447       -39.4645     -0.4707909              1
     10233.0000          0.601       2214.352         0.4459       -39.4517     -0.4579887              1
     10233.5000         0.6027       2199.863         0.4448       -39.4389     -0.4451904              1
     10234.0000         0.6044       2216.332         0.4438        -39.426     -0.4322891              1
     10234.5000         0.6068        2249.02         0.4427       -39.4132     -0.4194908              1
     10235.0000         0.6095       2281.703         0.4417       -39.4004     -0.4066887              1
     10235.5000         0.6121       2308.406         0.4406       -39.3875     -0.3937912              1
     10236.0000         0.6147        2328.73         0.4396       -39.3747     -0.3809891              1
     10236.5000         0.6173       2349.008         0.4385       -39.3618     -0.3680916              1
     10237.0000         0.6199       2369.328         0.4374        -39.349     -0.3552895              1
     10237.5000         0.6225       2389.578         0.4364       -39.3362     -0.3424911              1
     10238.0000         0.6252       2409.828         0.4353       -39.3233     -0.3295898              1
     10238.5000         0.6271       2399.125         0.4343       -39.3105     -0.3167915              1
     10239.0000         0.6271       2385.152         0.4332       -39.2977     -0.3039894              1
     10239.5000         0.6271       2371.184         0.4322        -39.285     -0.2912903              1
     10240.0000         0.6272       2357.215         0.4311       -39.2834     -0.2896919              1
     10240.5000         0.6272       2343.246           0.43       -39.2819     -0.2881889              1
     10241.0000         0.6272       2328.707          0.429       -39.2803     -0.2865906              1
     10241.5000         0.6295       2310.559         0.4279       -39.2787     -0.2849922              1
     10242.0000         0.6327       2292.387         0.4269       -39.2771       -0.28339              1
     10242.5000         0.6359       2274.238         0.4258       -39.2755     -0.2817917              1
     10243.0000         0.6391       2256.063         0.4248       -39.2739     -0.2801895              1
     10243.5000         0.6423       2237.918         0.4237       -39.2697     -0.2759895              1
     10244.0000         0.6455       2220.535         0.4227       -39.2343     -0.2405891              1
     10244.5000         0.6487        2203.77          0.423       -39.1989     -0.2051888              1
     10245.0000          0.652       2187.008          0.424       -39.1635     -0.1697922              1
     10245.5000         0.6552       2170.242          0.425       -39.1282      -0.134491              1
     10246.0000         0.6584        2153.48          0.426       -39.0928    -0.09909058              1
     10246.5000         0.6616        2145.27          0.427       -39.0574    -0.06369019              1
     10247.0000         0.6606       2168.266          0.428        -39.022    -0.02828979              1
     10247.5000         0.6584       2192.102          0.429       -38.9866    0.007110596              1
     10248.0000         0.6561        2211.98           0.43       -38.9513     0.04240799              1
     10248.5000         0.6538       2231.832          0.431        -38.916      0.0777092              1
     10249.0000         0.6515       2251.688          0.432       -38.8806      0.1131096              1
     10249.5000         0.6493       2271.543          0.433       -38.8452        0.14851              1
     10250.0000          0.647       2291.395          0.434       -38.8098      0.1839104              1
     10250.5000         0.6447       2309.965          0.435       -38.7744      0.2193108              1
     10251.0000         0.6422       2317.457          0.436       -38.7643      0.2294083              1
     10251.5000         0.6396       2301.953          0.437       -38.7543      0.2394104              1
     10252.0000          0.637       2286.426          0.438       -38.7443      0.2494087              1
     10252.5000         0.6344       2270.898          0.439       -38.7343      0.2594109              1
