#------------------------------------------------------------------------------
# Created by    : vladimir.rabinovich
# Created on    : 09/19/2023 17:19:45
#------------------------------------------------------------------------------
~Version Information Section
VERS.           2.0     :   CWLS log ASCII Standard - VERSION 2.0
WRAP.           NO      :   One line per depth step
~Well Information Section
#MNEM       .UNIT                                         VALUE :DESCRIPTION
#------------------------------------------------------------------------------
STRT        .FT                                            3127 :START DEPTH
STOP        .FT                                           13892 :STOP DEPTH
STEP        .FT                                             0.5 :STEP      
NULL        .                                           -999.25 :NULL      
COMP        .                                       MONSANTO CO :COMPANY   
WELL        .                                     ST TR 00010-L :WELL      
FLD         .                                           WILDCAT :FIELD     
LOC         .                                                   :LOCATION  
CNTY        .                           HIGH ISLAND LARGE BLOCK :LOCATION  
STAT        .                                             TEXAS :STATE     
CTRY        .                                     UNITED STATES :COUNTRY   
SRVC        .                                                   :SERVICE COMPANY
DATE        .                             9/13/2023 11:19:15 AM :LOG DATE  
API         .                                    42708300750000 :API NUMBER
UWI         .                                    42708300750000 :UNIQUE WELL ID
XCOORD      .                                  1327265.43976741 :SURFACE X 
YCOORD      .                                  10725214.5969587 :SURFACE Y 
LAT         .                                        29.5491158 :LATITUDE  
LON         .                                       -93.9851741 :LONGITUDE 
ELEV        .FT                                              54 :ELEVATION VALUE
ELEV_TYPE   .                                                KB :ELEVATION REFERENCE TYPE
~Curve Information Section
#MNEM       .UNIT                                      API CODE :CURVE DESCRIPTION
#------------------------------------------------------------------------------
DEPT        .FT                                                 :DEPTH     
ASFL        .OHMM                                               :          
CILD        .MMHO                                               :          
ILD         .OHMM                                               :          
SP          .MV                                                 :          
SP_NORM     .MV                                                 :SP Normalized
VSH_SP      .V/V                                                :Volume of Shale from SP
~A        DEPTH           ASFL           CILD            ILD             SP        SP_NORM         VSH_SP
# ...
     12399.0000         0.7847       1540.592         0.6334       -61.1973      -7.109249      0.8964534
     12399.5000         0.7679       1550.949         0.6271       -60.7772      -6.689148      0.9035738
     12400.0000         0.7422       1560.686         0.6186       -59.6874       -5.59935      0.9220449
     12400.5000         0.7356       1570.422         0.6101       -58.5308      -4.442749      0.9416483
     12401.0000         0.7336       1580.109         0.6023       -56.8018      -2.713749      0.9709534
     12401.5000         0.7317       1588.604         0.5952       -56.7841      -2.696049      0.9712534
     12402.0000         0.7297       1597.072          0.588       -56.7385      -2.650448      0.9720263
     12402.5000         0.7277       1605.541         0.5809       -56.5223       -2.43425      0.9756907
     12403.0000         0.7258       1614.037         0.5738       -56.3061      -2.218048      0.9793551
     12403.5000         0.7208       1621.475         0.5673          -55.8      -1.711948      0.9879331
     12404.0000         0.7124       1628.889         0.5612       -54.5385     -0.4504509              1
     12404.5000         0.7082       1643.766          0.555        -54.659     -0.5709496              1
     12405.0000         0.7133       1685.939         0.5509       -54.7794      -0.691349              1
     12405.5000         0.7184       1723.643         0.5487       -54.9002      -0.812149              1
     12406.0000         0.7236       1762.984         0.5464       -55.0315     -0.9434509              1
     12406.5000         0.7314       1790.307         0.5458       -55.1878      -1.099751      0.9983093
     12407.0000         0.7429       1761.693         0.5518       -55.7507      -1.662651      0.9887686
     12407.5000         0.7544       1707.449         0.5578       -56.6477       -2.55965      0.9735652
     12408.0000         0.7728       1641.184         0.5638       -57.7722      -3.684151      0.9545059
     12408.5000         0.7985        1620.42         0.5704        -58.086      -3.997948      0.9491873
     12409.0000         0.8286       1599.557         0.5833       -58.5741       -4.48605      0.9409144
     12409.5000          0.869       1578.195         0.5962       -59.4378      -5.349751      0.9262754
     12410.0000         0.8834       1556.887         0.6091       -60.7846      -6.696548      0.9034483
     12410.5000         0.9644       1485.504         0.6326       -62.5287      -8.440651      0.8738873
     12411.0000         0.9898       1423.213         0.6563        -62.711      -8.622948      0.8707975
     12411.5000         0.9919       1384.467         0.6692       -62.0697      -7.981647       0.881667
     12412.0000         0.9676       1388.539         0.6694       -61.4272      -7.339149      0.8925568
     12412.5000          0.939       1406.125         0.6696       -60.7846      -6.696548      0.9034483
     12413.0000         0.9013       1423.709         0.6656        -58.086      -3.997948      0.9491873
     12413.5000         0.8307       1441.293         0.6579       -56.8158      -2.727749      0.9707161
     12414.0000         0.8112        1460.27         0.6502       -55.6494      -1.561348      0.9904856
     12414.5000         0.7902        1496.83         0.6422       -55.3145      -1.226448      0.9961619
     12415.0000         0.7713       1538.557         0.6162       -56.0855      -1.997448      0.9830941
     12415.5000         0.7605       1572.334         0.5902       -56.8948      -2.806747      0.9693772
     12416.0000         0.7633       1601.244         0.5642       -58.9157      -4.827648      0.9351246
     12416.5000         0.7662       1635.223          0.554       -59.2327       -5.14465      0.9297517
     12417.0000          0.769       1652.633         0.5511       -59.5496      -5.461548      0.9243805
     12417.5000         0.7719       1635.693         0.5511       -60.2014       -6.11335      0.9133331
     12418.0000         0.7747       1618.705         0.5679       -60.8375      -6.749451      0.9025517
     12418.5000         0.7776       1596.773         0.5847       -60.7632      -6.675148       0.903811
     12419.0000          0.791       1569.354         0.6015       -60.7037       -6.61565      0.9048195
     12419.5000         0.8213       1534.979         0.6183       -60.7837      -6.695648      0.9034636
     12420.0000         0.8343       1498.121         0.6245       -61.0317      -6.943649      0.8992602
     12420.5000         0.8469       1479.021         0.6291       -62.3317      -8.243649      0.8772263
     12421.0000         0.8321       1495.266         0.6334       -62.1315      -8.043449      0.8806195
     12421.5000         0.8173       1511.484         0.6365       -61.4852      -7.397148      0.8915738
     12422.0000         0.8026       1527.727         0.6395       -60.1965      -6.108448      0.9134161
     12422.5000         0.7687       1543.945         0.6312       -58.6939       -4.60585      0.9388839
     12423.0000         0.7451       1622.107         0.6057       -57.0382       -2.95015      0.9669466
     12423.5000         0.7322       1697.314         0.5802       -56.3234      -2.235348      0.9790619
     12424.0000         0.7299       1755.658         0.5574       -55.9866      -1.898548      0.9847704
     12424.5000         0.7343       1744.307         0.5373          -55.7       -1.61195       0.989628
     12425.0000         0.7386       1713.063         0.5455       -55.4603       -1.37225      0.9936907
     12425.5000         0.7429       1682.662         0.5569       -55.1539      -1.065849      0.9988839
     12426.0000         0.7706        1655.49         0.5682       -54.7313     -0.6432495              1
     12426.5000         0.7824       1636.266         0.5795       -54.3615     -0.2734489              1
     12427.0000         0.7857       1626.307         0.5784        -54.216     -0.1279488              1
     12427.5000         0.7779        1620.83         0.5772       -54.6967     -0.6086502              1
     12428.0000         0.7656       1622.854         0.5755       -55.1785       -1.09045       0.998467
     12428.5000         0.7517       1636.041         0.5679        -55.721       -1.63295      0.9892721
     12429.0000         0.7293        1670.49         0.5603       -56.3265      -2.238449      0.9790093
     12429.5000         0.7068       1718.775         0.5427       -56.5081      -2.420048      0.9759314
     12430.0000         0.6844       1830.244         0.5166       -55.8767      -1.788651      0.9866331
     12430.5000          0.676       1931.381         0.4855       -55.2453      -1.157249      0.9973348
     12431.0000          0.668       1993.076         0.4509       -54.8196     -0.7315483              1
     12431.5000         0.6654       1974.994         0.4325       -55.1724      -1.084351      0.9985703
     12432.0000         0.6661       1940.918         0.4366       -55.5258      -1.437748      0.9925805
     12432.5000         0.6668       1911.113         0.4407       -55.8149      -1.726849      0.9876806
     12433.0000         0.6676        1904.73         0.4449       -55.3651       -1.27705      0.9953042
     12433.5000         0.6689       1900.408          0.449       -54.9469     -0.8588486              1
     12434.0000         0.6703       1899.197         0.4531       -54.5966     -0.5085487              1
     12434.5000         0.6716       1897.988         0.4557       -54.2457       -0.15765              1
     12435.0000          0.673       1899.471         0.4559       -53.9127      0.1753502              1
     12435.5000         0.6734       1902.328         0.4561       -53.6093      0.4787521              1
     12436.0000         0.6711       1905.189         0.4573       -53.3177      0.7703514              1
     12436.5000         0.6688         1917.1         0.4592       -53.4258      0.6622505              1
