#------------------------------------------------------------------------------
# Created by    : vladimir.rabinovich
# Created on    : 09/19/2023 17:20:54
#------------------------------------------------------------------------------
~Version Information Section
VERS.           2.0     :   CWLS log ASCII Standard - VERSION 2.0
WRAP.           NO      :   One line per depth step
~Well Information Section
#MNEM       .UNIT                                         VALUE :DESCRIPTION
#------------------------------------------------------------------------------
STRT        .FT                                            1092 :START DEPTH
STOP        .FT                                            8058 :STOP DEPTH
STEP        .FT                                             0.5 :STEP      
NULL        .                                           -999.25 :NULL      
COMP        .                                    EXXON CO U S A :COMPANY   
WELL        .                               OCS G03029 ST00BP00 :WELL      
FLD         .                                           WILDCAT :FIELD     
LOC         .                                                   :LOCATION  
CNTY        .                        MUSTANG ISLAND LARGE BLOCK :LOCATION  
STAT        .                                             TEXAS :STATE     
CTRY        .                                     UNITED STATES :COUNTRY   
SRVC        .                                                   :SERVICE COMPANY
DATE        .                             9/13/2023 11:19:13 AM :LOG DATE  
API         .                                    42702400190000 :API NUMBER
UWI         .                                    42702400190000 :UNIQUE WELL ID
XCOORD      .                                  486295.566528254 :SURFACE X 
YCOORD      .                                  10047803.1546112 :SURFACE Y 
LAT         .                                         27.643077 :LATITUDE  
LON         .                                        -96.564717 :LONGITUDE 
ELEV        .FT                                              70 :ELEVATION VALUE
ELEV_TYPE   .                                                KB :ELEVATION REFERENCE TYPE
~Curve Information Section
#MNEM       .UNIT                                      API CODE :CURVE DESCRIPTION
#------------------------------------------------------------------------------
DEPT        .FT                                                 :DEPTH     
ASN         .OHMM                                               :          
CALI        .IN                                                 :          
CIL         .MMHO                                               :          
DRHO        .G/C3                                               :          
DT          .US/F                                               :          
GR          .GAPI                                               :          
GR_NORM     .GAPI                                               :GammaRay Normalized
ILD         .OHMM                                               :          
NPHI        .%                                                  :          
RHOB        .G/C3                                               :          
SN          .OHMM                                               :          
SP          .MV                                                 :          
SP_NORM     .MV                                                 :SP Normalized
VSH_GR      .V/V                                                :Volume of Shale from GR
VSH_SP      .V/V                                                :Volume of Shale from SP
~A        DEPTH            ASN           CALI            CIL           DRHO             DT             GR        GR_NORM            ILD           NPHI           RHOB             SN             SP        SP_NORM         VSH_GR         VSH_SP
# ...
      8045.0000         1.2476         9.9487       1046.508        -0.0133       107.5004        71.4574       58.13994         0.9618        31.9026         2.5086         1.2579       -46.7886     -0.8115883      0.5348923              1
      8045.5000         1.2438         9.9461       1056.252        -0.0151       107.5032        73.0378       60.73259         0.9416        32.3844         2.5071         1.2469       -46.7822     -0.8051872      0.5900552              1
      8046.0000         1.2315         9.8318       1083.934        -0.0118       107.5148        75.5526       64.85812         0.9263        33.1591         2.5087         1.2393       -47.1441      -1.167088      0.6778324              1
      8046.5000         1.2192         9.6351       1112.564        -0.0145       107.5264        78.4417       69.59773         0.9172        33.9675         2.5042         1.2288        -47.905      -1.927986      0.7786751              1
      8047.0000         1.2083         9.6781       1119.223        -0.0131        107.538        80.2441       72.55458         0.9147        34.2575         2.4993         1.2124       -47.2165      -1.239487      0.8415868              1
      8047.5000         1.1986         9.8283       1101.268        -0.0277       107.5494        78.4766       69.65498         0.9236        33.9226         2.4826         1.2016       -45.9417     0.03531265      0.7798931              1
      8048.0000          1.189         9.7378       1083.012        -0.0277       107.5752        76.5968       66.57115         0.9326        34.0515           2.48         1.2098       -45.1296      0.8474121      0.7142798              1
      8048.5000         1.1828         9.4778       1083.137         -0.032       107.6046        77.2142         67.584         0.9287        34.4542         2.4691         1.1983         -44.63       1.347012      0.7358298              1
      8049.0000         1.1767          9.272       1096.703         -0.029       107.6444        77.9739       68.83028         0.9204        34.2897         2.4588           1.18         -44.32       1.657013      0.7623464              1
      8049.5000         1.1706         9.2432       1113.188        -0.0404        107.693        78.8958       70.34266         0.9096        33.8417         2.4427         1.1621       -44.0961       1.880913      0.7945247              1
      8050.0000         1.1642            9.3       1124.646        -0.0383       107.7045        80.1655       72.42561         0.9012        33.4064         2.4488         1.1539       -44.0744       1.902611      0.8388428              1
      8050.5000         1.1578         9.4698       1133.563        -0.0339       107.6586        80.2853       72.62216         0.8788        33.6761         2.4647         1.1482       -44.0481       1.928913      0.8430247              1
      8051.0000         1.1513         9.4123       1143.861        -0.0327       107.6465        78.5963       69.85133         0.8716        34.4298         2.4705         1.1378        -43.672       2.305012      0.7840709              1
      8051.5000         1.1408         9.1179       1168.477        -0.0385       107.7087        77.1493       67.47752         0.8644        34.5477         2.4747         1.1335       -43.2167       2.760311      0.7335642              1
      8052.0000         1.1296         8.7894       1204.088         -0.046       107.7711        75.5801       64.90325         0.8495        34.3096          2.466         1.1539       -42.7059       3.271114      0.6787926              1
      8052.5000         1.0995         8.6098       1162.191        -0.0514          107.8           74.4        62.9673         0.8337        34.4849         2.4672          1.191       -42.0585       3.918514      0.6376022              1
      8053.0000         1.0901         8.5841       1091.166        -0.0552       107.8275        73.6117       61.67409         0.8749        34.5396         2.4632         1.2513       -41.3337       4.643314       0.610087              1
      8053.5000         1.0877         8.4789       1025.029        -0.0595       107.8392        73.6117       61.67409         0.9392        34.7805          2.459         1.3394       -40.4805       5.496513       0.610087              1
      8054.0000         1.1128         8.6074        956.998        -0.0617       107.8308        74.9639       63.89236         1.0059        33.9818         2.4633         1.4227       -39.1508       6.826214      0.6572843              1
      8054.5000         1.1604         8.6146       900.3877        -0.0614       107.8054        76.4658       66.35625         1.0723        33.1501         2.4711         1.4925       -37.5292       8.447811      0.7097074              1
      8055.0000         1.2204         8.4764       869.7627        -0.0665       107.7583        77.9315       68.76073         1.1595        32.2661         2.4703         1.5299        -38.562       7.415012      0.7608667              1
      8055.5000        -999.25         8.0459        -999.25        -0.0753        -999.25        -999.25        -999.25        -999.25        32.0458         2.4606        -999.25        -999.25        -999.25        -999.25        -999.25
      8056.0000        -999.25         7.7002        -999.25        -0.0877        -999.25        -999.25        -999.25        -999.25        32.8265         2.4463        -999.25        -999.25        -999.25        -999.25        -999.25
      8056.5000        -999.25         7.5367        -999.25        -0.0988        -999.25        -999.25        -999.25        -999.25        32.9539         2.4236        -999.25        -999.25        -999.25        -999.25        -999.25
      8057.0000        -999.25         7.3879        -999.25        -0.1112        -999.25        -999.25        -999.25        -999.25        32.7875         2.4048        -999.25        -999.25        -999.25        -999.25        -999.25
      8057.5000        -999.25         7.2557        -999.25        -0.1252        -999.25        -999.25        -999.25        -999.25        33.1258          2.389        -999.25        -999.25        -999.25        -999.25        -999.25
      8058.0000        -999.25         7.1264        -999.25        -0.1192        -999.25        -999.25        -999.25        -999.25        33.1686          2.391        -999.25        -999.25        -999.25        -999.25        -999.25
