#------------------------------------------------------------------------------
# Created by    : vladimir.rabinovich
# Created on    : 09/19/2023 17:21:32
#------------------------------------------------------------------------------
~Version Information Section
VERS.           2.0     :   CWLS log ASCII Standard - VERSION 2.0
WRAP.           NO      :   One line per depth step
~Well Information Section
#MNEM       .UNIT                                         VALUE :DESCRIPTION
#------------------------------------------------------------------------------
STRT        .FT                                            4185 :START DEPTH
STOP        .FT                                            8075 :STOP DEPTH
STEP        .FT                                             0.5 :STEP      
NULL        .                                           -999.25 :NULL      
COMP        .                                         HESS CORP :COMPANY   
WELL        .                               OCS G07236 ST00BP00 :WELL      
FLD         .                              GALVESTON BLOCK 0210 :FIELD     
LOC         .                                                   :LOCATION  
CNTY        .                             GALVESTON LARGE BLOCK :LOCATION  
STAT        .                                             TEXAS :STATE     
CTRY        .                                     UNITED STATES :COUNTRY   
SRVC        .                                                   :SERVICE COMPANY
DATE        .                             9/13/2023 11:19:34 AM :LOG DATE  
API         .                                    42706402930000 :API NUMBER
UWI         .                                    42706402930000 :UNIQUE WELL ID
XCOORD      .                                   1127714.7472722 :SURFACE X 
YCOORD      .                                  10563055.4663979 :SURFACE Y 
LAT         .                                         29.097041 :LATITUDE  
LON         .                                        -94.605794 :LONGITUDE 
ELEV        .FT                                              89 :ELEVATION VALUE
ELEV_TYPE   .                                                KB :ELEVATION REFERENCE TYPE
~Curve Information Section
#MNEM       .UNIT                                      API CODE :CURVE DESCRIPTION
#------------------------------------------------------------------------------
DEPT        .FT                                                 :DEPTH     
CALI        .IN                                                 :          
DRHO        .G/CC                                               :          
DT          .US/F                                               :          
ILD         .OHMM                                               :          
ILM         .OHMM                                               :          
NPHI        .%                                                  :          
RFOC        .OHMM                                               :          
RHOB        .G/CC                                               :          
SP          .MV                                                 :          
SP_NORM     .MV                                                 :SP Normalized
VSH_SP      .V/V                                                :Volume of Shale from SP
~A        DEPTH           CALI           DRHO             DT            ILD            ILM           NPHI           RFOC           RHOB             SP        SP_NORM         VSH_SP
# ...
      5265.0000        13.9292         0.0012       132.4653         0.2998         0.3666         38.404         1.0445         2.0745      -135.0527      -67.16623     0.04048244
      5265.5000        14.3042         0.0009       132.4912         0.3166         0.3814        36.0768         1.1113         2.0716      -134.8757      -66.99432     0.04293823
      5266.0000        14.3911         0.0004       131.6409         0.3396         0.3925        32.9478         1.1367         2.0686      -135.3459      -67.46962     0.03614829
      5266.5000        14.4113              0       129.4343         0.3647         0.4013        31.9671         1.1455         2.0678       -136.075      -68.20381     0.02565983
      5267.0000        14.4108         0.0001       127.1019         0.3917         0.4107        31.7408         1.1458         2.0718      -136.8193      -68.95322     0.01495405
      5267.5000        14.4081         0.0007       124.6709         0.4218         0.4276        32.0113         1.1532          2.078      -137.3767       -69.5157    0.006918553
      5268.0000        14.4093          0.002       120.9789         0.4515         0.4531        31.7118         1.1737          2.106      -137.5215      -69.66561    0.004776982
      5268.5000        14.4176         0.0038       112.1785         0.4794         0.4927        27.4216         1.1907          2.185      -136.7405       -68.8897      0.0158614
      5269.0000        14.4278         0.0057        92.8521         0.5152         0.5763        25.0087          1.216         2.2843      -135.2632       -67.4175     0.03689281
      5269.5000        14.4448         0.0077        90.2368         0.5715         0.6587        23.7898         1.2954         2.3559      -132.7051      -64.86449     0.07336437
      5270.0000        14.4768           0.01        88.6334         0.6691         0.7362        23.8495         1.4872         2.3952      -128.2659       -60.4304      0.1367086
      5270.5000        14.5787         0.0127        91.4537         0.7769         0.8191        24.1039         1.7995         2.3966      -126.8953       -59.0649      0.1562158
      5271.0000        14.6674         0.0131       106.9687         0.8468         0.8869        24.4008         1.9032         2.3951      -126.7073      -58.88199      0.1588287
      5271.5000         14.682         0.0112       136.4419         0.9118         0.9372        24.6508         1.9382         2.3937      -126.5848      -58.76459      0.1605059
      5272.0000        14.6789         0.0063       157.7063         0.9532         0.9609        24.7892         1.9493         2.3701      -126.5514      -58.73628      0.1609102
      5272.5000        14.6822         0.0047       174.6829         0.9684         0.9657         24.793         1.9218         2.3307      -126.4095      -58.59948      0.1628646
      5273.0000        14.7484          0.004       173.2351          0.962         0.9514        24.6289         1.8702         2.3136      -125.9078      -58.10288      0.1699588
      5273.5000        15.0505         0.0043       160.6311         0.9412         0.9325        23.9174         1.8344         2.3302      -125.1173      -57.31748      0.1811788
      5274.0000        15.4126         0.0049       148.3352         0.9048         0.9085        22.8348         1.8809         2.3957       -123.778      -55.98328      0.2002389
      5274.5000        15.4409         0.0058       142.6531         0.8709         0.8754        22.1757         1.9305         2.4364      -121.7417      -53.95207      0.2292561
      5275.0000        15.3931         0.0067        143.342         0.8356         0.8369        22.8107         1.9015         2.4281      -118.3232      -50.53867      0.2780191
      5275.5000        15.3431         0.0065        144.416         0.8044         0.8019        25.3823         1.8164         2.4158      -116.3549      -48.57546      0.3060648
      5276.0000        15.2892         0.0017        142.814         0.7723         0.7748        28.9471         1.7644         2.4027      -115.1982      -47.42386      0.3225163
      5276.5000         15.274        -0.0007       121.1034         0.7484         0.7529        31.1483         1.7621         2.3596      -115.3082      -47.53896      0.3208721
      5277.0000        15.4387        -0.0004       115.2723          0.729         0.7358        32.8046          1.714          2.302       -116.001      -48.23685      0.3109021
      5277.5000        15.9239         0.0003       120.4237          0.713          0.723        34.7692         1.5595         2.1964      -117.5077      -49.74865       0.289305
      5278.0000        16.3125          0.001       128.9958          0.702         0.7113        37.2723         1.3424         2.1461      -119.3516      -51.59765      0.2628907
      5278.5000        16.4615         0.0015       138.8186          0.694         0.7015        34.8314         1.2212         2.1279      -120.4871      -52.73825      0.2465964
      5279.0000        16.5489          0.002       134.9941         0.6955         0.6975        28.3026         1.1444         2.1115      -120.9082      -53.16445      0.2405078
      5279.5000        16.6068         0.0034       131.7991         0.7109         0.7175         26.502         1.1279         2.1073      -120.9824      -53.24374      0.2393751
      5280.0000        16.3522         0.0066       128.2954         0.7392         0.7542        26.3471         1.1786         2.1156      -120.7611      -53.02754      0.2424637
      5280.5000        15.8044          0.008       113.6313         0.7836         0.7929        26.1416         1.2802         2.1839      -120.0209      -52.29243      0.2529652
      5281.0000        15.3302         0.0076         95.802         0.8314         0.8211        25.0897          1.456          2.244      -117.6538      -49.93044      0.2867081
      5281.5000        15.1791         0.0048         83.774         0.8556         0.8452        20.0709         1.7648         2.2461      -113.4595      -45.74123      0.3465538
      5282.0000        15.3074        -0.0026         72.545         0.8444         0.8331        19.1447         2.0115         2.2374      -112.1465      -44.43333      0.3652382
      5282.5000        16.1266        -0.0073        69.8196         0.8093         0.8017        23.0815         2.0402         2.2394       -113.348      -45.63992      0.3480011
      5283.0000        16.2796         -0.008        70.5421         0.7504         0.7536        23.2681         1.7824         2.2347      -115.8356      -48.13262      0.3123911
      5283.5000        16.3788        -0.0063        71.6416         0.6803         0.6946        23.1084         1.6283         2.2153      -119.7054      -52.00752      0.2570354
      5284.0000        16.4591         -0.002        72.5088         0.6183          0.637         25.292         1.4934         2.1818      -123.1895      -55.49672      0.2071897
      5284.5000        16.3969        -0.0002        75.6169         0.5574         0.5878        31.4752         1.4184           2.14      -124.7692      -57.08152      0.1845497
      5285.0000        16.0501         0.0009        86.6383         0.5062         0.5432        34.9279         1.3956         2.1044      -126.0194      -58.33681      0.1666169
      5285.5000        15.7175         0.0014        99.0399         0.4539         0.5108        36.9407         1.3999         2.0888      -126.8868      -59.20931      0.1541527
      5286.0000        15.7778         0.0017       106.2942         0.4047         0.4833        37.8786         1.3945         2.0912      -127.5165      -59.84411      0.1450842
      5286.5000        15.9209         0.0019       107.4852         0.3814         0.4642         38.179         1.3469         2.0937      -128.3333        -60.666      0.1333428
      5287.0000        16.1578         0.0022       107.3264           0.37         0.4527        38.1234         1.2883         2.0951        -129.25       -61.5878      0.1201743
