#------------------------------------------------------------------------------
# Created by    : vladimir.rabinovich
# Created on    : 09/19/2023 17:19:44
#------------------------------------------------------------------------------
~Version Information Section
VERS.           2.0     :   CWLS log ASCII Standard - VERSION 2.0
WRAP.           NO      :   One line per depth step
~Well Information Section
#MNEM       .UNIT                                         VALUE :DESCRIPTION
#------------------------------------------------------------------------------
STRT        .FT                                            3520 :START DEPTH
STOP        .FT                                           13769 :STOP DEPTH
STEP        .FT                                             0.5 :STEP      
NULL        .                                           -999.25 :NULL      
COMP        .                           WILLIAMS EXPLORATION CO :COMPANY   
WELL        .                                          SL 73414 :WELL      
FLD         .                                           WILDCAT :FIELD     
LOC         .                                                   :LOCATION  
CNTY        .                           HIGH ISLAND LARGE BLOCK :LOCATION  
STAT        .                                             TEXAS :STATE     
CTRY        .                                     UNITED STATES :COUNTRY   
SRVC        .                                                   :SERVICE COMPANY
DATE        .                             9/13/2023 11:19:15 AM :LOG DATE  
API         .                                    42708301040000 :API NUMBER
UWI         .                                    42708301040000 :UNIQUE WELL ID
XCOORD      .                                  1272749.25589155 :SURFACE X 
YCOORD      .                                  10699068.0748216 :SURFACE Y 
LAT         .                                        29.4758188 :LATITUDE  
LON         .                                       -94.1558378 :LONGITUDE 
ELEV        .FT                                             106 :ELEVATION VALUE
ELEV_TYPE   .                                                KB :ELEVATION REFERENCE TYPE
~Curve Information Section
#MNEM       .UNIT                                      API CODE :CURVE DESCRIPTION
#------------------------------------------------------------------------------
DEPT        .FT                                                 :DEPTH     
ASFL        .OHMM                                               :          
CILD        .MMHO                                               :          
ILD         .OHMM                                               :          
SP          .MV                                                 :          
SP_NORM     .MV                                                 :SP Normalized
VSH_SP      .V/V                                                :Volume of Shale from SP
~A        DEPTH           ASFL           CILD            ILD             SP        SP_NORM         VSH_SP
# ...
      6256.0000         0.5764       3827.996         0.2797      -119.6913      -42.10802      0.1063473
      6256.5000         0.5492       3632.902         0.2863      -119.2606      -41.67614      0.1157361
      6257.0000         0.5634       3515.449          0.293      -118.8304      -41.24477      0.1251138
      6257.5000         0.5905       3437.984         0.2996      -118.3315      -40.74468      0.1359852
      6258.0000         0.6176       3412.551         0.3034      -117.8248      -40.23681      0.1470259
      6258.5000         0.6345       3426.063         0.3047      -117.7184      -40.12923      0.1493646
      6259.0000         0.6276       3645.645          0.306       -118.472      -40.88165      0.1330077
      6259.5000         0.6127       3819.836         0.3073      -119.3593      -41.76777      0.1137442
      6260.0000         0.5972        4031.32         0.3086      -120.4307      -42.83799     0.09047848
      6260.5000         0.5816       4331.828         0.3099      -121.1345       -43.5406     0.07520427
      6261.0000         0.5661       4904.375          0.309      -121.6703      -44.07523     0.06358188
      6261.5000         0.5533        5063.93         0.3045      -122.1251      -44.52885     0.05372072
      6262.0000         0.5412       5146.445         0.2999      -122.4147      -44.81728     0.04745052
      6262.5000         0.5408       5223.688         0.2954      -122.7041      -45.10549     0.04118497
      6263.0000         0.5409       5292.867         0.2908      -122.9939       -45.3941     0.03491078
      6263.5000         0.5432       5332.133         0.2863      -123.1852      -45.58424     0.03077747
      6264.0000         0.5456       5361.727         0.2817      -123.3179      -45.71575     0.02791844
      6264.5000         0.5479       5391.313         0.2772      -123.4506      -45.84727     0.02505924
      6265.0000         0.5503       5427.938         0.2723      -123.5834      -45.97889     0.02219805
      6265.5000         0.5526       5451.758         0.2671      -123.7161      -46.11041     0.01933886
      6266.0000          0.555       5422.563          0.262      -123.8442      -46.23734     0.01657967
      6266.5000         0.5596       5326.711         0.2568       -123.637      -46.02895     0.02110971
      6267.0000         0.5669       5230.953         0.2517      -123.4299      -45.82067     0.02563759
      6267.5000         0.5741       5128.133         0.2657      -123.2227       -45.6123     0.03016745
      6268.0000         0.5814       5025.109         0.2796      -123.0155      -45.40392     0.03469749
      6268.5000         0.5912       4911.734         0.2936      -122.8082      -45.19543     0.03922968
      6269.0000           0.62       3160.496         0.3074       -122.601      -44.98705     0.04375972
      6269.5000         0.8755       3004.621         0.3188      -122.2212      -44.60607     0.05204193
      6270.0000         1.1773       2846.207         0.3302      -121.7421       -44.1258     0.06248258
      6270.5000         1.2842       2811.715         0.3416      -122.0632      -44.44572      0.0555279
      6271.0000         1.4802       2782.078          0.353      -122.8168      -45.19814     0.03917081
      6271.5000         1.6198       2773.691         0.3508      -123.5704      -45.95055     0.02281405
      6272.0000         1.6953       2917.426         0.3464      -124.3231      -46.70207    0.006476692
      6272.5000         1.7302       3161.492          0.342      -124.9403       -47.3181              0
      6273.0000          1.744       3490.563         0.3377      -125.4664      -47.84302              0
      6273.5000         1.6658       3753.941         0.3333      -125.9924      -48.36784              0
      6274.0000         1.4945       4050.117          0.327      -125.8717      -48.24596              0
      6274.5000         1.4006       4054.645         0.3187      -124.6667      -47.03978              0
      6275.0000         0.8811        4059.18         0.3104      -123.4608       -45.8327     0.02537603
      6275.5000         0.7635       4316.305         0.3021      -122.2548      -44.62552     0.05161916
      6276.0000         0.6141       4534.094         0.2938       -121.668      -44.03754     0.06440138
      6276.5000         0.6168       4587.594         0.2854      -121.4795      -43.84786     0.06852473
      6277.0000         0.6196       4643.531         0.2771       -121.634      -44.00118     0.06519169
      6277.5000         0.6224       4705.094         0.2688      -121.7886       -44.1546     0.06185648
      6278.0000         0.6252        4795.68         0.2613       -122.021      -44.38583     0.05682987
      6278.5000         0.6284       4975.641         0.2539      -122.2675      -44.63114     0.05149692
      6279.0000         0.6322       5323.625         0.2465      -122.5142      -44.87666     0.04615949
      6279.5000          0.636       5543.406         0.2391      -122.7609      -45.12218     0.04082207
      6280.0000         0.6399       5709.828         0.2317      -123.0074       -45.3675     0.03548912
      6280.5000         0.6437        5834.25         0.2243      -123.2539      -45.61282     0.03015601
      6281.0000         0.6444        6003.07         0.2169      -123.5027      -45.86044     0.02477298
      6281.5000         0.6437       5967.883         0.2094      -123.8652      -46.22176     0.01691818
      6282.0000         0.6403        5925.93          0.202      -124.2277      -46.58308    0.009063389
      6282.5000         0.6342       5815.039         0.1977      -124.5902       -46.9444    0.001208596
      6283.0000         0.6281       5620.648         0.2002      -124.4474      -46.80043    0.004338472
      6283.5000          0.622       3963.766         0.2027      -124.1772      -46.52905     0.01023815
      6284.0000         0.6236       3697.004         0.2052      -123.9069      -46.25756     0.01613998
      6284.5000         0.6427       3518.832         0.2077      -123.6367      -45.98619     0.02203933
      6285.0000         0.6827       3354.793         0.2291        -122.71       -45.0583     0.04221079
      6285.5000         0.7228       2386.691         0.2671      -121.6329      -43.98003      0.0656516
      6286.0000         0.7584        2266.25         0.3051      -120.5551      -42.90105     0.08910768
      6286.5000         0.7888       2090.465          0.343      -118.8903      -41.23506      0.1253247
      6287.0000         0.8191       1940.762         0.4022      -105.4764      -27.81999      0.4169567
      6287.5000         0.8529       1806.982         0.4673       -99.2339      -21.57631       0.552689
      6288.0000         0.9008       1632.443         0.5323       -94.8928      -17.23403      0.6470863
      6288.5000         0.9466       1574.512         0.5924       -92.1658      -14.50585      0.7063946
      6289.0000         0.9786       1517.775         0.6384       -89.4425      -11.78136      0.7656225
      6289.5000         1.0056       1472.063         0.6178       -87.5299      -9.867592      0.8072262
      6290.0000         0.9073       1469.998         0.5883       -85.8606      -8.197113       0.843541
      6290.5000         0.7628       1497.619         0.5602       -84.4934      -6.828728      0.8732885
      6291.0000         0.6645       1538.031         0.5501       -83.5094      -5.843552      0.8947054
      6291.5000          0.633       1599.197         0.5399       -82.4388      -4.771767       0.918005
      6292.0000         0.6029       1660.314         0.5298       -81.4458      -3.777596      0.9396175
      6292.5000         0.5866        1721.43         0.5197       -83.7047      -6.035309      0.8905368
      6293.0000         0.6103       1788.967         0.5095       -88.2402      -10.56963      0.7919647
      6293.5000         0.6342       1859.041         0.4994       -89.3761      -11.70435      0.7672967
