#------------------------------------------------------------------------------
# Created by    : vladimir.rabinovich
# Created on    : 09/19/2023 17:20:04
#------------------------------------------------------------------------------
~Version Information Section
VERS.           2.0     :   CWLS log ASCII Standard - VERSION 2.0
WRAP.           NO      :   One line per depth step
~Well Information Section
#MNEM       .UNIT                                         VALUE :DESCRIPTION
#------------------------------------------------------------------------------
STRT        .FT                                             627 :START DEPTH
STOP        .FT                                            8077 :STOP DEPTH
STEP        .FT                                             0.5 :STEP      
NULL        .                                           -999.25 :NULL      
COMP        .                                    MOBIL OIL CORP :COMPANY   
WELL        .                               OCS G02338 ST00BP00 :WELL      
FLD         .                                           WILDCAT :FIELD     
LOC         .                                                   :LOCATION  
CNTY        .                             GALVESTON LARGE BLOCK :LOCATION  
STAT        .                                             TEXAS :STATE     
CTRY        .                                     UNITED STATES :COUNTRY   
SRVC        .                                                   :SERVICE COMPANY
DATE        .                             9/13/2023 11:18:53 AM :LOG DATE  
API         .                                    42706400220000 :API NUMBER
UWI         .                                    42706400220000 :UNIQUE WELL ID
XCOORD      .                                  948421.875172236 :SURFACE X 
YCOORD      .                                   10402667.405867 :SURFACE Y 
LAT         .                                         28.648189 :LATITUDE  
LON         .                                        -95.157922 :LONGITUDE 
ELEV        .FT                                              76 :ELEVATION VALUE
ELEV_TYPE   .                                                KB :ELEVATION REFERENCE TYPE
~Curve Information Section
#MNEM       .UNIT                                      API CODE :CURVE DESCRIPTION
#------------------------------------------------------------------------------
DEPT        .FT                                                 :DEPTH     
ASFL        .OHMM                                               :          
CALI        .IN                                                 :          
CILD        .MMHO                                               :          
DT          .US/F                                               :          
DT_1        .US/F                                               :          
GR          .GAPI                                               :          
GR_NORM     .GAPI                                               :GammaRay Normalized
ILD         .OHMM                                               :          
SFL         .OHMM                                               :          
SP          .MV                                                 :          
SP_NORM     .MV                                                 :SP Normalized
VSH_GR      .V/V                                                :Volume of Shale from GR
VSH_SP      .V/V                                                :Volume of Shale from SP
~A        DEPTH           ASFL           CALI           CILD             DT           DT_1             GR        GR_NORM            ILD            SFL             SP        SP_NORM         VSH_GR         VSH_SP
# ...
      5586.0000         0.9672         10.981       1200.205       106.2314        -999.25        76.0267        58.9397         0.6731         1.0313       -84.8519       -29.0528      0.5519086       0.561675
      5586.5000         0.9947        10.8579       1228.641       104.2828        -999.25        76.7032       59.86527         0.6659          0.983       -85.3385      -29.54324      0.5716016      0.5540119
      5587.0000         1.0068        10.7286       1269.807       103.5477        -999.25        77.9301       61.54079         0.6615         0.9788       -83.7711      -27.97968      0.6072509      0.5784426
      5587.5000          1.019        10.6462       1315.275       104.7277        -999.25        79.8091       64.10485         0.6598         1.0233       -82.6904      -26.90281      0.6618053      0.5952686
      5588.0000         1.0295        10.5911       1360.742        106.244        -999.25        82.4303       67.68022         0.6569         1.0467       -80.6509      -24.86715      0.7378771      0.6270759
      5588.5000         1.0367        10.5755       1395.955        107.207        -999.25        84.2902       70.21827         0.6515         1.0306       -77.2614      -21.48148       0.791878      0.6799769
      5589.0000         1.0357        10.6028       1428.969       106.1917        -999.25        85.7821       72.25487         0.6455         0.9797       -74.0854      -18.30932        0.83521      0.7295419
      5589.5000          1.016        10.5909       1462.006        103.954        -999.25         84.824       70.95317         0.6354         0.9344        -71.967      -16.19475      0.8075143       0.762582
      5590.0000         0.9958         10.547       1492.881       102.8805        -999.25        82.9772       68.44055         0.6255           0.94       -71.8402      -16.07178      0.7540543      0.7645034
      5590.5000         0.9753        10.5301       1503.422       102.8176        -999.25        81.3986       66.29337         0.6157         0.9515       -71.8301      -16.06552      0.7083696      0.7646012
      5591.0000         0.9524        10.5546       1513.951       103.4144        -999.25        80.2903       64.78701         0.5979         0.9153       -71.2201      -15.45935      0.6763194      0.7740726
      5591.5000         0.9158        10.5939       1524.492       105.3506        -999.25        79.3837        63.5555          0.576         0.8402       -69.5648      -13.80788      0.6501169      0.7998768
      5592.0000         0.8938        10.6358       1534.572       106.7885        -999.25          78.48       62.32791         0.5496         0.7585       -68.4023      -12.64922      0.6239981      0.8179809
      5592.5000         0.8683        10.6555       1552.541       108.6698        -999.25        77.6763        61.2366         0.5218         0.7508       -70.0837      -14.33446      0.6007788       0.791649
      5593.0000         0.8402        10.6736       1588.254       111.2676        -999.25        77.0179       60.34325         0.5022         0.7819       -74.5001      -18.75469      0.5817714      0.7225829
      5593.5000         0.8179        10.6849       1635.947       114.9556        -999.25         76.641       59.83348         0.4812         0.8181       -77.5217      -21.78013      0.5709251      0.6753105
      5594.0000         0.8075        10.6933       1696.871       117.3727        -999.25        76.5985       59.77937         0.4619         0.8588       -79.8969      -24.15916      0.5697738      0.6381381
      5594.5000         0.8051        10.6978       1778.803       117.6892        -999.25        77.1365       60.51621         0.4514         0.8767       -83.4301       -27.6962      0.5854512      0.5828719
      5595.0000         0.8117        10.6759       1853.482       115.9611        -999.25        78.1299       61.87358         0.4479         0.8811       -88.0153      -32.28523      0.6143315      0.5111682
      5595.5000          0.824        10.6306       1936.863       114.0709        -999.25        79.5146       63.76413         0.4519         0.9204       -93.6239      -37.89767       0.654556      0.4234739
      5596.0000         0.8363        10.5748       2024.398       112.1522        -999.25        81.6379       66.66106         0.4586         0.9408       -93.7603       -38.0379      0.7161927      0.4212828
      5596.5000         0.8486        10.5008       2102.828       110.4777        -999.25        84.5248       70.59847         0.4707         0.9025       -85.0638      -29.34524      0.7999675      0.5571057
      5597.0000          0.852        10.3997       2159.598       109.1184        -999.25        86.9999       73.97477          0.492         0.8245       -76.0585      -20.34378      0.8718036      0.6977535
      5597.5000          0.855        10.3453       2166.766       108.2163        -999.25        89.2429       77.03481         0.5173         0.7359       -65.2579      -9.547005      0.9369107      0.8664531
      5598.0000         0.8534        10.3137        2153.07       110.2883        -999.25         91.402       79.98053         0.5511         0.7393       -60.9052      -5.198147      0.9995857       0.934404
      5598.5000         0.8434        10.3369       2101.125        112.921        -999.25        93.2129        82.4518         0.5923         0.8209       -61.5143      -5.811081              1      0.9248269
      5599.0000         0.8334         10.416       2038.504       113.4066        -999.25        94.4308       84.11507         0.6312         0.8738       -61.0757      -5.376312              1      0.9316201
      5599.5000         0.8233        10.4923        1978.18       113.7943        -999.25        94.9298       84.79878         0.6672         0.8163        -59.495       -3.79945              1      0.9562586
      5600.0000         0.8133        10.4163       1840.027       115.1575        -999.25        91.6486       80.33167          0.693         0.7772       -58.1225      -2.430786              1       0.977644
      5600.5000         0.8133        10.3821       1621.943       115.8745        -999.25        88.8958       76.58455          0.709         0.8294       -58.1234       -2.43552      0.9273309        0.97757
      5601.0000         0.8273        10.4112       1491.592       115.8259        -999.25        87.0699       74.10042         0.7176         0.8889        -58.578      -2.893955       0.874477      0.9704069
      5601.5000         0.8491        10.5637       1440.223       115.2408        -999.25         86.326       73.09058         0.7174         0.9111       -59.0385      -3.358292       0.852991      0.9631517
      5602.0000          0.871        10.6171       1394.881       111.3723        -999.25        86.0186       72.67551         0.7213         0.9136       -58.9937      -3.317322      0.8441599      0.9637918
      5602.5000         0.8794        10.6266       1378.949       108.3944        -999.25        86.0338       72.70001         0.7244         0.9499       -58.3451      -2.672562      0.8446811      0.9738662
      5603.0000         0.8865        10.6489       1363.006       106.8096        -999.25        86.2393        72.9838         0.7305         0.9267       -58.3558      -2.687096       0.850719      0.9736391
      5603.5000         0.8936        10.6667       1347.063       106.4434        -999.25        86.4547       73.28107         0.7351         0.8797       -59.6494      -3.984528      0.8570442      0.9533668
      5604.0000         0.8993        10.6435       1336.145       107.4451        -999.25        86.6786       73.58994         0.7385         0.8729       -61.4672      -5.806168      0.8636158      0.9249036
      5604.5000         0.9017        10.6247       1326.768       108.8854        -999.25        86.9352       73.94337         0.7375         0.9542       -62.4276      -6.770401      0.8711357      0.9098375
