#------------------------------------------------------------------------------
# Created by    : vladimir.rabinovich
# Created on    : 09/19/2023 17:21:40
#------------------------------------------------------------------------------
~Version Information Section
VERS.           2.0     :   CWLS log ASCII Standard - VERSION 2.0
WRAP.           NO      :   One line per depth step
~Well Information Section
#MNEM       .UNIT                                         VALUE :DESCRIPTION
#------------------------------------------------------------------------------
STRT        .FT                                             957 :START DEPTH
STOP        .FT                                           10053 :STOP DEPTH
STEP        .FT                                             0.5 :STEP      
NULL        .                                           -999.25 :NULL      
COMP        .                                    EXXON CO U S A :COMPANY   
WELL        .                               OCS G03237 ST00BP00 :WELL      
FLD         .                                           WILDCAT :FIELD     
LOC         .                                                   :LOCATION  
CNTY        .                           HIGH ISLAND LARGE BLOCK :LOCATION  
STAT        .                                             TEXAS :STATE     
CTRY        .                                     UNITED STATES :COUNTRY   
SRVC        .                                                   :SERVICE COMPANY
DATE        .                             9/13/2023 11:20:04 AM :LOG DATE  
API         .                                    42708400420000 :API NUMBER
UWI         .                                    42708400420000 :UNIQUE WELL ID
XCOORD      .                                  1163347.66403634 :SURFACE X 
YCOORD      .                                  10583934.5995257 :SURFACE Y 
LAT         .                                         29.155753 :LATITUDE  
LON         .                                        -94.495054 :LONGITUDE 
ELEV        .FT                                              94 :ELEVATION VALUE
ELEV_TYPE   .                                                KB :ELEVATION REFERENCE TYPE
~Curve Information Section
#MNEM       .UNIT                                      API CODE :CURVE DESCRIPTION
#------------------------------------------------------------------------------
DEPT        .FT                                                 :DEPTH     
CALI        .IN                                                 :          
DRHO        .G/C3                                               :          
DT          .US/F                                               :          
GR          .GAPI                                               :          
GR_1        .GAPI                                               :          
GR_NORM     .GAPI                                               :GammaRay Normalized
ILD         .OHMM                                               :          
NPHI        .%                                                  :          
RHOB        .G/C3                                               :          
SFL         .OHMM                                               :          
SP          .MV                                                 :          
SP_NORM     .MV                                                 :SP Normalized
VSH_GR      .V/V                                                :Volume of Shale from GR
VSH_SP      .V/V                                                :Volume of Shale from SP
~A        DEPTH           CALI           DRHO             DT             GR           GR_1        GR_NORM            ILD           NPHI           RHOB            SFL             SP        SP_NORM         VSH_GR         VSH_SP
# ...
      9435.0000        13.5853         0.0471        92.8379        75.9243        -999.25       67.28578         0.9262        28.5254         2.3582         0.9106       -55.6033      -10.75481      0.7294847      0.8346642
      9435.5000         13.534         0.0433        92.1887        78.6725        -999.25       71.01826         0.9308        27.6987         2.3591         0.9711       -56.3133      -11.46482      0.8088991      0.8226302
      9436.0000        13.4837         0.0513        91.4923        83.4473        -999.25        77.5121         0.9346        27.2501         2.3624         1.0572       -56.0546      -11.20612      0.9470659       0.827015
      9436.5000        13.4526         0.0598        90.8506        86.7589        -999.25       82.01224         0.9352        27.4712          2.371         1.1364       -56.3263      -11.47782              1      0.8224099
      9437.0000         13.522          0.064        91.1542         86.814        -999.25       82.07515         0.9273        28.4809         2.3782         1.1093         -54.46      -9.611515              1      0.8540421
      9437.5000        13.5358         0.0705        92.7313        86.2325        -999.25       81.27064          0.903        29.7484         2.3881         1.0027       -51.4193      -6.570816              1      0.9055794
      9438.0000        13.5657         0.0814        94.6914         85.795        -999.25       80.66232         0.8715        30.7992         2.4081         0.9173       -49.3437      -4.495216              1      0.9407591
      9438.5000        13.5621          0.096        93.8861        87.1914        -999.25       82.55287         0.8406        31.8144         2.4275         0.9642       -50.2586      -5.410114              1      0.9252523
      9439.0000        13.4244         0.1053        92.1887         89.045        -999.25       85.06637           0.81        32.9068         2.4063         0.9802        -49.248      -4.399517              1      0.9423811
      9439.5000        13.4729         0.0958        93.9728        90.6465        -999.25       87.23637         0.7803        34.2901         2.3999         0.9124       -48.8296      -3.981117              1      0.9494726
      9440.0000        13.5535            0.1        97.5758        90.3492        -999.25       86.81908         0.7552        35.7239         2.4209         0.7994        -48.711      -3.862514              1      0.9514828
      9440.5000        13.5744         0.1074        101.942        90.4265        -999.25       86.91225         0.7339        36.2181         2.4055          0.663       -46.3462      -1.497715              1      0.9915642
      9441.0000        13.5206         0.0894       104.6901        92.2207        -999.25       89.34482         0.7168        35.1064         2.3854         0.6829       -46.4107      -1.562218              1      0.9904709
      9441.5000        13.6318         0.0751       103.9343        93.7981        -999.25       91.48197         0.7107        33.9398         2.3589         0.7616       -47.6743      -2.825817              1      0.9690539
      9442.0000        13.7249         0.0626       102.0089        93.7878        -999.25       91.45576         0.7133        33.5202         2.3391         0.8278       -48.6534      -3.804916              1       0.952459
      9442.5000        13.5789         0.0521       100.9087        93.8796        -999.25       91.56867         0.7271        34.0675         2.3465         0.8545       -47.5677      -2.719215              1      0.9708608
      9443.0000        13.3485         0.0442       100.6711        94.1101        -999.25       91.87057         0.7434        35.8701         2.3516          0.761       -46.5074      -1.658916              1      0.9888319
      9443.5000        13.3793         0.0398       100.9155        94.7787        -999.25       92.76942          0.763        36.2996         2.3552         0.7644       -46.2644      -1.415916              1      0.9929506
      9444.0000        13.4061         0.0388       100.6385        95.8191        -999.25       94.17488         0.7797        35.9866         2.3664         0.8535       -46.7827      -1.934216              1      0.9841658
      9444.5000        13.3521         0.0401        99.4368        97.2068        -999.25       96.05355         0.7873        35.1102         2.3669         0.9583       -46.8745      -2.026016              1      0.9826099
      9445.0000        13.2872          0.044         98.012        96.2776        -999.25       94.77528         0.7838        35.2326         2.3717          1.034       -47.5925      -2.744015              1      0.9704404
      9445.5000        13.3333         0.0479        97.1396        95.3434        -999.25       93.49019         0.7779        36.2552         2.3743         0.9958       -46.1912      -1.342716              1      0.9941912
      9446.0000        13.3891         0.0532        98.8098        94.4017        -999.25       92.19487          0.771        37.7899         2.3753          0.886       -45.8316     -0.9831161              1              1
      9446.5000         13.458         0.0586       101.2878        94.0205        -999.25       91.66328         0.7636        39.0493         2.3731         0.7857       -47.2577      -2.409218              1      0.9761149
      9447.0000        13.5285         0.0671       103.5155        94.8849        -999.25       92.82893         0.7552        39.2808         2.3912         0.7349       -46.1962      -1.347717              1      0.9941065
      9447.5000        13.4568         0.0747       105.0656        96.2368        -999.25       94.65883         0.7459        38.9261         2.3992         0.7804       -45.5923     -0.7438164              1              1
      9448.0000        13.3261         0.0771       103.8848        96.5358        -999.25       95.05406         0.7382        38.2397         2.3995         0.8233       -46.2953      -1.446815              1      0.9924269
      9448.5000        13.3327         0.0773       102.7003        95.8994        -999.25       94.17474         0.7374        38.2203         2.4007         0.8379       -45.8267     -0.9782143              1              1
      9449.0000        13.2442         0.0814       101.9402        94.5735        -999.25       92.35593         0.7556        38.9328         2.4045         0.8372       -44.9189     -0.0704155              1              1
      9449.5000        13.1471         0.0872       101.8453        93.0092        -999.25       90.21228         0.7742        38.0037         2.4107         0.8348       -47.7338      -2.885315              1      0.9680455
      9450.0000        13.1213         0.0953       102.0343        91.1506        -999.25       87.66764         0.7841        36.4496         2.4169         0.8341       -50.0726      -5.224117              1      0.9284048
      9450.5000        13.1374         0.1028       101.6477        91.1654        -999.25       87.67563         0.7898        36.0009         2.4238         0.8389       -49.2219      -4.373417              1      0.9428235
      9451.0000        13.1535            0.1       101.1968        92.1331        -999.25       88.98201         0.7832        35.8803         2.4079         0.8565       -47.8188      -2.970318              1      0.9666048
      9451.5000        13.1089         0.0935       100.7148        93.0153        -999.25       90.17191         0.7739        36.4155         2.3932         0.8975       -46.9973      -2.148815              1      0.9805285
      9452.0000        13.0777         0.0865       100.6398        92.6051        -999.25       89.60081         0.7616        38.4727         2.3672         0.8555       -45.7745     -0.9260178              1              1
      9452.5000        13.1832          0.074       101.5914        91.9501        -999.25       88.69615         0.7474        39.8263         2.3629         0.7843       -44.8929    -0.04441452              1              1
