#------------------------------------------------------------------------------
# Created by    : vladimir.rabinovich
# Created on    : 09/19/2023 17:22:33
#------------------------------------------------------------------------------
~Version Information Section
VERS.           2.0     :   CWLS log ASCII Standard - VERSION 2.0
WRAP.           NO      :   One line per depth step
~Well Information Section
#MNEM       .UNIT                                         VALUE :DESCRIPTION
#------------------------------------------------------------------------------
STRT        .FT                                            2877 :START DEPTH
STOP        .FT                                            8775 :STOP DEPTH
STEP        .FT                                             0.5 :STEP      
NULL        .                                           -999.25 :NULL      
COMP        .                                       APACHE CORP :COMPANY   
WELL        .                                  HIGH ISLAND 10-L :WELL      
FLD         .                                           WILDCAT :FIELD     
LOC         .                                                   :LOCATION  
CNTY        .                           HIGH ISLAND LARGE BLOCK :LOCATION  
STAT        .                                             TEXAS :STATE     
CTRY        .                                     UNITED STATES :COUNTRY   
SRVC        .                                                   :SERVICE COMPANY
DATE        .                             9/13/2023 11:19:15 AM :LOG DATE  
API         .                                    42708303590000 :API NUMBER
UWI         .                                    42708303590000 :UNIQUE WELL ID
XCOORD      .                                  1323081.96300683 :SURFACE X 
YCOORD      .                                  10736101.4448574 :SURFACE Y 
LAT         .                                        29.5789626 :LATITUDE  
LON         .                                       -93.9986282 :LONGITUDE 
ELEV        .FT                                             100 :ELEVATION VALUE
ELEV_TYPE   .                                                KB :ELEVATION REFERENCE TYPE
~Curve Information Section
#MNEM       .UNIT                                      API CODE :CURVE DESCRIPTION
#------------------------------------------------------------------------------
DEPT        .FT                                                 :DEPTH     
CNCSS       .%                                                  :          
DCAL        .IN                                                 :          
GRR         .GAPI                                               :          
ILD         .OHMM                                               :          
ILM         .OHMM                                               :          
PORZSS      .%                                                  :          
RFOC        .OHMM                                               :          
SP          .MV                                                 :          
SP_NORM     .MV                                                 :SP Normalized
TENR        .LB                                                 :          
VSH_SP      .V/V                                                :Volume of Shale from SP
ZCOR        .G/CM3                                              :          
~A        DEPTH          CNCSS           DCAL            GRR            ILD            ILM         PORZSS           RFOC             SP        SP_NORM           TENR         VSH_SP           ZCOR
# ...
      5296.0000        37.7822          -0.04        36.5281         0.2367         0.2293          35.22          0.733       -93.8614      -89.21024           1230    0.008974596         -0.029
      5296.5000        38.5545          -0.03        38.9548         0.2314         0.2282          35.52         0.7364       -93.0693      -88.41814           1210     0.01797572        -0.0251
      5297.0000        37.1287          -0.02        38.9609         0.2303         0.2272          35.58         0.7229       -92.2772      -87.62604           1220     0.02697685        -0.0252
      5297.5000          35.58          -0.04        37.7603         0.2303         0.2262           35.7         0.6937       -91.2871      -86.63594           1220     0.03822795        -0.0213
      5298.0000        36.3564          -0.04        36.7128         0.2314         0.2252           35.7         0.6751        -90.495      -85.84384           1220     0.04722907        -0.0194
      5298.5000        37.6634          -0.02        35.6674         0.2324         0.2241          35.58         0.6659        -90.099      -85.44784           1230     0.05172912        -0.0195
      5299.0000        38.0792          -0.02        36.4286         0.2324         0.2231          35.22         0.6781        -90.099      -85.44784           1230     0.05172912        -0.0216
      5299.5000           35.4          -0.02         37.639         0.2324         0.2221          34.98          0.672        -90.099      -85.44784           1250     0.05172912        -0.0117
      5300.0000          35.16          -0.02        36.7459         0.2314         0.2211          35.04         0.6307        -90.099      -85.44784           1250     0.05172912        -0.0019
      5300.5000        37.3069          -0.01          35.55         0.2293         0.2201          35.22         0.6082        -90.297      -85.64584           1250     0.04947914        -0.0218
      5301.0000        38.1386          -0.02           34.5         0.2272         0.2191          34.92         0.6222        -90.297      -85.64584           1250     0.04947914        -0.0277
      5301.5000        37.1881          -0.02          34.35         0.2252         0.2171          34.38         0.6569        -89.901      -85.24984           1240      0.0539791        -0.0337
      5302.0000          35.22          -0.02          35.25         0.2231         0.2171           33.9         0.6165       -88.9109      -84.25974           1240     0.06523028        -0.0297
      5302.5000          33.18          -0.01          36.15         0.2201         0.2171           33.9         0.5865       -87.3267      -82.67554           1250     0.08323253        -0.0257
      5303.0000          33.06          -0.02           36.9         0.2201         0.2201          33.96         0.5655       -85.3465      -80.69534           1250      0.1057348        -0.0238
      5303.5000          35.16          -0.02          37.05         0.2201         0.2282          34.08         0.5477       -83.3663      -78.71514           1250       0.128237        -0.0257
      5304.0000        37.5446          -0.02             36         0.2282         0.2367          34.08         0.5209       -80.5941      -75.94294           1240      0.1597393        -0.0277
      5304.5000        39.2079              0           34.8         0.2356         0.2455          33.72         0.5162          -77.4      -72.74884           1230      0.1960359        -0.0277
      5305.0000        39.7426              0          35.25         0.2455         0.2535          33.18         0.5527            -74      -69.34884           1240      0.2346723        -0.0139
      5305.5000        40.1584           0.02           36.9         0.2489         0.2581          32.94         0.5973          -71.6      -66.94884           1240       0.261945         -0.002
      5306.0000         40.396           0.05           40.2          0.257         0.2629          32.94         0.6193          -70.6      -65.94884           1240      0.2733087         -0.002
      5306.5000        41.5842           0.13           43.5         0.2689         0.2714          33.12         0.6278          -70.6      -65.94884           1240      0.2733087        -0.0059
      5307.0000          43.38           0.14           44.7         0.2789         0.2853          33.06          0.625          -71.6      -66.94884           1230       0.261945        -0.0059
      5307.5000           42.3           0.16           43.8         0.2893         0.2986          32.82         0.6364          -73.4      -68.74884           1230      0.2414905         -0.004
      5308.0000        39.0297           0.17          42.75         0.2973         0.3085          32.64          0.669            -76      -71.34884           1240       0.211945          0.002
      5308.5000        37.1287           0.17          43.05         0.2973         0.3056          32.76         0.6905            -79      -74.34884           1250      0.1778541          0.016
      5309.0000          35.58           0.14          43.05         0.2906         0.2906          33.24          0.733       -81.1881      -76.53694           1250      0.1529893          0.022
      5309.5000           34.8           0.12          42.45         0.2726         0.2764          33.54         0.7818       -84.1584      -79.50724           1240      0.1192359           0.02
      5310.0000          35.04           0.11           41.1          0.257         0.2617           33.6            0.8       -86.5347      -81.88354           1230     0.09223253         -0.002
      5310.5000          35.88           0.11           38.4         0.2444         0.2455          33.42         0.7605       -88.3168      -83.66564           1230     0.07198134        -0.0356
      5311.0000        36.4752            0.1           37.5         0.2303         0.2303           33.3         0.7065       -88.5149      -83.86374           1230     0.06973024        -0.0515
      5311.5000        36.4158           0.11          38.25         0.2191         0.2171          33.36         0.6569       -87.9208      -83.26964           1220     0.07648139        -0.0574
      5312.0000         36.297           0.11             39         0.2181         0.2103          33.42         0.6193       -86.5347      -81.88354           1220     0.09223253        -0.0574
      5312.5000        36.0594           0.12          40.05         0.2211         0.2151          33.24         0.5919       -84.3564      -79.70524           1220      0.1169859        -0.0554
      5313.0000         36.297           0.13          40.65         0.2262         0.2346          32.64         0.5629       -81.5842      -76.93304           1230      0.1484882        -0.0475
      5313.5000        37.5446           0.13          41.55         0.2346         0.2558          31.98         0.5477            -76      -71.34884           1230       0.211945        -0.0356
      5314.0000        38.8515           0.14          43.65         0.2433         0.2815          31.26         0.5785          -69.2      -64.54884           1230      0.2892178        -0.0198
      5314.5000        39.2673           0.18        47.5248         0.2523         0.2986          30.36         0.6451            -62      -57.34884           1230      0.3710359        -0.0099
      5315.0000        38.3762           0.17        53.7624         0.2629         0.3014          29.88         0.7364          -57.4      -52.74884           1230      0.4233086        -0.0139
      5315.5000        36.6535           0.18        56.1386         0.2751            0.3           30.6         0.8183          -65.8      -61.14884           1240      0.3278541        -0.0198
      5316.0000          32.94           0.19         49.901         0.2879         0.2946          30.36         0.8371          -73.4      -68.74884           1250      0.2414905        -0.0218
