#------------------------------------------------------------------------------
# Created by    : vladimir.rabinovich
# Created on    : 09/19/2023 17:21:35
#------------------------------------------------------------------------------
~Version Information Section
VERS.           2.0     :   CWLS log ASCII Standard - VERSION 2.0
WRAP.           NO      :   One line per depth step
~Well Information Section
#MNEM       .UNIT                                         VALUE :DESCRIPTION
#------------------------------------------------------------------------------
STRT        .FT                                            3376 :START DEPTH
STOP        .FT                                            7813 :STOP DEPTH
STEP        .FT                                             0.5 :STEP      
NULL        .                                           -999.25 :NULL      
COMP        .                                MARINER ENERGY INC :COMPANY   
WELL        .                               OCS G27491 ST00BP00 :WELL      
FLD         .                                           WILDCAT :FIELD     
LOC         .                                                   :LOCATION  
CNTY        .                             GALVESTON LARGE BLOCK :LOCATION  
STAT        .                                             TEXAS :STATE     
CTRY        .                                     UNITED STATES :COUNTRY   
SRVC        .                                                   :SERVICE COMPANY
DATE        .                             9/13/2023 11:19:33 AM :LOG DATE  
API         .                                    42706404580000 :API NUMBER
UWI         .                                    42706404580000 :UNIQUE WELL ID
XCOORD      .                                  1038987.60828679 :SURFACE X 
YCOORD      .                                  10490484.8642062 :SURFACE Y 
LAT         .                                         28.893877 :LATITUDE  
LON         .                                         -94.87996 :LONGITUDE 
ELEV        .FT                                             110 :ELEVATION VALUE
ELEV_TYPE   .                                                KB :ELEVATION REFERENCE TYPE
~Curve Information Section
#MNEM       .UNIT                                      API CODE :CURVE DESCRIPTION
#------------------------------------------------------------------------------
DEPT        .FT                                                 :DEPTH     
CALI        .IN                                                 :          
DPSS        .%                                                  :          
DRHO        .G/CM3                                              :          
GR          .GAPI                                               :          
GR_NORM     .GAPI                                               :GammaRay Normalized
M2R1        .OHMM                                               :          
M2R2        .OHMM                                               :          
M2R3        .OHMM                                               :          
M2R6        .OHMM                                               :          
M2R9        .OHMM                                               :          
M2RX        .OHMM                                               :          
NPSS        .%                                                  :Neutron Porosity Sandstone
SP          .MV                                                 :          
SP_NORM     .MV                                                 :SP Normalized
TENS        .LB                                                 :          
VSH_GR      .V/V                                                :Volume of Shale from GR
VSH_SP      .V/V                                                :Volume of Shale from SP
~A        DEPTH           CALI           DPSS           DRHO             GR        GR_NORM           M2R1           M2R2           M2R3           M2R6           M2R9           M2RX           NPSS             SP        SP_NORM           TENS         VSH_GR         VSH_SP
# ...
      4081.0000        16.1058        60.6122         -0.032           36.4       41.42134          0.611         0.5892         0.5186         0.4729         0.4556         0.4472        51.6471          -80.4      -36.08862        20.4082      0.1791775      0.2072413
      4081.5000        16.6827        60.9796         -0.036           36.2       41.16176         0.5946         0.5785         0.5186         0.4729         0.4556         0.4472        51.0588          -80.4      -36.08862        20.4082      0.1736544      0.2072413
      4082.0000        16.9904        60.8571         -0.032             36       40.90217         0.5838         0.5733         0.5329         0.4862         0.4685         0.4556        52.9412          -80.4      -36.08862        20.4082      0.1681313      0.2072413
      4082.5000        17.2981        60.7347         -0.036             35       39.61041         0.5892         0.5838         0.5428            0.5         0.4817         0.4685          55.56          -80.8      -36.48862        20.4082       0.140647       0.197939
      4083.0000        17.4135        60.8571          -0.04           33.6       37.80254         0.6055            0.6         0.5629         0.5233         0.5046         0.4862           56.4          -80.8      -36.48862        20.4082      0.1021818       0.197939
      4083.5000        16.9519        62.0816         -0.056           33.4       37.54296         0.6393         0.6335         0.5946         0.5578         0.5329         0.5092        52.5882          -81.2      -36.88862        20.4082     0.09665874      0.1886368
      4084.0000        16.3365        59.6327         -0.076           34.2       38.57361         0.6812         0.6751         0.6393         0.5892         0.5785         0.5477        46.6531          -81.2      -36.88862        20.4082      0.1185874      0.1886368
      4084.5000        15.6301        47.6327         -0.072           35.6       40.37839         0.7189         0.7254            0.7         0.6393         0.6165         0.5946        39.5769            -82      -37.68862        20.4082       0.156987      0.1700321
      4085.0000        15.7117          33.24         -0.004             37       42.18319         0.7384         0.7652         0.7189         0.6629         0.6335         0.6222        36.1154          -82.4      -38.08862        20.4082      0.1953869      0.1607297
      4085.5000        16.6827          19.92           0.04           38.4       43.98798         0.7189         0.7652         0.7126         0.6451         0.6278         0.6165          34.32          -83.2      -38.88862        20.4082      0.2337867      0.1421251
      4086.0000         18.195        17.5294           0.02           38.8       44.50253         0.6874         0.7254          0.669         0.6165         0.6055         0.5838          35.04          -83.2      -38.88862        20.4082      0.2447346      0.1421251
      4086.5000        19.9158           22.2         -0.004           37.6       42.95271         0.6569         0.6751         0.6335         0.5785         0.5681         0.5477        36.4615          -83.6      -39.28862        20.4082      0.2117598      0.1328228
      4087.0000        20.6505        27.7959          0.024           36.4        41.4029         0.6393         0.6335         0.6055         0.5378         0.5329         0.5186        37.9615          -84.4      -40.08862        20.4082      0.1787851      0.1142181
      4087.5000        20.4464          32.64          0.052           38.6       44.23987          0.669         0.6335         0.5838         0.5139         0.5092         0.4908             39          -84.8      -40.48862        20.4082      0.2391461      0.1049157
      4088.0000         19.075          33.84          0.076           40.4       46.56075         0.7652         0.6629         0.5785         0.5139            0.5         0.4908        37.0385          -84.8      -40.48862        20.4082      0.2885266      0.1049157
      4088.5000        17.0673          34.32           0.08           38.8       44.49484         0.8825         0.6812         0.5733         0.5139         0.4954         0.4908          33.72          -85.6      -41.28862        20.4082      0.2445711     0.08631116
      4089.0000        15.7934           34.2          0.052           35.6       40.36457         0.9372         0.6751         0.5578         0.4773         0.4729         0.4472          31.56          -86.4      -42.08862        20.4082      0.1566929     0.06770644
      4089.5000        15.2628             33          0.024           32.2       35.97624         0.9222         0.5946         0.4954         0.4349          0.419         0.4037          31.44          -87.2      -42.88862        20.4082      0.0633243      0.0491019
      4090.0000        15.2219           31.8          0.012           30.8       34.16838          0.772         0.5186          0.439         0.3887         0.3705           0.36          32.04          -88.8      -44.48862        20.4082     0.02485908     0.01189245
      4090.5000        15.2215           31.8          0.012         31.194        34.6752         0.6569         0.4514         0.3849         0.3464         0.3366         0.3239          32.76          -89.2      -44.88862        20.4082      0.0356425    0.002590268
      4091.0000        15.3026          32.52           0.02         31.184       34.66076         0.5946          0.419         0.3497         0.3178         0.3058         0.2946          35.04            -90      -45.68862        20.4082     0.03533522              0
      4091.5000        15.1384          33.12          0.028         31.374       34.90436         0.5527         0.3887         0.3302         0.3029         0.2946         0.2868           37.5          -90.4      -46.08862        20.4082     0.04051834              0
      4092.0000        14.8099          33.36          0.032         32.164       35.92211         0.5329         0.3813         0.3239         0.2973         0.2894         0.2817        37.7308          -90.4      -46.08862        20.4082     0.06217251              0
      4092.5000        14.6857          33.12           0.02         33.554         37.714         0.5378         0.3849         0.3239         0.2973         0.2894         0.2817        37.2692          -90.4      -46.08862        20.4082      0.1002978              0
      4093.0000        14.7256          32.88          0.004         35.544       40.28002         0.5477         0.3924         0.3302            0.3          0.292         0.2842        36.6923          -90.4      -46.08862        20.4082       0.154894              0
      4093.5000        14.8888          32.76         -0.012         37.134       42.32995         0.5578            0.4         0.3334         0.3029         0.2946         0.2894             36          -90.4      -46.08862        20.4082      0.1985095              0
      4094.0000        15.0112           32.4         -0.012         38.324       43.86378         0.5733         0.4037         0.3366         0.3088            0.3          0.292           34.8            -90      -45.68862        20.4082      0.2311444              0
      4094.5000        15.1338          31.92         -0.008         37.514       42.81716         0.5733         0.4037         0.3398         0.3088            0.3          0.292        36.3462            -90      -45.68862        20.4082      0.2088758              0
      4095.0000        15.4216          31.44         -0.008         37.504       42.80273         0.5733         0.4037         0.3398         0.3088            0.3         0.2946             39            -90      -45.68862        20.4082      0.2085687              0
      4095.5000        15.7925          30.84         -0.008         38.094       43.56243         0.5629         0.4037         0.3398         0.3088            0.3         0.2946        41.1923          -89.6      -45.28862        20.4082      0.2247325              0
