#------------------------------------------------------------------------------
# Created by    : vladimir.rabinovich
# Created on    : 09/19/2023 17:22:39
#------------------------------------------------------------------------------
~Version Information Section
VERS.           2.0     :   CWLS log ASCII Standard - VERSION 2.0
WRAP.           NO      :   One line per depth step
~Well Information Section
#MNEM       .UNIT                                         VALUE :DESCRIPTION
#------------------------------------------------------------------------------
STRT        .FT                                            2600 :START DEPTH
STOP        .FT                                            8208 :STOP DEPTH
STEP        .FT                                             0.5 :STEP      
NULL        .                                           -999.25 :NULL      
COMP        .                          SEAGULL ENERGY E & P INC :COMPANY   
WELL        .                               OCS G09039 ST00BP00 :WELL      
FLD         .                              GALVESTON BLOCK 0273 :FIELD     
LOC         .                                                   :LOCATION  
CNTY        .                             GALVESTON LARGE BLOCK :LOCATION  
STAT        .                                             TEXAS :STATE     
CTRY        .                                     UNITED STATES :COUNTRY   
SRVC        .                                                   :SERVICE COMPANY
DATE        .                             9/13/2023 11:19:54 AM :LOG DATE  
API         .                                    42706403220000 :API NUMBER
UWI         .                                    42706403220000 :UNIQUE WELL ID
XCOORD      .                                  1018306.80056624 :SURFACE X 
YCOORD      .                                  10490966.5196098 :SURFACE Y 
LAT         .                                         28.894284 :LATITUDE  
LON         .                                        -94.944599 :LONGITUDE 
ELEV        .FT                                             103 :ELEVATION VALUE
ELEV_TYPE   .                                                KB :ELEVATION REFERENCE TYPE
~Curve Information Section
#MNEM       .UNIT                                      API CODE :CURVE DESCRIPTION
#------------------------------------------------------------------------------
DEPT        .FT                                                 :DEPTH     
DCAL        .IN                                                 :          
DPHI        .%                                                  :          
DTL         .US/F                                               :          
GR          .GAPI                                               :          
GR_1        .GAPI                                               :          
GR_NORM     .GAPI                                               :GammaRay Normalized
ILD         .OHMM                                               :          
ILM         .OHMM                                               :          
NPHI        .%                                                  :          
SFL         .OHMM                                               :          
SP          .MV                                                 :          
SP_NORM     .MV                                                 :SP Normalized
VSH_GR      .V/V                                                :Volume of Shale from GR
VSH_SP      .V/V                                                :Volume of Shale from SP
~A        DEPTH           DCAL           DPHI            DTL             GR           GR_1        GR_NORM            ILD            ILM           NPHI            SFL             SP        SP_NORM         VSH_GR         VSH_SP
# ...
      7838.0000         0.1172        21.0422       124.2339        79.4043        79.1046       86.99813         0.5962         0.6106        45.1568         0.7159       -41.7469     -0.6767167              1      0.9887214
      7838.5000         0.0888        21.3393       124.4989        76.1073        79.9031       83.48843         0.5946         0.6096        47.4359          0.693       -41.7686     -0.7019859              1      0.9883003
      7839.0000         0.0604        21.4883       124.3729         72.267         81.874       79.40023         0.5895         0.6027        47.5723         0.7003       -41.7757     -0.7115332      0.9872389      0.9881411
      7839.5000         0.0324        21.3491       124.0731        69.8893        85.1466       76.86941         0.5852         0.5959        46.8072         0.7498       -41.9067     -0.8545086      0.9333916      0.9857582
      7840.0000         0.0043        21.0785       123.8896        71.0707        88.0662        78.1284         0.5842          0.589        46.6293          0.769       -41.9703     -0.9249015      0.9601786       0.984585
      7840.5000        -0.0009        21.5782       123.9873        77.7795        88.3854       85.27302         0.5814         0.5809         47.731         0.7286       -41.9943     -0.9526479              1      0.9841225
      7841.0000         0.0269        22.1096       124.3723        81.6272        86.2169        89.3711         0.5752         0.5729        48.1873         0.6905       -42.3436       -1.33072              1      0.9778214
      7841.5000         0.0557        22.0837       124.9695         83.884        83.5521       91.77518         0.5648         0.5651        47.6361         0.6914       -42.9003      -1.932138              1      0.9677977
      7842.0000         0.1028        21.9712        125.561        85.1198        81.7657       93.09207         0.5572         0.5575        48.1091         0.6885       -43.0493      -2.094504              1      0.9650916
      7842.5000         0.1444        21.8837       126.1401        85.2345        81.7854       93.21521         0.5438           0.55        48.7048         0.6766       -43.0882      -2.138293              1      0.9643618
      7843.0000         0.1844        22.3196       126.6843        81.7802         84.994       89.53802         0.5289         0.5422        48.9549         0.6645       -43.1502      -2.206964              1      0.9632173
      7843.5000         0.2371        22.4896       127.2323        79.0474        87.4546       86.62909         0.5202         0.5325        49.1249         0.6568       -43.4547      -2.536786              1      0.9577202
      7844.0000         0.2722        22.5647       127.7617        77.6661        88.1971       85.15926         0.5124         0.5229        50.8657         0.6515       -43.7014      -2.804365              1      0.9532606
      7844.5000         0.2913         22.928       128.0808         75.942        85.3237       83.32442         0.5079         0.5165        54.2955         0.6505       -43.5157      -2.606279              1       0.956562
      7845.0000         0.3138        22.8423       127.9708        73.5496        82.6541       80.77795         0.5043         0.5109        54.8293         0.6483       -43.2731       -2.34692              1      0.9608847
      7845.5000         0.4109        22.3626          127.6        72.2657        82.3942       79.41183         0.5016          0.507        52.9506         0.6394       -42.7986      -1.837816      0.9874857      0.9693698
      7846.0000         0.4985        22.3166       127.5253        72.4729        82.3047       79.63345         0.4995         0.5055        51.1727         0.6341       -42.3904      -1.400118      0.9922011      0.9766647
      7846.5000         0.5268        23.5593       127.9446        74.1563        80.4536       81.42696         0.4983          0.504        51.6071         0.6348       -42.8245       -1.86951              1      0.9688415
      7847.0000         0.5518        24.4458       128.5715        75.9592        80.0975       83.34772         0.4971         0.5067        53.8848         0.6578       -43.3055      -2.389411              1      0.9601765
      7847.5000         0.3888        24.4268        129.281        77.2892        82.2972       84.76492         0.4966         0.5113        54.9517         0.6708        -43.623      -2.733237              1      0.9544461
      7848.0000         0.2713        23.8929       129.5654        76.3193        85.5649       83.73315         0.4962         0.5171        54.2006         0.6466       -43.8041      -2.930165              1      0.9511639
      7848.5000         0.2958        23.3495       129.5662        73.3744        90.4073       80.59838         0.4955         0.5254        51.7228         0.6341       -43.8379      -2.968465              1      0.9505256
      7849.0000         0.3647        22.9291       129.2458        70.9524        91.5885       78.02041         0.4946          0.533        49.8455         0.6484       -43.5974      -2.711365       0.957881      0.9548106
      7849.5000         0.4407        22.6299       128.8611        69.6464        90.7937       76.63074         0.4948         0.5384        48.7601         0.6797       -43.3085      -2.402142      0.9283137      0.9599643
      7850.0000         0.4777        22.7169       128.7305        69.8153        88.0156        76.8116         0.4976         0.5391        48.1855         0.6992       -43.1158      -2.196517      0.9321617      0.9633914
      7850.5000         0.1683        23.2071       129.3652        70.6438        84.8661       77.69479         0.5007         0.5304        48.0495         0.7031       -42.8796      -1.944052      0.9509531      0.9675992
      7851.0000         0.0985        23.4829            130        71.5592         82.686       78.67052         0.5067         0.5225        48.4257         0.6695        -43.043      -2.121918      0.9717133      0.9646347
      7851.5000         0.1312        23.2839       129.7998        72.8889        81.4668       80.08741         0.5126         0.5162        48.9091         0.6342       -43.0618      -2.144065              1      0.9642656
      7852.0000          0.191        22.7311       129.5999        74.5396        80.8221        81.8461         0.5181         0.5103        49.4896         0.6254       -42.8774      -1.947379              1      0.9675437
      7852.5000         0.2044        22.2062       129.3997        75.5005        80.5145       82.87029         0.5201         0.5133        49.4771         0.6403       -42.9126      -1.987191              1      0.9668801
      7853.0000         0.2135        21.9189       129.1997        75.9834         80.354       83.38548         0.5229         0.5182        49.0745         0.6631       -43.2441      -2.346086              1      0.9608986
      7853.5000         0.1717        22.1525       128.2627        76.8241        79.9387       84.28166         0.5269           0.53        48.5008          0.689       -43.5784      -2.708005              1      0.9548666
      7854.0000         0.1425        22.4375       127.9141         77.705        79.1133       85.22066         0.5351         0.5424        48.9143         0.6909       -43.8076      -2.956732              1      0.9507211
      7854.5000         0.1863        22.7712       127.8615        77.4718        77.2654       84.97335         0.5411         0.5554        50.4327         0.6754       -44.0508      -3.220544              1      0.9463243
      7855.0000          0.226        23.0718       128.1833        74.7715        74.4185       82.09902         0.5426         0.5618        51.5545         0.6731       -44.2941      -3.484459              1      0.9419257
      7855.5000         0.2568        23.3069       128.4324        72.7533        73.1899       79.95102         0.5436         0.5651        51.8344         0.6848       -43.9413       -3.10642      0.9989579      0.9482263
