#------------------------------------------------------------------------------
# Created by    : vladimir.rabinovich
# Created on    : 09/19/2023 17:21:35
#------------------------------------------------------------------------------
~Version Information Section
VERS.           2.0     :   CWLS log ASCII Standard - VERSION 2.0
WRAP.           NO      :   One line per depth step
~Well Information Section
#MNEM       .UNIT                                         VALUE :DESCRIPTION
#------------------------------------------------------------------------------
STRT        .FT                                            4200 :START DEPTH
STOP        .FT                                            8641 :STOP DEPTH
STEP        .FT                                             0.5 :STEP      
NULL        .                                           -999.25 :NULL      
COMP        .                                       HUNT OIL CO :COMPANY   
WELL        .                               OCS G25526 ST00BP00 :WELL      
FLD         .                                           WILDCAT :FIELD     
LOC         .                                                   :LOCATION  
CNTY        .                             GALVESTON LARGE BLOCK :LOCATION  
STAT        .                                             TEXAS :STATE     
CTRY        .                                     UNITED STATES :COUNTRY   
SRVC        .                                                   :SERVICE COMPANY
DATE        .                             9/13/2023 11:19:33 AM :LOG DATE  
API         .                                    42706404520000 :API NUMBER
UWI         .                                    42706404520000 :UNIQUE WELL ID
XCOORD      .                                  1090250.84236946 :SURFACE X 
YCOORD      .                                  10532258.5226608 :SURFACE Y 
LAT         .                                         29.010895 :LATITUDE  
LON         .                                        -94.721682 :LONGITUDE 
ELEV        .FT                                             108 :ELEVATION VALUE
ELEV_TYPE   .                                                KB :ELEVATION REFERENCE TYPE
~Curve Information Section
#MNEM       .UNIT                                      API CODE :CURVE DESCRIPTION
#------------------------------------------------------------------------------
DEPT        .FT                                                 :DEPTH     
CALI        .IN                                                 :          
DCAL        .IN                                                 :          
DFL         .OHMM                                               :          
DLOD        .LB                                                 :          
DPHI        .DEC                                                :          
DRHO        .G/C3                                               :          
GR          .GAPI                                               :          
GR_NORM     .GAPI                                               :GammaRay Normalized
HDCN        .MMHO                                               :          
HO24        .OHMM                                               :          
HO30        .OHMM                                               :          
HO40        .OHMM                                               :          
HO60        .OHMM                                               :          
HO90        .OHMM                                               :          
HT24        .OHMM                                               :          
HT30        .OHMM                                               :          
HT40        .OHMM                                               :          
HT60        .OHMM                                               :          
HT90        .OHMM                                               :          
NPHI        .DEC                                                :          
RHOB        .G/C3                                               :          
RWA         .OHMM                                               :          
SP_NORM     .MV                                                 :SP Normalized
SPA         .MV                                                 :          
TENS        .LBS                                                :          
VSH_GR      .V/V                                                :Volume of Shale from GR
VSH_SP      .V/V                                                :Volume of Shale from SP
~A        DEPTH           CALI           DCAL            DFL           DLOD           DPHI           DRHO             GR        GR_NORM           HDCN           HO24           HO30           HO40           HO60           HO90           HT24           HT30           HT40           HT60           HT90           NPHI           RHOB            RWA        SP_NORM            SPA           TENS         VSH_GR         VSH_SP
# ...
      7740.0000        16.0671         3.8171         0.6805       1408.254         0.2116        -0.0018        83.3736        83.7602       1567.162         0.6206         0.6288         0.6354          0.644         0.6548         0.6026         0.6111         0.6179         0.6268         0.6381         0.3792         2.3009         0.0648      -4.670179       150.6679       3858.554              1      0.9706986
      7740.5000        16.1595         3.9095         0.6389       1434.753         0.2136        -0.0058        85.8299       86.49801       1622.081         0.5767         0.5848         0.5912         0.5997         0.6104         0.5855          0.593         0.5989         0.6067         0.6165         0.3921         2.2976         0.0661      -3.636956       151.1235       3867.938              1      0.9888253
      7741.0000        15.9943         3.7443         0.6413       1414.369         0.2082         0.0015        84.5939       85.12037       1669.367         0.5698         0.5765         0.5819         0.5889         0.5977         0.5728         0.5791         0.5842         0.5908          0.599         0.4119         2.3064          0.067       -2.60401        151.579       3868.962              1              1
      7741.5000        16.4194         4.1694         0.6409       1444.944         0.1991         0.0091        84.5261        85.0448       1699.704         0.5753         0.5793         0.5824         0.5865         0.5916         0.5696         0.5741         0.5778         0.5825         0.5883         0.4224         2.3215         0.0691      -2.751628       151.5139       3869.133              1              1
      7742.0000        16.1562         3.9062         0.6107       1463.288         0.1916          0.013        86.3357       87.06178       1716.393         0.5682         0.5715         0.5742         0.5776         0.5819         0.5706         0.5735         0.5759         0.5789         0.5826         0.4131         2.3338         0.0639      -3.435807       151.2122       3860.602              1      0.9923543
      7742.5000        16.2755         4.0255         0.6186       1446.982         0.1911         0.0112        87.6604       88.53828       1718.895          0.575         0.5766         0.5778         0.5794         0.5813          0.574         0.5759         0.5774         0.5794         0.5818         0.3967         2.3348         0.0621      -3.878488        151.017       3851.389              1      0.9845879
      7743.0000          16.09           3.84         0.6268       1410.293         0.2025         0.0096        84.4948        85.0099       1713.049         0.5841          0.585         0.5858         0.5868          0.588         0.5752         0.5773          0.579         0.5811         0.5838         0.3907          2.316         0.0615      -3.623599       151.1294        3854.46              1      0.9890597
      7743.5000        16.2078         3.9578         0.6112       1444.944         0.2196         0.0111        78.5913       78.42986       1724.834         0.5804         0.5845         0.5878         0.5921         0.5975         0.5649         0.5686         0.5714         0.5752         0.5798         0.3986         2.2876         0.0679      -3.516329       151.1767       3862.137      0.9665928      0.9909416
      7744.0000        16.2912         4.0412         0.6227       1438.829         0.2336         0.0035        71.0816       70.05954       1772.205          0.547          0.553         0.5577          0.564         0.5718         0.5436         0.5486         0.5526         0.5578         0.5643         0.4092         2.2645         0.0758      -3.583459       151.1471       3877.322      0.7885008      0.9897639
      7744.5000        16.3718         4.1218         0.5838       1444.944         0.2269        -0.0024        70.0647       68.92609       1812.434         0.5084         0.5143         0.5191         0.5253         0.5331         0.5278         0.5336         0.5382         0.5442         0.5517         0.4128         2.2757         0.0691      -3.556469        151.159       3888.412       0.764385      0.9902374
      7745.0000         17.225          4.975         0.5917       1469.403         0.2095         0.0019        78.3619       78.17419        1787.24         0.5165         0.5246          0.531         0.5396         0.5504          0.533         0.5394         0.5445         0.5511         0.5595         0.4151         2.3044         0.0648      -3.475946       151.1945       3886.193      0.9611529        0.99165
      7745.5000        17.0979         4.8479         0.6028       1457.173         0.1942         0.0125         85.736       86.39334       1714.792          0.569         0.5771         0.5835         0.5919         0.6026         0.5561         0.5626         0.5678         0.5746         0.5832         0.4086         2.3295         0.0662      -2.885647       151.4548       3875.445              1              1
      7746.0000        16.6744         4.4244         0.6362        1449.02         0.1893         0.0242        89.4491       90.53197       1665.615         0.5961         0.6004         0.6038         0.6082         0.6138         0.5767         0.5825          0.587          0.593         0.6004         0.3919         2.3376         0.0603      -2.255208       151.7328       3866.573              1              1
      7746.5000        16.5002         4.2502         0.6473       1430.675         0.1911         0.0248        90.1375       91.29926       1663.257         0.5909         0.5948         0.5979         0.6019         0.6068         0.5784          0.584         0.5883         0.5941         0.6012         0.3794         2.3346         0.0587      -2.134338       151.7861       3870.498              1              1
      7747.0000         16.409          4.159          0.622       1426.599         0.1953         0.0232        87.5248       88.38715       1689.081         0.5695         0.5764         0.5819         0.5891         0.5982         0.5651         0.5716         0.5767         0.5835          0.592         0.3742         2.3278         0.0584      -2.724637       151.5258       3894.383              1              1
      7747.5000         16.272          4.022         0.6127       1475.518         0.2039         0.0155        83.7803       84.21352       1721.028         0.5477         0.5553         0.5615         0.5695         0.5797         0.5511         0.5583          0.564         0.5716          0.581         0.3832         2.3136         0.0586      -3.355319       151.2477       3909.738              1      0.9937663
      7748.0000        16.4995         4.2495         0.6034       1499.978         0.2041         0.0132        82.0907        82.3303       1733.923         0.5407          0.548         0.5538         0.5615         0.5711         0.5472         0.5543         0.5599         0.5674         0.5767         0.4033         2.3132         0.0636      -4.012749       150.9578       3910.079              1      0.9822325
      7748.5000        16.2901         4.0401         0.6146       1485.709         0.2012         0.0091        84.1089       84.57979       1717.191         0.5518         0.5589         0.5644         0.5718          0.581         0.5576         0.5636         0.5683         0.5746         0.5823         0.4155          2.318         0.0666      -4.012749       150.9578       3892.506              1      0.9822325
      7749.0000        16.2936         4.0436         0.6346       1420.484          0.197         0.0098        84.2601       84.74831        1695.42         0.5901         0.5937         0.5966         0.6003         0.6049         0.5741          0.578          0.581         0.5849         0.5898          0.414         2.3249         0.0647      -3.543077       151.1649        3862.82              1      0.9904723
      7749.5000         16.328          4.078         0.6056       1420.484         0.2029         0.0067        82.9199       83.25452       1702.241         0.6048         0.6042         0.6037         0.6031         0.6023         0.5779         0.5803         0.5821         0.5845         0.5875         0.4187         2.3153         0.0664      -3.435807       151.2122       3842.517              1      0.9923543
