#------------------------------------------------------------------------------
# Created by    : vladimir.rabinovich
# Created on    : 09/19/2023 17:20:32
#------------------------------------------------------------------------------
~Version Information Section
VERS.           2.0     :   CWLS log ASCII Standard - VERSION 2.0
WRAP.           NO      :   One line per depth step
~Well Information Section
#MNEM       .UNIT                                         VALUE :DESCRIPTION
#------------------------------------------------------------------------------
STRT        .FT                                             222 :START DEPTH
STOP        .FT                                            9192 :STOP DEPTH
STEP        .FT                                             0.5 :STEP      
NULL        .                                           -999.25 :NULL      
COMP        .                                      PAN AMERICAN :COMPANY   
WELL        .                                     ST TR 00060-L :WELL      
FLD         .                                           WILDCAT :FIELD     
LOC         .                                                   :LOCATION  
CNTY        .                             GALVESTON LARGE BLOCK :LOCATION  
STAT        .                                             TEXAS :STATE     
CTRY        .                                     UNITED STATES :COUNTRY   
SRVC        .                                                   :SERVICE COMPANY
DATE        .                             9/13/2023 11:19:24 AM :LOG DATE  
API         .                                    42706000830000 :API NUMBER
UWI         .                                    42706000830000 :UNIQUE WELL ID
XCOORD      .                                  1150669.84230747 :SURFACE X 
YCOORD      .                                  10684730.4394491 :SURFACE Y 
LAT         .                                        29.4325033 :LATITUDE  
LON         .                                       -94.5389235 :LONGITUDE 
ELEV        .FT                                              11 :ELEVATION VALUE
ELEV_TYPE   .                                                KB :ELEVATION REFERENCE TYPE
~Curve Information Section
#MNEM       .UNIT                                      API CODE :CURVE DESCRIPTION
#------------------------------------------------------------------------------
DEPT        .FT                                                 :DEPTH     
ASN         .OHMM                                               :          
CILD        .MMHO                                               :          
ILD         .OHMM                                               :          
SP          .MV                                                 :          
SP_NORM     .MV                                                 :SP Normalized
VSH_SP      .V/V                                                :Volume of Shale from SP
~A        DEPTH            ASN           CILD            ILD             SP        SP_NORM         VSH_SP
       222.0000         1.9665       197.6558         2.1949       -44.9181       6.062294              1
       222.5000         1.9625       195.4216         2.2124       -44.9456       6.034794              1
       223.0000         1.9586       193.1877         2.2263       -44.9683       6.012093              1
       223.5000         1.9577       190.9534         2.2409       -44.9734       6.006992              1
       224.0000          1.959       189.1738         2.2729       -44.9785       6.001892              1
       224.5000         1.9603       188.7373         2.3341       -44.9836       5.996792              1
       225.0000          1.975       188.3008         2.4236       -44.9526       6.027794              1
       225.5000         2.0094       187.8643         2.5493       -44.9034       6.076992              1
       226.0000         2.1605       187.4277         2.6699        -45.084       7.098839              1
       226.5000         2.3598       186.9915         2.7767       -46.5472       6.962418              1
       227.0000         2.5356       186.9377         2.8728       -49.0352       5.801193              1
       227.5000         2.6845       186.9377         3.0488       -52.1591        4.00407              1
       228.0000         2.8197       189.1089         3.3937       -54.7031       2.786846              1
       228.5000         2.9302       192.5547         3.5109       -58.5175      0.2992172              1
       229.0000         2.9976        200.822         3.6148       -62.8582      -2.714703      0.8991351
       229.5000         3.0014       229.4451         3.6589       -66.0099      -4.539631      0.7917864
       230.0000         2.9256       258.2734          3.703       -68.0886       -5.29155      0.7475559
       230.5000           2.83       362.7686         3.2691       -70.1906      -6.066772      0.7019545
       231.0000          2.737       385.8677         2.8186       -73.0306      -7.580002      0.6129411
       231.5000         2.6456       401.3115         2.6774       -75.0552      -8.296272      0.5708075
       232.0000         2.5809       412.6372         2.6003       -76.5677      -8.703133      0.5468745
       232.5000         2.5287        429.666          2.543        -77.926       -8.95578      0.5320129
       233.0000          2.496       457.9136         2.5175        -78.381       -8.30513      0.5702865
       233.5000         2.4711       471.5664         2.4967       -78.8273      -7.645782      0.6090716
       234.0000         2.4533       487.7837         2.4854       -79.0602      -6.773041      0.6604094
       234.5000         2.4489        482.084         2.4781       -79.2932      -5.900391      0.7117417
       235.0000         2.4608       470.5371         2.4722       -79.5261      -5.027641      0.7630799
       235.5000         2.4858       457.3696         2.4923        -79.759        -4.1549      0.8144177
       236.0000         2.5108       438.3003         2.5211       -80.2495      -3.539742      0.8506035
       236.5000         2.5541        419.231         2.5558       -80.7809      -3.653145      0.8439326
       237.0000         2.6126       400.1621         2.6266       -81.3124      -4.178925      0.8130044
       237.5000         2.6711       381.5366         2.6974       -81.9114      -4.772209      0.7781053
       238.0000         2.7507       368.5801         2.7795       -82.7175      -5.572594      0.7310239
       238.5000         2.8388       355.6235         2.8884       -83.5236      -6.372971      0.6839429
       239.0000          2.906       342.6665         2.9739       -84.3235       -7.16716      0.6372259
       239.5000         2.9702       334.4082         3.0307       -85.1219      -7.959846      0.5905973
       240.0000         2.9967       330.6445         3.0874       -85.9204      -8.752625      0.5439633
       240.5000         2.9801       326.8804         3.1442       -86.7518      -9.578308      0.4953936
       241.0000         2.9569       323.1167         3.2009       -87.5881      -10.40889      0.4465359
       241.5000         2.9336       319.3525         3.1999       -88.7051      -11.52017      0.3811663
       242.0000         2.9104       320.0894         3.1987       -89.1198      -11.92915      0.3571086
       242.5000         2.8893       321.1177         3.1975       -89.3474      -12.15104      0.3440565
       243.0000         2.8886       322.1455         3.2105       -89.5752      -12.37312      0.3309928
       243.5000         2.8879       323.1738         3.2267        -89.733      -12.52521      0.3220466
       244.0000         2.8872       324.2021          3.243        -89.889      -12.67549      0.3132064
       244.5000         2.8865         325.23         3.2449        -90.045      -12.82577      0.3043666
       245.0000         2.8858       326.2583         3.2263       -90.2009      -12.97595      0.2955322
       245.5000         2.8862       327.2861         3.2077       -90.3569      -13.12624      0.2866915
       246.0000         2.8869       329.0068         3.1891       -90.5129      -13.27652      0.2778518
       246.5000         2.8877        331.249         3.1705       -90.6688       -13.4267      0.2690174
       247.0000         2.8885       333.4907         3.1519       -90.8257      -13.57789      0.2601242
       247.5000         2.8892       335.7324         3.1314       -90.9915      -13.73797      0.2507077
       248.0000         2.8876       337.9746          3.106       -91.1571      -13.89785      0.2413029
       248.5000         2.8815       340.2163         3.0805       -91.3229      -14.05794       0.231886
       249.0000         2.8755        342.458          3.055       -91.4885      -14.21782      0.2224812
       249.5000         2.8747       344.9985         3.0387       -91.6543       -14.3779      0.2130648
       250.0000         2.8756       347.7441          3.026       -91.7361      -14.45399       0.208589
       250.5000         2.8766       350.4897         3.0277        -91.809      -14.52116      0.2046374
       251.0000         2.8775       353.2354         3.0421       -91.8818      -14.58825      0.2006912
       251.5000         2.8836       352.4355         3.0564        -91.792      -14.49274      0.2063096
       252.0000         2.8982       349.3154         3.0708       -91.4509      -14.14591       0.226711
       252.5000         2.9128       346.1958         3.0861       -91.1099       -13.7992      0.2471058
       253.0000         2.9274       343.0757         3.1076       -90.7687      -13.45229      0.2675126
       253.5000          2.942       339.9561         3.1291       -90.4276      -13.10547      0.2879136
       254.0000         2.9576       336.8359         3.1507       -90.0865      -12.75865      0.3083146
       254.5000         2.9734       335.6729         3.1722       -89.7374      -12.40383      0.3291864
       255.0000         2.9892       334.8867         3.1666       -89.3113      -11.97202      0.3545869
       255.5000          3.005       334.1011         3.1506       -88.8853       -11.5403      0.3799824
       256.0000         3.0208       333.3154         3.1346       -88.4591      -11.10838      0.4053892
       256.5000         3.0268       336.9556         3.1186        -88.033      -10.67657      0.4307902
       257.0000           3.03       341.3359         3.1025       -87.6068      -10.24464      0.4561974
       257.5000         3.0331       345.7158         3.0865       -87.2566      -9.888733      0.4771334
       258.0000         3.0363       352.5967         3.0691       -87.6029      -10.22932       0.457099
       258.5000         3.0183       362.3677         3.0508       -88.0054       -10.6261      0.4337589
       259.0000              3       372.1392         3.0324       -88.4077      -11.02268      0.4104305
       259.5000         2.9581       384.4463         2.9254       -88.6138      -11.22307       0.398643
