#------------------------------------------------------------------------------
# Created by    : vladimir.rabinovich
# Created on    : 09/19/2023 17:22:56
#------------------------------------------------------------------------------
~Version Information Section
VERS.           2.0     :   CWLS log ASCII Standard - VERSION 2.0
WRAP.           NO      :   One line per depth step
~Well Information Section
#MNEM       .UNIT                                         VALUE :DESCRIPTION
#------------------------------------------------------------------------------
STRT        .FT                                             890 :START DEPTH
STOP        .FT                                            9495 :STOP DEPTH
STEP        .FT                                             0.5 :STEP      
NULL        .                                           -999.25 :NULL      
COMP        .                                   MARATHON OIL CO :COMPANY   
WELL        .                               OCS G04138 ST00BP00 :WELL      
FLD         .                                           WILDCAT :FIELD     
LOC         .                                                   :LOCATION  
CNTY        .                      MATAGORDA ISLAND LARGE BLOCK :LOCATION  
STAT        .                                             TEXAS :STATE     
CTRY        .                                     UNITED STATES :COUNTRY   
SRVC        .                                                   :SERVICE COMPANY
DATE        .                             9/13/2023 11:12:11 AM :LOG DATE  
API         .                                    42703402070000 :API NUMBER
UWI         .                                    42703402070000 :UNIQUE WELL ID
XCOORD      .                                  590883.400226114 :SURFACE X 
YCOORD      .                                  10259990.6406746 :SURFACE Y 
LAT         .                                         28.233929 :LATITUDE  
LON         .                                        -96.259589 :LONGITUDE 
ELEV        .FT                                              90 :ELEVATION VALUE
ELEV_TYPE   .                                                KB :ELEVATION REFERENCE TYPE
~Curve Information Section
#MNEM       .UNIT                                      API CODE :CURVE DESCRIPTION
#------------------------------------------------------------------------------
DEPT        .FT                                                 :DEPTH     
SP          .MV                                                 :          
SP_NORM     .MV                                                 :SP Normalized
VSH_SP      .V/V                                                :Volume of Shale from SP
~A        DEPTH             SP        SP_NORM         VSH_SP
# ...
      2012.0000        20.4496      -3.910563       0.943807
      2012.5000        20.9688      -4.428284      0.9285799
      2013.0000        21.8556      -5.313606       0.902541
      2013.5000        22.6014      -6.057928      0.8806491
      2014.0000         23.133      -6.588047      0.8650575
      2014.5000        23.6024      -7.055969       0.851295
      2015.0000        23.9739      -7.425991       0.840412
      2015.5000        24.2007      -7.651312      0.8337849
      2016.0000        24.3425      -7.791634      0.8296579
      2016.5000        24.3179      -7.765554      0.8304248
      2017.0000        24.2932      -7.739374      0.8311949
      2017.5000        24.3104      -7.755096      0.8307325
      2018.0000        24.3596      -7.802818      0.8293289
      2018.5000        24.3957      -7.837439      0.8283106
      2019.0000         23.769      -7.209259      0.8467865
      2019.5000        22.8766      -6.315382       0.873077
      2020.0000        21.8487      -5.286003      0.9033529
      2020.5000        20.5822      -4.018023      0.9406464
      2021.0000        19.7451      -3.179445      0.9653105
      2021.5000        18.9742      -2.407066      0.9880275
      2022.0000        18.3935      -1.824886              1
      2022.5000        17.8495      -1.279409              1
      2023.0000        17.4286     -0.8570309              1
      2023.5000        17.5688     -0.9957504              1
      2024.0000        17.9655      -1.390972              1
      2024.5000        18.3624      -1.786394              1
      2025.0000        18.7592      -2.181715      0.9946554
      2025.5000         19.158      -2.579037      0.9829695
      2026.0000        19.5597      -2.979258      0.9711983
      2026.5000        19.9442       -3.36228      0.9599329
      2027.0000        20.2639        -3.6805      0.9505735
      2027.5000        20.5836       -3.99872      0.9412141
      2028.0000        20.9786      -4.392242      0.9296399
      2028.5000        21.3985      -4.810663      0.9173334
      2029.0000        21.7748      -5.185484      0.9063093
      2029.5000        22.1324      -5.541607      0.8958351
      2030.0000        22.4783      -5.886026      0.8857051
      2030.5000        22.6669      -6.073149      0.8802015
      2031.0000        22.8555      -6.260269       0.874698
      2031.5000        22.8376      -6.240892      0.8752679
      2032.0000        22.7545      -6.156311      0.8777556
      2032.5000        22.5899      -5.990232      0.8826402
      2033.0000        22.3945      -5.793356      0.8884307
      2033.5000        22.0389      -5.436275      0.8989331
      2034.0000        21.6831      -5.078997      0.9094413
      2034.5000        21.3908      -4.785219      0.9180818
      2035.0000        21.1312      -4.524139      0.9257606
      2035.5000        20.8716       -4.26306      0.9334394
      2036.0000        20.9245      -4.314482       0.931927
      2036.5000        20.9775      -4.366005      0.9304116
      2037.0000        21.0305      -4.417524      0.9288964
      2037.5000        21.3073      -4.692846      0.9207987
      2038.0000        21.6187      -5.002768      0.9116833
      2038.5000        21.9301      -5.312687       0.902568
      2039.0000        22.4421       -5.82321      0.8875527
      2039.5000        23.1901      -6.569731      0.8655962
      2040.0000        23.9377      -7.315851      0.8436514
      2040.5000        24.6449      -8.021572      0.8228949
      2041.0000        25.3504      -8.725595      0.8021884
      2041.5000        25.8698      -9.243517      0.7869554
      2042.0000        26.3418      -9.714037      0.7731166
      2042.5000        26.8139      -10.18466      0.7592748
      2043.0000        27.1364      -10.50568      0.7498329
      2043.5000        27.3771       -10.7449      0.7427971
      2044.0000        27.4081      -10.77442      0.7419288
      2044.5000        27.0574      -10.42224       0.752287
      2045.0000        26.7392      -10.10256      0.7616893
      2045.5000        26.4549      -9.816786      0.7700945
      2046.0000        26.1706      -9.531008      0.7784998
      2046.5000        25.8863      -9.245226      0.7869051
      2047.0000         25.602      -8.959448      0.7953104
      2047.5000        25.3963       -8.75227      0.8014038
      2048.0000        25.3314      -8.685892      0.8033561
      2048.5000        25.2665      -8.619513      0.8053085
      2049.0000        25.2016      -8.553133      0.8072608
      2049.5000        25.1976      -8.547655      0.8074219
      2050.0000        25.2941      -8.642675      0.8046272
      2050.5000        25.3906      -8.737698      0.8018324
      2051.0000        25.4872      -8.832819      0.7990347
      2051.5000        25.5837      -8.927839        0.79624
      2052.0000        25.6802      -9.022861      0.7934452
      2052.5000        25.7468      -9.087982        0.79153
      2053.0000        25.7877      -9.127405      0.7903705
      2053.5000        25.8286      -9.166824       0.789211
      2054.0000        25.8694      -9.206146      0.7880545
      2054.5000        25.9103      -9.245567      0.7868951
      2055.0000        25.9512      -9.284988      0.7857356
      2055.5000        25.9921      -9.324409      0.7845762
      2056.0000        25.9663      -9.297131      0.7853785
      2056.5000         25.768      -9.097351      0.7912544
      2057.0000        25.5698      -8.897673      0.7971272
      2057.5000        25.3715      -8.697895      0.8030031
      2058.0000        25.1537      -8.478615      0.8094525
      2058.5000        24.9097      -8.233137      0.8166724
      2059.0000        24.6656      -7.987558      0.8238953
      2059.5000        24.4215       -7.74198      0.8311182
      2060.0000        24.1775        -7.4965      0.8383383
      2060.5000        23.9334      -7.250921      0.8455611
      2061.0000        23.7691      -7.085144      0.8504369
      2061.5000        23.7883      -7.102863      0.8499158
      2062.0000        23.8075      -7.120586      0.8493945
      2062.5000        23.8267      -7.138308      0.8488733
      2063.0000        23.8459      -7.156027      0.8483521
      2063.5000        23.8557      -7.164349      0.8481074
      2064.0000        23.8506       -7.15777      0.8483009
      2064.5000        23.8454      -7.151093      0.8484973
      2065.0000        23.8403      -7.144512      0.8486908
      2065.5000        23.8351      -7.137835      0.8488872
      2066.0000        23.6114      -6.912657      0.8555101
      2066.5000        23.3473      -6.647076      0.8633213
      2067.0000        23.0833      -6.381598      0.8711295
      2067.5000        22.8191      -6.115919      0.8789436
      2068.0000        22.5809       -5.87624      0.8859929
      2068.5000        22.3925      -5.686361      0.8915776
      2069.0000         22.204      -5.496384      0.8971652
      2069.5000        22.2564      -5.547304      0.8956676
      2070.0000        22.3321      -5.621525      0.8934846
      2070.5000        22.2511      -5.539047      0.8959104
      2071.0000        22.1215      -5.407969      0.8997656
      2071.5000        21.9919      -5.276888       0.903621
      2072.0000        21.6516       -4.93511      0.9136732
      2072.5000        21.1389      -4.420933      0.9287961
      2073.0000        20.6271      -3.907652      0.9438926
      2073.5000        20.1175      -3.396574      0.9589243
      2074.0000        19.6079      -2.885496       0.973956
      2074.5000        19.1036      -2.379715      0.9888319
      2075.0000        18.7458      -2.020437      0.9993989
      2075.5000        18.3879      -1.661058              1
      2076.0000        18.0395       -1.31118              1
      2076.5000        17.7527      -1.022902              1
      2077.0000        17.4661     -0.7348232              1
      2077.5000        17.1855     -0.4527435              1
