#------------------------------------------------------------------------------
# Created by    : vladimir.rabinovich
# Created on    : 09/19/2023 17:20:39
#------------------------------------------------------------------------------
~Version Information Section
VERS.           2.0     :   CWLS log ASCII Standard - VERSION 2.0
WRAP.           NO      :   One line per depth step
~Well Information Section
#MNEM       .UNIT                                         VALUE :DESCRIPTION
#------------------------------------------------------------------------------
STRT        .FT                                             523 :START DEPTH
STOP        .FT                                           11863 :STOP DEPTH
STEP        .FT                                             0.5 :STEP      
NULL        .                                           -999.25 :NULL      
COMP        .                                      SHELL OIL CO :COMPANY   
WELL        .                                OCS 00727 ST00BP00 :WELL      
FLD         .                                           WILDCAT :FIELD     
LOC         .                                                   :LOCATION  
CNTY        .                             GALVESTON LARGE BLOCK :LOCATION  
STAT        .                                             TEXAS :STATE     
CTRY        .                                     UNITED STATES :COUNTRY   
SRVC        .                                                   :SERVICE COMPANY
DATE        .                             9/13/2023 11:19:42 AM :LOG DATE  
API         .                                    42706000240000 :API NUMBER
UWI         .                                    42706000240000 :UNIQUE WELL ID
XCOORD      .                                  977080.798970248 :SURFACE X 
YCOORD      .                                   10388448.113324 :SURFACE Y 
LAT         .                                         28.610486 :LATITUDE  
LON         .                                        -95.067834 :LONGITUDE 
ELEV        .FT                                              76 :ELEVATION VALUE
ELEV_TYPE   .                                                KB :ELEVATION REFERENCE TYPE
~Curve Information Section
#MNEM       .UNIT                                      API CODE :CURVE DESCRIPTION
#------------------------------------------------------------------------------
DEPT        .FT                                                 :DEPTH     
ASN         .OHMM                                               :          
ILD         .OHMM                                               :          
LN          .OHMM                                               :          
SP          .MV                                                 :          
SP_NORM     .MV                                                 :SP Normalized
VSH_SP      .V/V                                                :Volume of Shale from SP
~A        DEPTH            ASN            ILD             LN             SP        SP_NORM         VSH_SP
# ...
      7287.0000         0.9553         0.7746        -999.25       -32.2161     -0.2547417              1
      7287.5000         0.9638         0.7734        -999.25       -32.3268      -0.349535              1
      7288.0000         0.9744         0.7721        -999.25       -32.4415      -0.448328              1
      7288.5000          0.985         0.7709        -999.25       -32.5581     -0.5490227              1
      7289.0000         0.9851         0.7697        -999.25       -32.6747     -0.6497116              1
      7289.5000         0.9545         0.7685        -999.25       -32.7914     -0.7505035              1
      7290.0000         0.9424         0.7673        -999.25       -33.0575      -1.000694       0.999976
      7290.5000         0.9304         0.7661        -999.25       -33.3474      -1.274689       0.990528
      7291.0000         0.9184         0.7648        -999.25       -33.7178      -1.629181      0.9783041
      7291.5000         0.9124         0.7636        -999.25        -34.398      -2.293472      0.9553975
      7292.0000         0.9094         0.7624        -999.25       -34.9448      -2.824368      0.9370908
      7292.5000         0.9065         0.7603        -999.25       -34.6312      -2.494858      0.9484532
      7293.0000         0.9036         0.7568        -999.25       -34.3176      -2.165352      0.9598154
      7293.5000         0.9006         0.7533        -999.25        -34.004      -1.835846      0.9711777
      7294.0000         0.8977         0.7497        -999.25       -33.7531      -1.569038       0.980378
      7294.5000         0.8941         0.7462        -999.25       -33.5254      -1.325428      0.9887784
      7295.0000         0.8904         0.7427        -999.25       -33.2979      -1.082024      0.9971716
      7295.5000         0.8867         0.7391        -999.25       -33.0702     -0.8384132              1
      7296.0000         0.8831         0.7356        -999.25       -32.8424     -0.5947037              1
      7296.5000         0.8794         0.7321        -999.25        -32.615     -0.3513985              1
      7297.0000         0.8758         0.7285        -999.25       -32.5225     -0.2429886              1
      7297.5000         0.8726         0.7252        -999.25        -32.751     -0.4555817              1
      7298.0000         0.8695         0.7243        -999.25       -33.1652     -0.8538742              1
      7298.5000         0.8718         0.7235        -999.25       -33.7973      -1.470066      0.9837908
      7299.0000         0.8772         0.7227        -999.25       -34.4289      -2.085762      0.9625599
      7299.5000         0.8827         0.7219        -999.25        -35.061      -2.701954       0.941312
      7300.0000         0.8882          0.721        -999.25       -35.6927      -3.317745      0.9200777
      7300.5000         0.8939         0.7202        -999.25       -36.3248      -3.933937      0.8988298
      7301.0000         0.8996         0.7227        -999.25       -36.9526       -4.54583        0.87773
      7301.5000         0.9053         0.7305        -999.25       -37.5024       -5.07972        0.85932
      7302.0000          0.911         0.7382        -999.25       -37.9074      -5.468811       0.845903
      7302.5000         0.9167          0.746        -999.25       -37.7294      -5.274906      0.8525894
      7303.0000         0.9224         0.7538        -999.25       -37.5516        -5.0812       0.859269
      7303.5000          0.928         0.7615        -999.25       -37.3735      -4.887192      0.8659589
      7304.0000         0.9337         0.7693        -999.25       -37.1646      -4.662384      0.8737109
      7304.5000         0.9384         0.7771        -999.25       -36.9026      -4.384476      0.8832939
      7305.0000         0.9419         0.7848        -999.25       -36.6409      -4.106869      0.8928666
      7305.5000         0.9453         0.7929        -999.25       -36.3789       -3.82896      0.9024497
      7306.0000         0.9488         0.8009        -999.25       -36.1255      -3.559654      0.9117361
      7306.5000         0.9523         0.8089        -999.25       -35.8787      -3.296947      0.9207949
      7307.0000         0.9558          0.817        -999.25        -35.632       -3.03434      0.9298503
      7307.5000         0.9592          0.825        -999.25       -35.3851      -2.771534      0.9389126
      7308.0000         0.9644         0.8331        -999.25         -35.19       -2.56052       0.946189
      7308.5000         0.9704         0.8411        -999.25       -34.9981      -2.352715      0.9533547
      7309.0000         0.9765         0.8492        -999.25        -34.806      -2.144707      0.9605274
      7309.5000         0.9825         0.8572        -999.25       -34.6141      -1.936901      0.9676931
      7310.0000         0.9886         0.8598        -999.25        -34.422      -1.728893      0.9748657
      7310.5000         0.9975         0.8617        -999.25       -34.3637      -1.654686      0.9774246
      7311.0000         1.0097         0.8635        -999.25       -34.3176      -1.592678      0.9795628
      7311.5000         1.0219         0.8653        -999.25       -34.2715       -1.53067       0.981701
      7312.0000         1.0313         0.8671        -999.25       -34.2254      -1.468662      0.9838392
      7312.5000         1.0348          0.869        -999.25       -34.1793      -1.406654      0.9859774
      7313.0000         1.0375         0.8691        -999.25       -34.1498      -1.361248      0.9875432
      7313.5000         1.0333         0.8633        -999.25       -34.1689      -1.364441      0.9874331
      7314.0000         1.0291         0.8575        -999.25        -34.188       -1.36763      0.9873231
      7314.5000         1.0249         0.8516        -999.25       -34.2071      -1.370823       0.987213
      7315.0000         1.0217         0.8458        -999.25       -34.2262      -1.374016      0.9871029
      7315.5000         1.0197         0.8434        -999.25       -34.2453      -1.377209      0.9869928
      7316.0000         1.0177         0.8436        -999.25       -34.2643      -1.380302      0.9868861
      7316.5000         1.0157         0.8439        -999.25       -34.2834      -1.383495       0.986776
      7317.0000         1.0136         0.8441        -999.25       -34.3026      -1.386787      0.9866625
      7317.5000         1.0116         0.8443        -999.25       -34.3216      -1.389881      0.9865558
      7318.0000         1.0144         0.8446        -999.25       -34.3407       -1.39307      0.9864458
      7318.5000         1.0174          0.845        -999.25       -34.3598      -1.396263      0.9863358
      7319.0000         1.0203         0.8477        -999.25       -34.3788      -1.399357      0.9862291
      7319.5000         1.0232         0.8503        -999.25       -34.3958      -1.400452      0.9861913
      7320.0000         1.0261          0.853        -999.25         -34.39      -1.378742      0.9869399
      7320.5000         1.0291         0.8556        -999.25       -34.3842      -1.357033      0.9876885
      7321.0000         1.0302         0.8583        -999.25       -34.3784      -1.335323      0.9884371
      7321.5000         1.0278         0.8609        -999.25       -34.3726      -1.313618      0.9891856
      7322.0000         1.0255         0.8636        -999.25       -34.3667      -1.291809      0.9899376
      7322.5000         1.0232         0.8662        -999.25       -34.3609      -1.270103      0.9906861
      7323.0000         1.0209         0.8688        -999.25       -34.3551      -1.248394      0.9914347
      7323.5000         1.0186         0.8715        -999.25       -34.3493      -1.226688      0.9921831
      7324.0000         1.0148         0.8701        -999.25       -34.3435      -1.204979      0.9929318
      7324.5000         1.0103         0.8679        -999.25       -34.3377      -1.183273      0.9936802
