#------------------------------------------------------------------------------
# Created by    : vladimir.rabinovich
# Created on    : 09/19/2023 17:21:26
#------------------------------------------------------------------------------
~Version Information Section
VERS.           2.0     :   CWLS log ASCII Standard - VERSION 2.0
WRAP.           NO      :   One line per depth step
~Well Information Section
#MNEM       .UNIT                                         VALUE :DESCRIPTION
#------------------------------------------------------------------------------
STRT        .FT                                            3102 :START DEPTH
STOP        .FT                                            8740 :STOP DEPTH
STEP        .FT                                             0.5 :STEP      
NULL        .                                           -999.25 :NULL      
COMP        .                          SEAGULL ENERGY E & P INC :COMPANY   
WELL        .                               OCS G13314 ST00BP00 :WELL      
FLD         .                              GALVESTON BLOCK 0330 :FIELD     
LOC         .                                                   :LOCATION  
CNTY        .                             GALVESTON LARGE BLOCK :LOCATION  
STAT        .                                             TEXAS :STATE     
CTRY        .                                     UNITED STATES :COUNTRY   
SRVC        .                                                   :SERVICE COMPANY
DATE        .                             9/13/2023 11:19:54 AM :LOG DATE  
API         .                                    42706403240000 :API NUMBER
UWI         .                                    42706403240000 :UNIQUE WELL ID
XCOORD      .                                  980373.867630971 :SURFACE X 
YCOORD      .                                  10452895.3513713 :SURFACE Y 
LAT         .                                         28.787844 :LATITUDE  
LON         .                                        -95.061044 :LONGITUDE 
ELEV        .FT                                              95 :ELEVATION VALUE
ELEV_TYPE   .                                                KB :ELEVATION REFERENCE TYPE
~Curve Information Section
#MNEM       .UNIT                                      API CODE :CURVE DESCRIPTION
#------------------------------------------------------------------------------
DEPT        .FT                                                 :DEPTH     
CALI        .IN                                                 :          
DRHO        .G/C3                                               :          
DT          .US/F                                               :          
GR          .GAPI                                               :          
GR_1        .GAPI                                               :          
GR_NORM     .GAPI                                               :GammaRay Normalized
ILD         .OHMM                                               :          
ILM         .OHMM                                               :          
NPHI        .%                                                  :          
RFOC        .OHMM                                               :          
RHOB        .G/C3                                               :          
SP          .MV                                                 :          
SP_NORM     .MV                                                 :SP Normalized
VSH_GR      .V/V                                                :Volume of Shale from GR
VSH_SP      .V/V                                                :Volume of Shale from SP
~A        DEPTH           CALI           DRHO             DT             GR           GR_1        GR_NORM            ILD            ILM           NPHI           RFOC           RHOB             SP        SP_NORM         VSH_GR         VSH_SP
# ...
      5397.0000        -999.25        -999.25       114.5996        59.2844        -999.25         68.838         0.5584         0.6728        -999.25         1.2362        -999.25       -53.1791      -22.76101      0.7625106      0.7154874
      5397.5000        -999.25        -999.25       112.9681        59.6496        -999.25        69.2505         0.5702         0.6768        -999.25         1.2917        -999.25       -53.9758      -23.55798      0.7712871      0.7055253
      5398.0000        -999.25        -999.25       115.5394        57.9423        -999.25        67.3221         0.5742         0.6794        -999.25         1.2406        -999.25       -54.8685      -24.45095      0.7302574      0.6943632
      5398.5000        -999.25        -999.25       118.2714        58.8386        -999.25       68.33446         0.5751          0.682        -999.25         1.1076        -999.25        -54.103      -23.68571       0.751797      0.7039286
      5399.0000        -999.25        -999.25        120.491        61.4263        -999.25       71.25727         0.5695         0.6803        -999.25          1.003        -999.25       -52.0898      -21.67278      0.8139845      0.7290902
      5399.5000        -999.25        -999.25       122.5229        60.4011        -999.25       70.09931         0.5534         0.6683        -999.25         0.9925        -999.25       -52.2217      -21.80495      0.7893471      0.7274382
      5400.0000        -999.25        -999.25       123.2678        53.6906        -999.25       62.51981         0.5206         0.6256        -999.25         1.0992        -999.25       -56.6288      -26.21231      0.6280811      0.6723461
      5400.5000        -999.25        -999.25       121.3845        44.3403        -999.25       51.95866         0.4842         0.5728        -999.25          1.221        -999.25        -67.549      -37.13279      0.4033758      0.5358402
      5401.0000        -999.25        -999.25       121.0837        41.1212        -999.25       48.32269         0.4485          0.512        -999.25         1.3979        -999.25       -76.3148      -45.89885      0.3260147      0.4262644
      5401.5000        -999.25        -999.25       121.2172        39.3359        -999.25        46.3062         0.4197         0.4683        -999.25         1.5017        -999.25       -87.9852      -57.56952      0.2831107       0.280381
      5402.0000        -999.25        -999.25       121.0145        41.3614        -999.25         48.594         0.4055         0.4536        -999.25          1.369        -999.25       -93.8093      -63.39389      0.3317873      0.2075764
      5402.5000        -999.25        -999.25       119.3599        46.0638        -999.25       53.90536         0.4002         0.4565        -999.25         1.1928        -999.25       -92.6096      -62.19445      0.4447948      0.2225694
      5403.0000        -999.25        -999.25       117.6952        52.6109        -999.25        61.3003          0.401         0.4717        -999.25         1.0307        -999.25       -78.9668      -48.55192       0.602134       0.393101
      5403.5000        -999.25        -999.25       118.6326        61.7729        -999.25       71.64875         0.4038         0.5012        -999.25          0.934        -999.25       -63.4112      -32.99659      0.8223138      0.5875427
      5404.0000        -999.25        -999.25       120.7084        65.4406        -999.25       75.79141         0.4225         0.5541        -999.25         0.9216        -999.25       -47.7812      -17.36686      0.9104556      0.7829143
      5404.5000        -999.25        -999.25       124.6726        65.7488        -999.25       76.13953         0.4826         0.6117        -999.25         0.9372        -999.25       -41.6229      -11.20882      0.9178622      0.8598897
      5405.0000        -999.25        -999.25       128.8467         66.588        -999.25        77.0874         0.5307         0.6567        -999.25          0.956        -999.25       -39.0934      -8.679588      0.9380298      0.8915051
      5405.5000        -999.25        -999.25       129.6265        66.9111        -999.25       77.45235         0.5708         0.6921        -999.25          1.017        -999.25       -38.4225      -8.008957      0.9457946       0.899888
      5406.0000        -999.25        -999.25       126.6396        64.4225        -999.25       74.64148         0.6004         0.7142        -999.25         1.1178        -999.25       -39.1946      -8.781322       0.885989      0.8902335
      5406.5000        -999.25        -999.25       124.1552        62.2546        -999.25       72.19284           0.61         0.7185        -999.25         1.1551        -999.25       -40.6497      -10.23669      0.8338902      0.8720413
      5407.0000        -999.25        -999.25       123.4403        61.4523        -999.25       71.28664          0.608         0.7052        -999.25         1.1022        -999.25       -42.0323      -11.61956      0.8146095      0.8547555
      5407.5000        -999.25        -999.25       127.1071        60.5101        -999.25       70.22243         0.5915         0.6887        -999.25         0.9826        -999.25       -43.4521      -13.03963      0.7919666      0.8370047
      5408.0000        -999.25        -999.25       130.6738        58.9674        -999.25       68.47995         0.5476         0.6676        -999.25         0.9227        -999.25       -45.2908      -14.87859      0.7548925      0.8140176
      5408.5000        -999.25        -999.25       131.9736        56.6645        -999.25       65.87884         0.5079          0.633        -999.25         0.9217        -999.25       -49.8167      -19.40476      0.6995497      0.7574405
      5409.0000        -999.25        -999.25       130.4463        52.9601        -999.25       61.69471         0.4758         0.5969        -999.25         1.0211        -999.25        -58.486      -28.07433      0.6105257      0.6490709
      5409.5000        -999.25        -999.25       126.9396        49.3671        -999.25       57.63642         0.4446         0.5585        -999.25         1.1654        -999.25       -66.5609      -36.14949      0.5241792      0.5481313
      5410.0000        -999.25        -999.25       123.9153        46.6965        -999.25       54.61999         0.4288         0.5191        -999.25         1.2819        -999.25       -74.3091      -43.89796      0.4599997      0.4512755
      5410.5000        -999.25        -999.25       124.1764        47.7402        -999.25       55.79885         0.4227         0.4992        -999.25         1.2881        -999.25       -77.7848      -47.37393      0.4850819      0.4078259
      5411.0000        -999.25        -999.25       125.6149         49.944        -999.25       58.28804         0.4219         0.5185        -999.25         1.0846        -999.25       -70.6022       -40.1916      0.5380433       0.497605
      5411.5000        -999.25        -999.25        127.347        52.1256        -999.25       60.75214         0.4267         0.5449        -999.25         0.9591        -999.25         -61.45      -31.03967      0.5904711      0.6120042
      5412.0000        -999.25        -999.25       126.0997        54.9213        -999.25       63.90988         0.4368         0.5708        -999.25         0.9422        -999.25       -53.4642      -23.05413       0.657657      0.7118233
      5412.5000        -999.25        -999.25       124.2264        60.3566        -999.25       70.04906         0.4564         0.5985        -999.25         1.0524        -999.25       -48.3384       -17.9286       0.788278      0.7758925
      5413.0000        -999.25        -999.25       122.7186        64.3408        -999.25       74.54919         0.4914         0.6352        -999.25         1.0595        -999.25       -45.9203      -15.51077      0.8840254      0.8061154
      5413.5000        -999.25        -999.25       121.9691        66.7253        -999.25       77.24249         0.5297         0.6671        -999.25         1.0319        -999.25       -44.1245      -13.71523      0.9413297      0.8285596
