#------------------------------------------------------------------------------
# Created by    : vladimir.rabinovich
# Created on    : 09/19/2023 17:20:24
#------------------------------------------------------------------------------
~Version Information Section
VERS.           2.0     :   CWLS log ASCII Standard - VERSION 2.0
WRAP.           NO      :   One line per depth step
~Well Information Section
#MNEM       .UNIT                                         VALUE :DESCRIPTION
#------------------------------------------------------------------------------
STRT        .FT                                            2124 :START DEPTH
STOP        .FT                                            8264 :STOP DEPTH
STEP        .FT                                             0.5 :STEP      
NULL        .                                           -999.25 :NULL      
COMP        .                               SUPERIOR OIL CO THE :COMPANY   
WELL        .                                     ST TR 00009-L :WELL      
FLD         .                                           WILDCAT :FIELD     
LOC         .                                                   :LOCATION  
CNTY        .                           HIGH ISLAND LARGE BLOCK :LOCATION  
STAT        .                                             TEXAS :STATE     
CTRY        .                                     UNITED STATES :COUNTRY   
SRVC        .                                                   :SERVICE COMPANY
DATE        .                             9/13/2023 11:19:15 AM :LOG DATE  
API         .                                    42708300270000 :API NUMBER
UWI         .                                    42708300270000 :UNIQUE WELL ID
XCOORD      .                                  1318170.30554107 :SURFACE X 
YCOORD      .                                  10738395.6931535 :SURFACE Y 
LAT         .                                        29.5851559 :LATITUDE  
LON         .                                       -94.0141459 :LONGITUDE 
ELEV        .FT                                              72 :ELEVATION VALUE
ELEV_TYPE   .                                                KB :ELEVATION REFERENCE TYPE
~Curve Information Section
#MNEM       .UNIT                                      API CODE :CURVE DESCRIPTION
#------------------------------------------------------------------------------
DEPT        .FT                                                 :DEPTH     
ASN         .OHMM                                               :          
CILD        .MMHO                                               :          
ILD         .OHMM                                               :          
SN          .OHMM                                               :          
SP          .MV                                                 :          
SP_NORM     .MV                                                 :SP Normalized
VSH_SP      .V/V                                                :Volume of Shale from SP
~A        DEPTH            ASN           CILD            ILD             SN             SP        SP_NORM         VSH_SP
# ...
      4971.5000          0.851       4358.547         0.3319         0.8681      -117.5911      -66.64648     0.07540163
      4972.0000         0.8508       4245.516         0.3436         0.8842      -119.1843      -68.24512     0.05288567
      4972.5000         0.8681       4038.465         0.3649         0.9217      -119.6733      -68.73955     0.04592186
      4973.0000         0.8894       3920.176         0.3827         0.9391      -119.3097      -68.38138      0.0509665
      4973.5000         0.9003       3653.902         0.3954         0.8883      -118.5649      -67.64201     0.06138009
      4974.0000         0.8408       3534.973         0.4135         0.8472      -117.5195      -66.60204     0.07602767
      4974.5000          0.824       3449.598         0.4232         0.8841      -116.8313      -65.91927     0.08564414
      4975.0000         0.8853       3408.688         0.4145         0.9332      -117.1388      -66.23219     0.08123672
      4975.5000         0.9119       3549.176         0.3918         0.9089      -118.8275      -67.92633     0.05737562
      4976.0000         0.8761       3835.754         0.3639         0.8754      -120.2673      -69.37157     0.03702019
      4976.5000         0.8516       3963.438         0.3359         0.8718      -121.3818      -70.49149     0.02124668
      4977.0000         0.8645        4282.93         0.3182         0.8901      -122.1637      -71.27882     0.01015752
      4977.5000         0.8997       4383.109          0.304         0.9233      -122.6016      -71.72215    0.003913342
      4978.0000         0.9172       4415.828         0.2995         0.9575      -122.6934      -71.81938    0.002543919
      4978.5000         0.9176       4367.305         0.3072         0.9498      -122.0704      -71.20181     0.01124218
      4979.0000           0.92       4247.617         0.3148         0.9211      -121.3197      -70.45654     0.02173883
      4979.5000         0.8988       4133.539         0.3208         0.8933      -120.7301      -69.87238     0.02996654
      4980.0000         0.8738       4038.715         0.3271         0.8624      -120.3782      -69.52589     0.03484656
      4980.5000         0.8566        -999.25         0.3355         0.8493      -120.3711      -69.52423     0.03486999
      4981.0000         0.8401        -999.25         0.3434         0.8313      -120.2889      -69.44746     0.03595121
      4981.5000         0.8152        -999.25         0.3453          0.796      -120.3701      -69.53409     0.03473115
      4982.0000         0.7744        -999.25         0.3444         0.7664      -120.4301      -69.59952     0.03380961
      4982.5000         0.7412        -999.25         0.3454         0.7509      -120.1903      -69.36515     0.03711056
      4983.0000         0.7301        -999.25         0.3536         0.7524      -119.5563      -68.73658     0.04596366
      4983.5000         0.7495        -999.25         0.3489         0.7766        -118.34      -67.52571     0.06301815
      4984.0000         0.7794        -999.25         0.3443         0.7649      -116.4076      -65.59874      0.0901586
      4984.5000         0.7611       3962.254         0.3383         0.7107      -113.1433      -62.33988      0.1360581
      4985.0000         0.6876       3975.246         0.3316         0.6738      -109.3312       -58.5332      0.1896732
      4985.5000         0.6233       3976.996         0.3258         0.6648      -106.4639      -55.67133      0.2299812
      4986.0000         0.6432       3962.359         0.3217         0.6808      -108.7432      -57.95607      0.1978019
      4986.5000          0.674       3974.438         0.3232         0.6869      -112.0074       -61.2257      0.1517508
      4987.0000         0.6316        3898.27         0.3281         0.6216      -112.1946      -61.41833      0.1490376
      4987.5000         0.5797       3771.137         0.3346          0.559      -109.7709      -59.00005      0.1830978
      4988.0000         0.5455       3609.793          0.346         0.5523      -105.1421      -54.37668      0.2482157
      4988.5000          0.551       3491.059         0.3599         0.5645       -100.458      -49.69802      0.3141124
      4989.0000         0.5699       3323.813         0.3757         0.5728       -97.4475      -46.69295      0.3564374
      4989.5000         0.5623       3173.871         0.3931         0.5893       -89.4564      -38.70728      0.4689116
      4990.0000         0.5867       3082.949         0.4095         0.6388       -85.4961      -34.75241       0.524614
      4990.5000         0.6541        2974.52         0.4247         0.6838       -87.9034      -37.16513      0.4906319
      4991.0000         0.7134       2863.387         0.4369         0.7244       -94.3617      -43.62887      0.3995934
      4991.5000         0.7138       2747.855         0.4461         0.7022       -94.2637       -43.5363      0.4008972
      4992.0000         0.6755       2663.484         0.4582         0.6587       -88.1849      -37.46293      0.4864376
      4992.5000          0.642        2582.41         0.4745         0.6317       -83.4957      -32.77916      0.5524063
      4993.0000         0.6271       2462.879         0.4967          0.629       -78.3494      -27.63829      0.6248128
      4993.5000         0.6277       2357.449         0.5187         0.6366       -75.4343      -24.72862      0.6657941
      4994.0000         0.6475       2216.012         0.5407         0.6406       -73.2568      -22.55655      0.6963866
      4994.5000         0.6742       2074.574         0.5616         0.6433        -72.302      -21.60718       0.709758
      4995.0000         0.6934       1919.977         0.5816         0.6517       -69.8959      -19.20651      0.7435703
      4995.5000         0.6886       1857.561         0.6029          0.668       -65.1615      -14.47754      0.8101755
      4996.0000         0.6848       1792.643         0.6241         0.6826       -59.6632      -8.984673      0.8875398
      4996.5000          0.675       1759.383          0.644         0.6794       -57.4079      -6.734802      0.9192281
      4997.0000         0.6869       1774.563          0.663         0.6693       -56.8192      -6.151531      0.9274432
      4997.5000         0.6917       1834.254         0.6469         0.6569       -56.2959      -5.633659      0.9347372
      4998.0000         0.6706       1927.879         0.6179         0.6448       -55.8461      -5.189293      0.9409959
      4998.5000         0.6525       1995.125         0.5877         0.6323       -55.6761      -5.024727      0.9433137
      4999.0000         0.6404       2110.684         0.5528          0.615       -55.4494      -4.803455      0.9464302
      4999.5000         0.6328       2242.418          0.518         0.6004       -56.1816      -5.541084      0.9360411
      5000.0000         0.6313       2366.754         0.4857         0.5993       -59.0777      -8.442616      0.8951744
      5000.5000         0.6218        2473.23         0.4616         0.5978       -61.3142      -10.68455      0.8635979
      5001.0000         0.6209       2554.703         0.4375         0.5917        -62.817      -12.19278      0.8423553
      5001.5000         0.6328       2689.141         0.4205         0.5955       -65.6541      -15.03531      0.8023196
      5002.0000         0.6467       2782.766         0.4113         0.6087       -71.5393      -20.92593       0.719353
      5002.5000         0.6385       2865.488         0.4027         0.6186       -74.8853      -24.27737      0.6721498
      5003.0000         0.6337       2915.703         0.4052         0.6333       -73.9221      -23.31959      0.6856396
      5003.5000         0.6666        2945.91         0.4077          0.678       -76.0601      -25.46302      0.6554503
      5004.0000         0.7123       2960.957         0.4177         0.7236       -81.8071      -31.21545      0.5744302
      5004.5000         0.7288       2920.652         0.4302         0.7388       -84.6844      -34.09819      0.5338283
