#------------------------------------------------------------------------------
# Created by    : vladimir.rabinovich
# Created on    : 09/19/2023 17:21:25
#------------------------------------------------------------------------------
~Version Information Section
VERS.           2.0     :   CWLS log ASCII Standard - VERSION 2.0
WRAP.           NO      :   One line per depth step
~Well Information Section
#MNEM       .UNIT                                         VALUE :DESCRIPTION
#------------------------------------------------------------------------------
STRT        .FT                                            2957 :START DEPTH
STOP        .FT                                            7390 :STOP DEPTH
STEP        .FT                                             0.5 :STEP      
NULL        .                                           -999.25 :NULL      
COMP        .                              DEVON LOUISIANA CORP :COMPANY   
WELL        .                               OCS G09039 ST00BP00 :WELL      
FLD         .                              GALVESTON BLOCK 0273 :FIELD     
LOC         .                                                   :LOCATION  
CNTY        .                             GALVESTON LARGE BLOCK :LOCATION  
STAT        .                                             TEXAS :STATE     
CTRY        .                                     UNITED STATES :COUNTRY   
SRVC        .                                                   :SERVICE COMPANY
DATE        .                             9/13/2023 11:19:54 AM :LOG DATE  
API         .                                    42706403330000 :API NUMBER
UWI         .                                    42706403330000 :UNIQUE WELL ID
XCOORD      .                                  1020560.14583294 :SURFACE X 
YCOORD      .                                  10500181.0477632 :SURFACE Y 
LAT         .                                        28.9197225 :LATITUDE  
LON         .                                       -94.9380297 :LONGITUDE 
ELEV        .FT                                              98 :ELEVATION VALUE
ELEV_TYPE   .                                                KB :ELEVATION REFERENCE TYPE
~Curve Information Section
#MNEM       .UNIT                                      API CODE :CURVE DESCRIPTION
#------------------------------------------------------------------------------
DEPT        .FT                                                 :DEPTH     
CALI        .IN                                                 :          
DCAL        .IN                                                 :          
DPHI        .%                                                  :          
DRHO        .G/C3                                               :          
GR          .GAPI                                               :          
GR_NORM     .GAPI                                               :GammaRay Normalized
ILD         .OHMM                                               :          
ILM         .OHMM                                               :          
LL3         .OHMM                                               :          
NPHI        .%                                                  :          
SP          .MV                                                 :          
SP_NORM     .MV                                                 :SP Normalized
VSH_GR      .V/V                                                :Volume of Shale from GR
VSH_SP      .V/V                                                :Volume of Shale from SP
~A        DEPTH           CALI           DCAL           DPHI           DRHO             GR        GR_NORM            ILD            ILM            LL3           NPHI             SP        SP_NORM         VSH_GR         VSH_SP
# ...
      5315.0000        10.4763         0.6239        27.9277         0.0345        59.1299       62.28935         0.2916         0.3558         0.8238        34.0255       -49.3388      -47.55439      0.6231777      0.3206516
      5315.5000        10.4896         0.6443        29.2032         0.0295        56.3661       59.11987         0.2864         0.3379         0.9324        34.4903       -54.8048      -53.02259      0.5557419      0.2425345
      5316.0000        10.5238         0.7004        30.4196         0.0328        51.4499       53.48232         0.2783         0.3247          0.915        34.5569       -61.9078      -60.12779      0.4357939      0.1410316
      5316.5000        10.5729         0.7619        30.8093         0.0377         47.261       48.67872         0.2698         0.3187         0.9655        33.9336         -67.39      -65.61219      0.3335898     0.06268299
      5317.0000        10.6146         0.8062        30.7142         0.0394        45.4771       46.63287         0.2637         0.3183          1.137        32.8923       -69.5968      -67.82119       0.290061     0.03112586
      5317.5000        10.6582         0.8542        30.5631         0.0343        43.7797       44.68619         0.2635         0.3202         1.1516        32.0928       -69.2775      -67.50409      0.2486423     0.03565587
      5318.0000         10.701          0.883        30.5502         0.0287        42.2659       42.95004         0.2724         0.3251         1.1714        32.1254       -69.1056      -67.33439       0.211703     0.03808016
      5318.5000         10.717         0.8469        30.5598         0.0252        40.8914       41.37363           0.29         0.3351         1.2963        32.8961       -70.2155      -68.44649      0.1781624     0.02219304
      5319.0000        10.7211         0.8523        30.2505         0.0323        39.9927        40.3428         0.3104         0.3515         1.2781        33.6758       -70.9645      -69.19769      0.1562299     0.01146153
      5319.5000        10.7373         0.8822        29.3417         0.0462        40.0413       40.39821         0.3243         0.3709         1.1056        33.9464       -68.0254      -66.26079      0.1574088     0.05341731
      5320.0000        10.7554         0.8976        28.0392         0.0577        43.2594       44.08798         0.3244         0.3842         0.8078        33.6847       -60.6261      -58.86369      0.2359145      0.1590901
      5320.5000        10.7759         0.9157        27.6203         0.0604        50.5524        52.4503         0.3103          0.382         0.6301        33.2834        -52.168      -50.40779      0.4138361      0.2798887
      5321.0000        10.8029         0.9714         28.067         0.0678         55.979       58.67249         0.2887         0.3623         0.8476        33.1917       -48.1323      -46.37429      0.5462232      0.3375101
      5321.5000        10.8435          1.047        28.9442         0.0805        55.1678       57.74199         0.2662         0.3328         0.8937        33.5577       -51.2615      -49.50569      0.5264253      0.2927758
      5322.0000         10.932         1.2018        29.5693         0.0969        48.1757       49.72406         0.2462         0.3042         0.8438        34.0858       -59.9294      -58.17579      0.3558311      0.1689173
      5322.5000        11.0804         1.4144          29.94         0.1028        40.3453       40.74488         0.2306         0.2843         0.8363        34.6326       -69.2284      -67.47699      0.1647847       0.036043
      5323.0000        11.2673         1.5663        29.9376         0.0888        38.0006       38.05598         0.2206         0.2758         0.7926        35.1179       -74.2485      -72.49928       0.107574              0
      5323.5000        11.4199         1.6408        29.2849         0.0634        39.1667       39.39278         0.2179         0.2795         0.7374        35.4403        -72.418      -70.67099      0.1360166              0
      5324.0000        11.5004         1.5914        27.5819         0.0462        43.8068       44.71311         0.2235         0.2948         0.6641        35.5526        -64.048      -62.30318      0.2492151      0.1099545
      5324.5000        11.4836         1.4854        25.9815         0.0458         52.012       54.12142         0.2373         0.3196          0.691        35.4139       -51.4702      -49.72759      0.4493919      0.2896059
      5325.0000        11.3702         1.3208        24.8617          0.053        60.2271       63.54108         0.2585         0.3501         0.7009         35.051       -38.1909      -36.45049      0.6498102      0.4792787
      5325.5000         11.217         1.2069        24.3532         0.0538        68.0896       72.55643         0.2846         0.3811         0.6315        34.6318       -28.9231      -27.18489      0.8416263      0.6116444
      5326.0000        11.0906          1.161         24.392         0.0474        70.1193       74.88349         0.3118         0.4064         0.7025        34.4275        -27.017      -25.28099      0.8911381       0.638843
      5326.5000        11.0701         1.3167        25.1072         0.0411        69.1078       73.72333          0.336         0.4223         0.7732        34.4493        -32.044      -30.31019      0.8664538      0.5669973
      5327.0000        11.1888         1.4696        26.2375         0.0365        64.0189       67.88773         0.3534         0.4296         0.7758        34.8977       -39.3698      -37.63819       0.742292      0.4623116
      5327.5000        11.3638         1.6487        27.3558         0.0365        59.7562       62.99952         0.3634         0.4326         0.8101        35.5477       -44.5828      -42.85339      0.6382877      0.3878087
      5328.0000        11.5509         1.7816        27.6323         0.0387        57.6038       60.53111         0.3712         0.4371         0.8938        36.1031       -45.0569      -43.32969      0.5857683      0.3810045
      5328.5000        11.6681         1.8014        27.2817         0.0404        57.9243        60.8983         0.3837         0.4489         0.7623        36.3251       -42.0833      -40.35829       0.593581       0.423453
      5329.0000        11.6761         1.7317        26.1267         0.0427        59.8671       63.12572         0.4069         0.4713         0.9732        36.2148       -38.4311      -36.70829      0.6409729      0.4755959
      5329.5000         11.623         1.6611         24.679         0.0455        62.0392       65.61608         0.4445         0.5052         1.0725        35.8482       -35.1349      -33.41429      0.6939592       0.522653
      5330.0000        11.5549         1.5679        23.1445          0.054         65.375       69.44081         0.4943           0.55         1.1773        35.5395       -30.7003      -28.98189      0.7753364       0.585973
      5330.5000        11.4927         1.5128        21.6819          0.064        70.9619       75.84681         0.5517         0.6039         0.9142        35.4805       -24.3307      -22.61449      0.9116343      0.6769359
      5331.0000        11.4472           1.53        20.2836          0.068        77.5052       83.34947         0.6095         0.6621         0.7647        35.7787       -16.6237      -14.90969              1      0.7870045
      5331.5000        11.4182         1.5255        19.3939         0.0668        81.8274       88.30528         0.6619         0.7183         0.7611        36.1626        -9.6282      -7.916388              1      0.8869088
      5332.0000        11.4044         1.5264        19.1005         0.0638        83.2992       89.99261          0.707         0.7656         0.7785        36.4314        -4.9911      -3.281488              1      0.9531216
      5332.5000        11.4045         1.5428        18.8549         0.0651        83.5183       90.24354         0.7447         0.8003         0.8116        36.3076        -2.5565     -0.8490881              1      0.9878702
