#------------------------------------------------------------------------------
# Created by    : vladimir.rabinovich
# Created on    : 09/19/2023 17:20:39
#------------------------------------------------------------------------------
~Version Information Section
VERS.           2.0     :   CWLS log ASCII Standard - VERSION 2.0
WRAP.           NO      :   One line per depth step
~Well Information Section
#MNEM       .UNIT                                         VALUE :DESCRIPTION
#------------------------------------------------------------------------------
STRT        .FT                                             520 :START DEPTH
STOP        .FT                                           11478 :STOP DEPTH
STEP        .FT                                             0.5 :STEP      
NULL        .                                           -999.25 :NULL      
COMP        .                                      SHELL OIL CO :COMPANY   
WELL        .                                OCS 00730 ST00BP00 :WELL      
FLD         .                                           WILDCAT :FIELD     
LOC         .                                                   :LOCATION  
CNTY        .                             GALVESTON LARGE BLOCK :LOCATION  
STAT        .                                             TEXAS :STATE     
CTRY        .                                     UNITED STATES :COUNTRY   
SRVC        .                                                   :SERVICE COMPANY
DATE        .                             9/13/2023 11:19:42 AM :LOG DATE  
API         .                                    42706000260000 :API NUMBER
UWI         .                                    42706000260000 :UNIQUE WELL ID
XCOORD      .                                  961416.888637646 :SURFACE X 
YCOORD      .                                  10353223.2377546 :SURFACE Y 
LAT         .                                         28.512881 :LATITUDE  
LON         .                                        -95.114699 :LONGITUDE 
ELEV        .FT                                              72 :ELEVATION VALUE
ELEV_TYPE   .                                                KB :ELEVATION REFERENCE TYPE
~Curve Information Section
#MNEM       .UNIT                                      API CODE :CURVE DESCRIPTION
#------------------------------------------------------------------------------
DEPT        .FT                                                 :DEPTH     
ASN         .OHMM                                               :          
CILD        .MMHO                                               :          
ILD         .OHMM                                               :          
LAT         .OHMM                                               :          
LN          .OHMM                                               :          
SP          .MV                                                 :          
SP_NORM     .MV                                                 :SP Normalized
VSH_SP      .V/V                                                :Volume of Shale from SP
~A        DEPTH            ASN           CILD            ILD            LAT             LN             SP        SP_NORM         VSH_SP
# ...
      8514.5000         0.6821       1520.773         0.6358        -999.25        -999.25       -43.6492      0.2532387              1
      8515.0000         0.6769       1533.824         0.6314        -999.25        -999.25       -43.2089      0.6935387              1
      8515.5000         0.6718       1546.443         0.6269        -999.25        -999.25       -42.7686       1.133839              1
      8516.0000         0.6666       1559.063         0.6225        -999.25        -999.25       -42.3277       1.574738              1
      8516.5000         0.6614       1571.682         0.6181        -999.25        -999.25       -41.8874       2.015038              1
      8517.0000         0.6563       1584.301         0.6137        -999.25        -999.25       -41.4471       2.455338              1
      8517.5000         0.6511       1596.922         0.6092        -999.25        -999.25       -41.2733       2.629139              1
      8518.0000          0.646       1609.541         0.6048        -999.25        -999.25       -41.4119        2.49054              1
      8518.5000         0.6408        1622.16         0.6004        -999.25        -999.25       -41.5505        2.35194              1
      8519.0000         0.6356       1634.779         0.5959        -999.25        -999.25       -41.6891       2.213341              1
      8519.5000         0.6305       1646.994         0.5915        -999.25        -999.25       -41.8618       2.040638              1
      8520.0000         0.6253       1648.672         0.5871        -999.25        -999.25        -42.055       1.847439              1
      8520.5000         0.6219       1650.348         0.5827        -999.25        -999.25       -42.2482        1.65424              1
      8521.0000         0.6195       1652.023         0.5782        -999.25        -999.25       -42.4416       1.460838              1
      8521.5000          0.617       1653.701         0.5738        -999.25        -999.25       -42.6348       1.267639              1
      8522.0000         0.6146       1654.084         0.5694        -999.25        -999.25       -42.8279       1.074539              1
      8522.5000         0.6121       1652.361         0.5649        -999.25        -999.25       -43.0214      0.8810387              1
      8523.0000         0.6097       1650.639         0.5605        -999.25        -999.25       -43.2145      0.6879387              1
      8523.5000         0.6073       1648.918         0.5561        -999.25        -999.25       -43.4077      0.4947395              1
      8524.0000         0.6048       1647.193         0.5517        -999.25        -999.25       -43.6012       0.301239              1
      8524.5000         0.6024       1645.471         0.5472        -999.25        -999.25       -43.7943       0.108139              1
      8525.0000         0.5999       1643.748         0.5434        -999.25        -999.25       -43.9875    -0.08506012              1
      8525.5000         0.5975       1642.027         0.5418        -999.25        -999.25        -44.181     -0.2785606              1
      8526.0000          0.595       1640.305         0.5403        -999.25        -999.25       -44.3741     -0.4716606              1
      8526.5000         0.5933       1639.262         0.5388        -999.25        -999.25       -44.5673     -0.6648598              1
      8527.0000         0.5974       1638.408         0.5372        -999.25        -999.25       -44.7607     -0.8582611              1
      8527.5000         0.6014       1637.557         0.5357        -999.25        -999.25       -44.9539       -1.05146              1
      8528.0000         0.6055       1636.705         0.5342        -999.25        -999.25       -45.1471      -1.244659              1
      8528.5000         0.6096       1635.852         0.5326        -999.25        -999.25       -45.3405      -1.438061              1
      8529.0000         0.6137           1635         0.5311        -999.25        -999.25       -45.5337       -1.63126              1
      8529.5000         0.6178       1619.963         0.5296        -999.25        -999.25       -45.7269      -1.824459              1
      8530.0000         0.6219       1593.908          0.528        -999.25        -999.25       -45.9203       -2.01786      0.9992235
      8530.5000         0.6259       1608.316         0.5265        -999.25        -999.25       -46.0422      -2.139759      0.9939235
      8531.0000           0.63       1638.178          0.525        -999.25        -999.25       -46.0087      -2.106262      0.9953799
      8531.5000         0.6341       1694.049         0.5234        -999.25        -999.25       -45.9752      -2.072762      0.9968365
      8532.0000         0.6339       1779.508         0.5219        -999.25        -999.25       -45.9418       -2.03936      0.9982887
      8532.5000         0.6301       1895.236         0.5203        -999.25        -999.25       -45.9083      -2.005859      0.9997452
      8533.0000         0.6263       1914.268         0.5188        -999.25        -999.25       -45.8748      -1.972363              1
      8533.5000         0.6225       1917.484         0.5173        -999.25        -999.25       -45.8414      -1.938961              1
      8534.0000         0.6187       1885.902         0.5157        -999.25        -999.25       -45.8079       -1.90546              1
      8534.5000         0.6171       1854.365         0.5142        -999.25        -999.25       -45.7744       -1.87196              1
      8535.0000         0.6215       1822.781         0.5127        -999.25        -999.25       -45.7409      -1.838459              1
      8535.5000         0.6259        1770.99         0.5111        -999.25        -999.25       -45.7075      -1.805061              1
      8536.0000         0.6303       1708.277         0.5118        -999.25        -999.25        -45.674      -1.771561              1
      8536.5000         0.6347       1645.564         0.5163        -999.25        -999.25       -45.6405       -1.73806              1
      8537.0000          0.639       1609.133         0.5208        -999.25        -999.25        -45.607      -1.704559              1
      8537.5000         0.6475       1583.803         0.5253        -999.25        -999.25       -45.5735      -1.671062              1
      8538.0000         0.6578        1558.52         0.5298        -999.25        -999.25         -45.54      -1.637562              1
      8538.5000         0.6681       1533.234         0.5344        -999.25        -999.25       -45.6495      -1.747063              1
      8539.0000         0.6783       1507.904         0.5389        -999.25        -999.25       -46.0685      -2.166061      0.9927799
      8539.5000         0.6886       1487.084         0.5434        -999.25        -999.25        -46.488       -2.58556      0.9745409
      8540.0000         0.6989       1466.715         0.5479        -999.25        -999.25       -46.9075      -3.005062      0.9563016
      8540.5000         0.7091       1457.789         0.5524        -999.25        -999.25        -47.327      -3.424561      0.9380626
      8541.0000         0.7194       1460.383         0.5569        -999.25        -999.25       -47.7466      -3.844162      0.9198191
      8541.5000          0.728        1469.48         0.5614        -999.25        -999.25       -48.1661       -4.26366        0.90158
      8542.0000         0.7344       1478.564         0.5659        -999.25        -999.25        -48.585       -4.68256      0.8833669
      8542.5000         0.7408       1487.662         0.5704        -999.25        -999.25       -49.0045      -5.102062      0.8651277
      8543.0000         0.7472       1496.961          0.575        -999.25        -999.25       -49.4241       -5.52166      0.8468844
      8543.5000         0.7536       1508.176         0.5795        -999.25        -999.25       -49.8436      -5.941162      0.8286451
