#------------------------------------------------------------------------------
# Created by    : vladimir.rabinovich
# Created on    : 09/19/2023 17:20:23
#------------------------------------------------------------------------------
~Version Information Section
VERS.           2.0     :   CWLS log ASCII Standard - VERSION 2.0
WRAP.           NO      :   One line per depth step
~Well Information Section
#MNEM       .UNIT                                         VALUE :DESCRIPTION
#------------------------------------------------------------------------------
STRT        .FT                                            3532 :START DEPTH
STOP        .FT                                           13690 :STOP DEPTH
STEP        .FT                                             0.5 :STEP      
NULL        .                                           -999.25 :NULL      
COMP        .                              VASTAR RESOURCES INC :COMPANY   
WELL        .                                     ST TR 00023-L :WELL      
FLD         .                          HIGH ISLAND BLOCK 0024-L :FIELD     
LOC         .                                                   :LOCATION  
CNTY        .                           HIGH ISLAND LARGE BLOCK :LOCATION  
STAT        .                                             TEXAS :STATE     
CTRY        .                                     UNITED STATES :COUNTRY   
SRVC        .                                                   :SERVICE COMPANY
DATE        .                             9/13/2023 11:19:15 AM :LOG DATE  
API         .                                    42708300330000 :API NUMBER
UWI         .                                    42708300330000 :UNIQUE WELL ID
XCOORD      .                                  1290562.53578251 :SURFACE X 
YCOORD      .                                  10712997.1214806 :SURFACE Y 
LAT         .                                        29.5146054 :LATITUDE  
LON         .                                       -94.1002609 :LONGITUDE 
ELEV        .FT                                              79 :ELEVATION VALUE
ELEV_TYPE   .                                                KB :ELEVATION REFERENCE TYPE
~Curve Information Section
#MNEM       .UNIT                                      API CODE :CURVE DESCRIPTION
#------------------------------------------------------------------------------
DEPT        .FT                                                 :DEPTH     
ASN         .OHMM                                               :          
CILD        .MMHO                                               :          
ILD         .OHMM                                               :          
SP          .MV                                                 :          
SP_NORM     .MV                                                 :SP Normalized
VSH_SP      .V/V                                                :Volume of Shale from SP
~A        DEPTH            ASN           CILD            ILD             SP        SP_NORM         VSH_SP
# ...
     12956.0000         0.6126       1932.596         0.4972       -41.5438       4.997078              1
     12956.5000         0.6103       1886.984          0.496       -41.9127       4.628178              1
     12957.0000         0.6079       1861.609         0.4948       -42.2822       4.258678              1
     12957.5000         0.6056       1850.564         0.4936       -42.6809       3.859978              1
     12958.0000         0.6032       1839.496         0.4924       -43.0821       3.458778              1
     12958.5000         0.6009       1826.943         0.4912       -43.4833       3.057579              1
     12959.0000         0.5985       2019.953         0.4898       -43.8851       2.655777              1
     12959.5000         0.5961       2019.186         0.4881       -43.6143       2.926579              1
     12960.0000         0.5933       2018.422         0.4865       -43.2473       3.293579              1
     12960.5000         0.5905       2017.658         0.4848       -42.8802       3.660679              1
     12961.0000         0.5877       2016.893         0.4832       -42.5132       4.027679              1
     12961.5000         0.5849       2023.449         0.4815       -42.1462        4.39468              1
     12962.0000         0.5821       2033.803         0.4798       -42.1816        4.35928              1
     12962.5000         0.5793       2044.156         0.4782       -42.5262       4.014679              1
     12963.0000         0.5765       2054.508         0.4765       -42.8709       3.669979              1
     12963.5000         0.5737       2064.859         0.4748       -43.2156       3.325279              1
     12964.0000         0.5708       2070.691         0.4732       -43.5596       2.981277              1
     12964.5000          0.568       2071.059         0.4715       -43.9043       2.636578              1
     12965.0000         0.5652       2071.426         0.4699        -44.249       2.291878              1
     12965.5000         0.5624       2071.793         0.4682       -44.5937       1.947178              1
     12966.0000         0.5596        2072.16         0.4665         -44.71       1.830879              1
     12966.5000         0.5568        2067.23         0.4651       -44.6814       1.859478              1
     12967.0000          0.554       2061.449         0.4638       -44.6526       1.888279              1
     12967.5000         0.5516       2055.668         0.4626        -44.624       1.916878              1
     12968.0000         0.5501       2049.887         0.4613       -44.5953        1.94558              1
     12968.5000         0.5486       2043.068           0.46       -44.5533       1.987579              1
     12969.0000         0.5472        2051.52         0.4588       -44.1372       2.403679              1
     12969.5000         0.5457       2074.445         0.4575       -43.7211       2.819778              1
     12970.0000         0.5442       2097.375         0.4563       -43.3051       3.235779              1
     12970.5000         0.5427       2120.305          0.455       -42.8902       3.650677              1
     12971.0000         0.5413       2138.344         0.4537       -42.4741        4.06678              1
     12971.5000         0.5398       2155.539         0.4525       -42.2278        4.31308              1
     12972.0000         0.5383       2172.688         0.4512        -42.384       4.156879              1
     12972.5000         0.5337       2189.883           0.45       -42.5405       4.000378              1
     12973.0000         0.5271        2200.68         0.4489       -42.6967       3.844177              1
     12973.5000         0.5204       2205.426         0.4486       -42.8532       3.687679              1
     12974.0000         0.5137       2210.156         0.4483       -43.0094       3.531479              1
     12974.5000          0.507       2214.898          0.448       -43.1255       3.415379              1
     12975.0000         0.5004       2219.633         0.4477        -43.082       3.458878              1
     12975.5000         0.4937       2224.375         0.4473       -43.0385       3.502377              1
     12976.0000         0.4903       2231.887          0.447        -42.995       3.545879              1
     12976.5000         0.4923       2240.039         0.4467       -42.9514       3.589478              1
     12977.0000         0.4942       2248.219         0.4464        -42.908       3.632877              1
     12977.5000         0.4962       2256.371         0.4461       -42.8644       3.676479              1
     12978.0000         0.4981       2264.551         0.4458       -42.8209       3.719978              1
     12978.5000         0.5016       2272.703         0.4454       -42.7774       3.763477              1
     12979.0000         0.5051       2282.145         0.4451       -42.7344       3.806477              1
     12979.5000         0.5086       2296.375         0.4448       -42.7126       3.828278              1
     12980.0000         0.5121       2271.074         0.4445       -42.6909       3.849979              1
     12980.5000         0.5157       2239.891         0.4442       -42.6691       3.871777              1
     12981.0000         0.5192       2208.711         0.4439       -42.6473       3.893578              1
     12981.5000         0.5227       2177.527         0.4449       -42.6255       3.915379              1
     12982.0000         0.5262       2154.895         0.4464       -42.6038       3.937077              1
     12982.5000         0.5297       2134.191          0.448        -42.582       3.958878              1
     12983.0000         0.5332       2113.438         0.4495       -42.4561       4.084778              1
     12983.5000         0.5367        2092.73         0.4511       -42.2763        4.26458              1
     12984.0000         0.5403       2072.023         0.4526       -42.0968       4.444077              1
     12984.5000         0.5438       2052.754         0.4542        -41.917       4.623878              1
     12985.0000         0.5473        1987.15         0.4557       -41.8313       4.709579              1
     12985.5000         0.5508       1949.645         0.4573       -42.0611       4.479778              1
     12986.0000         0.5543       1959.379         0.4588       -42.2903        4.25058              1
     12986.5000         0.5573       2024.191         0.4604         -42.52       4.020878              1
     12987.0000         0.5597       2021.604         0.4619       -42.7492       3.791679              1
     12987.5000         0.5621       2019.016         0.4635       -42.8781       3.662777              1
     12988.0000         0.5645       2017.439         0.4651       -42.9694        3.57148              1
     12988.5000         0.5669       2016.014         0.4666       -43.0607       3.480179              1
     12989.0000         0.5681        2014.59         0.4682       -43.1519       3.388977              1
     12989.5000         0.5659       2013.518         0.4697       -43.2431       3.297779              1
     12990.0000         0.5636        2019.67         0.4713       -43.3344       3.206478              1
     12990.5000         0.5614       2025.822         0.4728       -43.4764        3.06448              1
     12991.0000         0.5592       2031.975         0.4735       -43.8049       2.735977              1
     12991.5000          0.557       2038.127          0.473       -44.1335       2.407379              1
     12992.0000         0.5547       2044.279         0.4726        -44.462       2.078876              1
     12992.5000         0.5525       2045.947         0.4721       -44.7905       1.750378              1
     12993.0000         0.5503       2040.004         0.4716       -45.1191        1.42178              1
     12993.5000         0.5481       2034.063         0.4711       -45.8612      0.6796799              1
