#------------------------------------------------------------------------------
# Created by    : vladimir.rabinovich
# Created on    : 09/19/2023 17:22:53
#------------------------------------------------------------------------------
~Version Information Section
VERS.           2.0     :   CWLS log ASCII Standard - VERSION 2.0
WRAP.           NO      :   One line per depth step
~Well Information Section
#MNEM       .UNIT                                         VALUE :DESCRIPTION
#------------------------------------------------------------------------------
STRT        .FT                                             411 :START DEPTH
STOP        .FT                                           10036 :STOP DEPTH
STEP        .FT                                             0.5 :STEP      
NULL        .                                           -999.25 :NULL      
COMP        .                          HUMBLE OIL & REFINING CO :COMPANY   
WELL        .                                     ST TR 00278-L :WELL      
FLD         .                                           WILDCAT :FIELD     
LOC         .                                                   :LOCATION  
CNTY        .                             GALVESTON LARGE BLOCK :LOCATION  
STAT        .                                             TEXAS :STATE     
CTRY        .                                     UNITED STATES :COUNTRY   
SRVC        .                                                   :SERVICE COMPANY
DATE        .                             9/13/2023 11:19:42 AM :LOG DATE  
API         .                                    42706000220000 :API NUMBER
UWI         .                                    42706000220000 :UNIQUE WELL ID
XCOORD      .                                  941560.719964966 :SURFACE X 
YCOORD      .                                  10497824.1170516 :SURFACE Y 
LAT         .                                        28.9094621 :LATITUDE  
LON         .                                       -95.1847519 :LONGITUDE 
ELEV        .FT                                              10 :ELEVATION VALUE
ELEV_TYPE   .                                                KB :ELEVATION REFERENCE TYPE
~Curve Information Section
#MNEM       .UNIT                                      API CODE :CURVE DESCRIPTION
#------------------------------------------------------------------------------
DEPT        .FT                                                 :DEPTH     
LAT         .OHMM                                               :          
LN          .OHMM                                               :          
SN          .OHMM                                               :          
SP          .MV                                                 :          
SP_NORM     .MV                                                 :SP Normalized
VSH_SP      .V/V                                                :Volume of Shale from SP
~A        DEPTH            LAT             LN             SN             SP        SP_NORM         VSH_SP
# ...
      6149.0000         0.8174         0.8015         0.8939        68.0497      -4.492203      0.9287305
      6149.5000         0.8107         0.8081         0.9044        69.9292      -6.078571      0.8963557
      6150.0000          0.804         0.8147         0.9158        71.8088      -7.665039      0.8639788
      6150.5000         0.7974         0.8213         0.9292        73.6862      -9.249313      0.8316467
      6151.0000         0.7907          0.828         0.9427        74.7714      -10.04137      0.8154821
      6151.5000          0.784         0.8346         0.9561         75.359      -10.33585      0.8094726
      6152.0000         0.7773         0.8412         0.9696        75.9467      -10.63042      0.8034609
      6152.5000         0.7762         0.8478          0.983        76.1205      -10.51108      0.8058963
      6153.0000         0.7786         0.8515         0.9965         75.368      -9.465446      0.8272358
      6153.5000          0.781         0.8455         1.0099        74.6157      -8.420021       0.848571
      6154.0000         0.7834         0.8396         1.0234        73.8633      -7.374481      0.8699086
      6154.5000         0.7858         0.8336         1.0306         73.111      -6.329056      0.8912438
      6155.0000         0.7882         0.8277         1.0236        73.1816      -6.106529      0.8957851
      6155.5000         0.7905         0.8217         1.0166        73.8424       -6.47419      0.8882818
      6156.0000         0.7929         0.8158         1.0096        75.0913      -7.429962      0.8687763
      6156.5000         0.7953         0.8098         1.0026        76.3401      -8.385635      0.8492727
      6157.0000         0.8068         0.8039         0.9956        77.5902      -9.342598      0.8297429
      6157.5000          0.825         0.7979         0.9808         78.839      -10.29826      0.8102395
      6158.0000         0.8431         0.7919         0.9646         79.728      -10.89413       0.798079
      6158.5000         0.8612         0.7885         0.9485        79.7838       -10.6568      0.8029225
      6159.0000         0.8794          0.786         0.9323        79.8394      -10.41927        0.80777
      6159.5000         0.8975         0.7834         0.9162        79.2568      -9.543533      0.8256422
      6160.0000         0.9156         0.7808         0.9001        78.5922      -8.585808      0.8451876
      6160.5000         0.9325         0.7783          0.905        77.9276      -7.628075      0.8647332
      6161.0000         0.9446         0.7757         0.9254        77.2629      -6.670242      0.8842807
      6161.5000         0.9567         0.7731         0.9457        76.5983      -5.712509      0.9038264
      6162.0000         0.9688         0.7706         0.9661        75.9336      -4.754684      0.9233738
      6162.5000         0.9808          0.768         0.9864         75.269      -3.796944      0.9429195
      6163.0000         0.9929         0.7654         1.0068         74.605      -2.839821      0.9624527
      6163.5000          1.005         0.7629         1.0193        74.2919      -2.233582      0.9748248
      6164.0000          1.017         0.7603         1.0201        74.7142      -2.362755      0.9721887
      6164.5000          1.029         0.7578         1.0209         75.136      -2.491425      0.9695628
      6165.0000         1.0225         0.7552         1.0157        75.5583      -2.620583      0.9669269
      6165.5000         1.0159         0.7526         0.9842        75.9801      -2.810875      0.9630434
      6166.0000         1.0094         0.7499         0.9527        76.4019      -3.239998      0.9542857
      6166.5000         1.0028         0.7471         0.9212        76.8242      -3.669617       0.945518
      6167.0000         0.9963         0.7443         0.8897         77.108      -3.960739      0.9395767
      6167.5000         0.9897         0.7416         0.8582        77.1405      -4.000565       0.938764
      6168.0000         0.9832         0.7388         0.8407         77.173      -4.040382      0.9379514
      6168.5000         0.9766         0.7361         0.8387        77.2053      -4.080002      0.9371428
      6169.0000         0.9711         0.7333         0.8367        77.2378      -4.119827      0.9363301
      6169.5000         0.9677         0.7306         0.8347        77.2701      -4.159454      0.9355214
      6170.0000         0.9643         0.7278         0.8327        77.3026      -4.199272      0.9347087
      6170.5000         0.9609         0.7251         0.8425         77.335      -4.238991      0.9338982
      6171.0000         0.9575         0.7223         0.8671        77.3674      -4.278717      0.9330874
      6171.5000         0.9541         0.7196         0.8918        77.3999      -4.318542      0.9322746
      6172.0000         0.9506         0.7168         0.9164        77.3329      -4.258865      0.9334925
      6172.5000         0.9472         0.7141          0.941        77.1659      -4.099182      0.9367514
      6173.0000         0.9438         0.7113         0.9656         76.999      -3.939606       0.940008
      6173.5000         0.9404         0.7086         0.9902        76.8322      -3.780128      0.9432627
      6174.0000         0.9384         0.7066         0.9707        76.6653      -3.620552      0.9465194
      6174.5000         0.9403         0.7045         0.9454        76.4984      -3.460968      0.9497762
      6175.0000         0.9422         0.7024           0.92        76.3314      -3.301292      0.9530349
      6175.5000          0.944         0.7003         0.8947        76.1646      -3.141815      0.9562895
      6176.0000         0.9459         0.6982         0.8693        75.9977      -2.982246       0.959546
      6176.5000         0.9478         0.6961         0.8498        75.9054      -2.897263      0.9612803
      6177.0000         0.9497         0.6941         0.8555        76.2892      -3.288383      0.9532983
      6177.5000         0.9516          0.692         0.8612        76.6727      -3.679207      0.9453223
      6178.0000         0.9535         0.6899          0.867        77.0565      -4.070335      0.9373401
      6178.5000         0.9554         0.6878         0.8727        77.4402      -4.461357        0.92936
      6179.0000         0.9573         0.6857         0.8784        77.3398      -4.368271      0.9312598
      6179.5000         0.9591         0.6837         0.8842        77.1473      -4.183098      0.9350388
      6180.0000          0.961         0.6816         0.8899        76.9546      -3.997719      0.9388221
      6180.5000         0.9629         0.6795         0.9033        76.7617      -3.812149      0.9426092
      6181.0000         0.9598         0.6781         0.9169         76.569      -3.626762      0.9463926
      6181.5000         0.9567         0.6776         0.9306        76.4166      -3.481689      0.9493533
      6182.0000         0.9536         0.6772         0.9442        76.8105      -3.882912      0.9411651
      6182.5000         0.9505         0.6767         0.9578        77.2046      -4.284332      0.9329728
      6183.0000         0.9474         0.6762         0.9715        77.5986      -4.685654      0.9247826
      6183.5000         0.9443         0.6757         0.9851        77.9927      -5.087074      0.9165903
      6184.0000         0.9412         0.6752         0.9818        78.3383      -5.440002      0.9093877
      6184.5000         0.9381         0.6747         0.9736        78.4238      -5.532822      0.9074934
      6185.0000          0.935         0.6742         0.9653        78.1575      -5.273842      0.9127787
      6185.5000         0.9319         0.6737          0.957        77.5975      -4.721169      0.9240578
      6186.0000         0.9288         0.6732         0.9488         77.037      -4.167992      0.9353471
      6186.5000         0.9257         0.6756         0.9405        76.4766      -3.614914      0.9466344
