#------------------------------------------------------------------------------
# Created by    : vladimir.rabinovich
# Created on    : 09/19/2023 17:21:52
#------------------------------------------------------------------------------
~Version Information Section
VERS.           2.0     :   CWLS log ASCII Standard - VERSION 2.0
WRAP.           NO      :   One line per depth step
~Well Information Section
#MNEM       .UNIT                                         VALUE :DESCRIPTION
#------------------------------------------------------------------------------
STRT        .FT                                            2690 :START DEPTH
STOP        .FT                                            8272 :STOP DEPTH
STEP        .FT                                             0.5 :STEP      
NULL        .                                           -999.25 :NULL      
COMP        .                        PG&E RESOURCES OFFSHORE CO :COMPANY   
WELL        .                               OCS G09053 ST00BP00 :WELL      
FLD         .                              GALVESTON BLOCK 0427 :FIELD     
LOC         .                                                   :LOCATION  
CNTY        .                             GALVESTON LARGE BLOCK :LOCATION  
STAT        .                                             TEXAS :STATE     
CTRY        .                                     UNITED STATES :COUNTRY   
SRVC        .                                                   :SERVICE COMPANY
DATE        .                             9/13/2023 11:11:09 AM :LOG DATE  
API         .                                    42706402380000 :API NUMBER
UWI         .                                    42706402380000 :UNIQUE WELL ID
XCOORD      .                                  948581.259723803 :SURFACE X 
YCOORD      .                                  10360666.4777899 :SURFACE Y 
LAT         .                                         28.532718 :LATITUDE  
LON         .                                        -95.155068 :LONGITUDE 
ELEV        .FT                                             119 :ELEVATION VALUE
ELEV_TYPE   .                                                KB :ELEVATION REFERENCE TYPE
~Curve Information Section
#MNEM       .UNIT                                      API CODE :CURVE DESCRIPTION
#------------------------------------------------------------------------------
DEPT        .FT                                                 :DEPTH     
CALI        .IN                                                 :          
DRHO        .G/C3                                               :          
DT          .US/F                                               :          
GR          .GAPI                                               :          
GR_1        .GAPI                                               :          
GR_NORM     .GAPI                                               :GammaRay Normalized
ILD         .OHMM                                               :          
ILM         .OHMM                                               :          
NPHI        .%                                                  :          
RFOC        .OHMM                                               :          
RHOB        .G/C3                                               :          
SP          .MV                                                 :          
SP_NORM     .MV                                                 :SP Normalized
VSH_GR      .V/V                                                :Volume of Shale from GR
VSH_SP      .V/V                                                :Volume of Shale from SP
~A        DEPTH           CALI           DRHO             DT             GR           GR_1        GR_NORM            ILD            ILM           NPHI           RFOC           RHOB             SP        SP_NORM         VSH_GR         VSH_SP
# ...
      3863.0000        -999.25        -999.25       141.4082        97.6973        -999.25       88.81757         0.8241         0.8045        -999.25          1.025        -999.25       -44.0533      0.3911438              1              1
      3863.5000        -999.25        -999.25       141.5732        97.5791        -999.25       88.68073         0.8256         0.7994        -999.25         1.0217        -999.25       -44.2546      0.1898422              1              1
      3864.0000        -999.25        -999.25       141.3513        96.7736        -999.25       87.76604         0.8257         0.7951        -999.25         1.0216        -999.25       -44.4273     0.01714325              1              1
      3864.5000        -999.25        -999.25       141.0601        95.6251        -999.25       86.46317         0.8231         0.7908        -999.25         1.0238        -999.25       -44.5656     -0.1211586              1              1
      3865.0000        -999.25        -999.25       141.9329        94.5309        -999.25       85.22176         0.8203         0.7866        -999.25          1.029        -999.25       -44.5967      -0.152256              1              1
      3865.5000        -999.25        -999.25       143.3594        93.7628        -999.25        84.3494         0.8173         0.7905        -999.25         1.0317        -999.25       -44.5278    -0.08335876              1              1
      3866.0000        -999.25        -999.25       144.7073        94.0193        -999.25       84.63661         0.8143         0.7952        -999.25         1.0249        -999.25       -44.3369      0.1075439              1              1
      3866.5000        -999.25        -999.25       145.2971        95.2019        -999.25       85.97192         0.8161            0.8        -999.25         1.0177        -999.25       -44.1005      0.3439445              1              1
      3867.0000        -999.25        -999.25       144.9333        95.6107        -999.25        86.4315         0.8193         0.8069        -999.25         1.0095        -999.25       -43.8103      0.6341438              1              1
      3867.5000        -999.25        -999.25       143.9661        95.6697        -999.25        86.4952         0.8251         0.8174        -999.25         1.0111        -999.25       -43.6779      0.7665443              1              1
      3868.0000        -999.25        -999.25        142.467        95.7847        -999.25       86.62228         0.8328          0.828        -999.25         1.0398        -999.25       -43.5678      0.8766441              1              1
      3868.5000        -999.25        -999.25       138.9202        94.9449        -999.25       85.66877         0.8385         0.8375        -999.25           1.06        -999.25       -43.6958       0.748642              1              1
      3869.0000        -999.25        -999.25       136.2046        91.7212        -999.25       82.01733         0.8416         0.8442        -999.25         1.0806        -999.25       -43.8677      0.5767441              1              1
      3869.5000        -999.25        -999.25       133.9741        88.5231        -999.25       78.39485         0.8446          0.851        -999.25         1.0945        -999.25       -44.3447     0.09974289      0.9658479              1
      3870.0000        -999.25        -999.25       132.3538        86.0326        -999.25       75.57319         0.8475         0.8531        -999.25         1.1049        -999.25       -44.7648     -0.3203583      0.9058125              1
      3870.5000        -999.25        -999.25       132.1621        84.3843        -999.25       73.70468         0.8523         0.8524        -999.25         1.0999        -999.25       -45.0098     -0.5653572       0.866057              1
      3871.0000        -999.25        -999.25       132.3193        84.2572        -999.25       73.55776         0.8584         0.8517        -999.25         1.0932        -999.25       -44.9878     -0.5433578      0.8629311              1
      3871.5000        -999.25        -999.25        132.856        87.0422        -999.25       76.70656         0.8579          0.848        -999.25         1.0775        -999.25       -44.6793     -0.2348557      0.9299268              1
      3872.0000        -999.25        -999.25       135.1199        90.0771        -999.25        80.1382         0.8534         0.8393        -999.25          1.059        -999.25       -44.3897     0.05474091              1              1
      3872.5000        -999.25        -999.25       137.2791        90.3682        -999.25       80.46456          0.844         0.8307        -999.25         1.0394        -999.25       -44.1331      0.3113441              1              1
      3873.0000        -999.25        -999.25       139.7551        89.2542        -999.25       79.20074         0.8335         0.8195        -999.25         1.0268        -999.25       -43.9401      0.5043411      0.9829946              1
      3873.5000        -999.25        -999.25       141.1262        90.5911        -999.25       80.71069         0.8221         0.8078        -999.25         1.0166        -999.25       -43.7925      0.6519432              1              1
      3874.0000        -999.25        -999.25       141.2317        94.5802        -999.25       85.22221         0.8108         0.8012        -999.25         1.0122        -999.25       -43.5288      0.9156418              1              1
      3874.5000        -999.25        -999.25       140.9104         95.417        -999.25       86.16617          0.806         0.8039        -999.25         1.0084        -999.25       -43.2355       1.208942              1              1
      3875.0000        -999.25        -999.25       140.7708        95.6454        -999.25       86.42158         0.8014         0.8065        -999.25         1.0128        -999.25       -43.1774       1.267044              1              1
      3875.5000        -999.25        -999.25       140.5293        96.4532        -999.25       87.33273         0.8061         0.8155        -999.25         1.0171        -999.25       -43.1272       1.317242              1              1
      3876.0000        -999.25        -999.25       140.1208        97.7083        -999.25       88.75008          0.811         0.8267        -999.25         1.0288        -999.25       -43.4532      0.9912415              1              1
      3876.5000        -999.25        -999.25       139.1387        99.6206        -999.25       90.91122         0.8172          0.838        -999.25         1.0448        -999.25       -43.7908      0.6536446              1              1
      3877.0000        -999.25        -999.25       138.0034        97.6863        -999.25       88.71904         0.8243         0.8464        -999.25         1.0637        -999.25       -44.0623      0.3821411              1              1
      3877.5000        -999.25        -999.25       136.7112        95.5673        -999.25       86.31782         0.8314         0.8536        -999.25         1.0853        -999.25       -43.7019      0.7425423              1              1
      3878.0000        -999.25        -999.25       135.4106        92.8539        -999.25        83.2439         0.8383         0.8608        -999.25         1.0871        -999.25       -43.3964       1.048042              1              1
      3878.5000        -999.25        -999.25       134.7495        90.4462        -999.25       80.51595          0.844         0.8634        -999.25         1.0868        -999.25       -43.2292       1.215244              1              1
      3879.0000        -999.25        -999.25       134.6292        90.3219        -999.25       80.37221         0.8454         0.8644        -999.25         1.0865        -999.25       -43.3159       1.128544              1              1
      3879.5000        -999.25        -999.25       135.1111        91.8801        -999.25       82.13259         0.8466         0.8654        -999.25         1.0863        -999.25        -43.461      0.9834442              1              1
