#------------------------------------------------------------------------------
# Created by    : vladimir.rabinovich
# Created on    : 09/19/2023 17:21:31
#------------------------------------------------------------------------------
~Version Information Section
VERS.           2.0     :   CWLS log ASCII Standard - VERSION 2.0
WRAP.           NO      :   One line per depth step
~Well Information Section
#MNEM       .UNIT                                         VALUE :DESCRIPTION
#------------------------------------------------------------------------------
STRT        .FT                                              40 :START DEPTH
STOP        .FT                                           13401 :STOP DEPTH
STEP        .FT                                             0.5 :STEP      
NULL        .                                           -999.25 :NULL      
COMP        .                                        TEXACO USA :COMPANY   
WELL        .                               OCS G01759 ST00BP00 :WELL      
FLD         .                                           WILDCAT :FIELD     
LOC         .                                                   :LOCATION  
CNTY        .                             GALVESTON LARGE BLOCK :LOCATION  
STAT        .                                             TEXAS :STATE     
CTRY        .                                     UNITED STATES :COUNTRY   
SRVC        .                                                   :SERVICE COMPANY
DATE        .                             9/13/2023 11:19:24 AM :LOG DATE  
API         .                                    42706001440000 :API NUMBER
UWI         .                                    42706001440000 :UNIQUE WELL ID
XCOORD      .                                   1131482.4965331 :SURFACE X 
YCOORD      .                                  10562344.6824913 :SURFACE Y 
LAT         .                                         29.095227 :LATITUDE  
LON         .                                        -94.593967 :LONGITUDE 
ELEV        .FT                                              83 :ELEVATION VALUE
ELEV_TYPE   .                                                KB :ELEVATION REFERENCE TYPE
~Curve Information Section
#MNEM       .UNIT                                      API CODE :CURVE DESCRIPTION
#------------------------------------------------------------------------------
DEPT        .FT                                                 :DEPTH     
CALI        .IN                                                 :          
DT          .US/F                                               :          
GR          .GAPI                                               :          
GR_NORM     .GAPI                                               :GammaRay Normalized
RHOB        .G/C3                                               :          
SP          .MV                                                 :          
SP_NORM     .MV                                                 :SP Normalized
VSH_GR      .V/V                                                :Volume of Shale from GR
VSH_SP      .V/V                                                :Volume of Shale from SP
~A        DEPTH           CALI             DT             GR        GR_NORM           RHOB             SP        SP_NORM         VSH_GR         VSH_SP
# ...
      7407.0000        12.3606       122.5941        47.6859       78.09171         2.3046       -28.2947      0.1084194       0.959398              1
      7407.5000        12.4025       122.0121        47.0272       77.27431          2.284       -28.0207       0.376606      0.9420067              1
      7408.0000        12.4302       122.9402        46.7651       76.94655         2.2877       -27.8354      0.5560932       0.935033              1
      7408.5000        12.4525       122.9088        47.6787       78.07027         2.3158       -27.8328      0.5528774       0.958942              1
      7409.0000        12.4388       122.6129         49.712       80.57634         2.3219       -28.3103     0.06956291              1              1
      7409.5000        12.3295        123.083         50.883       82.01783         2.3123       -28.9087     -0.5346527              1      0.9893069
      7410.0000         12.136       123.2621        50.2837       81.27377         2.3433       -29.5556      -1.187365              1      0.9762527
      7410.5000        12.0209       125.5503        47.5334       77.87418         2.3588       -30.1271      -1.764681      0.9547697      0.9647064
      7411.0000        12.0902        127.132         46.844       77.01888         2.3649       -30.4874      -2.130795      0.9365718      0.9573841
      7411.5000        12.2021       126.6503        47.9177       78.34025         2.3584       -30.8465      -2.495708      0.9646862      0.9500858
      7412.0000        12.4252        123.901        48.2618       78.76087         2.3688       -30.8957      -2.550724      0.9736356      0.9489855
      7412.5000        12.6876       122.2747        48.2183         78.703         2.3604       -30.7839      -2.444736      0.9724042      0.9511053
      7413.0000        12.8443       120.3409        46.8032       76.95177         2.3448       -30.5673      -2.233953       0.935144       0.955321
      7413.5000        12.8566       119.2567        43.3611       72.69808         2.3369       -30.3916      -2.064066        0.84464      0.9587187
      7414.0000        12.8253       118.5967        41.4451       70.32847         2.3538       -30.5281      -2.206379      0.7942227      0.9558724
      7414.5000        12.7892       118.2195        41.5145       70.40996         2.3687       -30.9446      -2.628695      0.7959566      0.9474261
      7415.0000        12.7946       117.6534         41.695       70.62862         2.3867       -31.3539       -3.04381       0.800609      0.9391238
      7415.5000        12.8409       116.6067        42.7006       71.86592         2.3557       -31.6905      -3.386225      0.8269345      0.9322755
      7416.0000        12.9198       116.7374        43.1401       72.40434          2.375       -31.8578      -3.559338      0.8383901      0.9288132
      7416.5000         13.048       117.7769        42.6976       71.85385         2.3704       -31.8617      -3.569054      0.8266777      0.9286189
      7417.0000        13.2206       117.9729        42.7432       71.90597         2.3579       -31.8346      -3.547768      0.8277866      0.9290447
      7417.5000        13.1792       118.1217         44.185       73.68179         2.3563       -31.7061      -3.425081      0.8655701      0.9314983
      7418.0000        13.0136       119.6742        46.2772       76.26057         2.3514       -31.5406      -3.265396      0.9204378      0.9346921
      7418.5000         13.325       119.3246        45.0731       74.76985         2.3254       -31.3741       -3.10471      0.8887203      0.9379058
      7419.0000        13.3862       119.1732         45.338        75.0927          2.321       -31.4557      -3.192125      0.8955893      0.9361575
      7419.5000        13.3558       120.2817        46.6495       76.70765         2.3109       -31.8913      -3.633539        0.92995      0.9273292
      7420.0000        13.2231       118.9642        48.0667       78.45309         2.3126       -31.9851      -3.733152       0.967087       0.925337
      7420.5000        13.1524       118.8929        49.7625        80.5425         2.3353       -31.7845      -3.538368              1      0.9292327
      7421.0000        12.9312       118.5114        48.4149       78.87461         2.3377       -31.5089      -3.268581      0.9760556      0.9346284
      7421.5000        12.8767       118.7697        48.1075       78.49092          2.323       -31.0403      -2.805798      0.9678919      0.9438841
      7422.0000        12.9543       119.4249        48.5543       79.03834         2.3312        -30.608      -2.379311      0.9795391      0.9524138
      7422.5000        12.9147        119.342        46.9389       77.03984         2.3476       -30.3052      -2.082327      0.9370179      0.9583535
      7423.0000        12.9059        119.235        46.4305       76.40801         2.3468       -30.3708       -2.15374      0.9235747      0.9569252
      7423.5000        12.9873         119.67        46.4131       76.38235          2.349          -30.4      -2.188753      0.9230286      0.9562249
      7424.0000         12.991       119.4189        45.6334       75.41557         2.3473        -30.314      -2.108568       0.902459      0.9578286
      7424.5000         12.919       120.7185        44.3147       73.78336         2.3273       -30.0296      -1.829983      0.8677312      0.9634004
      7425.0000        12.8089       121.3955        46.8512       76.91065         2.3366       -29.6975      -1.503698      0.9342692      0.9699261
      7425.5000        12.6969       121.9341        48.8425       79.36486         2.3499       -29.3608      -1.172812      0.9864864      0.9765438
      7426.0000         12.654       120.5951        49.3826       80.02749         2.3461       -29.5718      -1.389626              1      0.9722075
      7426.5000        12.6773       119.1582        49.2274       79.83169         2.3482       -30.2899      -2.113541      0.9964189      0.9577292
      7427.0000        12.8096       118.5586         49.459       80.11344         2.3598       -31.1385      -2.967955              1      0.9406409
      7427.5000        12.9782       119.3318        48.8965       79.41481         2.3677       -31.5789      -3.414169      0.9875491      0.9317166
      7428.0000         12.922       119.5944        48.3693       78.75977         2.3811       -31.7146      -3.555683      0.9736122      0.9288864
      7428.5000        12.8754       120.4039        48.2913       78.65929         2.3805        -31.894      -3.740898      0.9714742       0.925182
      7429.0000        12.8642       121.6212        48.1603       78.49338         2.3647       -32.0705      -3.923212      0.9679442      0.9215357
      7429.5000        12.8808       119.9429        46.0585       75.89437         2.3568       -31.9872      -3.845726      0.9126462      0.9230855
      7430.0000         12.878       120.9653        44.7014       74.21476         2.3735       -31.5873      -3.451641      0.8769098      0.9309672
      7430.5000        12.8894       121.7882        43.2002       72.35725         2.3413       -30.7699      -2.640055      0.8373884      0.9471989
      7431.0000        12.9497       121.1282        42.7726       71.82516         2.3447       -30.2181       -2.09407      0.8260673      0.9581186
      7431.5000        12.8142       122.0206        42.7137       71.74827          2.368       -29.7489      -1.630684      0.8244312      0.9673863
      7432.0000        12.7517       122.4913         42.079       70.96051         2.3279       -29.7368      -1.624397      0.8076704      0.9675121
      7432.5000        12.8495       121.9431        44.1514       73.51484          2.317       -29.8578      -1.751213      0.8620179      0.9649757
      7433.0000        12.8508       123.5876        45.0221        74.5856         2.3351       -29.9015      -1.800728         0.8848      0.9639854
