#------------------------------------------------------------------------------
# Created by    : vladimir.rabinovich
# Created on    : 09/19/2023 17:21:52
#------------------------------------------------------------------------------
~Version Information Section
VERS.           2.0     :   CWLS log ASCII Standard - VERSION 2.0
WRAP.           NO      :   One line per depth step
~Well Information Section
#MNEM       .UNIT                                         VALUE :DESCRIPTION
#------------------------------------------------------------------------------
STRT        .FT                                            1924 :START DEPTH
STOP        .FT                                            6497 :STOP DEPTH
STEP        .FT                                             0.5 :STEP      
NULL        .                                           -999.25 :NULL      
COMP        .                                ATP OIL & GAS CORP :COMPANY   
WELL        .                               OCS G12451 ST00BP00 :WELL      
FLD         .                                           WILDCAT :FIELD     
LOC         .                                                   :LOCATION  
CNTY        .                                BRAZOS LARGE BLOCK :LOCATION  
STAT        .                                             TEXAS :STATE     
CTRY        .                                     UNITED STATES :COUNTRY   
SRVC        .                                                   :SERVICE COMPANY
DATE        .                             9/13/2023 11:09:51 AM :LOG DATE  
API         .                                    42704402900000 :API NUMBER
UWI         .                                    42704402900000 :UNIQUE WELL ID
XCOORD      .                                  861130.254262163 :SURFACE X 
YCOORD      .                                  10349158.9913488 :SURFACE Y 
LAT         .                                        28.4964901 :LATITUDE  
LON         .                                       -95.4265639 :LONGITUDE 
ELEV        .FT                                              91 :ELEVATION VALUE
ELEV_TYPE   .                                                KB :ELEVATION REFERENCE TYPE
~Curve Information Section
#MNEM       .UNIT                                      API CODE :CURVE DESCRIPTION
#------------------------------------------------------------------------------
DEPT        .FT                                                 :DEPTH     
CALI        .IN                                                 :          
DPHI        .G/C3                                               :          
DRHO        .G/C3                                               :          
GR          .GAPI                                               :          
GR_NORM     .GAPI                                               :GammaRay Normalized
ILD         .OHMM                                               :          
ILM         .OHMM                                               :          
NPHI        .%                                                  :          
SFL         .OHMM                                               :          
SP          .MV                                                 :          
SP_NORM     .MV                                                 :SP Normalized
VSH_GR      .V/V                                                :Volume of Shale from GR
VSH_SP      .V/V                                                :Volume of Shale from SP
~A        DEPTH           CALI           DPHI           DRHO             GR        GR_NORM            ILD            ILM           NPHI            SFL             SP        SP_NORM         VSH_GR         VSH_SP
# ...
      5876.0000         9.3389        20.2039         0.0565         90.233       68.92817         0.7943          0.688        34.7721         0.9976       -68.5144      -20.32444      0.7644292      0.6724672
      5876.5000         9.3256        21.5141         0.0438        89.3967       68.01389         0.7421           0.67        33.7003         1.2077       -71.4396      -23.26327      0.7449765      0.6226565
      5877.0000         9.3206        22.2965         0.0326        90.1162       68.78995         0.6343         0.6228        32.5724         1.1859       -69.2522       -21.0895      0.7614883         0.6595
      5877.5000         9.3233        21.7591         0.0288        90.6416       69.35512         0.5542         0.5606        32.1249         0.8506       -65.3611      -17.21203      0.7735131      0.7252198
      5878.0000         9.3059        20.8568         0.0472        84.7141       62.90944         0.4876         0.4917         32.957         0.7421       -65.2975      -17.16206      0.6363711      0.7260667
      5878.5000         9.2962        20.6387         0.0594        79.0006       56.69628         0.4395         0.4363        33.1042         1.0363       -71.4459       -23.3241      0.5041761      0.6216255
      5879.0000         9.3009        22.2326         0.0443        68.0562       44.79991         0.4151          0.417        31.7814          1.165       -83.2666      -35.15843      0.2510619      0.4210436
      5879.5000         9.2992        25.3533         0.0226         69.062       45.88702         0.4165          0.404        30.3129         1.0771       -89.4916      -41.39706      0.2741919      0.3153041
      5880.0000         9.3043         26.597         0.0166         79.225        56.9231         0.4343         0.4106        30.0394         0.7079       -84.5828      -36.50189      0.5090021       0.398273
      5880.5000         9.3185        25.3608         0.0268        89.7245       68.32478         0.4632         0.4286        30.3682         0.4657       -73.8988      -25.83152      0.7515911      0.5791267
      5881.0000         9.3549         22.872         0.0378        101.114       80.69341         0.5057         0.4668          31.08         0.5696       -64.0922      -16.03856              1      0.7451093
      5881.5000         9.4091         20.688         0.0492       103.5155       83.29691         0.5512         0.5398          31.88         0.7763       -55.6866      -7.646584              1       0.887346
      5882.0000         9.4481        19.6826         0.0601       103.4565       83.22713          0.621         0.6096         33.574         1.0555       -53.7373      -5.710918              1      0.9201539
      5882.5000         9.4798        19.7881         0.0739       102.2955        81.9601         0.6946         0.6794         35.274         0.7717       -52.4286      -4.415848              1      0.9421043
      5883.0000         9.5369        20.7552         0.0901        98.2573       77.56707         0.7947         0.7508        36.7515         0.7801       -51.4739      -3.474781      0.9482355      0.9580545
      5883.5000          9.614        22.4193         0.1041        96.2717       75.40414         0.8888         0.7947        38.7802         0.8843       -50.7048      -2.719311      0.9022158      0.9708591
      5884.0000         9.6357        23.5233         0.1226        96.4933       75.63924         0.9337         0.7912        38.8055         1.0332       -50.6699       -2.69804       0.907218      0.9712197
      5884.5000         9.5704        23.5196         0.1422        97.6254       76.86356         0.9965         0.7923        37.7576         1.0769       -51.8827      -3.924477      0.9332673      0.9504326
      5885.0000         9.4838        22.2535         0.1569        98.2191       77.50294         1.0713         0.8243        37.3704         0.8692       -53.3584      -5.413803       0.946871      0.9251898
      5885.5000         9.4267        20.8224         0.1459        97.0159       76.19006         1.1295         0.8644         37.371         0.7827        -54.204      -6.273037      0.9189374      0.9106265
      5886.0000         9.4524        20.8022          0.114        92.9739        71.7929         1.1497         0.9069        37.4792         0.8442       -54.3491      -6.431767      0.8253809      0.9079362
      5886.5000         9.5152        21.1746         0.1183        87.8251       66.19327         1.1138         0.9299        36.7993         1.0711       -54.5905      -6.686798      0.7062398      0.9036136
      5887.0000         9.5617        21.1089         0.1261        81.0684       58.84669         1.0187         0.9158        34.4255         1.3127       -55.6816      -7.791531      0.5499295      0.8848893
      5887.5000         9.4407        20.1636          0.097        77.5985       55.07111         0.9254         0.8667        32.2296         1.5071       -58.6979      -10.82146      0.4695982      0.8335345
      5888.0000         9.2958        19.1351         0.0612        77.6321       55.10196         0.8085         0.7495        31.0606         1.4263       -63.5239      -15.66109      0.4702544      0.7515069
      5888.5000         9.2288         18.815         0.0454        79.2474       56.85126         0.7054         0.6319        30.9747         0.9983       -67.2031      -19.35393      0.5074737      0.6889165
      5889.0000         9.1994        19.7872         0.0478        76.8768       54.27003         0.6301         0.5709        31.4694         0.7992       -73.8589      -26.02336      0.4525539      0.5758753
      5889.5000         9.1953        21.2347         0.0416        70.3408       47.16325         0.5351         0.5124        31.6008         0.7614       -82.9774      -35.15549      0.3013457      0.4210934
      5890.0000         9.1789          22.63         0.0353        64.3282       40.62511         0.4578          0.451         31.222         0.8585       -90.5305      -42.72222      0.1622365      0.2928437
      5890.5000         9.1841        23.5868          0.032        62.5923       38.73347         0.4091         0.4172        30.4765         1.0351       -97.2809      -49.48625      0.1219887      0.1781991
      5891.0000         9.1769        24.4943         0.0299        61.7482       37.81072         0.3734         0.3911        29.8956         1.1988      -102.1268      -54.34578      0.1023557     0.09583418
      5891.5000         9.1916        25.8119          0.027        60.5639       36.51836         0.3433         0.3728        29.8233         1.2322      -104.2781      -56.51072     0.07485864     0.05914041
      5892.0000         9.2015        27.4133         0.0213        59.6695       35.54097         0.3304         0.3643        30.6871         1.0731      -105.0482      -57.29445     0.05406311      0.0458568
      5892.5000         9.2025        28.5898         0.0157        60.2143       36.12721         0.3305         0.3596        31.5327          1.075      -105.0138      -57.27368     0.06653643     0.04620885
      5893.0000         9.2067        29.4028         0.0118        61.7501       37.79015         0.3449         0.3641        31.6492         1.1405      -104.6919      -56.96541      0.1019182     0.05143369
      5893.5000         9.2106        29.5122         0.0115        64.5452       40.82127         0.3757         0.3788        31.3018         0.9869      -104.0874      -56.37454      0.1664099     0.06144844
      5894.0000         9.2152        28.3963         0.0104        70.3184       47.08799         0.4133         0.4189        30.8866         0.6712      -101.8575      -54.15827      0.2997445     0.09901235
      5894.5000         9.2062        26.3198         0.0117        78.7762       56.27143         0.4802         0.4843        30.4702         0.5528       -90.8346      -43.14901      0.4951367      0.2856101
