#------------------------------------------------------------------------------
# Created by    : vladimir.rabinovich
# Created on    : 09/19/2023 17:21:32
#------------------------------------------------------------------------------
~Version Information Section
VERS.           2.0     :   CWLS log ASCII Standard - VERSION 2.0
WRAP.           NO      :   One line per depth step
~Well Information Section
#MNEM       .UNIT                                         VALUE :DESCRIPTION
#------------------------------------------------------------------------------
STRT        .FT                                            4185 :START DEPTH
STOP        .FT                                            8075 :STOP DEPTH
STEP        .FT                                             0.5 :STEP      
NULL        .                                           -999.25 :NULL      
COMP        .                                         HESS CORP :COMPANY   
WELL        .                               OCS G07236 ST00BP00 :WELL      
FLD         .                              GALVESTON BLOCK 0210 :FIELD     
LOC         .                                                   :LOCATION  
CNTY        .                             GALVESTON LARGE BLOCK :LOCATION  
STAT        .                                             TEXAS :STATE     
CTRY        .                                     UNITED STATES :COUNTRY   
SRVC        .                                                   :SERVICE COMPANY
DATE        .                             9/13/2023 11:19:34 AM :LOG DATE  
API         .                                    42706402930000 :API NUMBER
UWI         .                                    42706402930000 :UNIQUE WELL ID
XCOORD      .                                   1127714.7472722 :SURFACE X 
YCOORD      .                                  10563055.4663979 :SURFACE Y 
LAT         .                                         29.097041 :LATITUDE  
LON         .                                        -94.605794 :LONGITUDE 
ELEV        .FT                                              89 :ELEVATION VALUE
ELEV_TYPE   .                                                KB :ELEVATION REFERENCE TYPE
~Curve Information Section
#MNEM       .UNIT                                      API CODE :CURVE DESCRIPTION
#------------------------------------------------------------------------------
DEPT        .FT                                                 :DEPTH     
CALI        .IN                                                 :          
DRHO        .G/CC                                               :          
DT          .US/F                                               :          
ILD         .OHMM                                               :          
ILM         .OHMM                                               :          
NPHI        .%                                                  :          
RFOC        .OHMM                                               :          
RHOB        .G/CC                                               :          
SP          .MV                                                 :          
SP_NORM     .MV                                                 :SP Normalized
VSH_SP      .V/V                                                :Volume of Shale from SP
~A        DEPTH           CALI           DRHO             DT            ILD            ILM           NPHI           RFOC           RHOB             SP        SP_NORM         VSH_SP
# ...
      8055.0000        -999.25        -999.25        -999.25         0.6781         0.6507        -999.25         0.8726        -999.25        -38.254     -0.5181503      0.9930913
      8055.5000        -999.25        -999.25        -999.25         0.6793         0.6536        -999.25         0.8751        -999.25       -37.6281      0.1077499              1
      8056.0000        -999.25        -999.25        -999.25         0.6804         0.6571        -999.25          0.886        -999.25       -36.6187       1.117153              1
      8056.5000        -999.25        -999.25        -999.25          0.682         0.6602        -999.25         0.8863        -999.25       -36.0344        1.70145              1
      8057.0000        -999.25        -999.25        -999.25         0.6838         0.6631        -999.25          0.886        -999.25       -36.2531        1.48275              1
      8057.5000        -999.25        -999.25        -999.25         0.6798         0.6639        -999.25         0.8866        -999.25       -37.2581      0.4777527              1
      8058.0000        -999.25        -999.25        -999.25         0.6742         0.6624        -999.25         0.8872        -999.25       -37.7649    -0.02904892      0.9996127
      8058.5000        -999.25        -999.25        -999.25          0.663         0.6589        -999.25         0.8891        -999.25       -37.7903    -0.05444717       0.999274
      8059.0000        -999.25        -999.25        -999.25         0.6511         0.6543        -999.25         0.8901        -999.25       -37.4604      0.2754517              1
      8059.5000        -999.25        -999.25        -999.25         0.6445         0.6475        -999.25         0.8884        -999.25       -37.1003      0.6355515              1
      8060.0000        -999.25        -999.25        -999.25         0.6366         0.6405        -999.25         0.8848        -999.25       -37.2536      0.4822502              1
      8060.5000        -999.25        -999.25        -999.25          0.627         0.6328        -999.25         0.8812        -999.25       -37.7102     0.02565002              1
      8061.0000        -999.25        -999.25        -999.25         0.6221         0.6245        -999.25         0.8784        -999.25       -38.5657     -0.8298492      0.9889354
      8061.5000        -999.25        -999.25        -999.25         0.6162         0.6151        -999.25         0.8719        -999.25       -39.1276       -1.39175      0.9814433
      8062.0000        -999.25        -999.25        -999.25          0.609         0.6082        -999.25         0.8576        -999.25        -39.345       -1.60915      0.9785447
      8062.5000        -999.25        -999.25        -999.25         0.6042         0.6029        -999.25         0.8339        -999.25       -39.5447      -1.808849       0.975882
      8063.0000        -999.25        -999.25        -999.25         0.6002         0.6004        -999.25         0.8232        -999.25       -39.7721      -2.036247        0.97285
      8063.5000        -999.25        -999.25        -999.25          0.601         0.5994        -999.25         0.8259        -999.25       -40.0334       -2.29755       0.969366
      8064.0000        -999.25        -999.25        -999.25         0.6026         0.6002        -999.25          0.837        -999.25       -40.2787       -2.54285      0.9660953
      8064.5000        -999.25        -999.25        -999.25         0.6067         0.6047        -999.25         0.8533        -999.25        -39.967      -2.231148      0.9702514
      8065.0000        -999.25        -999.25        -999.25          0.611         0.6099        -999.25         0.8683        -999.25       -39.4014       -1.66555      0.9777927
      8065.5000        -999.25        -999.25        -999.25         0.6161         0.6168        -999.25         0.8736        -999.25       -38.7556      -1.019749      0.9864033
      8066.0000        -999.25        -999.25        -999.25         0.6213         0.6255        -999.25         0.8637        -999.25       -38.3008      -0.564949      0.9924673
      8066.5000        -999.25        -999.25        -999.25         0.6255         0.6314        -999.25         0.8551        -999.25        -38.209     -0.4731483      0.9936914
      8067.0000        -999.25        -999.25        -999.25         0.6298         0.6331        -999.25         0.8543        -999.25         -38.36     -0.6241493       0.991678
      8067.5000        -999.25        -999.25        -999.25         0.6346         0.6337        -999.25          0.858        -999.25       -38.4359     -0.7000504       0.990666
      8068.0000        -999.25        -999.25        -999.25         0.6392         0.6335        -999.25         0.8626        -999.25       -38.2695     -0.5336494      0.9928847
      8068.5000        -999.25        -999.25        -999.25         0.6488         0.6359        -999.25         0.8667        -999.25       -38.1321     -0.3962479      0.9947167
      8069.0000        -999.25        -999.25        -999.25          0.655         0.6407        -999.25         0.8707        -999.25       -38.1034     -0.3675499      0.9950993
      8069.5000        -999.25        -999.25        -999.25         0.6589         0.6457        -999.25         0.8689        -999.25       -38.1785     -0.4426498       0.994098
      8070.0000        -999.25        -999.25        -999.25         0.6618         0.6499        -999.25         0.8621        -999.25       -38.2948     -0.5589485      0.9925473
      8070.5000        -999.25        -999.25        -999.25         0.6645         0.6512        -999.25         0.8486        -999.25       -38.4264     -0.6905479      0.9907927
      8071.0000        -999.25        -999.25        -999.25         0.6648         0.6483        -999.25         0.8442        -999.25       -38.5626     -0.8267479      0.9889767
      8071.5000        -999.25        -999.25        -999.25         0.6638         0.6449        -999.25          0.859        -999.25       -38.8351      -1.099247      0.9853434
      8072.0000        -999.25        -999.25        -999.25          0.655         0.6424        -999.25         0.8792        -999.25       -39.1625      -1.426647       0.980978
      8072.5000        -999.25        -999.25        -999.25         0.6471         0.6414        -999.25         0.8919        -999.25        -39.154      -1.418148      0.9810914
      8073.0000        -999.25        -999.25        -999.25         0.6407         0.6413        -999.25         0.8971        -999.25       -39.0261      -1.290249      0.9827967
      8073.5000        -999.25        -999.25        -999.25         0.6375         0.6424        -999.25         0.8955        -999.25       -38.9943       -1.25845      0.9832207
      8074.0000        -999.25        -999.25        -999.25         0.6348         0.6439        -999.25         0.8985        -999.25       -38.9576      -1.221748      0.9837101
      8074.5000        -999.25        -999.25        -999.25         0.6357         0.6457        -999.25         0.9049        -999.25       -38.5433     -0.8074493       0.989234
      8075.0000        -999.25        -999.25        -999.25         0.6367         0.6492        -999.25         0.9073        -999.25       -38.1296     -0.3937492        0.99475
