#------------------------------------------------------------------------------
# Created by    : vladimir.rabinovich
# Created on    : 09/19/2023 17:22:29
#------------------------------------------------------------------------------
~Version Information Section
VERS.           2.0     :   CWLS log ASCII Standard - VERSION 2.0
WRAP.           NO      :   One line per depth step
~Well Information Section
#MNEM       .UNIT                                         VALUE :DESCRIPTION
#------------------------------------------------------------------------------
STRT        .FT                                             272 :START DEPTH
STOP        .FT                                            9222 :STOP DEPTH
STEP        .FT                                             0.5 :STEP      
NULL        .                                           -999.25 :NULL      
COMP        .                   MCMORAN OFFSHORE EXPLORATION CO :COMPANY   
WELL        .                               OCS G03108 ST00BP00 :WELL      
FLD         .                       MATAGORDA ISLAND BLOCK 0700 :FIELD     
LOC         .                                                   :LOCATION  
CNTY        .                      MATAGORDA ISLAND LARGE BLOCK :LOCATION  
STAT        .                                             TEXAS :STATE     
CTRY        .                                     UNITED STATES :COUNTRY   
SRVC        .                                                   :SERVICE COMPANY
DATE        .                             9/13/2023 11:12:09 AM :LOG DATE  
API         .                                    42703400850000 :API NUMBER
UWI         .                                    42703400850000 :UNIQUE WELL ID
XCOORD      .                                  483045.974763742 :SURFACE X 
YCOORD      .                                  10146137.6323278 :SURFACE Y 
LAT         .                                         27.912878 :LATITUDE  
LON         .                                       -96.5835889 :LONGITUDE 
ELEV        .FT                                              85 :ELEVATION VALUE
ELEV_TYPE   .                                                KB :ELEVATION REFERENCE TYPE
~Curve Information Section
#MNEM       .UNIT                                      API CODE :CURVE DESCRIPTION
#------------------------------------------------------------------------------
DEPT        .FT                                                 :DEPTH     
CILD        .MMHO                                               :          
DT          .US/F                                               :          
GR          .GAPI                                               :          
GR_NORM     .GAPI                                               :GammaRay Normalized
ILD         .OHMM                                               :          
ILM         .OHMM                                               :          
SFL         .OHMM                                               :          
SP          .MV                                                 :          
SP_NORM     .MV                                                 :SP Normalized
VSH_GR      .V/V                                                :Volume of Shale from GR
VSH_SP      .V/V                                                :Volume of Shale from SP
~A        DEPTH           CILD             DT             GR        GR_NORM            ILD            ILM            SFL             SP        SP_NORM         VSH_GR         VSH_SP
# ...
      3264.5000       705.1836       133.7856        61.4142       78.14605         1.4288         1.1718         0.9386       -33.1589        -2.9702      0.9605542       0.961192
      3265.0000       634.3477        136.873        60.2299       76.56424         1.5585         1.2292         0.9428       -32.9351        -2.7464      0.9268987       0.970144
      3265.5000       628.5205       140.3091        59.6131       75.74021          1.619         1.2453         0.9492        -32.525        -2.3363      0.9093662       0.986548
      3266.0000       688.0215       141.6814        59.6633       75.80685         1.5356         1.2301         0.9543       -32.7158        -2.5271      0.9107839       0.978916
      3266.5000       802.2041       142.6152        56.2489        71.2471         1.2928         1.1443         0.9593       -35.1299        -4.9412      0.8137681       0.882352
      3267.0000       930.3516       145.2771        47.1399       59.08323         1.0696         0.9815         0.9525       -38.2774        -8.0887      0.5549624       0.756452
      3267.5000       1066.514       152.6738        40.7405       50.53756         0.8858         0.8553         0.9046       -40.6424       -10.4537      0.3731396       0.661852
      3268.0000       1168.895       166.1912        33.4179       40.75898         0.7371         0.7541         0.7767       -42.2242       -12.0355      0.1650846        0.59858
      3268.5000       1325.416       173.5483        29.9993       36.19363         0.6516           0.67         0.6189       -43.1255       -12.9368     0.06794966       0.562528
      3269.0000       1481.004       167.6394        28.1002       33.65732         0.5932         0.5832          0.554       -43.5028       -13.3141     0.01398557       0.547436
      3269.5000       1753.428       160.3635        27.0645       32.27393         0.5461         0.5205         0.5484       -44.0567        -13.868              0        0.52528
      3270.0000       2016.707       158.2207        26.5635       31.60453         0.5106         0.4859         0.5762       -45.1863       -14.9976              0       0.480096
      3270.5000       2224.223       168.0876        25.9498       30.78464         0.4768         0.4618         0.6124       -46.4055       -16.2168              0       0.431328
      3271.0000       2300.219       179.9792        25.5284        30.2214         0.4534         0.4459         0.5505       -47.7988       -17.6101              0       0.375596
      3271.5000       2318.551        185.647        26.1825       31.09443          0.445          0.444         0.4794       -48.7132       -18.5245              0        0.33902
      3272.0000       2293.543       186.4597        29.1682       35.08091         0.4432         0.4492         0.4303       -48.5428       -18.3541     0.04427475       0.345836
      3272.5000       2248.488       181.0237         31.925       38.76173         0.4483          0.474         0.4067        -47.379       -17.1903        0.12259       0.392388
      3273.0000       2190.684       169.0925        34.1656       41.75326         0.4562         0.5087         0.4098       -46.8453       -16.6566      0.1862396       0.413736
      3273.5000       2137.477       152.0974        35.6342       43.71392         0.4664         0.5454         0.4513       -47.9052       -17.7165      0.2279558        0.37134
      3274.0000       2068.977       140.1711        36.7134        45.1546         0.4784          0.576          0.533       -49.1299       -18.9412      0.2586085       0.322352
      3274.5000       1999.201       144.0037        35.4009       43.40159         0.4925         0.5932         0.6118       -48.9328       -18.7441      0.2213104       0.330236
      3275.0000       1929.865       150.9299         32.037       38.90915         0.5074         0.5947         0.6774       -48.0427        -17.854      0.1257266        0.36584
      3275.5000       1878.258       157.4275        28.6992        34.4517         0.5204         0.5907         0.7127       -47.5173       -17.3286     0.03088728       0.386856
      3276.0000       1882.953       159.6516        25.9349       30.76007         0.5261         0.5767         0.7227       -49.1057        -18.917              0        0.32332
      3276.5000       1946.928       160.3694        25.5542       30.25131         0.5103         0.5532         0.6773       -50.9867        -20.798              0        0.24808
      3277.0000       2026.197       160.2964        26.0834       30.95756         0.4925         0.5369         0.6313       -52.7471       -22.5584              0       0.177664
      3277.5000       2096.859       157.9976         26.168       31.07014         0.4722         0.5282         0.5929       -53.9496       -23.7609              0       0.129564
      3278.0000       2183.602       155.7859        26.1025       30.98213         0.4609         0.5327         0.5698       -53.8701       -23.6814              0       0.132744
      3278.5000       2180.801       154.5654        25.8158        30.5989         0.4591          0.545         0.5636        -54.023       -23.8343              0       0.126628
      3279.0000       2119.875       153.4656        27.5634       32.93211         0.4708         0.5691         0.5826       -53.7736       -23.5849              0       0.136604
      3279.5000       1978.547       151.1196        30.1174       36.34212         0.4998         0.6069         0.6167       -52.8105       -22.6218     0.07110888       0.175128
      3280.0000       1842.926       143.6541        34.0698       41.61946         0.5406         0.6484         0.6661       -49.6904       -19.5017      0.1833928       0.299932
      3280.5000       1691.961       137.0776        38.1976       47.13101         0.5899         0.6945         0.7262       -46.5131       -16.3244      0.3006598       0.427024
      3281.0000        1517.59         130.04        42.0293       52.24717         0.6432         0.7524         0.7787       -42.9202       -12.7315      0.4095143        0.57074
      3281.5000       1353.053       129.8977        51.1309       64.40022          0.713         0.8136          0.806       -39.6782        -9.4895      0.6680899        0.70042
      3282.0000        1216.25       137.7378        56.0723        70.9982         0.8079         0.8642         0.8423        -38.023        -7.8343      0.8084723       0.766628
      3282.5000       1112.443       146.7329        59.0095       74.91992         0.8922         0.9054         0.8853       -36.7883        -6.5996      0.8919132       0.816016
      3283.0000       1056.213        156.196        62.6782       79.81842         0.9458          0.915         0.9266        -36.118        -5.9293      0.9961366       0.842828
      3283.5000       1014.833       163.0408        66.9777       85.55925         0.9758          0.911         0.9505       -35.6136        -5.4249              1       0.863004
      3284.0000       985.2305        166.042        69.2008        88.5274         0.9961         0.9058         0.8687       -35.0344        -4.8457              1       0.886172
      3284.5000       978.7129       168.2847        70.3188       90.01991         1.0022         0.8995         0.7814       -34.2417         -4.053              1        0.91788
      3285.0000        990.873       170.6086        67.1768       85.82376         0.9954         0.8856         0.7308       -33.2306        -3.0419              1       0.958324
      3285.5000       1006.227        170.217        63.7979       81.31145         0.9889         0.8754         0.7148       -33.3105        -3.1218              1       0.955128
      3286.0000       1016.017       163.6641        61.6096       78.38895         0.9819         0.8879         0.7223       -34.6864        -4.4977      0.9657224       0.900092
      3286.5000       1015.112       155.7871        59.4125       75.45471         0.9835         0.9223         0.7723       -35.6699        -5.4812      0.9032918       0.860752
