#------------------------------------------------------------------------------
# Created by    : vladimir.rabinovich
# Created on    : 09/19/2023 17:20:01
#------------------------------------------------------------------------------
~Version Information Section
VERS.           2.0     :   CWLS log ASCII Standard - VERSION 2.0
WRAP.           NO      :   One line per depth step
~Well Information Section
#MNEM       .UNIT                                         VALUE :DESCRIPTION
#------------------------------------------------------------------------------
STRT        .FT                                            3470 :START DEPTH
STOP        .FT                                           12708 :STOP DEPTH
STEP        .FT                                             0.5 :STEP      
NULL        .                                           -999.25 :NULL      
COMP        .                                     INEXCO OIL CO :COMPANY   
WELL        .                                     ST TR 00794-L :WELL      
FLD         .                                       BLOCK 794-L :FIELD     
LOC         .                                                   :LOCATION  
CNTY        .                        MUSTANG ISLAND LARGE BLOCK :LOCATION  
STAT        .                                             TEXAS :STATE     
CTRY        .                                     UNITED STATES :COUNTRY   
SRVC        .                                                   :SERVICE COMPANY
DATE        .                             9/13/2023 11:18:55 AM :LOG DATE  
API         .                                    42702301710000 :API NUMBER
UWI         .                                    42702301710000 :UNIQUE WELL ID
XCOORD      .                                  319607.894357718 :SURFACE X 
YCOORD      .                                   10038241.944616 :SURFACE Y 
LAT         .                                        27.6026524 :LATITUDE  
LON         .                                       -97.0775955 :LONGITUDE 
ELEV        .FT                                               0 :ELEVATION VALUE
ELEV_TYPE   .                                                GL :ELEVATION REFERENCE TYPE
~Curve Information Section
#MNEM       .UNIT                                      API CODE :CURVE DESCRIPTION
#------------------------------------------------------------------------------
DEPT        .FT                                                 :DEPTH     
ASFL        .OHMM                                               :          
CILD        .MMHO                                               :          
DT          .US/F                                               :          
GR          .GAPI                                               :          
GR_NORM     .GAPI                                               :GammaRay Normalized
ILD         .OHMM                                               :          
ILM         .OHMM                                               :          
SP          .MV                                                 :          
SP_NORM     .MV                                                 :SP Normalized
VSH_GR      .V/V                                                :Volume of Shale from GR
VSH_SP      .V/V                                                :Volume of Shale from SP
~A        DEPTH           ASFL           CILD             DT             GR        GR_NORM            ILD            ILM             SP        SP_NORM         VSH_GR         VSH_SP
# ...
     12695.0000         0.7417       1712.781       115.7521         84.156        85.2774         0.5878         0.6154       -41.6663      -0.730629              1              1
     12695.5000         0.7188       1709.012       115.7986        83.5151       84.15889         0.5882         0.6121       -41.7714     -0.8357277              1              1
     12696.0000         0.7068       1697.705       115.8051        82.8755       83.04264         0.5886         0.6124       -41.8917      -0.956028              1              1
     12696.5000         0.7168       1678.396       115.7354        83.6177       84.33794         0.5891         0.6142       -42.0122      -1.076527              1      0.9973611
     12697.0000         0.7266        1659.09       115.7163         84.516       85.90566         0.5903         0.6186       -42.1324      -1.196728              1      0.9932163
     12697.5000         0.7348       1639.781       115.7274        85.9882       88.47498         0.5942         0.6248       -42.2429      -1.307228              1      0.9894059
     12698.0000          0.743       1620.475       115.7906        88.8445       93.45982         0.5981         0.6332       -42.3467      -1.411026              1      0.9858267
     12698.5000         0.7577        1611.02       115.8263        89.0361       93.79423          0.602         0.6441       -42.4323      -1.496628              1      0.9828749
     12699.0000         0.7869       1608.559       115.8414        88.8644       93.49458         0.6059         0.6556       -42.4889      -1.553226              1      0.9809232
     12699.5000         0.7959       1608.947       115.8346        88.6923        93.1942         0.6097         0.6689       -42.5455      -1.609829              1      0.9789714
     12700.0000         0.8046        1610.99       115.8074        88.5201       92.89369         0.6115         0.6783       -42.6019      -1.666225              1      0.9770267
     12700.5000         0.8134       1613.033       115.8381        -999.25        -999.25         0.6116         0.6837       -42.6586      -1.722927        -999.25      0.9750715
     12701.0000          0.816       1615.076        115.814        -999.25        -999.25         0.6117         0.6891       -42.7151      -1.779427        -999.25      0.9731232
     12701.5000         0.8145       1617.117       115.7729        -999.25        -999.25         0.6119         0.6937       -42.7718      -1.836128        -999.25       0.971168
     12702.0000          0.813        1619.16       115.7749        -999.25        -999.25          0.612         0.6989       -42.8256      -1.889927        -999.25      0.9693128
     12702.5000         0.8115       1621.203       115.8094        -999.25        -999.25         0.6121         0.7028       -42.8789      -1.943226        -999.25       0.967475
     12703.0000         0.8029       1623.246       115.8505        -999.25        -999.25         0.6121         0.7045       -42.9321      -1.996426        -999.25      0.9656405
     12703.5000         0.7943       1625.289       115.7806        -999.25        -999.25         0.6118         0.7051       -42.9852      -2.049526        -999.25      0.9638094
     12704.0000         0.7757       1627.332       115.7328        -999.25        -999.25         0.6114         0.7041       -43.0383      -2.102627        -999.25      0.9619784
     12704.5000         0.7558       1627.908       115.7108        -999.25        -999.25         0.6111         0.6993       -43.0852      -2.149529        -999.25      0.9603611
     12705.0000         0.7454       1627.436       115.6879        -999.25        -999.25         0.6108         0.6942       -43.1321      -2.196426        -999.25      0.9587439
     12705.5000         0.7374       1626.963       115.6552        -999.25        -999.25         0.6104         0.6851        -43.179      -2.243328        -999.25      0.9571266
     12706.0000         0.7294        1626.49       115.5958        -999.25        -999.25         0.6101         0.6788       -43.2258      -2.290127        -999.25      0.9555129
     12706.5000         0.7032       1626.018       115.5701        -999.25        -999.25         0.6101         0.6723       -43.2728      -2.337128        -999.25      0.9538922
     12707.0000         0.6758       1625.547        115.546        -999.25        -999.25         0.6101         0.6657       -43.3203      -2.384628        -999.25      0.9522542
     12707.5000         0.6587       1625.074       115.5228        -999.25        -999.25         0.6102         0.6562       -43.3686      -2.432926        -999.25      0.9505888
     12708.0000         0.6489       1624.602       115.4707        -999.25        -999.25         0.6102         0.6439       -43.4169      -2.481228        -999.25      0.9489232
