#------------------------------------------------------------------------------
# Created by    : vladimir.rabinovich
# Created on    : 09/19/2023 17:22:48
#------------------------------------------------------------------------------
~Version Information Section
VERS.           2.0     :   CWLS log ASCII Standard - VERSION 2.0
WRAP.           NO      :   One line per depth step
~Well Information Section
#MNEM       .UNIT                                         VALUE :DESCRIPTION
#------------------------------------------------------------------------------
STRT        .FT                                            3512 :START DEPTH
STOP        .FT                                           11028 :STOP DEPTH
STEP        .FT                                             0.5 :STEP      
NULL        .                                           -999.25 :NULL      
COMP        .                          SEAGULL ENERGY E & P INC :COMPANY   
WELL        .                   ST TR 147-L NE/4 /ST LSE 88034/ :WELL      
FLD         .                                           WILDCAT :FIELD     
LOC         .                                                   :LOCATION  
CNTY        .                             GALVESTON LARGE BLOCK :LOCATION  
STAT        .                                             TEXAS :STATE     
CTRY        .                                     UNITED STATES :COUNTRY   
SRVC        .                                                   :SERVICE COMPANY
DATE        .                             9/13/2023 11:18:53 AM :LOG DATE  
API         .                                    42706302000000 :API NUMBER
UWI         .                                    42706302000000 :UNIQUE WELL ID
XCOORD      .                                  1107149.67333588 :SURFACE X 
YCOORD      .                                  10638300.0198507 :SURFACE Y 
LAT         .                                        29.3031745 :LATITUDE  
LON         .                                         -94.67354 :LONGITUDE 
ELEV        .FT                                              25 :ELEVATION VALUE
ELEV_TYPE   .                                                KB :ELEVATION REFERENCE TYPE
~Curve Information Section
#MNEM       .UNIT                                      API CODE :CURVE DESCRIPTION
#------------------------------------------------------------------------------
DEPT        .FT                                                 :DEPTH     
DT          .US/F                                               :          
GR          .GAPI                                               :          
GR_NORM     .GAPI                                               :GammaRay Normalized
ILD         .OHMM                                               :          
ILM         .OHMM                                               :          
SFL         .OHMM                                               :          
SP          .MV                                                 :          
SP_NORM     .MV                                                 :SP Normalized
VSH_GR      .V/V                                                :Volume of Shale from GR
VSH_SP      .V/V                                                :Volume of Shale from SP
~A        DEPTH             DT             GR        GR_NORM            ILD            ILM            SFL             SP        SP_NORM         VSH_GR         VSH_SP
# ...
      7015.5000         97.848        64.5585       69.89449         0.4702         0.5485         2.6433       -36.5323      -14.41655      0.7849892       0.854168
      7016.0000        97.3147        64.7599       70.16582         0.4662         0.5316         2.4574       -34.2281       -12.1167      0.7907622      0.8791662
      7016.5000       101.0183        64.9117       70.37093         0.4622         0.5173         1.9262       -31.1926      -9.085564      0.7951261      0.9121134
      7017.0000       105.5057        65.4368       71.07433         0.4613         0.5104          1.531       -28.5784      -6.475723       0.810092      0.9404812
      7017.5000       109.8409        67.9469       74.42727         0.4621         0.5052         1.5195       -26.8658      -4.767483      0.8814313      0.9590491
      7018.0000       113.4615        71.3181       78.92961         0.4655         0.5008         1.5919       -25.5808      -3.486839      0.9772258      0.9729691
      7018.5000       113.6986        75.1842       84.09254         0.4711         0.5017         1.6678       -24.4599      -2.370298              1      0.9851055
      7019.0000       113.7126        77.4456       87.11353         0.4778         0.5042          1.744       -23.5473      -1.462057              1      0.9949777
      7019.5000       113.5621        77.8431        87.6466         0.4858         0.5084         1.7993       -22.8423     -0.7614174              1              1
      7020.0000       113.4115        77.2147       86.81031         0.4943         0.5136         1.8082       -22.3204     -0.2438755              1              1
      7020.5000        113.166        76.5801       85.96575         0.5033         0.5189         1.7712       -22.0506     0.02156639              1              1
      7021.0000       112.9205        75.7771       84.89641         0.5112         0.5242         1.7281       -22.3541     -0.2862911              1              1
      7021.5000       112.6709        70.5978       78.10648         0.5179         0.5274         1.6798       -23.8768      -1.813351      0.9597124      0.9911593
      7022.0000       112.6329        69.4282       76.64133         0.5199          0.529         1.6358       -27.4097      -5.350609      0.9285389      0.9527107
      7022.5000       127.7173        69.1376       76.27905         0.5151         0.5313         1.6162       -31.3249      -9.270168      0.9208309      0.9101068
      7023.0000        148.614        67.9738       74.82118         0.4991         0.5297         1.8026       -35.5487      -13.49833      0.8898124      0.8641486
      7023.5000       147.4958        65.7075       71.97998         0.4713         0.5171         2.1673       -40.2429      -18.19689      0.8293613      0.8130773
      7024.0000       136.1025         65.114       71.23766         0.4369         0.4895         2.7303       -43.0065      -20.96484      0.8135672      0.7829908
      7024.5000       114.9576        66.1021       72.47978         0.4029         0.4622         2.6466        -43.303       -21.2657      0.8399954      0.7797206
      7025.0000       111.3326        69.2797       76.46907         0.3739         0.4375         2.2107       -42.7615      -20.72856      0.9248738      0.7855591
      7025.5000       112.2985        72.7587       80.83652         0.3456         0.4149         1.2372       -44.1581      -22.12952              1      0.7703313
      7026.0000       114.5349        66.2955       72.72848         0.3237          0.394          1.045       -49.3178      -27.29358      0.8452867      0.7142003
      7026.5000       117.2677        60.9398       66.00165          0.309         0.3729         1.1438       -55.2665      -33.24664      0.7021627      0.6494931
      7027.0000        118.349        54.9152       58.43554         0.3005         0.3564         1.2831       -60.6516      -38.63609      0.5411817       0.590912
      7027.5000       115.6113         55.317       58.93266         0.2966         0.3435         1.1915       -58.8778      -36.86665      0.5517588      0.6101451
      7028.0000       112.8883        58.4751       62.88811         0.2967         0.3472         1.1229       -53.0712      -31.06441      0.6359172      0.6732129
      7028.5000       111.2074        63.9681       69.77318         0.3014         0.3672         1.4835       -47.5048      -25.50237      0.7824081      0.7336699
      7029.0000       110.8436        67.8121       74.58923         0.3141         0.3885         2.1403       -42.6047      -20.60663      0.8848773      0.7868845
      7029.5000       110.8076        69.3602        76.5246         0.3364         0.4104         2.2338       -38.4471      -16.45339      0.9260554      0.8320284
      7030.0000       110.1641        69.2096       76.32865         0.3624         0.4325         2.0296        -37.053      -15.06365      0.9218862      0.8471342
      7030.5000       109.4895        68.9882       76.04381           0.39         0.4556         1.6666       -36.9568      -14.97181      0.9158257      0.8481326
      7031.0000       109.9153         68.767       75.75925         0.4134         0.4741         1.5221       -38.0477      -16.06706      0.9097714      0.8362275
      7031.5000       110.3613        68.4136       75.30883           0.43         0.4909         1.6754        -39.623      -17.64672      0.9001878      0.8190573
      7032.0000       110.4268        67.4998       74.15527         0.4419         0.5037         1.9201       -40.7023      -18.73038       0.875644      0.8072785
      7032.5000       108.4426        65.8301       72.05326         0.4499         0.5118         2.1438       -39.7578      -17.79024      0.8309205      0.8174974
      7033.0000       106.6903        63.8235       69.52856          0.454         0.5166         1.9824       -37.2637       -15.3005      0.7772033      0.8445598
      7033.5000       105.9617         61.572       66.69656         0.4586         0.5237         1.8061       -35.2939      -13.33506       0.716948      0.8659233
      7034.0000       104.6997        60.8225       65.74913         0.4637          0.534         1.8592       -35.4727      -13.51822        0.69679      0.8639324
      7034.5000       102.7201        60.6985       65.58655         0.4686         0.5405         2.1673       -36.3486      -14.39847      0.6933308      0.8543644
      7035.0000       102.4805        61.8218       66.98893         0.4735         0.5376         2.4499       -36.5343      -14.58854      0.7231687      0.8522985
      7035.5000       104.3237        62.0049       67.21165         0.4762         0.5295          2.254       -36.3499      -14.40849      0.7279074      0.8542555
      7036.0000       106.7198        61.9781       67.17097         0.4671         0.5193         2.0594       -35.6688      -13.73175       0.727042      0.8616114
      7036.5000       108.6957        62.2825       67.54591         0.4593         0.5067         2.0542       -33.9488      -12.01611      0.7350193      0.8802597
      7037.0000       109.5675         62.988       68.42406         0.4511         0.4914         2.0665       -32.2534      -10.32507      0.7537034      0.8986406
      7037.5000       109.9282        67.2903       73.81516         0.4361         0.4791         1.8794       -31.8538      -9.929827      0.8684075      0.9029366
      7038.0000       111.2344        71.9894       79.70411         0.4301         0.4766         1.5013       -32.5021      -10.58249      0.9937044      0.8958425
      7038.5000       112.9841         73.332       81.38166         0.4295         0.4785         1.3143         -33.77      -11.85475              1      0.8820136
      7039.0000       114.3149        71.4921        79.0661         0.4348         0.4831         1.3902       -35.4066       -13.4957      0.9801298      0.8641771
      7039.5000       115.1604         69.287       76.29234         0.4428          0.492         1.8018       -37.1314      -15.22486      0.9211136      0.8453819
