#------------------------------------------------------------------------------
# Created by    : vladimir.rabinovich
# Created on    : 09/19/2023 17:20:31
#------------------------------------------------------------------------------
~Version Information Section
VERS.           2.0     :   CWLS log ASCII Standard - VERSION 2.0
WRAP.           NO      :   One line per depth step
~Well Information Section
#MNEM       .UNIT                                         VALUE :DESCRIPTION
#------------------------------------------------------------------------------
STRT        .FT                                            2377 :START DEPTH
STOP        .FT                                            9500 :STOP DEPTH
STEP        .FT                                             0.5 :STEP      
NULL        .                                           -999.25 :NULL      
COMP        .                                     SKELLY OIL CO :COMPANY   
WELL        .                                     ST TR 00146-L :WELL      
FLD         .                                           WILDCAT :FIELD     
LOC         .                                                   :LOCATION  
CNTY        .                             GALVESTON LARGE BLOCK :LOCATION  
STAT        .                                             TEXAS :STATE     
CTRY        .                                     UNITED STATES :COUNTRY   
SRVC        .                                                   :SERVICE COMPANY
DATE        .                             9/13/2023 11:19:24 AM :LOG DATE  
API         .                                    42706001330000 :API NUMBER
UWI         .                                    42706001330000 :UNIQUE WELL ID
XCOORD      .                                  1116482.89093459 :SURFACE X 
YCOORD      .                                  10631825.2810539 :SURFACE Y 
LAT         .                                         29.285733 :LATITUDE  
LON         .                                       -94.6439746 :LONGITUDE 
ELEV        .FT                                              61 :ELEVATION VALUE
ELEV_TYPE   .                                                KB :ELEVATION REFERENCE TYPE
~Curve Information Section
#MNEM       .UNIT                                      API CODE :CURVE DESCRIPTION
#------------------------------------------------------------------------------
DEPT        .FT                                                 :DEPTH     
ASN         .OHMM                                               :          
CALI        .IN                                                 :          
CILD        .MMHO                                               :          
DT          .US/F                                               :          
ILD         .OHMM                                               :          
SP          .MV                                                 :          
SP_NORM     .MV                                                 :SP Normalized
VSH_SP      .V/V                                                :Volume of Shale from SP
~A        DEPTH            ASN           CALI           CILD             DT            ILD             SP        SP_NORM         VSH_SP
# ...
      8041.0000         1.1258         6.8631        1196.83       107.8756         0.8682       -45.4788        2.75845              1
      8041.5000         1.1171         6.8958       1198.422       108.0532         0.8674       -45.3335       2.900299              1
      8042.0000         1.1047         6.9265       1204.695         108.09         0.8666       -45.2591       2.971241              1
      8042.5000         1.0923         6.9409       1210.969       107.0829         0.8657       -45.2291       2.997787              1
      8043.0000         1.0799         6.9518       1217.234       107.2556         0.8649        -45.199       3.024433              1
      8043.5000         1.0682          6.953       1223.508       107.5715         0.8641       -45.1689       3.051079              1
      8044.0000         1.0696          6.946       1229.139       107.3683         0.8603       -45.0508       3.165726              1
      8044.5000          1.071         6.9317       1234.479       107.7435         0.8566       -44.9319        3.28117              1
      8045.0000         1.0722         6.9154       1239.813       108.0818         0.8528       -44.8353       3.374313              1
      8045.5000         1.0664         6.8971       1245.152       108.3369          0.849       -44.7557       3.450462              1
      8046.0000         1.0605         6.8899       1250.719       108.4485         0.8453       -44.6759       3.526806              1
      8046.5000         1.0547          6.898       1256.758       108.5522         0.8423       -44.6501       3.549152              1
      8047.0000         1.0488         6.9106       1262.805       108.5582           0.84       -44.9344       3.261398              1
      8047.5000         1.0463          6.925       1268.852       108.2136         0.8376       -45.2188       2.973541              1
      8048.0000         1.0526          6.935       1276.594       107.7467         0.8353       -45.8142       2.374687              1
      8048.5000          1.059         6.9393       1272.773       107.3563         0.8329       -45.8627       2.322731              1
      8049.0000         1.0637         6.8849       1262.029       106.9968          0.832        -45.424       2.757977              1
      8049.5000         1.0681         6.8213       1245.107       106.6738         0.8336       -44.9846       3.193924              1
      8050.0000         1.0726         6.7761       1228.211       106.6957         0.8352        -44.693       3.482067              1
      8050.5000         1.0747         6.7446       1217.594       106.5913         0.8389       -44.4585       3.713116              1
      8051.0000         1.0731         6.7216       1230.732       106.3794         0.8551       -44.2237       3.944458              1
      8051.5000         1.0714         6.7071       1243.859        107.188         0.8713       -44.1969       3.967804              1
      8052.0000         1.0717         6.7013       1244.629       107.5994         0.8875       -44.3907        3.77055              1
      8052.5000         1.0812          6.695        1231.49       107.9669         0.9037       -44.5846       3.573196              1
      8053.0000         1.0892         6.6882       1216.334       108.1713         0.9075       -44.7784       3.375942              1
      8053.5000          1.096         6.6808       1198.176       106.8044         0.8978        -44.972       3.178886              1
      8054.0000         1.1018         6.6734       1182.438       105.4529         0.8882       -45.1509       2.996529              1
      8054.5000         1.1063         6.6692       1185.027       105.0511         0.8785       -45.1654       2.978577              1
      8055.0000         1.1288         6.6655       1187.867       104.6455         0.8723       -45.4069       2.733624              1
      8055.5000         1.1794         6.6597       1192.539       106.5438         0.8665       -45.6818       2.455269              1
      8056.0000         1.1709         6.6514       1197.219       108.4358         0.8607       -45.8826       2.251015              1
      8056.5000         1.1046          6.643       1201.889       108.8066         0.8549        -45.985       2.145157              1
      8057.0000          1.054         6.6393       1196.082       109.5055         0.8528       -45.8395       2.287205              1
      8057.5000         1.0252          6.636        1181.18       108.9888         0.8944       -45.6943       2.428947              1
      8058.0000         1.0063         6.6332       1166.275       107.2196          0.936       -45.4542       2.665592              1
      8058.5000         1.0852         6.6317       1148.672       105.4073         0.9739       -44.9694       3.146942              1
      8059.0000         1.1286         6.6302       1127.514       103.7925         1.0118       -45.3086       2.804283              1
      8059.5000         1.1782         6.6289       1106.381       102.4119         1.0497       -45.6472       2.462231              1
      8060.0000          1.218          6.628       1084.768       101.6252         1.0109       -45.9775       2.128475              1
      8060.5000         1.2216         6.6272        1065.93       101.3203          0.968       -46.1385        1.96402              1
      8061.0000         1.1993         6.6263       1066.258       102.2941         0.9251       -46.2996       1.799469              1
      8061.5000         1.1771         6.6256       1104.893        104.729         0.8822       -46.2729       1.822712              1
      8062.0000         1.0688         6.6252       1149.479       108.4902         0.8367       -46.2111       1.881058              1
      8062.5000          1.017         6.6247       1194.066       112.1931          0.783       -46.1494       1.939304              1
      8063.0000         0.9665         6.6242       1313.854       113.5422         0.7329       -46.0875       1.997746              1
      8063.5000         0.9173         6.6237       1444.789       114.5724         0.6917       -45.9418       2.139996              1
      8064.0000         0.8747         6.6261       1614.584       117.0908         0.6505       -45.7433       2.335037              1
      8064.5000         0.8436         6.6289        1594.51       120.1205         0.6449       -45.5447       2.530186              1
      8065.0000         0.8139         6.6318       1568.107       120.7399         0.6528       -45.6052       2.466228              1
      8065.5000         0.7935         6.6347       1533.053       119.3004         0.7001       -45.8508       2.217175              1
      8066.0000         0.8771         6.6375       1445.191       116.7517         0.7514       -46.0963       1.968224              1
      8066.5000         0.9635         6.6391       1350.975       112.4691         0.8026       -46.4332       1.627865              1
      8067.0000         1.0061         6.6403       1255.396       109.7899         0.8392       -46.9061       1.151508              1
      8067.5000          1.044         6.6416       1217.771       109.0309          0.854       -47.5485      0.5056572              1
      8068.0000         1.0804         6.6196       1186.172       108.7955         0.8544       -48.1915     -0.1408005              1
      8068.5000         1.0692         6.6295       1175.201       108.8992          0.831       -47.7741      0.2731476              1
      8069.0000         1.0579         6.6806       1164.232       108.4624         0.8077       -47.2729      0.7708931              1
      8069.5000         1.0591         6.7155       1196.184       107.0829         0.7824       -46.8676       1.172737              1
      8070.0000          1.035         6.7135       1271.486       109.1938          0.749       -46.4616       1.575283              1
