#------------------------------------------------------------------------------
# Created by    : vladimir.rabinovich
# Created on    : 09/19/2023 17:20:32
#------------------------------------------------------------------------------
~Version Information Section
VERS.           2.0     :   CWLS log ASCII Standard - VERSION 2.0
WRAP.           NO      :   One line per depth step
~Well Information Section
#MNEM       .UNIT                                         VALUE :DESCRIPTION
#------------------------------------------------------------------------------
STRT        .FT                                             502 :START DEPTH
STOP        .FT                                            9122 :STOP DEPTH
STEP        .FT                                             0.5 :STEP      
NULL        .                                           -999.25 :NULL      
COMP        .                       BLUE DOLPHIN EXPLORATION CO :COMPANY   
WELL        .                                OCS 00714 ST00BP00 :WELL      
FLD         .                              GALVESTON BLOCK 0288 :FIELD     
LOC         .                                                   :LOCATION  
CNTY        .                             GALVESTON LARGE BLOCK :LOCATION  
STAT        .                                             TEXAS :STATE     
CTRY        .                                     UNITED STATES :COUNTRY   
SRVC        .                                                   :SERVICE COMPANY
DATE        .                             9/13/2023 11:19:24 AM :LOG DATE  
API         .                                    42706000680000 :API NUMBER
UWI         .                                    42706000680000 :UNIQUE WELL ID
XCOORD      .                                  1088404.51782723 :SURFACE X 
YCOORD      .                                  10474534.8869196 :SURFACE Y 
LAT         .                                        28.8520809 :LATITUDE  
LON         .                                       -94.7248272 :LONGITUDE 
ELEV        .FT                                              85 :ELEVATION VALUE
ELEV_TYPE   .                                                KB :ELEVATION REFERENCE TYPE
~Curve Information Section
#MNEM       .UNIT                                      API CODE :CURVE DESCRIPTION
#------------------------------------------------------------------------------
DEPT        .FT                                                 :DEPTH     
ASN         .OHMM                                               :          
ASN_1       .OHMM                                               :          
DT          .US/F                                               :          
ILD         .OHMM                                               :          
LAT         .OHMM                                               :          
LN          .OHMM                                               :          
SP          .MV                                                 :          
SP_NORM     .MV                                                 :SP Normalized
VSH_SP      .V/V                                                :Volume of Shale from SP
~A        DEPTH            ASN          ASN_1             DT            ILD            LAT             LN             SP        SP_NORM         VSH_SP
# ...
      8611.0000         1.3999        -999.25        93.0847         0.9663        -999.25        -999.25        -999.25       3.651348              1
      8611.5000         1.4271        -999.25        101.783         0.9892        -999.25        -999.25        -999.25       3.347729              1
      8612.0000           1.44        -999.25        88.9994         1.0164        -999.25        -999.25        -999.25        2.53611              1
      8612.5000         1.4418        -999.25        82.7721         1.0435        -999.25        -999.25        -999.25       1.675793              1
      8613.0000         1.4496        -999.25        84.1294         1.0598        -999.25        -999.25        -999.25      0.9444733              1
      8613.5000         1.4738        -999.25       100.8856         1.0578        -999.25        -999.25        -999.25      0.5425529              1
      8614.0000         1.4996        -999.25        91.8491         1.0453        -999.25        -999.25        -999.25      0.3365326              1
      8614.5000         1.4454        -999.25        84.7697         1.0261        -999.25        -999.25        -999.25      0.6306152              1
      8615.0000         1.4179        -999.25        92.1107          1.008        -999.25        -999.25        -999.25      0.6293945              1
      8615.5000         1.4239        -999.25        79.1963         0.9852        -999.25        -999.25        -999.25      0.6915779              1
      8616.0000         1.4627        -999.25        72.3987         0.9663        -999.25        -999.25        -999.25      0.9094582              1
      8616.5000         1.4561        -999.25        86.2848         0.9509        -999.25        -999.25        -999.25       1.186237              1
      8617.0000         1.4557        -999.25        92.6248         0.9432        -999.25        -999.25        -999.25      0.4517212              1
      8617.5000          1.469        -999.25        85.0313         0.9371        -999.25        -999.25        -999.25      -0.514698              1
      8618.0000         1.4697        -999.25        99.4788         0.9324        -999.25        -999.25        -999.25      -1.542118      0.9860995
      8618.5000         1.4441        -999.25       112.9049         0.9281        -999.25        -999.25        -999.25      -2.003937       0.974258
      8619.0000         1.4494        -999.25       102.3827         0.9255        -999.25        -999.25        -999.25     -0.9426575              1
      8619.5000         1.4204        -999.25        92.4083         0.9163        -999.25        -999.25        -999.25     -0.8541756              1
      8620.0000         1.3756        -999.25         94.424         0.9091        -999.25        -999.25        -999.25      -1.279995      0.9928206
      8620.5000         1.3446        -999.25        97.4888         0.9029        -999.25        -999.25        -999.25      -1.605713      0.9844689
      8621.0000          1.321        -999.25        95.0148          0.898        -999.25        -999.25        -999.25      -1.370934      0.9904889
      8621.5000         1.2749        -999.25        92.6223         0.8969        -999.25        -999.25        -999.25     -0.9101524              1
      8622.0000         1.2425        -999.25        96.5065         0.8972        -999.25        -999.25        -999.25    -0.06637192              1
      8622.5000         1.2302        -999.25         95.509         0.8992        -999.25        -999.25        -999.25       0.778511              1
      8623.0000         1.2289        -999.25        77.0428         0.9019        -999.25        -999.25        -999.25       1.996292              1
      8623.5000         1.2321        -999.25        78.5974         0.9118        -999.25        -999.25        -999.25       2.674572              1
      8624.0000         1.2398        -999.25        93.4692         0.9132        -999.25        -999.25        -999.25       2.939053              1
      8624.5000         1.2503        -999.25        92.3235         0.9093        -999.25        -999.25        -999.25       2.628334              1
      8625.0000         1.2452        -999.25       100.8108         0.8889        -999.25        -999.25        -999.25       1.890114              1
      8625.5000         1.2319        -999.25       105.2363         0.8667        -999.25        -999.25        -999.25      0.4694939              1
      8626.0000         1.2296        -999.25         88.527         0.8463        -999.25        -999.25        -999.25      -2.368225      0.9649173
      8626.5000         1.2323        -999.25        85.3369         0.8201        -999.25        -999.25        -999.25      -5.551643      0.8832912
      8627.0000         1.2063        -999.25        90.4769         0.7835        -999.25        -999.25        -999.25      -7.286461      0.8388087
      8627.5000         1.1815        -999.25         92.355         0.7311        -999.25        -999.25        -999.25      -7.992981      0.8206928
      8628.0000         1.1555        -999.25        84.4473         0.6732        -999.25        -999.25        -999.25        -7.3232      0.8378667
      8628.5000         1.1259        -999.25        86.0468         0.6279        -999.25        -999.25        -999.25       -6.69632      0.8539405
      8629.0000         1.0986        -999.25        89.2683         0.5888        -999.25        -999.25        -999.25      -8.695538      0.8026785
      8629.5000         1.1104        -999.25        98.4025         0.5484        -999.25        -999.25        -999.25      -13.69146      0.6745781
      8630.0000         1.1459        -999.25       104.2434         0.5226        -999.25        -999.25        -999.25      -19.41508      0.5278186
      8630.5000         1.1771        -999.25       103.3942         0.5185        -999.25        -999.25        -999.25      -25.05739      0.3831438
      8631.0000         1.1916        -999.25       100.6895         0.5144        -999.25        -999.25        -999.25      -29.44072      0.2707509
      8631.5000         1.1728        -999.25       106.8313         0.5405        -999.25        -999.25        -999.25      -30.68523      0.2388403
      8632.0000         1.1351        -999.25       109.1891         0.5761        -999.25        -999.25        -999.25      -30.23246      0.2504498
      8632.5000         1.0915        -999.25       102.4282         0.6059        -999.25        -999.25        -999.25      -26.66307      0.3419724
      8633.0000         1.0611        -999.25         84.663         0.6203        -999.25        -999.25        -999.25      -22.88589      0.4388233
      8633.5000         1.0333        -999.25        82.3895         0.6333        -999.25        -999.25        -999.25      -20.31551      0.5047305
      8634.0000         1.0155        -999.25         89.147         0.6308        -999.25        -999.25        -999.25      -19.24343      0.5322198
      8634.5000         1.0522        -999.25       100.3435         0.6217        -999.25        -999.25        -999.25      -18.63575      0.5478013
      8635.0000         1.0835        -999.25       100.3997         0.6109        -999.25        -999.25        -999.25      -17.92757      0.5659598
      8635.5000         1.1107        -999.25        97.8589         0.5997        -999.25        -999.25        -999.25      -19.90979      0.5151337
      8636.0000          1.129        -999.25        92.6964         0.5876        -999.25        -999.25        -999.25      -25.29891      0.3769511
      8636.5000           1.11        -999.25        89.6951         0.5732        -999.25        -999.25        -999.25      -28.55462      0.2934712
      8637.0000           1.07        -999.25        93.2805         0.5602        -999.25        -999.25        -999.25      -27.58884      0.3182349
