#------------------------------------------------------------------------------
# Created by    : vladimir.rabinovich
# Created on    : 09/19/2023 17:22:53
#------------------------------------------------------------------------------
~Version Information Section
VERS.           2.0     :   CWLS log ASCII Standard - VERSION 2.0
WRAP.           NO      :   One line per depth step
~Well Information Section
#MNEM       .UNIT                                         VALUE :DESCRIPTION
#------------------------------------------------------------------------------
STRT        .FT                                             394 :START DEPTH
STOP        .FT                                            7700 :STOP DEPTH
STEP        .FT                                             0.5 :STEP      
NULL        .                                           -999.25 :NULL      
COMP        .                                   MARATHON OIL CO :COMPANY   
WELL        .                                     ST TR 00248-L :WELL      
FLD         .                                           WILDCAT :FIELD     
LOC         .                                                   :LOCATION  
CNTY        .                             GALVESTON LARGE BLOCK :LOCATION  
STAT        .                                             TEXAS :STATE     
CTRY        .                                     UNITED STATES :COUNTRY   
SRVC        .                                                   :SERVICE COMPANY
DATE        .                             9/13/2023 11:19:42 AM :LOG DATE  
API         .                                    42706000210000 :API NUMBER
UWI         .                                    42706000210000 :UNIQUE WELL ID
XCOORD      .                                  969160.596945075 :SURFACE X 
YCOORD      .                                  10521676.5956168 :SURFACE Y 
LAT         .                                        28.9764138 :LATITUDE  
LON         .                                       -95.0998408 :LONGITUDE 
ELEV        .FT                                              10 :ELEVATION VALUE
ELEV_TYPE   .                                                KB :ELEVATION REFERENCE TYPE
~Curve Information Section
#MNEM       .UNIT                                      API CODE :CURVE DESCRIPTION
#------------------------------------------------------------------------------
DEPT        .FT                                                 :DEPTH     
LAT         .OHMM                                               :          
LN          .OHMM                                               :          
SN          .OHMM                                               :          
SP          .MV                                                 :          
SP_NORM     .MV                                                 :SP Normalized
VSH_SP      .V/V                                                :Volume of Shale from SP
~A        DEPTH            LAT             LN             SN             SP        SP_NORM         VSH_SP
# ...
      6702.0000         0.6496         0.2954         0.8976       -95.0831      -42.38059      0.4953587
      6702.5000         0.6497         0.2926         0.9551       -98.9894      -46.27617      0.4478516
      6703.0000         0.6322         0.3005         0.9574      -102.8911      -50.16714      0.4004007
      6703.5000         0.5998         0.3083         0.9503      -106.7972      -54.06253       0.352896
      6704.0000         0.5673         0.3161         0.8646       -110.699       -57.9536      0.3054439
      6704.5000         0.5348          0.324         0.7657      -114.6006      -61.84448      0.2579942
      6705.0000         0.5024         0.3318         0.7709      -109.3535      -56.58665       0.322114
      6705.5000         0.4699         0.3396          0.833      -106.8499      -54.07233      0.3527764
      6706.0000         0.4374         0.3475         0.8941      -104.5906      -51.80231      0.3804596
      6706.5000          0.405         0.3553         0.9382      -106.4592      -53.66019      0.3578026
      6707.0000         0.3992         0.3631         0.9751      -108.3301      -55.52037      0.3351175
      6707.5000         0.3953          0.371         0.9086      -110.1987      -57.37824      0.3124605
      6708.0000         0.3914         0.3788          0.842      -111.7178      -58.88662      0.2940656
      6708.5000         0.3874         0.3881         0.8857      -113.0084       -60.1665      0.2784573
      6709.0000         0.3835         0.3982         0.9868      -107.7887      -54.93607       0.342243
      6709.5000         0.3796         0.4083         1.0878      -103.4347      -50.57135      0.3954713
      6710.0000         0.3757         0.4184         1.2085      -100.4377      -47.56363      0.4321509
      6710.5000         0.3958         0.4205         1.3507       -97.4452      -44.56041      0.4687755
      6711.0000         0.4243         0.3977          1.493       -99.5331      -46.63758      0.4434441
      6711.5000         0.4528         0.3748         1.4556      -102.0459      -49.13966      0.4129309
      6712.0000         0.4813         0.3519         1.2693       -99.6016      -46.68464      0.4428702
      6712.5000         0.5098         0.3343         1.1143        -92.246      -39.31832      0.5327034
      6713.0000         0.5383         0.3235         0.9591       -87.6088       -34.6704      0.5893853
      6713.5000         0.5668         0.3127         0.8041       -82.9716      -30.02248      0.6460673
      6714.0000         0.5953         0.3019         0.6862       -78.3344      -25.37455      0.7027494
      6714.5000         0.6238         0.2983         0.6731       -74.0581      -21.08753      0.7550302
      6715.0000         0.6523         0.3037           0.66       -69.8275      -16.84621      0.8067536
      6715.5000         0.6607          0.309         0.6469       -65.5969      -12.60489      0.8584769
      6716.0000         0.6684         0.3144         0.6337       -63.9727      -10.96996      0.8784151
      6716.5000         0.6761         0.3197         0.6406       -62.3965      -9.383041      0.8977678
      6717.0000         0.6838         0.3251         0.6506       -60.8843      -7.860119        0.91634
      6717.5000         0.6915         0.3305         0.6605       -62.0665      -9.031597      0.9020537
      6718.0000         0.6992         0.3358         0.6705       -63.2475      -10.20188       0.887782
      6718.5000         0.7069         0.3414         0.6805       -64.4296      -11.37326      0.8734969
      6719.0000         0.7146         0.3496         0.6905       -65.6106      -12.54353      0.8592252
      6719.5000         0.7223         0.3579         0.7004       -66.7104      -13.63261      0.8459437
      6720.0000           0.73         0.3661         0.7104       -67.4415      -14.35299      0.8371587
      6720.5000         0.7377         0.3744         0.7204        -66.297      -13.19776      0.8512468
      6721.0000          0.736         0.3827         0.7304       -65.1069      -11.99694      0.8658909
      6721.5000         0.7188         0.3909         0.7189       -63.9179      -10.79722      0.8805217
      6722.0000         0.7016         0.3992         0.6842       -62.7278      -9.596394      0.8951659
      6722.5000         0.6845         0.4041         0.6495       -61.5388      -8.396675      0.9097967
      6723.0000         0.6673         0.4086         0.6148       -60.3498      -7.196953      0.9244274
      6723.5000         0.6502          0.413         0.5801       -59.1596      -5.996029      0.9390728
      6724.0000          0.633         0.4175         0.5808       -57.9706      -4.796307      0.9537036
      6724.5000         0.6158         0.4219         0.5866       -56.7805      -3.595482      0.9683478
      6725.0000         0.5987         0.4263         0.5924       -55.5915      -2.395763      0.9829785
      6725.5000         0.5815         0.4308         0.5981       -56.4527      -3.246243      0.9726068
      6726.0000         0.5643         0.4352         0.6039       -60.3886      -7.171417      0.9247388
      6726.5000         0.5472         0.4397         0.6208       -61.4794      -8.251495      0.9115672
      6727.0000         0.5419         0.4441         0.6428       -62.5645      -9.325871       0.898465
      6727.5000          0.545         0.4508         0.6649       -63.4827      -10.23335      0.8873981
      6728.0000         0.5482         0.4586          0.687       -64.4022      -11.14213      0.8763155
      6728.5000         0.5514         0.4663         0.7091       -65.3204       -12.0496      0.8652487
      6729.0000         0.5546         0.4741         0.7311       -66.2388      -12.95728      0.8541795
      6729.5000         0.5578         0.4818         0.7532       -67.1571      -13.86486      0.8431115
      6730.0000          0.561         0.4896         0.7753       -67.6982      -14.39524      0.8366435
      6730.5000         0.5642         0.4973         0.7974       -67.9825      -14.66882      0.8333071
      6731.0000         0.5674         0.5051         0.8194        -68.267      -14.94259      0.8299684
      6731.5000         0.5706         0.5128         0.8496       -68.0548      -14.71967      0.8326869
      6732.0000         0.5721         0.5206         0.8832       -67.8387      -14.49285      0.8354531
      6732.5000         0.5737         0.5287         0.9168       -67.6226      -14.26603      0.8382192
      6733.0000         0.5752         0.5368         0.9504       -67.4198      -14.05251      0.8408231
      6733.5000         0.5768         0.5449         0.9839       -71.2574      -17.87938      0.7941539
      6734.0000         0.5783          0.553         1.0175       -74.3048      -20.91606      0.7571212
      6734.5000         0.5799          0.561         1.0511       -77.3339      -23.93444      0.7203118
      6735.0000         0.5814         0.5691         1.0913       -80.3629      -26.95272      0.6835034
      6735.5000          0.583         0.5772         1.1342       -82.4496      -29.02869      0.6581867
      6736.0000         0.5845         0.5853          1.177       -83.5747      -30.14307      0.6445967
      6736.5000         0.5861         0.5934         1.2198       -84.6986      -31.25625      0.6310214
      6737.0000         0.5928         0.5912         1.2626       -85.8236      -32.37053      0.6174326
      6737.5000          0.603         0.5878           1.27       -86.7955      -33.33171      0.6057109
      6738.0000         0.6132         0.5845          1.275       -85.2491      -31.77458      0.6247002
      6738.5000         0.6233         0.5812         1.2801       -83.7048      -30.21956      0.6436639
      6739.0000         0.6335         0.5778         1.1807       -80.2898      -26.79384       0.685441
      6739.5000         0.6437         0.5745         1.0747       -76.6394      -23.13271      0.7300889
