#------------------------------------------------------------------------------
# Created by    : vladimir.rabinovich
# Created on    : 09/19/2023 17:22:46
#------------------------------------------------------------------------------
~Version Information Section
VERS.           2.0     :   CWLS log ASCII Standard - VERSION 2.0
WRAP.           NO      :   One line per depth step
~Well Information Section
#MNEM       .UNIT                                         VALUE :DESCRIPTION
#------------------------------------------------------------------------------
STRT        .FT                                             862 :START DEPTH
STOP        .FT                                           11792 :STOP DEPTH
STEP        .FT                                             0.5 :STEP      
NULL        .                                           -999.25 :NULL      
COMP        .                     FREEPORT-MCMORAN OIL & GAS CO :COMPANY   
WELL        .                               OCS G08155 ST00BP00 :WELL      
FLD         .                            HIGH ISLAND BLOCK 0262 :FIELD     
LOC         .                                                   :LOCATION  
CNTY        .                           HIGH ISLAND LARGE BLOCK :LOCATION  
STAT        .                                             TEXAS :STATE     
CTRY        .                                     UNITED STATES :COUNTRY   
SRVC        .                                                   :SERVICE COMPANY
DATE        .                             9/13/2023 11:19:59 AM :LOG DATE  
API         .                                    42708403380000 :API NUMBER
UWI         .                                    42708403380000 :UNIQUE WELL ID
XCOORD      .                                  1194111.75057656 :SURFACE X 
YCOORD      .                                  10524686.1808471 :SURFACE Y 
LAT         .                                         28.993839 :LATITUDE  
LON         .                                         -94.39647 :LONGITUDE 
ELEV        .FT                                              98 :ELEVATION VALUE
ELEV_TYPE   .                                                KB :ELEVATION REFERENCE TYPE
~Curve Information Section
#MNEM       .UNIT                                      API CODE :CURVE DESCRIPTION
#------------------------------------------------------------------------------
DEPT        .FT                                                 :DEPTH     
DT          .US/F                                               :          
GR          .GAPI                                               :          
GR_NORM     .GAPI                                               :GammaRay Normalized
ILD         .OHMM                                               :          
ILM         .OHMM                                               :          
SFL         .OHMM                                               :          
SP          .MV                                                 :          
SP_NORM     .MV                                                 :SP Normalized
VSH_GR      .V/V                                                :Volume of Shale from GR
VSH_SP      .V/V                                                :Volume of Shale from SP
~A        DEPTH             DT             GR        GR_NORM            ILD            ILM            SFL             SP        SP_NORM         VSH_GR         VSH_SP
# ...
      4537.0000        132.262        85.3923       81.33717         0.8279         0.7193         0.7065        -63.555       0.181263              1              1
      4537.5000       133.8545        85.9487       82.02119         0.8152         0.7052         0.7068       -63.3472      0.3890648              1              1
      4538.0000       137.1985        86.7921       83.05953         0.8019         0.6918         0.7021       -63.1487      0.5875626              1              1
      4538.5000        139.709        87.4645       83.88675         0.7869         0.6799         0.6934       -63.0787      0.6575623              1              1
      4539.0000       141.2117        87.3711       83.76855         0.7723         0.6682         0.6838       -63.0087       0.727562              1              1
      4539.5000       142.3394        87.1515       83.49454         0.7579         0.6572         0.6688       -62.9545       0.781765              1              1
      4540.0000       143.2087          86.83       83.09473         0.7468         0.6513         0.6541       -62.9307      0.8055649              1              1
      4540.5000       143.8755        86.6746       82.89999         0.7374         0.6454         0.6409       -62.9069      0.8293648              1              1
      4541.0000       144.3662        86.6876       82.91315          0.728         0.6386         0.6314       -62.8713      0.8649635              1              1
      4541.5000       144.6475        86.7379       82.97234         0.7188         0.6318         0.6241        -62.827      0.9092636              1              1
      4542.0000       144.9238        86.6766       82.89377         0.7121          0.625         0.6191       -62.7795      0.9567642              1              1
      4542.5000       146.5808        86.9465        83.2241         0.7054         0.6194         0.6139        -62.721       1.015263              1              1
      4543.0000       147.3904        88.2002       84.76897         0.6991         0.6147          0.608       -62.7675      0.9687614              1              1
      4543.5000       147.1475        89.7477       86.67657         0.6965         0.6099          0.603       -62.9007      0.8355637              1              1
      4544.0000       146.4233        88.1698       84.72565         0.6939         0.6107         0.6055        -63.034      0.7022629              1              1
      4544.5000       145.6387        85.9022       81.92325         0.6932         0.6117          0.608       -63.2537       0.482563              1              1
      4545.0000       145.2534        86.1379       82.21135         0.6969         0.6126         0.6081       -63.4827      0.2535629              1              1
      4545.5000       145.2341        87.7024       84.13994         0.7005         0.6138         0.6054       -63.5528      0.1834641              1              1
      4546.0000       145.7676         88.738       85.41557         0.7042         0.6152         0.6027       -63.5203      0.2159615              1              1
      4546.5000       145.6226        87.4443       83.81549         0.7132         0.6167          0.599       -63.2509       0.485363              1              1
      4547.0000       144.2397        86.2523         82.341         0.7248         0.6205         0.5958       -62.9924      0.7438622              1              1
      4547.5000       141.0034        85.6769       81.62775         0.7365         0.6329         0.6077       -62.7441      0.9921646              1              1
      4548.0000       137.6702        85.1117       80.92706          0.749         0.6629          0.646       -62.5555       1.180763              1              1
      4548.5000       133.9463        84.5804       80.26824         0.7621          0.702         0.6926       -62.5287       1.207561              1              1
      4549.0000        131.644        84.2123       79.81091         0.7727         0.7264         0.7396       -62.5018       1.234463      0.9959769              1
      4549.5000       131.2654        84.0209       79.57171         0.7809         0.7468         0.7596       -62.5685       1.167763      0.9908874              1
      4550.0000       132.0608        84.4208       80.06253         0.7892         0.7464          0.773       -62.6388       1.097462              1              1
      4550.5000       134.3027        87.3485       83.67408         0.7873          0.746          0.763       -62.7006       1.035664              1              1
      4551.0000       137.5442        89.6934       86.56611         0.7837         0.7214         0.7354       -62.7435      0.9927635              1              1
      4551.5000       141.0193        91.4075        88.6794         0.7777         0.6976         0.6893       -62.7863      0.9499626              1              1
      4552.0000       143.7781        92.5125        90.0407         0.7687         0.6776         0.6498       -62.7785      0.9577637              1              1
      4552.5000       144.4746        93.3534       91.07595         0.7598         0.6594         0.6269       -62.7525      0.9837646              1              1
      4553.0000       144.3345        93.2234       90.91256         0.7502         0.6544         0.6322       -62.8503      0.8859634              1              1
      4553.5000       144.0037        91.1581       88.35992         0.7393         0.6495         0.6385       -63.0094      0.7268639              1              1
      4554.0000       143.8552        89.0323       85.73257         0.7287         0.6469         0.6365       -63.2145      0.5217628              1              1
      4554.5000        144.115        87.8961       84.32697         0.7232         0.6446         0.6319       -63.4453      0.2909622              1              1
      4555.0000       144.4966        87.6453       84.01444         0.7209         0.6428         0.6274       -63.5757      0.1605644              1              1
      4555.5000       144.8784        87.4066       83.71686         0.7185         0.6421         0.6238       -63.6641     0.07216263              1              1
      4556.0000       144.9214          88.16       84.64409         0.7174         0.6414         0.6202       -63.5058      0.2304649              1              1
      4556.5000       144.8958        89.3569       86.11885         0.7188         0.6422          0.625       -63.3516      0.3846626              1              1
      4557.0000        144.179        89.4757       86.26261         0.7202         0.6452         0.6344        -63.222      0.5142632              1              1
      4557.5000       142.2744        88.6979       85.29947         0.7216         0.6482          0.644       -63.1204      0.6158638              1              1
      4558.0000       140.4924        87.2576       83.51843          0.723          0.651         0.6486       -63.0552      0.6810646              1              1
      4558.5000       139.8662        86.2313        82.2485          0.725         0.6534         0.6516       -63.0157       0.720562              1              1
      4559.0000       139.9358        85.8951       81.83054         0.7273         0.6557         0.6494       -63.0289      0.7073631              1              1
      4559.5000       140.2432        88.0858       84.53222         0.7296         0.6581         0.6415       -63.0462      0.6900635              1              1
      4560.0000       140.7246        92.8596        90.4229          0.732         0.6603         0.6407       -63.0898      0.6464615              1              1
      4560.5000       141.2141        95.8518       94.11407         0.7343         0.6622         0.6443       -63.1113      0.6249619              1              1
      4561.0000         141.75        91.9365       89.27749         0.7374         0.6641         0.6506       -63.1055       0.630764              1              1
