#------------------------------------------------------------------------------
# Created by    : vladimir.rabinovich
# Created on    : 09/19/2023 17:20:06
#------------------------------------------------------------------------------
~Version Information Section
VERS.           2.0     :   CWLS log ASCII Standard - VERSION 2.0
WRAP.           NO      :   One line per depth step
~Well Information Section
#MNEM       .UNIT                                         VALUE :DESCRIPTION
#------------------------------------------------------------------------------
STRT        .FT                                             325 :START DEPTH
STOP        .FT                                           10896 :STOP DEPTH
STEP        .FT                                             0.5 :STEP      
NULL        .                                           -999.25 :NULL      
COMP        .                                      GETTY OIL CO :COMPANY   
WELL        .                               OCS G03737 ST00BP00 :WELL      
FLD         .                                           WILDCAT :FIELD     
LOC         .                                                   :LOCATION  
CNTY        .                             GALVESTON LARGE BLOCK :LOCATION  
STAT        .                                             TEXAS :STATE     
CTRY        .                                     UNITED STATES :COUNTRY   
SRVC        .                                                   :SERVICE COMPANY
DATE        .                             9/13/2023 11:10:15 AM :LOG DATE  
API         .                                    42706400540000 :API NUMBER
UWI         .                                    42706400540000 :UNIQUE WELL ID
XCOORD      .                                  1098214.74516992 :SURFACE X 
YCOORD      .                                   10573216.961531 :SURFACE Y 
LAT         .                                         29.123847 :LATITUDE  
LON         .                                        -94.698615 :LONGITUDE 
ELEV        .FT                                              99 :ELEVATION VALUE
ELEV_TYPE   .                                                KB :ELEVATION REFERENCE TYPE
~Curve Information Section
#MNEM       .UNIT                                      API CODE :CURVE DESCRIPTION
#------------------------------------------------------------------------------
DEPT        .FT                                                 :DEPTH     
ASFL        .OHMM                                               :          
DT          .US/F                                               :          
DTL         .US/F                                               :          
GR          .GAPI                                               :          
GR_1        .GAPI                                               :          
GR_NORM     .GAPI                                               :GammaRay Normalized
ILD         .OHMM                                               :          
RHOB        .G/CC                                               :          
SP          .MV                                                 :          
SP_NORM     .MV                                                 :SP Normalized
VSH_GR      .V/V                                                :Volume of Shale from GR
VSH_SP      .V/V                                                :Volume of Shale from SP
~A        DEPTH           ASFL             DT            DTL             GR           GR_1        GR_NORM            ILD           RHOB             SP        SP_NORM         VSH_GR         VSH_SP
# ...
      7356.5000         0.8391       106.3413         98.539        57.1988        65.9333        82.2654         0.3824         2.3352       -47.4802         -2.964              1         0.9715
      7357.0000          0.834       109.3313        99.0181        54.6571        64.8423        78.0909         0.3874         2.3297       -47.4084        -2.8865         0.9594         0.9727
      7357.5000         0.8583       110.2302       101.3719        51.6319        63.6245        73.1233         0.3919           2.33       -47.3159        -2.7882         0.8537         0.9741
      7358.0000         0.8774       108.2257       105.2197        49.6322        62.4562         69.838         0.3964         2.3393       -47.2234          -2.69         0.7838         0.9755
      7358.5000         0.8916       101.9607       107.0676        49.0896        61.5087         68.943         0.4014         2.3684       -47.0065        -2.4673         0.7647         0.9787
      7359.0000         0.9057        99.2385       104.4101        49.5895        60.5601        69.7583         0.4073         2.3858       -46.6414        -2.0965         0.7821         0.9841
      7359.5000         0.9133        97.8185         99.048        50.3215        59.4653        70.9544         0.4131         2.3914        -46.737        -2.1864         0.8075         0.9828
      7360.0000         0.9189         98.983        93.9042        50.7782        58.2234        71.6988         0.4189          2.376       -46.9883        -2.4319         0.8234         0.9792
      7360.5000         0.9235       103.7936        94.2944        50.8306        57.0345          71.78         0.4246         2.3449       -47.3752        -2.8131         0.8251         0.9737
      7361.0000         0.9191       104.5605       100.0702        51.1137        56.1788        72.2396         0.4303         2.3409       -47.8012        -3.2333         0.8349         0.9676
      7361.5000         0.9147       103.4373       100.7228        51.7098        57.2241        73.2127         0.4361         2.3478       -48.2267        -3.6531         0.8556         0.9615
      7362.0000         0.9029       100.8011        97.4158        52.5855        58.6627        74.6445         0.4414         2.3662       -47.1127        -2.5334         0.8861         0.9778
      7362.5000         0.8776         98.795        95.5788        53.3832         60.099        75.9483         0.4348         2.3802       -46.7005        -2.1154         0.9138         0.9838
      7363.0000         0.8523       100.6709        95.3992        53.8238        61.1683        76.6663         0.4283         2.3831       -46.3538         -1.763         0.9291         0.9889
      7363.5000         0.7815       103.0466        96.9631        54.2095        62.2003        77.2943         0.4218         2.3779       -46.1115        -1.5149         0.9424         0.9925
      7364.0000         0.7467        106.049       100.1181        54.8422        63.0699        78.3274         0.4146         2.3683       -46.2515        -1.6492         0.9644         0.9906
      7364.5000         0.7299       108.7195       103.1906          55.23        63.6481        78.9588         0.4071          2.359         -47.38         -2.772         0.9778         0.9743
      7365.0000          0.722        111.083       106.3771        55.1077        64.2256        78.7533         0.3996         2.3529       -50.4409        -5.8271         0.9735           0.93
      7365.5000         0.7431       111.5597       108.3835        54.4866        64.7119        77.7297         0.3922         2.3518       -54.8293       -10.2098         0.9517         0.8665
      7366.0000         0.7554       111.4049       108.8085        53.5342         60.647        76.1624         0.3852         2.3532       -64.2773        -19.652         0.9183         0.7297
      7366.5000         0.7645       109.1494         106.83        53.1993        57.3472        75.6082         0.3784         2.3547       -67.2126       -22.5816         0.9066         0.6872
      7367.0000          0.775       106.0293       103.5507        53.0319        55.4076        75.3288         0.3716         2.3468       -71.0894       -26.4527         0.9006         0.6311
      7367.5000         0.7862        103.597       101.0825        52.3602        54.1487        74.2221         0.3645         2.3326       -76.1779       -31.5354         0.8771         0.5575
      7368.0000         0.7766       103.2445        98.6811        50.0974        52.7004        70.5051         0.3563         2.3049       -86.0219       -41.3737          0.798         0.4149
      7368.5000         0.7671        103.984        98.6081         46.814        51.1289        65.1139         0.3481         2.2782       -92.7445       -48.0905         0.6833         0.3175
      7369.0000         0.7574       104.8536        99.7511        43.3942        48.4471        59.4989         0.3393         2.2723        -96.416       -51.7563         0.5638         0.2644
      7369.5000         0.7466       105.8217       102.1508        40.5396        44.2903        54.8111           0.32         2.2718      -100.8093       -56.1439         0.4641         0.2008
      7370.0000         0.7347       106.7455       103.1723        38.2938         42.603        51.1221         0.3007         2.2536        -102.37       -57.6988         0.3856         0.1783
      7370.5000         0.7149       107.4275       103.6234        37.4621        43.3875        49.7529          0.284         2.1989       -103.303       -58.6261         0.3564         0.1648
      7371.0000         0.6977       107.3278       103.3582         37.507        44.9517        49.8217         0.2683         2.1603        -99.343       -54.6603         0.3579         0.2223
      7371.5000         0.6847       107.0417       103.2348        39.0245        46.5135        52.3064         0.2527         2.1305       -98.6947       -54.0063         0.4108         0.2318
      7372.0000         0.6756        106.821       103.3233        41.1729        47.9233        55.8261         0.2395         2.1167       -97.8293       -53.1352         0.4857         0.2444
      7372.5000         0.6593       107.0046       103.4126        42.6562        49.2956        58.2546         0.2281          2.111       -97.0629        -52.363         0.5373         0.2556
      7373.0000          0.631       108.2318       103.9019        43.8205        50.6824        60.1599         0.2167         2.1161       -97.8872       -53.1816         0.5779         0.2437
      7373.5000         0.6058        109.093       104.6584        44.9848        52.1887        62.0651         0.2053         2.1242       -98.7115       -54.0001         0.6184         0.2319
      7374.0000         0.5881        109.412        105.585        45.9025        53.7891        63.5658         0.1989         2.1354      -100.3096       -55.5925         0.6503         0.2088
      7374.5000         0.5755       109.8755       105.4676        46.0358        51.6306        63.7797         0.1947         2.1446      -101.7968       -57.0739         0.6549         0.1873
      7375.0000         0.5647       110.6985       105.5745        45.2369        50.8322        62.4643         0.1905         2.1449      -103.5731       -58.8445         0.6269         0.1617
      7375.5000         0.5546       111.1438       106.0032        43.9033        50.2488        60.2717         0.1891         2.1521      -100.9675       -56.2332         0.5802         0.1995
      7376.0000         0.5773       111.3008       106.2207        42.5917        49.5914        58.1152         0.1918         2.1497       -98.3933       -53.6532         0.5344         0.2369
      7376.5000         0.6012       110.8828       105.7299        41.4395        48.8623        56.2202         0.1945         2.1365       -97.4304       -52.6846          0.494         0.2509
