#------------------------------------------------------------------------------
# Created by    : vladimir.rabinovich
# Created on    : 09/19/2023 17:21:20
#------------------------------------------------------------------------------
~Version Information Section
VERS.           2.0     :   CWLS log ASCII Standard - VERSION 2.0
WRAP.           NO      :   One line per depth step
~Well Information Section
#MNEM       .UNIT                                         VALUE :DESCRIPTION
#------------------------------------------------------------------------------
STRT        .FT                                            6712 :START DEPTH
STOP        .FT                                           10254 :STOP DEPTH
STEP        .FT                                             0.5 :STEP      
NULL        .                                           -999.25 :NULL      
COMP        .                                SHELL OFFSHORE INC :COMPANY   
WELL        .                               OCS G17145 ST00BP00 :WELL      
FLD         .                                           WILDCAT :FIELD     
LOC         .                                                   :LOCATION  
CNTY        .                           HIGH ISLAND LARGE BLOCK :LOCATION  
STAT        .                                             TEXAS :STATE     
CTRY        .                                     UNITED STATES :COUNTRY   
SRVC        .                                                   :SERVICE COMPANY
DATE        .                             9/13/2023 11:19:48 AM :LOG DATE  
API         .                                    42708404610000 :API NUMBER
UWI         .                                    42708404610000 :UNIQUE WELL ID
XCOORD      .                                  1236256.25309123 :SURFACE X 
YCOORD      .                                  10648843.7308139 :SURFACE Y 
LAT         .                                         29.336637 :LATITUDE  
LON         .                                        -94.268822 :LONGITUDE 
ELEV        .FT                                             110 :ELEVATION VALUE
ELEV_TYPE   .                                                KB :ELEVATION REFERENCE TYPE
~Curve Information Section
#MNEM       .UNIT                                      API CODE :CURVE DESCRIPTION
#------------------------------------------------------------------------------
DEPT        .FT                                                 :DEPTH     
CALI        .IN                                                 :          
CPCHM       .MMHO                                               :          
CPCM        .MMHO                                               :          
DFL         .OHMM                                               :          
DPHI        .%                                                  :          
DRHO        .G/C3                                               :          
DT          .US/F                                               :          
GR          .GAPI                                               :          
GR_NORM     .GAPI                                               :GammaRay Normalized
GRAM        .GAPI                                               :          
HDCN        .MMHO                                               :          
HDRS        .OHMM                                               :          
HMRS        .OHMM                                               :          
NPHI        .%                                                  :          
PE          .G/C3                                               :          
RACHM       .OHMM                                               :          
RACM        .OHMM                                               :          
RHOB        .G/C3                                               :          
ROPS        .F/HR                                               :          
RPCHM       .OHMM                                               :          
RPCM        .OHMM                                               :          
RPTHM       .MINS                                               :          
RPTM        .MINS                                               :          
SP01        .MV                                                 :          
TENS        .LBS                                                :          
VSH_GR      .V/V                                                :Volume of Shale from GR
~A        DEPTH           CALI          CPCHM           CPCM            DFL           DPHI           DRHO             DT             GR        GR_NORM           GRAM           HDCN           HDRS           HMRS           NPHI             PE          RACHM           RACM           RHOB           ROPS          RPCHM           RPCM          RPTHM           RPTM           SP01           TENS         VSH_GR
# ...
      9172.0000        10.3523       1877.059        -999.25          0.571        22.2954        -0.2331       122.2422        40.8184       78.96633         84.078       1945.816         0.5139         0.5321        44.5502        12.8386          0.558        -999.25         2.2821         18.129          0.533        -999.25       128.5955        -999.25       486.2139       4766.133      0.9780071
      9172.5000        10.8811       1827.357        -999.25         0.5589        19.5128        -0.2322       127.0515        41.4738       79.39146        84.3679       1961.744         0.5098         0.5261        45.5634        12.6432          0.567        -999.25          2.328          19.35          0.547        -999.25        128.978        -999.25       486.5693       4673.914      0.9870524
      9173.0000        11.1658       1720.279        -999.25         0.6209        18.4636        -0.2029       129.2781        40.9589       80.60424        85.2179       1980.889         0.5048         0.5201         44.543        12.7843          0.582        -999.25         2.3453          19.35          0.581        -999.25       129.9819        -999.25        486.481       4585.281              1
      9173.5000        11.2391         1681.5        -999.25         0.5908        18.9077        -0.2308       126.2578        39.4609       79.38573         84.339       2027.234         0.4933         0.5084        45.1486         14.147          0.595        -999.25          2.338          46.95          0.595        -999.25       130.9614        -999.25       486.2241       4475.406      0.9869304
      9174.0000        11.0926       1669.689        -999.25         0.5453        17.3861        -0.2192       111.1078        40.3035       79.48602        84.3979       2090.773         0.4783         0.4925        45.4589        14.3152          0.598        -999.25         2.3631          46.95          0.599        -999.25       132.2388        -999.25       485.7554       4376.055      0.9890643
      9174.5000        10.3442       1653.021        -999.25         0.5372        18.2058        -0.2643        103.064        40.9589       81.26846         85.653       2144.375         0.4663         0.4793        45.9857         14.117          0.599        -999.25         2.3496        59.0649          0.605        -999.25       133.4541        -999.25       485.1963       4297.711              1
      9175.0000         9.6282        1663.07        -999.25         0.4786        13.5872        -0.2339       125.3452        42.9717       82.90718        86.8059       2180.129         0.4587         0.4723        45.6634        11.0743          0.602        -999.25         2.4258        59.0649          0.601        -999.25       133.9612        -999.25       484.6382       4259.195              1
      9175.5000         9.2459       1657.988        -999.25         0.5405        18.2392        -0.2273        133.575         45.593       82.62666         86.594       2184.977         0.4577         0.4748        43.7875        11.0434          0.601        -999.25         2.3491         23.032          0.603        -999.25       133.7883        -999.25       483.9429       4279.938              1
      9176.0000         8.9937       1662.209        -999.25         0.5334        23.6527        -0.2327       130.6531        48.8229       82.45693        86.4609       2105.117          0.475         0.4971        40.2545         11.433          0.599        -999.25         2.2597         23.032          0.602        -999.25        131.261        -999.25         483.46       4310.781              1
      9176.5000         8.9774       1697.955        -999.25          0.545        27.0594        -0.2416       133.1265        53.8316       83.41672         87.131       1938.779         0.5158         0.5402        38.8869        11.6416          0.596        -999.25         2.2035          5.406          0.589        -999.25       116.3198        -999.25       483.4805       4342.852              1
      9177.0000         9.8642       1708.188        -999.25         0.7134        26.8506        -0.2392       131.9717        53.2699       83.18794        86.9559       1822.344         0.5487         0.5717        41.9698        11.7414          0.596        -999.25          2.207          5.406          0.585        -999.25        116.392        -999.25       483.8779       4367.203              1
      9177.5000        10.9543       1673.145        -999.25         0.6016        24.8558        -0.2135       111.2609         50.789       82.81728        86.6799       1857.344         0.5384          0.559        45.2192        13.7714           0.59        -999.25         2.2399         16.349          0.598        -999.25       116.9557        -999.25       484.4873       4384.773              1
      9178.0000        11.8818       1712.734        -999.25         0.6201        22.7931        -0.2706       110.5125         48.074       82.94315         86.757       1933.107         0.5173         0.5342        46.6738        15.4792          0.574        -999.25         2.2739         16.349          0.584        -999.25        115.627        -999.25       485.0952       4382.977              1
      9178.5000        12.6872       1881.584        -999.25          0.562        21.8696        -0.3226       126.4624        41.1461       83.88015        87.4109       1929.068         0.5184         0.5322        47.5956        15.1539          0.547        -999.25         2.2892          12.84          0.532        -999.25       113.7279        -999.25       485.6162       4364.172              1
      9179.0000         13.517       1955.221        -999.25         0.6349        20.9789         -0.331       126.1655        36.8864        83.0609        86.8159        1873.23         0.5338         0.5468         47.004        14.5721           0.53        -999.25         2.3038          12.84          0.511        -999.25       111.9918        -999.25       485.8135       4344.836              1
      9179.5000        14.4119       1970.363        -999.25         0.6224        20.7018        -0.3317       124.6577        36.0906       82.73381        86.5709       1835.359         0.5449         0.5588        45.0655        13.9088          0.518        -999.25         2.3084         13.269          0.508        -999.25       111.1847        -999.25       485.6768       4318.234              1
      9180.0000         14.957       2007.502        -999.25         0.6135        17.1879        -0.2974       124.3093        35.1076       83.61752        87.1869       1817.539         0.5502          0.566        43.4443        14.0612          0.503        -999.25         2.3664         13.269          0.498        -999.25       112.1072        -999.25       485.6431       4311.703              1
      9180.5000        14.8024       2129.348        -999.25         0.6102        18.4177        -0.2854       122.8203        35.7161        83.2048         86.881        1796.66         0.5566         0.5753        41.9634        13.2628          0.484        -999.25         2.3461         13.526           0.47        -999.25       111.3307        -999.25       485.5186       4310.391              1
      9181.0000        14.0051       2258.172        -999.25         0.6307        15.9438        -0.2328       123.0656        36.9332       81.46149        85.6289       1777.957         0.5624         0.5836        42.1787        12.7241          0.466        -999.25         2.3869         13.526          0.443        -999.25       110.0507        -999.25       485.5308       4317.336              1
      9181.5000        13.1997       2297.207        -999.25         0.6227        16.1959        -0.1843       125.1296         38.197       80.37518         84.844       1772.559         0.5642         0.5866        43.5007        12.3191          0.462        -999.25         2.3828         16.941          0.435        -999.25       109.2791        -999.25       485.8022       4337.539              1
