#------------------------------------------------------------------------------
# Created by    : vladimir.rabinovich
# Created on    : 09/19/2023 17:22:29
#------------------------------------------------------------------------------
~Version Information Section
VERS.           2.0     :   CWLS log ASCII Standard - VERSION 2.0
WRAP.           NO      :   One line per depth step
~Well Information Section
#MNEM       .UNIT                                         VALUE :DESCRIPTION
#------------------------------------------------------------------------------
STRT        .FT                                             272 :START DEPTH
STOP        .FT                                            9222 :STOP DEPTH
STEP        .FT                                             0.5 :STEP      
NULL        .                                           -999.25 :NULL      
COMP        .                   MCMORAN OFFSHORE EXPLORATION CO :COMPANY   
WELL        .                               OCS G03108 ST00BP00 :WELL      
FLD         .                       MATAGORDA ISLAND BLOCK 0700 :FIELD     
LOC         .                                                   :LOCATION  
CNTY        .                      MATAGORDA ISLAND LARGE BLOCK :LOCATION  
STAT        .                                             TEXAS :STATE     
CTRY        .                                     UNITED STATES :COUNTRY   
SRVC        .                                                   :SERVICE COMPANY
DATE        .                             9/13/2023 11:12:09 AM :LOG DATE  
API         .                                    42703400850000 :API NUMBER
UWI         .                                    42703400850000 :UNIQUE WELL ID
XCOORD      .                                  483045.974763742 :SURFACE X 
YCOORD      .                                  10146137.6323278 :SURFACE Y 
LAT         .                                         27.912878 :LATITUDE  
LON         .                                       -96.5835889 :LONGITUDE 
ELEV        .FT                                              85 :ELEVATION VALUE
ELEV_TYPE   .                                                KB :ELEVATION REFERENCE TYPE
~Curve Information Section
#MNEM       .UNIT                                      API CODE :CURVE DESCRIPTION
#------------------------------------------------------------------------------
DEPT        .FT                                                 :DEPTH     
CILD        .MMHO                                               :          
DT          .US/F                                               :          
GR          .GAPI                                               :          
GR_NORM     .GAPI                                               :GammaRay Normalized
ILD         .OHMM                                               :          
ILM         .OHMM                                               :          
SFL         .OHMM                                               :          
SP          .MV                                                 :          
SP_NORM     .MV                                                 :SP Normalized
VSH_GR      .V/V                                                :Volume of Shale from GR
VSH_SP      .V/V                                                :Volume of Shale from SP
~A        DEPTH           CILD             DT             GR        GR_NORM            ILD            ILM            SFL             SP        SP_NORM         VSH_GR         VSH_SP
# ...
      8012.0000         1194.4       106.1387        -999.25        -999.25           0.89         0.8838         0.8778       -33.8427         -3.654        -999.25       0.973746
      8012.5000       1187.393       105.1338        -999.25        -999.25         0.8761         0.8844         0.8781       -34.5894        -4.4007        -999.25      0.9618937
      8013.0000         1160.1       104.1959        -999.25        -999.25         0.8696         0.8844         0.8925       -34.0879        -3.8992        -999.25       0.969854
      8013.5000       1119.014       103.9457        -999.25        -999.25         0.8712         0.8832         0.8777       -31.3567         -1.168        -999.25              1
      8014.0000       1084.504       103.6957        -999.25        -999.25         0.9267         0.9085         0.8845       -31.5479        -1.3592        -999.25              1
      8014.5000       1054.344       101.4479        -999.25        -999.25         0.9657         0.9535         0.8869       -33.6348        -3.4461        -999.25       0.977046
      8015.0000       1026.162        99.5988        -999.25        -999.25          0.999         0.9871         0.9499       -34.5038        -4.3151        -999.25      0.9632524
      8015.5000       1004.574         98.249        -999.25        -999.25         1.0266         1.0047         1.0113       -34.8669        -4.6782        -999.25      0.9574889
      8016.0000       1003.981        96.8922        -999.25        -999.25         1.0672         1.0349         1.0729       -35.0699        -4.8812        -999.25      0.9542667
      8016.5000        1003.39        97.4901        -999.25        -999.25         1.0481         1.0304         1.0596       -35.0082        -4.8195        -999.25       0.955246
      8017.0000       998.6475       102.3008        -999.25        -999.25         1.0214         1.0023         1.0134       -34.9302        -4.7415        -999.25      0.9564841
      8017.5000       997.6836       103.7581        -999.25        -999.25         0.9863         0.9668         0.9713       -34.9133        -4.7246        -999.25      0.9567524
      8018.0000       1036.297       104.7185        -999.25        -999.25         0.9523         0.9326         0.9488       -34.9393        -4.7506        -999.25      0.9563397
      8018.5000       1080.004       104.7488        -999.25        -999.25         0.9391         0.9103         0.9567       -34.9782        -4.7895        -999.25      0.9557222
      8019.0000       1129.002       104.4651        -999.25        -999.25          0.909         0.8895         0.9719       -35.0273        -4.8386        -999.25      0.9549429
      8019.5000       1173.598       104.0151        -999.25        -999.25         0.8717         0.8671         1.0023       -35.5789        -5.3902        -999.25      0.9461873
      8020.0000       1205.488       103.9423        -999.25        -999.25         0.8478         0.8686         1.0085       -36.1847         -5.996        -999.25      0.9365714
      8020.5000       1210.104       104.7655        -999.25        -999.25         0.8345         0.8764         0.9425       -36.1068        -5.9181        -999.25      0.9378079
      8021.0000       1206.514       106.5503        -999.25        -999.25          0.836          0.886          0.858       -35.5839        -5.3952        -999.25      0.9461079
      8021.5000        1183.09       106.5021        -999.25        -999.25         0.8538         0.8819          0.833       -34.6701        -4.4814        -999.25      0.9606127
      8022.0000       1147.789       105.5046        -999.25        -999.25         0.8962         0.8826         0.8122       -34.2487          -4.06        -999.25      0.9673016
      8022.5000        1062.65       103.2179        -999.25        -999.25         0.9541           0.98         0.8281       -34.0241        -3.8354        -999.25      0.9708667
      8023.0000       990.8359         96.563        -999.25        -999.25         0.9914         1.0687         0.8715        -33.978        -3.7893        -999.25      0.9715984
      8023.5000       973.6055        91.9204        -999.25        -999.25         1.0224         1.1043         1.0959       -34.0025        -3.8138        -999.25      0.9712095
      8024.0000       967.2549        89.4044        -999.25        -999.25         1.0417         1.1247         1.2646       -34.2359        -4.0472        -999.25      0.9675047
      8024.5000       968.1328        90.5558        -999.25        -999.25         1.0423         1.0815         1.4636       -35.5727         -5.384        -999.25      0.9462857
      8025.0000       961.4922        96.3158        -999.25        -999.25         1.0397         1.0628         1.3743       -36.0842        -5.8955        -999.25      0.9381667
      8025.5000       957.4375        101.443        -999.25        -999.25         1.0114         1.0433         1.1158       -35.6285        -5.4398        -999.25         0.9454
      8026.0000       1005.199       103.2859        -999.25        -999.25         0.9819         1.0138         0.9808       -34.5497         -4.361        -999.25      0.9625238
      8026.5000       1060.078       103.9509        -999.25        -999.25         0.9275         0.9555          0.934       -33.0004        -2.8117        -999.25      0.9871159
      8027.0000       1112.438       104.5887        -999.25        -999.25         0.8882         0.9137         0.9112       -30.8303        -0.6416        -999.25              1
      8027.5000       1145.564       105.1215        -999.25        -999.25         0.8793         0.9083         0.9211       -28.3846         1.8041        -999.25              1
      8028.0000       1177.207       105.6013        -999.25        -999.25         0.8759         0.9203         0.9691       -26.4852         3.7035        -999.25              1
      8028.5000        1186.73       105.8489        -999.25        -999.25         0.8707           0.93         1.0038       -24.3325         5.8562        -999.25              1
      8029.0000       1173.824       105.2153        -999.25        -999.25         0.8612         0.9166          0.996       -23.9328         6.2559        -999.25              1
      8029.5000       1162.449       104.5022        -999.25        -999.25         0.8685         0.8957          0.939       -24.8812         5.3075        -999.25              1
      8030.0000       1148.951       103.8198        -999.25        -999.25         0.8699         0.8754         0.8819       -27.4088         2.7799        -999.25              1
      8030.5000       1134.119       103.7661        -999.25        -999.25         0.8596         0.8693         0.8756       -27.5504         2.6383        -999.25              1
      8031.0000       1110.855       104.1283        -999.25        -999.25         0.8554         0.8684         0.8756       -26.7906         3.3981        -999.25              1
      8031.5000       1087.568       104.4021        -999.25        -999.25         0.8557         0.8716         0.8576       -25.4225         4.7662        -999.25              1
      8032.0000       1064.158       104.7018        -999.25        -999.25         0.8715         0.8826         0.9082       -25.1419         5.0468        -999.25              1
      8032.5000       1039.486       102.5109        -999.25        -999.25         0.9178         0.9311         0.9546       -27.3244         2.8643        -999.25              1
      8033.0000        1005.99        99.1401        -999.25        -999.25         0.9853         1.0032         0.9985        -29.718         0.4707        -999.25              1
      8033.5000       951.7021        98.0315        -999.25        -999.25         1.0666         1.0917         1.0187       -28.4864         1.7023        -999.25              1
      8034.0000       897.0195        96.4691        -999.25        -999.25         1.1617         1.2087         1.0114       -26.0085         4.1802        -999.25              1
