#------------------------------------------------------------------------------
# Created by    : vladimir.rabinovich
# Created on    : 09/19/2023 17:22:48
#------------------------------------------------------------------------------
~Version Information Section
VERS.           2.0     :   CWLS log ASCII Standard - VERSION 2.0
WRAP.           NO      :   One line per depth step
~Well Information Section
#MNEM       .UNIT                                         VALUE :DESCRIPTION
#------------------------------------------------------------------------------
STRT        .FT                                             306 :START DEPTH
STOP        .FT                                           13139 :STOP DEPTH
STEP        .FT                                             0.5 :STEP      
NULL        .                                           -999.25 :NULL      
COMP        .                                    CITIES SERVICE :COMPANY   
WELL        .                                          SL 77337 :WELL      
FLD         .                                           WILDCAT :FIELD     
LOC         .                                                   :LOCATION  
CNTY        .                                BRAZOS LARGE BLOCK :LOCATION  
STAT        .                                             TEXAS :STATE     
CTRY        .                                     UNITED STATES :COUNTRY   
SRVC        .                                                   :SERVICE COMPANY
DATE        .                             9/13/2023 11:18:52 AM :LOG DATE  
API         .                                    42704301950000 :API NUMBER
UWI         .                                    42704301950000 :UNIQUE WELL ID
XCOORD      .                                   673900.18951543 :SURFACE X 
YCOORD      .                                   10333530.060148 :SURFACE Y 
LAT         .                                        28.4418955 :LATITUDE  
LON         .                                       -96.0077528 :LONGITUDE 
ELEV        .FT                                              82 :ELEVATION VALUE
ELEV_TYPE   .                                                KB :ELEVATION REFERENCE TYPE
~Curve Information Section
#MNEM       .UNIT                                      API CODE :CURVE DESCRIPTION
#------------------------------------------------------------------------------
DEPT        .FT                                                 :DEPTH     
DT          .US/F                                               :          
SP          .MV                                                 :          
SP_NORM     .MV                                                 :SP Normalized
VSH_SP      .V/V                                                :Volume of Shale from SP
~A        DEPTH             DT             SP        SP_NORM         VSH_SP
# ...
      2850.0000        121.347       -71.7245       -21.7245      0.1710199
      2850.5000       123.4318        -70.766        -20.766        0.20936
      2851.0000       124.8876       -69.5499       -19.5499      0.2580042
      2851.5000       126.7271       -67.6292       -17.6292      0.3348318
      2852.0000       133.3713       -65.5708       -15.5708       0.417168
      2852.5000       139.1096       -63.9002       -13.9002       0.483992
      2853.0000        144.165       -61.7356       -11.7356       0.570576
      2853.5000       146.2388       -58.9658      -8.965801      0.6813679
      2854.0000       146.9753       -56.1472      -6.147202       0.794112
      2854.5000       146.4771       -55.1099      -5.109901       0.835604
      2855.0000       145.5996       -54.3298        -4.3298       0.866808
      2855.5000       145.0344        -53.603      -3.603001        0.89588
      2856.0000       144.9902       -52.8977      -2.897701      0.9240919
      2856.5000       145.2554       -52.2668        -2.2668       0.949328
      2857.0000       145.5181       -51.6179      -1.617901       0.975284
      2857.5000         145.26       -51.0101      -1.010101      0.9995959
      2858.0000       144.5977       -50.4996     -0.4995995              1
      2858.5000       142.6775       -50.1097     -0.1096992              1
      2859.0000       140.2664       -49.7397      0.2602997              1
      2859.5000       137.3125       -49.3668      0.6332016              1
      2860.0000       133.8005       -49.0156      0.9844017              1
      2860.5000       130.8628       -48.8406       1.159401              1
      2861.0000       128.1721       -48.7313         1.2687              1
      2861.5000       124.9899       -48.9092       1.090801              1
      2862.0000       122.9407       -49.0958      0.9042015              1
      2862.5000        120.552       -49.2775      0.7224998              1
      2863.0000       117.3073       -49.4514      0.5485992              1
      2863.5000       112.9817       -49.6547      0.3452988              1
      2864.0000       106.9989       -50.0996    -0.09960175              1
      2864.5000        103.696       -50.5474     -0.5474014              1
      2865.0000       104.5266       -50.9615     -0.9614983              1
      2865.5000       107.1361       -51.3746      -1.374599       0.985016
      2866.0000         110.92       -51.9883        -1.9883       0.960468
      2866.5000       114.9436       -52.6476      -2.647598      0.9340961
      2867.0000       115.4066       -53.5133      -3.513302      0.8994679
      2867.5000       113.1453       -54.5302      -4.530201      0.8587919
      2868.0000        110.975       -55.8433        -5.8433       0.806268
      2868.5000        109.764       -57.2688      -7.268799       0.749248
      2869.0000       109.5496       -59.0064      -9.006401      0.6797439
      2869.5000       109.1853       -61.2016       -11.2016      0.5919361
      2870.0000       108.5033       -63.4338       -13.4338       0.502648
      2870.5000       107.8575       -66.1248       -16.1248      0.3950079
      2871.0000       109.0505       -68.9371       -18.9371      0.2825159
      2871.5000       113.8977       -71.0562       -21.0562      0.1977521
      2872.0000       117.0253        -72.451        -22.451      0.1419601
      2872.5000        119.193       -73.4817       -23.4817      0.1007321
      2873.0000       120.2313       -74.2161       -24.2161     0.07135589
      2873.5000       119.1517        -74.649        -24.649     0.05403992
      2874.0000       117.8102       -74.8661       -24.8661     0.04535614
      2874.5000       116.2471       -74.9327       -24.9327     0.04269196
      2875.0000       115.0146       -74.8926       -24.8926     0.04429596
      2875.5000       114.0007       -74.8076       -24.8076     0.04769592
      2876.0000        113.173        -74.714        -24.714     0.05144012
      2876.5000       112.3995       -74.5984       -24.5984     0.05606415
      2877.0000       111.8008        -74.371        -24.371     0.06515991
      2877.5000       111.3602       -74.1876       -24.1876     0.07249603
      2878.0000       111.9335       -73.9333       -23.9333     0.08266816
      2878.5000       114.0276       -73.4739       -23.4739       0.101044
      2879.0000       117.0801       -72.8875       -22.8875      0.1245001
      2879.5000       121.3719       -72.3359       -22.3359       0.146564
      2880.0000       123.1959       -72.0765       -22.0765        0.15694
      2880.5000        124.613        -72.177        -22.177      0.1529199
      2881.0000       125.9103       -72.2341       -22.2341       0.150636
      2881.5000       127.8053       -72.2527       -22.2527       0.149892
      2882.0000       132.1184       -72.1963       -22.1963      0.1521481
      2882.5000       135.0161       -72.1056       -22.1056      0.1557761
      2883.0000       135.5735       -71.3512       -21.3512      0.1859521
      2883.5000       135.2346       -69.8788       -19.8788       0.244848
      2884.0000       133.7805       -67.7141       -17.7141      0.3314359
      2884.5000       133.7371       -64.4629       -14.4629      0.4614841
      2885.0000       136.5537       -61.6268       -11.6268       0.574928
      2885.5000        140.355       -59.0608      -9.060799      0.6775681
      2886.0000       144.3647        -57.382         -7.382        0.74472
      2886.5000       145.4717       -56.2822        -6.2822       0.788712
      2887.0000       143.4363       -55.5775      -5.577499         0.8169
      2887.5000       133.9954        -55.032      -5.032001        0.83872
      2888.0000       126.5674       -54.4727      -4.472698      0.8610921
      2888.5000       119.2092       -53.7609      -3.760899       0.889564
      2889.0000       117.1937       -52.9133        -2.9133       0.923468
      2889.5000       120.9689       -52.0405      -2.040501        0.95838
      2890.0000       126.1979       -51.1764      -1.176399       0.992944
      2890.5000       129.4827       -50.5499     -0.5499001              1
      2891.0000       129.5894       -50.0057   -0.005699158              1
      2891.5000       127.6057       -49.6061      0.3939018              1
      2892.0000       124.6243       -49.4906      0.5093994              1
      2892.5000       122.1121       -49.5679      0.4320984              1
      2893.0000       120.3867       -49.5624      0.4375992              1
      2893.5000       119.3976       -49.5755      0.4244995              1
      2894.0000       120.1555       -49.6266      0.3734016              1
      2894.5000       120.9567       -49.9084     0.09159851              1
      2895.0000       121.2985       -50.2802      -0.280201              1
      2895.5000       120.4591       -50.7634      -0.763401              1
      2896.0000       118.9777       -51.3096      -1.309601      0.9876159
      2896.5000       116.6333        -52.079      -2.078999        0.95684
      2897.0000       114.1724       -52.5551      -2.555099       0.937796
      2897.5000       111.9297       -53.7512      -3.751202      0.8899519
      2898.0000       110.7041       -55.3862        -5.3862       0.824552
      2898.5000       109.8759        -57.035         -7.035         0.7586
      2899.0000       111.8611        -59.157      -9.157001      0.6737199
      2899.5000       116.4211       -61.2029       -11.2029       0.591884
      2900.0000        122.127       -62.4952       -12.4952      0.5401919
      2900.5000       124.1489       -62.9332       -12.9332      0.5226719
      2901.0000       123.9347       -62.3108       -12.3108      0.5475681
      2901.5000       124.0464       -61.3179       -11.3179      0.5872839
      2902.0000       129.7722       -59.2233      -9.223301       0.671068
      2902.5000        136.571       -56.6448      -6.644798      0.7742081
