#------------------------------------------------------------------------------
# Created by    : vladimir.rabinovich
# Created on    : 09/19/2023 17:22:26
#------------------------------------------------------------------------------
~Version Information Section
VERS.           2.0     :   CWLS log ASCII Standard - VERSION 2.0
WRAP.           NO      :   One line per depth step
~Well Information Section
#MNEM       .UNIT                                         VALUE :DESCRIPTION
#------------------------------------------------------------------------------
STRT        .FT                                            3450 :START DEPTH
STOP        .FT                                            9344 :STOP DEPTH
STEP        .FT                                             0.5 :STEP      
NULL        .                                           -999.25 :NULL      
COMP        .                                  W&T OFFSHORE INC :COMPANY   
WELL        .                               OCS G04565 ST00BP00 :WELL      
FLD         .                              GALVESTON BLOCK 0303 :FIELD     
LOC         .                                                   :LOCATION  
CNTY        .                             GALVESTON LARGE BLOCK :LOCATION  
STAT        .                                             TEXAS :STATE     
CTRY        .                                     UNITED STATES :COUNTRY   
SRVC        .                                                   :SERVICE COMPANY
DATE        .                             9/13/2023 11:19:39 AM :LOG DATE  
API         .                                    42706403900000 :API NUMBER
UWI         .                                    42706403900000 :UNIQUE WELL ID
XCOORD      .                                  983096.827540607 :SURFACE X 
YCOORD      .                                  10485968.3003259 :SURFACE Y 
LAT         .                                        28.8789082 :LATITUDE  
LON         .                                       -95.0543314 :LONGITUDE 
ELEV        .FT                                              90 :ELEVATION VALUE
ELEV_TYPE   .                                                KB :ELEVATION REFERENCE TYPE
~Curve Information Section
#MNEM       .UNIT                                      API CODE :CURVE DESCRIPTION
#------------------------------------------------------------------------------
DEPT        .FT                                                 :DEPTH     
CDER        .MMHO                                               :          
DCAL        .IN                                                 :          
DPHI        .DEC                                                :          
DRHO        .G/CC                                               :          
DTLN        .US/F                                               :          
GR          .GAPI                                               :          
GR_NORM     .GAPI                                               :GammaRay Normalized
IDER        .OHMM                                               :          
IMER        .OHMM                                               :          
NPOR        .DEC                                                :          
RWA         .OHMM                                               :          
SFLA        .OHMM                                               :          
SP          .MV                                                 :          
SP_NORM     .MV                                                 :SP Normalized
TENS        .LB                                                 :          
VSH_GR      .V/V                                                :Volume of Shale from GR
VSH_SP      .V/V                                                :Volume of Shale from SP
~A        DEPTH           CDER           DCAL           DPHI           DRHO           DTLN             GR        GR_NORM           IDER           IMER           NPOR            RWA           SFLA             SP        SP_NORM           TENS         VSH_GR         VSH_SP
# ...
      5085.0000       3320.053           2.43          0.333         -0.027         93.475         27.651       38.22454          0.301          0.331          0.397          0.059           0.75        -41.453      -44.56454        -999.25      0.1111604      0.3633637
      5085.5000       2823.264            2.7          0.296         -0.024         88.095         29.723       40.11572          0.354          0.392          0.395          0.061          0.845        -37.784      -40.89354        -999.25      0.1513983      0.4158066
      5086.0000       2142.704           2.47          0.234         -0.023         86.439         34.999       44.93129          0.467          0.493          0.368          0.058           0.99        -32.683      -35.79053        -999.25      0.2538571      0.4887067
      5086.5000       1647.175           2.16          0.194         -0.022         85.921         39.369       48.91992          0.607          0.643          0.344          0.053          1.176        -26.601      -29.70653        -999.25      0.3387217      0.5756209
      5087.0000        1325.03           2.11          0.157         -0.022         87.744         41.247       50.63404          0.755          0.864          0.316          0.048          1.328        -20.841      -23.94453        -999.25      0.3751923      0.6579353
      5087.5000         979.24           2.06          0.129         -0.021         92.688         39.469        49.0112          1.021          1.234          0.272          0.044            1.4         -18.24      -21.34153        -999.25      0.3406638       0.695121
      5088.0000        905.387           2.02          0.134         -0.022         97.562         39.267       48.82682          1.105          1.353          0.223          0.045          1.401        -17.798      -20.89753        -999.25      0.3367409      0.7014639
      5088.5000        940.822           1.98          0.164         -0.026        102.316         43.302       52.50969          1.063          1.342          0.259          0.049          1.333         -17.82      -20.91752        -999.25      0.4150998      0.7011783
      5089.0000        1136.88           2.01          0.192         -0.026        106.955         52.121       60.55906           0.88          1.031          0.303          0.052           1.19        -17.125      -20.22052        -999.25       0.586363      0.7111354
      5089.5000       1463.272           2.06          0.211         -0.021        110.582         60.086       67.82896          0.683          0.699           0.31          0.055          1.017        -15.995      -19.08852        -999.25      0.7410418      0.7273068
      5090.0000       1727.712           2.14           0.22         -0.016         113.82         63.448       70.89757          0.579          0.606          0.326           0.06          0.902        -14.678      -17.76952        -999.25      0.8063312      0.7461497
      5090.5000       1888.574          2.296          0.232         -0.014        114.029          61.17       68.81837           0.53          0.561          0.378           0.07          0.839        -13.881      -16.97052        -999.25      0.7620929       0.757564
      5091.0000       1964.251          2.415          0.245         -0.016        110.627         56.566       64.61617          0.509          0.547          0.451          0.078          0.798        -13.483      -16.57052        -999.25      0.6726844      0.7632783
      5091.5000       1948.178          2.476          0.255          -0.02        105.617         53.081       61.43529          0.513          0.564          0.423           0.08          0.793        -13.995      -17.08051        -999.25      0.6050062      0.7559927
      5092.0000       1864.976          2.525          0.257         -0.024        101.114         52.929       61.29656          0.536          0.602          0.378          0.079          0.813        -14.764      -17.84751        -999.25      0.6020544      0.7450355
      5092.5000       1751.927           2.59          0.254         -0.028         96.315         56.162       64.24741          0.571          0.659           0.37          0.081           0.84         -15.36      -18.44151        -999.25      0.6648386      0.7365499
      5093.0000       1586.546          2.715          0.238         -0.029         95.047         56.768       64.80054           0.63          0.725          0.376          0.084          0.893         -14.98      -18.05951        -999.25      0.6766072       0.742007
      5093.5000       1416.832           2.88           0.21         -0.021         93.576         54.192       62.44934          0.706          0.809           0.38          0.085          0.975          -14.6      -17.67751        -999.25      0.6265817      0.7474642
      5094.0000       1273.561          2.875          0.182         -0.015          94.08         49.495       58.16224          0.785          0.906          0.381          0.082          1.061         -15.14      -18.21551        -999.25      0.5353668      0.7397785
      5094.5000       1181.195           2.84          0.161         -0.011         94.762         45.997        54.9695          0.847          0.972          0.368          0.077           1.14         -16.44       -19.5135        -999.25      0.4674362      0.7212356
      5095.0000       1154.468           2.86          0.144         -0.007        100.909         43.473       52.66577          0.866          1.001          0.327          0.056          1.201        -19.361       -22.4325        -999.25      0.4184206      0.6795357
      5095.5000       1226.392           2.84          0.137         -0.004        105.717         39.893        49.3982          0.815          0.924          0.235          0.036          1.234        -24.161       -27.2305        -999.25      0.3488978      0.6109928
      5096.0000       1429.388           2.86          0.153         -0.008         109.55         37.039       46.79326            0.7          0.728          0.238          0.038          1.232        -28.884       -31.9515        -999.25      0.2934737        0.54355
      5096.5000       1632.386            2.9          0.194         -0.016        106.755         36.136       45.96907          0.613          0.646          0.265          0.045          1.191         -33.34       -36.4055        -999.25      0.2759376      0.4799215
      5097.0000        1776.83           2.84          0.233         -0.025         101.45         37.147       46.89183          0.563          0.598          0.305          0.051          1.154         -36.38       -39.4435        -999.25      0.2955709      0.4365215
      5097.5000       1878.993           2.92           0.25         -0.028         96.836         38.585       48.20434          0.532          0.575          0.312          0.052          1.127        -38.138      -41.19949        -999.25      0.3234966      0.4114358
      5098.0000       1805.706              3          0.249         -0.028         91.611         40.152       49.63459          0.554          0.601          0.308          0.053          1.111        -38.317       -41.3765        -999.25      0.3539274      0.4089072
      5098.5000       1654.807          2.965          0.238         -0.026         94.527         42.373       51.66177          0.604          0.665          0.297          0.052           1.09        -37.524      -40.58149        -999.25      0.3970589      0.4202644
      5099.0000       1493.206           2.93          0.221         -0.022             99         43.763       52.93046           0.67          0.728          0.285          0.052          1.065        -36.285      -39.34049        -999.25      0.4240524       0.437993
      5099.5000        1378.55          2.855          0.204         -0.017        103.328         43.081       52.30798          0.725          0.778          0.276          0.051          1.038        -35.547      -38.60049        -999.25      0.4108081      0.4485645
