#------------------------------------------------------------------------------
# Created by    : vladimir.rabinovich
# Created on    : 09/19/2023 17:19:47
#------------------------------------------------------------------------------
~Version Information Section
VERS.           2.0     :   CWLS log ASCII Standard - VERSION 2.0
WRAP.           NO      :   One line per depth step
~Well Information Section
#MNEM       .UNIT                                         VALUE :DESCRIPTION
#------------------------------------------------------------------------------
STRT        .FT                                            2960 :START DEPTH
STOP        .FT                                           11758 :STOP DEPTH
STEP        .FT                                             0.5 :STEP      
NULL        .                                           -999.25 :NULL      
COMP        .                             CHAMPLIN PETROLEUM CO :COMPANY   
WELL        .                               OCS G06095 ST00BP00 :WELL      
FLD         .                                           WILDCAT :FIELD     
LOC         .                                                   :LOCATION  
CNTY        .                             GALVESTON LARGE BLOCK :LOCATION  
STAT        .                                             TEXAS :STATE     
CTRY        .                                     UNITED STATES :COUNTRY   
SRVC        .                                                   :SERVICE COMPANY
DATE        .                             9/13/2023 11:19:27 AM :LOG DATE  
API         .                                    42706401150000 :API NUMBER
UWI         .                                    42706401150000 :UNIQUE WELL ID
XCOORD      .                                  1057213.14222316 :SURFACE X 
YCOORD      .                                  10507856.7651171 :SURFACE Y 
LAT         .                                        28.9424301 :LATITUDE  
LON         .                                       -94.8238502 :LONGITUDE 
ELEV        .FT                                              89 :ELEVATION VALUE
ELEV_TYPE   .                                                KB :ELEVATION REFERENCE TYPE
~Curve Information Section
#MNEM       .UNIT                                      API CODE :CURVE DESCRIPTION
#------------------------------------------------------------------------------
DEPT        .FT                                                 :DEPTH     
ASFL        .OHMM                                               :          
CILD        .MMHO                                               :          
GR          .GAPI                                               :          
GR_NORM     .GAPI                                               :GammaRay Normalized
ILD         .OHMM                                               :          
SP          .MV                                                 :          
SP_NORM     .MV                                                 :SP Normalized
VSH_GR      .V/V                                                :Volume of Shale from GR
VSH_SP      .V/V                                                :Volume of Shale from SP
~A        DEPTH           ASFL           CILD             GR        GR_NORM            ILD             SP        SP_NORM         VSH_GR         VSH_SP
# ...
      2986.5000        -999.25        -999.25         31.403       75.80434        -999.25        -999.25        -999.25      0.9107307        -999.25
      2987.0000        -999.25        -999.25        30.8614       74.69141        -999.25        -999.25        -999.25      0.8870513        -999.25
      2987.5000        -999.25        -999.25        30.3224        73.5838        -999.25        -999.25        -999.25      0.8634852        -999.25
      2988.0000        -999.25        -999.25        29.9048       72.72568        -999.25        -999.25        -999.25      0.8452272        -999.25
      2988.5000        -999.25        -999.25        29.6152       72.13058        -999.25        -999.25        -999.25      0.8325656        -999.25
      2989.0000        -999.25        -999.25        29.4231       71.73582        -999.25        -999.25        -999.25      0.8241663        -999.25
      2989.5000        -999.25        -999.25        29.1943       71.26564        -999.25        -999.25        -999.25      0.8141626        -999.25
      2990.0000        -999.25        -999.25        28.9279       70.71823        -999.25        -999.25        -999.25      0.8025156        -999.25
      2990.5000        -999.25        -999.25        28.6147       70.07461        -999.25        -999.25        -999.25      0.7888215        -999.25
      2991.0000        -999.25        -999.25        28.2391        69.3028        -999.25        -999.25        -999.25      0.7724001        -999.25
      2991.5000        -999.25        -999.25        27.7943       68.38876        -999.25        -999.25        -999.25      0.7529523        -999.25
      2992.0000        -999.25        -999.25        27.2899       67.35227        -999.25        -999.25        -999.25      0.7308994        -999.25
      2992.5000        -999.25        -999.25        26.7202       66.18157        -999.25        -999.25        -999.25      0.7059909        -999.25
      2993.0000        -999.25        -999.25        26.1584       65.02712        -999.25        -999.25        -999.25      0.6814281        -999.25
      2993.5000        -999.25        -999.25        25.4536       63.57883        -999.25        -999.25        -999.25      0.6506134        -999.25
      2994.0000        -999.25        -999.25        24.9884        62.6229        -999.25        -999.25        -999.25      0.6302744        -999.25
      2994.5000        -999.25        -999.25        24.7249       62.08142        -999.25        -999.25        -999.25      0.6187536        -999.25
      2995.0000        -999.25        -999.25        25.2805       63.22312        -999.25        -999.25        -999.25      0.6430451        -999.25
      2995.5000        -999.25        -999.25         25.836       64.36465        -999.25        -999.25        -999.25      0.6673329        -999.25
      2996.0000        -999.25        -999.25        26.4229       65.57065        -999.25        -999.25        -999.25      0.6929925        -999.25
      2996.5000        -999.25        -999.25        27.0381       66.83486        -999.25        -999.25        -999.25      0.7198907        -999.25
      2997.0000        -999.25        -999.25         27.737       68.27103        -999.25        -999.25        -999.25      0.7504474        -999.25
      2997.5000        -999.25        -999.25        28.4699       69.77706        -999.25        -999.25        -999.25      0.7824907        -999.25
      2998.0000        -999.25        -999.25        29.5866        72.0718        -999.25        -999.25        -999.25      0.8313149        -999.25
      2998.5000        -999.25        -999.25         30.729       74.41936        -999.25        -999.25        -999.25      0.8812631        -999.25
      2999.0000        -999.25        -999.25        31.8271       76.67583        -999.25        -999.25        -999.25      0.9292731        -999.25
      2999.5000        -999.25        -999.25        33.0209       79.12901        -999.25        -999.25        -999.25      0.9814682        -999.25
      3000.0000        -999.25        -999.25        34.0121       81.16582        -999.25        -999.25        -999.25              1        -999.25
      3000.5000        -999.25        -999.25         34.898       82.98625        -999.25        -999.25        -999.25              1        -999.25
      3001.0000        -999.25        -999.25        34.9381       83.06866        -999.25        -999.25        -999.25              1        -999.25
      3001.5000        -999.25        -999.25        34.7682       82.71954        -999.25        -999.25        -999.25              1        -999.25
      3002.0000        -999.25        -999.25        34.5983       82.37043        -999.25        -999.25        -999.25              1        -999.25
      3002.5000        -999.25        -999.25        34.4283       82.02107        -999.25        -999.25        -999.25              1        -999.25
      3003.0000        -999.25        -999.25        34.2604       81.67606        -999.25        -999.25        -999.25              1        -999.25
      3003.5000        -999.25        -999.25        34.1175       81.38241        -999.25        -999.25        -999.25              1        -999.25
      3004.0000         0.4019       515.7266        34.7084       82.59669         0.0572        88.3254      -6.418114              1      0.8871226
      3004.5000         0.4107       717.1836        34.5488       81.74764         0.1055        80.1133    -0.02987671              1              1
      3005.0000         0.4195       918.6406        34.4365       79.93147         0.1701        75.6251       2.634445      0.9985418              1
      3005.5000         0.4282       1120.098        34.3998       78.27062         0.2525        73.0004        3.43528      0.9632047              1
      3006.0000         0.4356       1321.555        34.9524       77.82075         0.3157         70.097       4.514809       0.953633              1
      3006.5000          0.443       1523.014        35.5049       77.37068         0.3701        68.5336       4.254333       0.944057              1
      3007.0000         0.4514       1724.471         36.693        78.2267          0.394        66.7556       4.208466      0.9622702              1
      3007.5000         0.4767       1925.928        38.1185       79.57055         0.4178        65.3508       3.789391      0.9908627              1
      3008.0000         0.6117       2127.383        39.5447       80.91589         0.4417        64.1426       3.173721              1              1
      3008.5000         0.6945        2328.84        44.6582       89.83826           0.45        63.3824       2.110054              1              1
      3009.0000         0.7443       2530.301        45.6449       90.28044         0.4496        62.7159      0.9526825              1              1
      3009.5000          0.755       2157.598        47.2262       91.94444         0.4492        62.1313     -0.2865906              1              1
      3010.0000         0.7462        2122.77        49.1309       94.27303         0.4489        61.5468      -1.525959              1      0.9890425
      3010.5000         0.7373       2121.957        51.1931       96.92525         0.4455        61.1304      -2.015213              1      0.9788497
      3011.0000         0.7285       2123.602        52.6471       98.32767         0.4418         60.748      -1.641323              1      0.9866391
      3011.5000         0.7168       2127.637        52.7046       96.86044         0.4381        60.3654      -1.267231              1      0.9944327
      3012.0000         0.7021       2134.402        52.1245       94.08294         0.4344        60.1058      -1.016144              1      0.9996637
      3012.5000         0.6875       2045.861        51.5441       91.30486         0.4307        59.9733     -0.8921547              1              1
