#------------------------------------------------------------------------------
# Created by    : vladimir.rabinovich
# Created on    : 09/19/2023 17:20:25
#------------------------------------------------------------------------------
~Version Information Section
VERS.           2.0     :   CWLS log ASCII Standard - VERSION 2.0
WRAP.           NO      :   One line per depth step
~Well Information Section
#MNEM       .UNIT                                         VALUE :DESCRIPTION
#------------------------------------------------------------------------------
STRT        .FT                                            2998 :START DEPTH
STOP        .FT                                           12526 :STOP DEPTH
STEP        .FT                                             0.5 :STEP      
NULL        .                                           -999.25 :NULL      
COMP        .                                 CALIFORNIA CO THE :COMPANY   
WELL        .                               OCS G01117 ST00BP00 :WELL      
FLD         .                                       HIGH ISLAND :FIELD     
LOC         .                                                   :LOCATION  
CNTY        .                           HIGH ISLAND LARGE BLOCK :LOCATION  
STAT        .                                             TEXAS :STATE     
CTRY        .                                     UNITED STATES :COUNTRY   
SRVC        .                                                   :SERVICE COMPANY
DATE        .                             9/13/2023 11:19:15 AM :LOG DATE  
API         .                                    42708000660000 :API NUMBER
UWI         .                                    42708000660000 :UNIQUE WELL ID
XCOORD      .                                  1214371.69372255 :SURFACE X 
YCOORD      .                                  10618355.5582238 :SURFACE Y 
LAT         .                                         29.252113 :LATITUDE  
LON         .                                        -94.336419 :LONGITUDE 
ELEV        .FT                                              77 :ELEVATION VALUE
ELEV_TYPE   .                                                KB :ELEVATION REFERENCE TYPE
~Curve Information Section
#MNEM       .UNIT                                      API CODE :CURVE DESCRIPTION
#------------------------------------------------------------------------------
DEPT        .FT                                                 :DEPTH     
ASN         .OHMM                                               :          
CILD        .OHMM                                               :          
ILD         .OHMM                                               :          
SP          .MV                                                 :          
SP_NORM     .MV                                                 :SP Normalized
VSH_SP      .V/V                                                :Volume of Shale from SP
~A        DEPTH            ASN           CILD            ILD             SP        SP_NORM         VSH_SP
# ...
      6798.0000         0.7775        2006.27         0.5154       -80.4285      -36.82778      0.5734788
      6798.5000         0.7766       2006.527         0.5274       -75.9137      -32.33065      0.6270161
      6799.0000         0.7758       2000.777         0.5394       -68.9642      -25.39882      0.7095379
      6799.5000         0.7749       1964.178         0.5515       -59.8263      -16.27859      0.8181121
      6800.0000         0.7741       1848.533         0.5635       -51.3144      -7.784355      0.9192339
      6800.5000         0.7732       1719.553         0.5755       -49.1506      -5.638226       0.944783
      6801.0000         0.7723       1679.545         0.5875       -46.9844      -3.489697      0.9703608
      6801.5000         0.7729       1694.232         0.5996       -44.8207      -1.343666      0.9959087
      6802.0000         0.7738       1708.932         0.6116       -43.4533    0.006065369              1
      6802.5000         0.7746       1723.617         0.6227       -43.2629      0.1787949              1
      6803.0000         0.7754       1738.316         0.6306       -43.0726      0.3514252              1
      6803.5000         0.7762       1736.965         0.6385       -42.8825      0.5238571              1
      6804.0000          0.777       1725.711         0.6464       -42.6921      0.6965866              1
      6804.5000         0.7778       1714.455         0.6543       -42.5018      0.8692169              1
      6805.0000         0.7786       1703.213         0.6622        -42.458      0.8953476              1
      6805.5000         0.7798       1691.957         0.6701       -42.8021       0.533577              1
      6806.0000         0.7826       1680.701          0.678       -43.1459      0.1721077              1
      6806.5000         0.7854       1667.037         0.6859         -43.49     -0.1896629              1
      6807.0000         0.7882       1650.732         0.6937       -43.8337     -0.5510292              1
      6807.5000          0.791       1634.402         0.6907       -44.1779      -0.912899              1
      6808.0000         0.7937       1631.422          0.684       -44.5216      -1.274269      0.9967349
      6808.5000         0.7965       1642.043         0.6772       -44.8657       -1.63604      0.9924281
      6809.0000         0.7993       1652.666         0.6705       -45.2095      -1.997509      0.9881249
      6809.5000         0.8021       1663.289         0.6637       -45.5536       -2.35928      0.9838181
      6810.0000         0.8049         1673.9          0.657       -45.9149      -2.738251      0.9793065
      6810.5000         0.8077       1672.975         0.6503       -46.7626      -3.603619      0.9690045
      6811.0000         0.8115       1662.924         0.6435       -47.6092      -4.467888      0.9587156
      6811.5000         0.8157       1652.861         0.6368       -48.4668      -5.343159      0.9482957
      6812.0000         0.8199       1642.799           0.63        -49.434      -6.328026      0.9365711
      6812.5000         0.8241       1632.748         0.6233       -50.4001      -7.311798      0.9248595
      6813.0000         0.8283       1622.686          0.623       -50.7365      -7.665867      0.9206445
      6813.5000         0.8326       1607.414         0.6234       -49.8924      -6.839436      0.9304829
      6814.0000         0.8368       1588.846         0.6239       -49.0471      -6.011806      0.9403356
      6814.5000          0.841       1570.254         0.6244       -48.2031      -5.185474      0.9501729
      6815.0000         0.8452        1551.66         0.6248       -47.3591      -4.359146      0.9600102
      6815.5000         0.8485       1533.068         0.6253        -46.515      -3.532711      0.9698487
      6816.0000         0.8483       1514.926         0.6258       -45.6697      -2.705082      0.9797014
      6816.5000         0.8481       1505.217         0.6262       -44.8257       -1.87875      0.9895387
      6817.0000          0.848       1495.506         0.6267       -44.5156      -1.586319        0.99302
      6817.5000         0.8478       1485.809         0.6272       -44.5645      -1.652889      0.9922275
      6818.0000         0.8476       1476.098         0.6277       -44.6134       -1.71946       0.991435
      6818.5000         0.8474       1466.389          0.628       -44.6623       -1.78603      0.9906425
      6819.0000         0.8472       1471.133         0.6279       -44.7113      -1.852699      0.9898488
      6819.5000         0.8471       1482.072         0.6278       -44.7608      -1.919868      0.9890492
      6820.0000         0.8469       1493.012         0.6277        -44.812      -1.988739      0.9882293
      6820.5000         0.8467       1503.951         0.6276       -44.8632       -2.05761      0.9874094
      6821.0000         0.8465       1514.889         0.6275       -44.9144      -2.126476      0.9865896
      6821.5000         0.8452       1522.738         0.6275       -44.9657      -2.195446      0.9857685
      6822.0000         0.8434       1529.637         0.6274       -45.0169      -2.264317      0.9849486
      6822.5000         0.8417       1536.543         0.6273       -45.0681      -2.333187      0.9841287
      6823.0000           0.84       1543.441         0.6272       -45.1193      -2.402058      0.9833089
      6823.5000         0.8383        1550.34         0.6271       -45.0613      -2.361725       0.983789
      6824.0000         0.8366       1557.246          0.627       -44.9208      -2.238895      0.9852512
      6824.5000         0.8348       1564.145         0.6269       -44.7804      -2.116165      0.9867123
      6825.0000         0.8331       1571.051         0.6268       -44.6398      -1.993237      0.9881757
      6825.5000         0.8314       1577.949         0.6268       -44.4993      -1.870403       0.989638
      6826.0000         0.8298        1584.85         0.6268       -44.3588      -1.747574      0.9911003
      6826.5000         0.8288       1590.445         0.6268       -44.2183      -1.624744      0.9925626
      6827.0000         0.8277       1583.729         0.6267       -44.0779      -1.502014      0.9940236
      6827.5000         0.8266        1577.02         0.6267       -43.9373      -1.379086      0.9954871
      6828.0000         0.8255       1570.303         0.6267       -43.7968      -1.256252      0.9969494
      6828.5000         0.8244       1563.586         0.6267        -43.742      -1.219124      0.9973914
      6829.0000         0.8233       1556.869         0.6267       -43.6985      -1.193295      0.9976989
      6829.5000         0.8222       1550.158         0.6267        -43.655      -1.167461      0.9980064
      6830.0000         0.8211       1543.441         0.6267       -43.6115      -1.141632      0.9983139
      6830.5000         0.8201       1536.725         0.6267       -43.5679      -1.115704      0.9986226
      6831.0000         0.8198        1529.43         0.6267       -43.5244       -1.08987      0.9989301
      6831.5000         0.8196       1521.156         0.6267       -43.4809      -1.053619      0.9993617
      6832.0000         0.8194       1512.895         0.6267       -43.4374      -1.002857       0.999966
      6832.5000         0.8192       1504.633         0.6267       -43.3939     -0.9520912              1
      6833.0000         0.8189       1496.357         0.6267        -43.465      -1.015923      0.9998105
      6833.5000         0.8187       1496.273         0.6266       -43.7047       -1.24836      0.9970433
      6834.0000         0.8185       1524.088         0.6283       -43.9443      -1.480694      0.9942775
      6834.5000         0.8183       1551.879         0.6303       -44.1843      -1.713425      0.9915069
      6835.0000          0.818       1579.695         0.6323        -44.424      -1.945862      0.9887397
      6835.5000         0.8175       1607.074         0.6343       -44.6639      -2.178493      0.9859703
