#------------------------------------------------------------------------------
# Created by    : vladimir.rabinovich
# Created on    : 09/19/2023 17:20:30
#------------------------------------------------------------------------------
~Version Information Section
VERS.           2.0     :   CWLS log ASCII Standard - VERSION 2.0
WRAP.           NO      :   One line per depth step
~Well Information Section
#MNEM       .UNIT                                         VALUE :DESCRIPTION
#------------------------------------------------------------------------------
STRT        .FT                                             617 :START DEPTH
STOP        .FT                                           12396 :STOP DEPTH
STEP        .FT                                             0.5 :STEP      
NULL        .                                           -999.25 :NULL      
COMP        .                                        SUN OIL CO :COMPANY   
WELL        .                               OCS G01781 ST00BP00 :WELL      
FLD         .                                           WILDCAT :FIELD     
LOC         .                                                   :LOCATION  
CNTY        .                             GALVESTON LARGE BLOCK :LOCATION  
STAT        .                                             TEXAS :STATE     
CTRY        .                                     UNITED STATES :COUNTRY   
SRVC        .                                                   :SERVICE COMPANY
DATE        .                             9/13/2023 11:19:24 AM :LOG DATE  
API         .                                    42706001390000 :API NUMBER
UWI         .                                    42706001390000 :UNIQUE WELL ID
XCOORD      .                                  1010631.41746955 :SURFACE X 
YCOORD      .                                  10491097.5822315 :SURFACE Y 
LAT         .                                         28.894296 :LATITUDE  
LON         .                                        -94.968586 :LONGITUDE 
ELEV        .FT                                              65 :ELEVATION VALUE
ELEV_TYPE   .                                                KB :ELEVATION REFERENCE TYPE
~Curve Information Section
#MNEM       .UNIT                                      API CODE :CURVE DESCRIPTION
#------------------------------------------------------------------------------
DEPT        .FT                                                 :DEPTH     
ASN         .OHMM                                               :          
CILD        .MMHO                                               :          
DT          .US/F                                               :          
ILD         .OHMM                                               :          
SP          .MV                                                 :          
SP_NORM     .MV                                                 :SP Normalized
VSH_SP      .V/V                                                :Volume of Shale from SP
~A        DEPTH            ASN           CILD             DT            ILD             SP        SP_NORM         VSH_SP
       617.0000         0.6533       1163.871        -999.25         0.6269       -85.3866       16.83562              1
       617.5000          0.671       1191.912        -999.25           0.66       -91.1006       11.12162              1
       618.0000         0.6946       1220.303        -999.25          0.693       -96.5055       5.716721              1
       618.5000         0.7234       1254.496        -999.25         0.7322      -104.8362      -2.613976      0.9441841
       619.0000         0.7676       1297.146        -999.25         0.7732      -105.9025      -3.680275      0.8472477
       619.5000         0.8312       1316.203        -999.25         0.8069      -105.2712      -3.048981      0.9046381
       620.0000         0.9054       1178.629       202.9976         0.8366      -104.3922      -2.169975      0.9845477
       620.5000          0.958       1139.906        203.356         0.8554      -103.8048      -1.582581              1
       621.0000         0.9995       1110.445       203.7319         0.8629      -103.2175     -0.9952774              1
       621.5000         1.0377       1097.555       203.8716         0.8698      -102.8484     -0.6261749              1
       622.0000         1.0695           1090       203.4817         0.8751      -102.7474      -0.525177              1
       622.5000         1.0956        1082.33       203.0706         0.8805      -102.8455     -0.6232758              1
       623.0000         1.1133        1072.76       202.7839         0.8871      -103.1646     -0.9423752              1
       623.5000           1.13       1059.631       202.9253         0.9008      -103.4835      -1.261276              1
       624.0000         1.1445        1032.93       203.1187         0.9145      -103.8026      -1.580376              1
       624.5000         1.1589       1020.267       202.7371         0.9281      -103.9669      -1.744682              1
       625.0000         1.1671       1017.646       202.5801         0.9418      -104.0438      -1.821579              1
       625.5000         1.1753       1015.027       200.7598         0.9521      -104.1207      -1.898476              1
       626.0000         1.1829       1012.407        199.655         0.9624      -104.1978      -1.975578              1
       626.5000         1.1862       1012.072       200.6155         0.9629      -104.2688      -2.046577      0.9957657
       627.0000         1.1895        1015.95       200.5676          0.958      -104.2384      -2.016182      0.9985289
       627.5000         1.1927       1019.829       200.2131         0.9531      -104.2081      -1.985878              1
       628.0000          1.196       1024.152       201.2488         0.9483      -104.1779      -1.955681              1
       628.5000         1.1994       1032.082       201.3752         0.9419      -104.1475      -1.925278              1
       629.0000         1.2029       1040.014       200.3955         0.9354      -104.1172      -1.894981              1
       629.5000         1.2063       1047.943        197.689         0.9289      -104.1774      -1.955177              1
       630.0000         1.2097       1048.301       172.7537         0.9223      -104.2676       -2.04538      0.9958746
       630.5000         1.2177       1047.082       142.3779         0.9173      -104.2889      -2.066681      0.9939381
       631.0000         1.2311       1046.135       123.2458         0.9159      -104.3032      -2.080978      0.9926383
       631.5000         1.2445       1045.242       117.6658         0.9145      -104.3025      -2.080276      0.9927021
       632.0000         1.2647       1044.352       122.0201         0.9131      -104.3429      -2.120682      0.9890289
       632.5000          1.285       1043.461       102.2203         0.9118      -104.6473      -2.425079      0.9613564
       633.0000         1.2991       1043.707       130.9553         0.9097      -105.0336      -2.811378      0.9262383
       633.5000         1.3102       1047.584       162.9187         0.9074       -105.594       -3.37178      0.8752927
       634.0000         1.3085       1051.463       174.6147         0.9051      -106.1882      -3.965981      0.8212745
       634.5000         1.2873       1055.342       194.5037         0.9027       -106.871      -4.648781      0.7592018
       635.0000         1.2562       1059.932       198.8875         0.9004      -106.7478      -4.525581      0.7704017
       635.5000         1.2426       1067.627       196.6436         0.8981      -105.5293      -3.307076       0.881175
       636.0000         1.2365        1075.32          193.3         0.8958      -105.1471      -2.924881      0.9159199
       636.5000          1.235       1082.689       169.2219         0.8934       -104.828      -2.605782      0.9449289
       637.0000         1.2334       1087.455       147.9292         0.8911       -104.553       -2.33078      0.9699291
       637.5000         1.2319       1092.223       129.8118         0.8888      -104.4587      -2.236481      0.9785017
       638.0000         1.2304       1091.609        164.269          0.892      -104.3646       -2.14238      0.9870564
       638.5000         1.2295       1084.938       175.0847         0.9043      -104.2704       -2.04818        0.99562
       639.0000         1.2306       1078.266       192.1184         0.9167      -104.1763      -1.954079              1
       639.5000         1.2318       1070.309       188.9119          0.929       -104.082      -1.859779              1
       640.0000         1.2329       1053.963       188.7158         0.9413      -104.0443      -1.822075              1
       640.5000         1.2341       1037.619         188.72          0.955      -104.1602      -1.937981              1
       641.0000         1.2544       1021.114       188.5815         0.9704      -104.2759       -2.05368        0.99512
       641.5000         1.2772       1004.166       188.4009         0.9858      -104.3916       -2.16938      0.9846018
       642.0000         1.2998       987.2197       188.1418         1.0011      -104.8245       -2.60228      0.9452473
       642.5000          1.322       972.8193       187.4124         1.0165      -105.3032      -3.080978      0.9017292
       643.0000         1.3443       960.1006       186.2798         1.0189      -105.7819      -3.559677      0.8582112
       643.5000         1.3614       950.6641       184.9685         1.0164      -106.0927      -3.870476      0.8299568
       644.0000         1.3729       944.7822       183.7424          1.014      -105.7458      -3.523575      0.8614932
       644.5000         1.3739        941.542       182.7397         1.0115      -105.2571      -3.034882      0.9059198
       645.0000         1.3685       944.0342        181.802         1.0055      -104.7683      -2.546082      0.9503562
       645.5000         1.3606       946.5273       180.8896         0.9968      -104.2072      -1.984978              1
       646.0000         1.3528       949.2686       180.2124          0.988      -103.4982      -1.275978              1
       646.5000         1.3449       952.2666       179.9238         0.9792      -102.7893     -0.5670776              1
       647.0000         1.3371       955.2637        180.469         0.9704      -102.6456      -0.423378              1
       647.5000         1.3287       958.2617        181.428         0.9661      -103.1267       -0.90448              1
       648.0000         1.3202       960.8604       182.3821         0.9695      -104.0012      -1.778976              1
       648.5000         1.3116       954.9785       183.4036         0.9729      -105.4503      -3.228081      0.8883563
       649.0000         1.3031       949.0957       184.6558         1.0164        -107.77      -5.547775       0.677475
       649.5000         1.3047       931.5723       185.1204         1.0708      -108.6102      -6.387978      0.6010929
       650.0000         1.3504       912.4687       183.3845         1.1251      -107.4316      -5.209381      0.7082381
