#------------------------------------------------------------------------------
# Created by    : vladimir.rabinovich
# Created on    : 09/19/2023 17:22:56
#------------------------------------------------------------------------------
~Version Information Section
VERS.           2.0     :   CWLS log ASCII Standard - VERSION 2.0
WRAP.           NO      :   One line per depth step
~Well Information Section
#MNEM       .UNIT                                         VALUE :DESCRIPTION
#------------------------------------------------------------------------------
STRT        .FT                                             671 :START DEPTH
STOP        .FT                                           10000 :STOP DEPTH
STEP        .FT                                             0.5 :STEP      
NULL        .                                           -999.25 :NULL      
COMP        .                                    MOBIL OIL CORP :COMPANY   
WELL        .                                     ST TR 00565-L :WELL      
FLD         .                                           WILDCAT :FIELD     
LOC         .                                                   :LOCATION  
CNTY        .                      MATAGORDA ISLAND LARGE BLOCK :LOCATION  
STAT        .                                             TEXAS :STATE     
CTRY        .                                     UNITED STATES :COUNTRY   
SRVC        .                                                   :SERVICE COMPANY
DATE        .                             9/13/2023 11:12:05 AM :LOG DATE  
API         .                                    42703000150000 :API NUMBER
UWI         .                                    42703000150000 :UNIQUE WELL ID
XCOORD      .                                  584511.465629887 :SURFACE X 
YCOORD      .                                  10263641.5286434 :SURFACE Y 
LAT         .                                         28.243485 :LATITUDE  
LON         .                                       -96.2796592 :LONGITUDE 
ELEV        .FT                                              11 :ELEVATION VALUE
ELEV_TYPE   .                                                KB :ELEVATION REFERENCE TYPE
~Curve Information Section
#MNEM       .UNIT                                      API CODE :CURVE DESCRIPTION
#------------------------------------------------------------------------------
DEPT        .FT                                                 :DEPTH     
SP          .MV                                                 :          
SP_NORM     .MV                                                 :SP Normalized
VSH_SP      .V/V                                                :Volume of Shale from SP
~A        DEPTH             SP        SP_NORM         VSH_SP
# ...
      4367.0000        15.5617        -6.1065      0.8214565
      4367.5000        15.3322        -5.8755         0.8315
      4368.0000          15.12        -5.6618      0.8407913
      4368.5000        15.0398        -5.5802      0.8443391
      4369.0000        14.9858        -5.5247      0.8467522
      4369.5000        14.9738        -5.5112      0.8473392
      4370.0000        14.9617        -5.4977      0.8479261
      4370.5000        14.8666        -5.4011      0.8521261
      4371.0000        14.6067        -5.1397      0.8634913
      4371.5000        14.3467        -4.8783      0.8748565
      4372.0000        14.1073        -4.6374      0.8853304
      4372.5000        13.8728        -4.4014      0.8955913
      4373.0000        13.6482        -4.1754      0.9054174
      4373.5000        13.5598        -4.0855      0.9093261
      4374.0000        13.4713        -3.9955      0.9132391
      4374.5000        13.3828        -3.9056      0.9171478
      4375.0000        13.2981        -3.8194      0.9208956
      4375.5000        13.3226        -3.8424      0.9198956
      4376.0000        13.3472        -3.8656       0.918887
      4376.5000        13.3718        -3.8887      0.9178826
      4377.0000        13.5661        -4.0815         0.9095
      4377.5000        13.8676        -4.3816      0.8964522
      4378.0000        18.0994        -8.6119      0.7125261
      4378.5000        19.3275        -9.8385      0.6591957
      4379.0000        19.9151       -10.4247      0.6337087
      4379.5000        20.4999        -11.008      0.6083478
      4380.0000        21.0709       -11.5775      0.5835869
      4380.5000        21.6429       -12.1481      0.5587783
      4381.0000        22.0865       -12.5902      0.5395565
      4381.5000        21.2771       -11.7793      0.5748131
      4382.0000        20.1808       -10.6816      0.6225392
      4382.5000        19.2885        -9.7878         0.6614
      4383.0000         18.533        -9.0308       0.694313
      4383.5000        17.8403        -8.3367      0.7244913
      4384.0000         17.268        -7.7629      0.7494391
      4384.5000        16.6957        -7.1891      0.7743869
      4385.0000        17.3728        -7.8648      0.7450087
      4385.5000        18.2387        -8.7292      0.7074261
      4386.0000        19.2829        -9.7719      0.6620913
      4386.5000        20.2304        -10.718      0.6209565
      4387.0000        21.0248       -11.5109      0.5864826
      4387.5000         21.674       -12.1586      0.5583218
      4388.0000        18.3068          -8.79      0.7047826
      4388.5000        17.9598        -8.4415      0.7199348
      4389.0000        17.6131        -8.0933      0.7350739
      4389.5000        17.2664        -7.7452      0.7502087
      4390.0000        17.2087         -7.686      0.7527826
      4390.5000        17.1901        -7.6659      0.7536565
      4391.0000        17.1714        -7.6458      0.7545304
      4391.5000        17.0448        -7.5177         0.7601
      4392.0000        16.8958        -7.3672      0.7666435
      4392.5000        16.7467        -7.2167       0.773187
      4393.0000        16.5128        -6.9813      0.7834218
      4393.5000        16.1213        -6.5883      0.8005087
      4394.0000          15.73        -6.1956      0.8175826
      4394.5000        15.3626        -5.8267      0.8336217
      4395.0000        15.0348        -5.4974      0.8479391
      4395.5000        15.3209        -5.7821      0.8355609
      4396.0000        17.9752        -8.4349      0.7202217
      4396.5000        20.4249       -10.8831      0.6137783
      4397.0000        22.4266       -12.8834      0.5268087
      4397.5000        23.8297        -14.285      0.4658696
      4398.0000         24.621       -15.0748      0.4315304
      4398.5000        24.9173       -15.3696       0.418713
      4399.0000        24.6116       -15.0625      0.4320652
      4399.5000         23.905       -14.3544      0.4628522
      4400.0000        20.2919       -10.7398      0.6200086
      4400.5000        18.0367        -8.4832      0.7181217
      4401.0000        16.2621        -6.7071      0.7953435
      4401.5000        14.9695         -5.413      0.8516087
      4402.0000        14.3025        -4.7446      0.8806696
      4402.5000        13.9555        -4.3961      0.8958218
      4403.0000         14.336        -4.7751      0.8793435
      4403.5000        14.7166        -5.1543      0.8628565
      4404.0000        15.1537        -5.5899      0.8439174
      4404.5000         14.966        -5.4007      0.8521435
      4405.0000         14.577        -5.0103      0.8691174
      4405.5000         14.188        -4.6198      0.8860956
      4406.0000        14.0497          -4.48      0.8921739
      4406.5000        13.9337        -4.3626      0.8972782
      4407.0000        14.0086         -4.436       0.894087
      4407.5000         14.156        -4.5819      0.8877435
      4408.0000        14.3858        -4.8103       0.877813
      4408.5000        14.6388        -5.0618      0.8668783
      4409.0000        14.8918        -5.3133      0.8559435
      4409.5000        15.8775        -6.2976      0.8131478
      4410.0000        16.5784         -6.997      0.7827391
      4410.5000        17.2354        -7.6525      0.7542391
      4411.0000        17.6508        -8.0665      0.7362391
      4411.5000        17.8265        -8.2407      0.7286652
      4412.0000        17.2523         -7.665      0.7536957
      4412.5000        16.7039        -7.1152         0.7776
      4413.0000        16.1997        -6.6095       0.799587
      4413.5000        15.6955        -6.1038      0.8215739
      4414.0000        15.6361         -6.043      0.8242174
      4414.5000         15.826        -6.2314      0.8160261
      4415.0000        16.2618        -6.6657      0.7971435
      4415.5000        16.6973        -7.0998      0.7782696
      4416.0000        16.2144        -6.6154      0.7993304
      4416.5000        15.5593        -5.9588      0.8278783
      4417.0000        14.9529         -5.351      0.8543044
      4417.5000        14.3633        -4.7599      0.8800043
      4418.0000        13.8624        -4.2575      0.9018478
      4418.5000        13.6582        -4.0519       0.910787
      4419.0000        13.4539        -3.8461      0.9197348
      4419.5000        13.4401        -3.8308         0.9204
      4420.0000        13.5459        -3.9352      0.9158609
      4420.5000        13.6432         -4.031      0.9116957
      4421.0000        13.6361        -4.0224      0.9120696
      4421.5000        13.6002        -3.9851      0.9136913
      4422.0000         13.349        -3.7324      0.9246783
      4422.5000        13.5534        -3.9353      0.9158565
      4423.0000        13.7578        -4.1383      0.9070305
      4423.5000        13.9622        -4.3412      0.8982087
      4424.0000        14.0645         -4.442      0.8938261
      4424.5000        14.0531        -4.4292      0.8943826
      4425.0000        13.9221        -4.2967      0.9001435
      4425.5000        13.7881        -4.1612      0.9060348
      4426.0000        13.5427        -3.9144      0.9167652
      4426.5000        13.2966        -3.6668      0.9275304
      4427.0000        12.9471        -3.3158      0.9427913
      4427.5000        12.5976        -2.9649      0.9580478
      4428.0000        12.3607        -2.7265      0.9684131
      4428.5000        12.2132        -2.5775      0.9748913
      4429.0000        12.2942        -2.6571      0.9714304
      4429.5000        12.5579        -2.9193      0.9600304
      4430.0000        12.8282        -3.1881      0.9483435
      4430.5000        12.3817        -2.7402      0.9678174
      4431.0000         11.854         -2.211      0.9908261
      4431.5000        11.5126        -1.8681              1
      4432.0000        11.3201        -1.6742              1
      4432.5000        11.2446        -1.5972              1
