#------------------------------------------------------------------------------
# Created by    : vladimir.rabinovich
# Created on    : 09/19/2023 17:20:36
#------------------------------------------------------------------------------
~Version Information Section
VERS.           2.0     :   CWLS log ASCII Standard - VERSION 2.0
WRAP.           NO      :   One line per depth step
~Well Information Section
#MNEM       .UNIT                                         VALUE :DESCRIPTION
#------------------------------------------------------------------------------
STRT        .FT                                             510 :START DEPTH
STOP        .FT                                            7943 :STOP DEPTH
STEP        .FT                                             0.5 :STEP      
NULL        .                                           -999.25 :NULL      
COMP        .                       BLUE DOLPHIN EXPLORATION CO :COMPANY   
WELL        .                                OCS 00709 ST00BP00 :WELL      
FLD         .                                FEDERAL BLOCK 0288 :FIELD     
LOC         .                                                   :LOCATION  
CNTY        .                             GALVESTON LARGE BLOCK :LOCATION  
STAT        .                                             TEXAS :STATE     
CTRY        .                                     UNITED STATES :COUNTRY   
SRVC        .                                                   :SERVICE COMPANY
DATE        .                             9/13/2023 11:19:25 AM :LOG DATE  
API         .                                    42706000400000 :API NUMBER
UWI         .                                    42706000400000 :UNIQUE WELL ID
XCOORD      .                                   1098851.8122004 :SURFACE X 
YCOORD      .                                  10485233.3471489 :SURFACE Y 
LAT         .                                         28.881916 :LATITUDE  
LON         .                                        -94.692672 :LONGITUDE 
ELEV        .FT                                              93 :ELEVATION VALUE
ELEV_TYPE   .                                                KB :ELEVATION REFERENCE TYPE
~Curve Information Section
#MNEM       .UNIT                                      API CODE :CURVE DESCRIPTION
#------------------------------------------------------------------------------
DEPT        .FT                                                 :DEPTH     
ASN         .OHMM                                               :          
GR          .GAPI                                               :          
ILD         .OHMM                                               :          
NEUT        .NAPI                                               :          
SP          .MV                                                 :          
SP_NORM     .MV                                                 :SP Normalized
VSH_SP      .V/V                                                :Volume of Shale from SP
~A        DEPTH            ASN             GR            ILD           NEUT             SP        SP_NORM         VSH_SP
# ...
      3458.0000         0.9951        -999.25         0.9273        -999.25       -53.7082      -2.488686      0.9851913
      3458.5000         0.9816        -999.25         0.9058        -999.25       -54.1967      -2.977188      0.9703882
      3459.0000         0.9663        -999.25         0.8836        -999.25       -54.3895      -3.169987      0.9645458
      3459.5000          0.953        -999.25         0.8605        -999.25       -54.3936      -3.174088      0.9644216
      3460.0000         0.9428        -999.25         0.8392        -999.25       -53.9935      -2.773987      0.9765459
      3460.5000         0.9327        -999.25         0.8262        -999.25       -54.0524      -2.832886       0.974761
      3461.0000           0.92        -999.25         0.8179        -999.25       -53.9064      -2.686886      0.9791853
      3461.5000          0.906        -999.25         0.8184        -999.25       -53.7015      -2.481987      0.9853944
      3462.0000         0.8909        -999.25         0.8149        -999.25       -53.3601      -2.140587      0.9957398
      3462.5000         0.8795        -999.25         0.8074        -999.25       -53.0213      -1.801788              1
      3463.0000         0.8796        -999.25         0.7994        -999.25       -53.1468      -1.927288              1
      3463.5000         0.8854        -999.25         0.7924        -999.25       -53.2266      -2.007088      0.9997852
      3464.0000         0.8951        -999.25         0.7863        -999.25       -53.2675      -2.047989      0.9985458
      3464.5000          0.907        -999.25         0.7802        -999.25       -52.9403      -1.720787              1
      3465.0000         0.9188        -999.25         0.7844        -999.25       -52.5644      -1.344887              1
      3465.5000         0.9231        -999.25          0.789        -999.25       -51.9902     -0.7706871              1
      3466.0000         0.9225        -999.25          0.801        -999.25       -51.4193     -0.1997871              1
      3466.5000         0.9249        -999.25         0.8148        -999.25       -50.9137      0.3058128              1
      3467.0000          0.929        -999.25         0.8349        -999.25       -50.4519      0.7676125              1
      3467.5000         0.9357        -999.25         0.8566        -999.25       -50.8922      0.3273125              1
      3468.0000         0.9456        -999.25         0.8754        -999.25       -51.6791     -0.4595871              1
      3468.5000         0.9593        -999.25         0.8912        -999.25       -52.4202      -1.200687              1
      3469.0000         0.9756        -999.25         0.9001        -999.25       -52.6807      -1.461185              1
      3469.5000         0.9917        -999.25         0.9007        -999.25       -52.6281      -1.408588              1
      3470.0000         0.9999        -999.25         0.8974        -999.25       -52.7607      -1.541187              1
      3470.5000           0.99        -999.25         0.8944        -999.25       -53.2205      -2.000988      0.9999701
      3471.0000         0.9566        -999.25          0.901        -999.25         -53.77      -2.550488      0.9833186
      3471.5000         0.9522        -999.25         0.9118        -999.25       -54.3808      -3.161285      0.9648095
      3472.0000         0.9642        -999.25          0.924        -999.25       -54.9499      -3.730389       0.947564
      3472.5000         0.9839        -999.25         0.9368        -999.25       -55.5125      -4.292988      0.9305155
      3473.0000         1.0066        -999.25         0.9506        -999.25       -56.0641      -4.844585      0.9138004
      3473.5000         1.0328        -999.25          0.962        -999.25       -56.1005      -4.880985      0.9126974
      3474.0000         1.0477        -999.25         0.9679        -999.25       -55.8929      -4.673386      0.9189883
      3474.5000         1.0413        -999.25         0.9688        -999.25       -55.6932      -4.473686      0.9250398
      3475.0000         1.0217        -999.25         0.9657        -999.25       -55.4879      -4.268387       0.931261
      3475.5000         0.9971        -999.25         0.9586        -999.25        -55.104      -3.884487      0.9428943
      3476.0000         0.9881        -999.25         0.9528        -999.25       -54.8023      -3.582787      0.9520368
      3476.5000          0.991        -999.25         0.9499        -999.25       -54.7083      -3.488789      0.9548852
      3477.0000         0.9905        -999.25         0.9466        -999.25       -54.5553      -3.335789      0.9595215
      3477.5000         0.9936        -999.25         0.9525        -999.25        -54.217      -2.997486      0.9697732
      3478.0000         1.0016        -999.25         0.9657        -999.25       -53.7986      -2.579086      0.9824519
      3478.5000         1.0155        -999.25         0.9839        -999.25         -53.27      -2.050488      0.9984701
      3479.0000         1.0331        -999.25         1.0041        -999.25       -52.8021      -1.582588              1
      3479.5000          1.051        -999.25         1.0202        -999.25       -52.3145      -1.094986              1
      3480.0000         1.0636        -999.25         1.0326        -999.25        -52.064     -0.8444862              1
      3480.5000         1.0736        -999.25         1.0428        -999.25       -52.2455      -1.025986              1
      3481.0000         1.0843        -999.25         1.0503        -999.25       -52.5499      -1.330387              1
      3481.5000         1.0955        -999.25         1.0633        -999.25       -53.0196      -1.800087              1
      3482.0000         1.1044        -999.25         1.0638        -999.25       -53.4955      -2.275986      0.9916368
      3482.5000         1.1081        -999.25         1.0634        -999.25       -53.9791      -2.759586      0.9769822
      3483.0000         1.1054        -999.25         1.0516        -999.25       -54.0394      -2.819885       0.975155
      3483.5000         1.1041        -999.25         1.0291        -999.25       -53.8478      -2.628288       0.980961
      3484.0000         1.1066        -999.25         1.0235        -999.25       -53.6565      -2.436989      0.9867579
      3484.5000         1.1065        -999.25         1.0184        -999.25       -53.7208      -2.501286      0.9848095
      3485.0000         1.1053        -999.25         1.0122        -999.25       -53.6566      -2.437088      0.9867549
      3485.5000         1.1064        -999.25         1.0033        -999.25       -53.3696      -2.150085      0.9954519
      3486.0000         1.1064        -999.25         0.9939        -999.25       -53.0346      -1.815086              1
      3486.5000          1.101        -999.25           0.98        -999.25       -52.7094      -1.489887              1
      3487.0000         1.0861        -999.25         0.9666        -999.25       -52.5661      -1.346588              1
      3487.5000         1.0688        -999.25         0.9548        -999.25       -52.3365      -1.116985              1
      3488.0000         1.0519        -999.25          0.952        -999.25       -52.2524      -1.032887              1
      3488.5000         1.0406        -999.25         0.9537        -999.25       -52.2844      -1.064888              1
      3489.0000         1.0389        -999.25         0.9568        -999.25       -52.3412      -1.121689              1
      3489.5000         1.0448        -999.25           0.96        -999.25       -52.4668      -1.247288              1
      3490.0000         1.0526        -999.25         0.9613        -999.25       -52.6475      -1.427986              1
      3490.5000         1.0608        -999.25         0.9625        -999.25       -53.1292      -1.909687              1
      3491.0000         1.0654        -999.25          0.965        -999.25       -53.6811      -2.461586      0.9860125
