#------------------------------------------------------------------------------
# Created by    : vladimir.rabinovich
# Created on    : 09/19/2023 17:22:17
#------------------------------------------------------------------------------
~Version Information Section
VERS.           2.0     :   CWLS log ASCII Standard - VERSION 2.0
WRAP.           NO      :   One line per depth step
~Well Information Section
#MNEM       .UNIT                                         VALUE :DESCRIPTION
#------------------------------------------------------------------------------
STRT        .FT                                             996 :START DEPTH
STOP        .FT                                            8436 :STOP DEPTH
STEP        .FT                                             0.5 :STEP      
NULL        .                                           -999.25 :NULL      
COMP        .                                    TDC ENERGY LLC :COMPANY   
WELL        .                               OCS G03738 ST00BP00 :WELL      
FLD         .                              GALVESTON BLOCK 0255 :FIELD     
LOC         .                                                   :LOCATION  
CNTY        .                             GALVESTON LARGE BLOCK :LOCATION  
STAT        .                                             TEXAS :STATE     
CTRY        .                                     UNITED STATES :COUNTRY   
SRVC        .                                                   :SERVICE COMPANY
DATE        .                             9/13/2023 11:18:53 AM :LOG DATE  
API         .                                    42706400460000 :API NUMBER
UWI         .                                    42706400460000 :UNIQUE WELL ID
XCOORD      .                                   1080542.6436948 :SURFACE X 
YCOORD      .                                  10548065.2081286 :SURFACE Y 
LAT         .                                        29.0539695 :LATITUDE  
LON         .                                       -94.7527854 :LONGITUDE 
ELEV        .FT                                              94 :ELEVATION VALUE
ELEV_TYPE   .                                                KB :ELEVATION REFERENCE TYPE
~Curve Information Section
#MNEM       .UNIT                                      API CODE :CURVE DESCRIPTION
#------------------------------------------------------------------------------
DEPT        .FT                                                 :DEPTH     
CALI        .IN                                                 :          
CILD        .MMHO                                               :          
DT          .US/F                                               :          
GR          .GAPI                                               :          
GR_NORM     .GAPI                                               :GammaRay Normalized
ILD         .OHMM                                               :          
ILM         .OHMM                                               :          
RHOB        .G/C3                                               :          
SFL         .OHMM                                               :          
SP          .MV                                                 :          
SP_NORM     .MV                                                 :SP Normalized
VSH_GR      .V/V                                                :Volume of Shale from GR
VSH_SP      .V/V                                                :Volume of Shale from SP
~A        DEPTH           CALI           CILD             DT             GR        GR_NORM            ILD            ILM           RHOB            SFL             SP        SP_NORM         VSH_GR         VSH_SP
# ...
      3466.0000        17.6135       2734.156       108.0918        25.1646       41.16593         0.3578        -999.25         1.7978          0.453       -94.4586      -48.45941      0.1737431      0.1189199
      3466.5000        17.5752       2694.594       106.8972        25.9487       42.10144          0.364        -999.25         1.7729         0.4556       -94.3016      -48.30576      0.1936477      0.1217134
      3467.0000        18.4385       2662.734       107.1943        26.3645       42.59615         0.3694        -999.25         1.7547         0.4781        -94.183      -48.19053      0.2041734      0.1238086
      3467.5000        18.0552       2633.672       107.8042        26.4482       42.69341         0.3743        -999.25         1.7472         0.5075       -93.9214      -47.93229      0.2062427      0.1285038
      3468.0000        16.9751       2605.656       108.0836        26.3947       42.62647         0.3788        -999.25         1.7482         0.5255       -92.9224      -46.93665      0.2048185      0.1466063
      3468.5000        17.6797           2584       108.1847        26.3413       42.55964         0.3829        -999.25         1.7486         0.5269       -91.9277      -45.94531      0.2033965      0.1646308
      3469.0000         19.104       2564.359        108.614        25.7094       41.80046         0.3876        -999.25         1.7491         0.5202       -91.1665      -45.18747      0.1872438      0.1784096
      3469.5000        19.7754       2538.125       109.2881        25.4204       41.45168         0.3931        -999.25         1.7496         0.5097       -90.5635      -44.58784       0.179823      0.1893121
      3470.0000         17.707       2508.922        110.071        25.6617       41.73755         0.3984        -999.25         1.7501         0.5139       -89.7041       -43.7318      0.1859052      0.2048764
      3470.5000        15.0059       2471.688       109.4746        27.4922       43.92539         0.4035        -999.25         1.7767         0.5319       -88.6885      -42.71956      0.2324551      0.2232807
      3471.0000        14.0146       2433.281       106.8701         30.541        47.5713         0.4079        -999.25         1.8488         0.5496       -87.7373      -41.77172      0.3100277      0.2405142
      3471.5000        13.2168       2394.438       103.2383        34.1777       51.92082         0.4118        -999.25          1.956         0.5618       -86.5859      -40.62368      0.4025707      0.2613876
      3472.0000        12.7642       2355.625        97.9687        38.4238       56.99968         0.4166        -999.25         2.0151         0.5649       -85.2607      -39.30185      0.5106314       0.285421
      3472.5000         12.501        2300.25           87.5        45.6523       65.64789         0.4249        -999.25         2.0773         0.5611       -83.8086      -37.85311      0.6946359      0.3117616
      3473.0000        12.6322       2237.031        87.4844        49.5488       70.30836         0.4345        -999.25         2.0827         0.5738       -82.0361      -36.08397      0.7937948      0.3439278
      3473.5000        12.7301       2173.156       107.2031        51.9766       73.21103         0.4465        -999.25         2.0551         0.5801       -80.0898      -34.14103      0.8555538       0.379254
      3474.0000        12.8072        2098.25       102.9531         53.498       75.02894          0.465        -999.25         2.0528         0.5994       -77.7793      -31.83389      0.8942327      0.4212019
      3474.5000        12.9469       2028.563        79.7681        53.3442       74.84196         0.4811        -999.25         2.0614         0.6765       -76.1162      -30.17416      0.8902544      0.4513789
      3475.0000        13.1163         1967.5        79.9266        51.1641       72.22989         0.4958        -999.25         2.0956         0.7737       -74.5952      -28.65652      0.8346785      0.4789724
      3475.5000        13.2615       1917.938        79.9979        47.4805       65.90093         0.5091        -999.25         2.1529         0.8509       -73.8369      -27.90158      0.7000198      0.4926985
      3476.0000        13.3936       1864.313        79.9528        44.0293       61.11697         0.5214        -999.25         2.1686         0.7722       -73.4169      -27.48494      0.5982335      0.5002738
      3476.5000        13.7991       1831.266        79.9229        39.6328       55.02359         0.5298        -999.25         2.2011         0.6649       -73.2322       -27.3036       0.468587      0.5035709
      3477.0000        11.5557       1804.297        79.9236        36.1641       50.21539         0.5348        -999.25         2.2261         0.6037       -73.3381      -27.41286      0.3662849      0.5015844
      3477.5000         12.189       1790.813        79.9392         33.377       46.35134         0.5395        -999.25         2.2378         0.5665       -76.0352      -30.11333       0.284071      0.4524849
      3478.0000        12.8423       1785.916        79.9647        31.7412       44.08206         0.5459        -999.25         2.2412         0.6056       -79.9219      -34.00339      0.2357886      0.3817566
      3478.5000        12.5825       1783.467        79.9655         31.312       43.48417         0.5537        -999.25         2.2389         0.6842       -83.8145      -37.89935      0.2230673      0.3109209
      3479.0000        12.2878       1769.648        79.9937        30.8828       42.88626         0.5624        -999.25         2.2212         0.7982       -85.1201      -39.20832      0.2103459      0.2871215
      3479.5000        12.4668         1712.5        79.9387        30.3882       42.19777         0.5783        -999.25         2.2145         0.9344       -86.3076      -40.39918      0.1956972      0.2654695
      3480.0000        12.7776        1637.75         80.377          29.46       40.90866         0.5981        -999.25         2.1787         0.9613        -87.312      -41.40693      0.1682693      0.2471467
      3480.5000        12.8961       1568.719        81.8926        28.7278       39.89104         0.6147        -999.25         2.1143         0.9652       -86.7524       -40.8507      0.1466179        0.25726
      3481.0000        12.5024        1524.75        82.7964        28.1523       39.09049         0.6298        -999.25         2.0737         0.9652       -85.9014      -40.00306      0.1295849      0.2726716
      3481.5000        12.7004       1498.914        83.7373        27.9135       38.75633         0.6438        -999.25         2.0379         0.9652       -85.0649      -39.16993      0.1224752      0.2878195
      3482.0000        13.1902       1495.258        85.4277        27.8697       38.69229         0.6545        -999.25          2.011          0.965       -83.7998      -37.90818      0.1211125      0.3107603
      3482.5000        13.6309       1486.828         88.875        27.9179       38.75568         0.6626        -999.25         2.0068         0.9577        -81.833      -35.94475      0.1224613      0.3464591
      3483.0000        13.4127       1478.879        92.2715        27.8917       38.71601         0.6679        -999.25         2.0713         0.9434       -80.1602      -34.27531      0.1216173      0.3768125
      3483.5000        13.5382       1475.988         94.415        27.8379       38.63811         0.6704        -999.25         2.1383          0.922       -78.3496      -32.46807      0.1199599      0.4096714
      3484.0000        12.7598       1476.971        94.9897        28.1699       39.09464         0.6713        -999.25         2.1399         0.9045       -75.2998      -29.42163      0.1296731      0.4650613
      3484.5000        12.6332       1482.391        93.8423        28.7622        39.9117         0.6677        -999.25         2.1409         0.8781       -73.4639      -27.58909      0.1470575      0.4983802
