#------------------------------------------------------------------------------
# Created by    : vladimir.rabinovich
# Created on    : 09/19/2023 17:22:54
#------------------------------------------------------------------------------
~Version Information Section
VERS.           2.0     :   CWLS log ASCII Standard - VERSION 2.0
WRAP.           NO      :   One line per depth step
~Well Information Section
#MNEM       .UNIT                                         VALUE :DESCRIPTION
#------------------------------------------------------------------------------
STRT        .FT                                            1705 :START DEPTH
STOP        .FT                                           10298 :STOP DEPTH
STEP        .FT                                             0.5 :STEP      
NULL        .                                           -999.25 :NULL      
COMP        .                            STANOLIND OIL & GAS CO :COMPANY   
WELL        .                                       ST TR 00219 :WELL      
FLD         .                                           WILDCAT :FIELD     
LOC         .                                                   :LOCATION  
CNTY        .                             GALVESTON LARGE BLOCK :LOCATION  
STAT        .                                             TEXAS :STATE     
CTRY        .                                     UNITED STATES :COUNTRY   
SRVC        .                                                   :SERVICE COMPANY
DATE        .                             9/13/2023 11:19:42 AM :LOG DATE  
API         .                                    42706000170000 :API NUMBER
UWI         .                                    42706000170000 :UNIQUE WELL ID
XCOORD      .                                  1024804.26554262 :SURFACE X 
YCOORD      .                                  10549089.4715911 :SURFACE Y 
LAT         .                                        29.0543948 :LATITUDE  
LON         .                                       -94.9272588 :LONGITUDE 
ELEV        .FT                                              60 :ELEVATION VALUE
ELEV_TYPE   .                                                GL :ELEVATION REFERENCE TYPE
~Curve Information Section
#MNEM       .UNIT                                      API CODE :CURVE DESCRIPTION
#------------------------------------------------------------------------------
DEPT        .FT                                                 :DEPTH     
LAT         .OHMM                                               :          
LN          .OHMM                                               :          
SN          .OHMM                                               :          
SP          .MV                                                 :          
SP_NORM     .MV                                                 :SP Normalized
VSH_SP      .V/V                                                :Volume of Shale from SP
~A        DEPTH            LAT             LN             SN             SP        SP_NORM         VSH_SP
# ...
      7405.0000         0.4462         0.5306         0.7788      -163.9067      -114.9011    0.000860065
      7405.5000         0.4493         0.5327         0.6885      -165.6946      -116.7008              0
      7406.0000         0.4523          0.538         0.5982      -167.0098      -118.0278              0
      7406.5000         0.4726         0.5434         0.6993      -166.3596      -117.3894              0
      7407.0000         0.4953         0.5488         0.7408      -158.8254       -109.867     0.04463474
      7407.5000          0.518         0.5541         0.7824      -155.5708      -106.6242     0.07283299
      7408.0000         0.5407         0.5595         0.7573      -159.3354      -110.4006     0.03999461
      7408.5000         0.5634         0.5648         0.6763      -163.0686      -114.1456    0.007429438
      7409.0000         0.5825         0.5647          0.619       -165.428      -116.5168              0
      7409.5000          0.569         0.5634          0.673      -167.4482      -118.5488              0
      7410.0000         0.5555         0.5622         0.7504      -162.7292      -113.8416     0.01007279
      7410.5000         0.6113         0.5609         0.8474      -160.1487      -111.2729      0.0324094
      7411.0000         0.6746         0.5597         0.9444      -157.5454      -108.6814     0.05494411
      7411.5000         0.7377         0.5584         1.0389      -154.7554      -105.9032     0.07910236
      7412.0000          0.801         0.5572         1.0461       -155.917      -107.0766     0.06889874
      7412.5000         0.8555          0.557          1.052      -158.7981      -109.9695     0.04374323
      7413.0000         0.8249         0.5568         1.0226      -161.8638       -113.047     0.01698224
      7413.5000         0.7662         0.5567          0.992       -164.738       -115.933              0
      7414.0000         0.7272         0.5565         0.9351       -167.134      -118.3409              0
      7414.5000         0.7096         0.5563         0.8783      -168.6487      -119.8673              0
      7415.0000         0.7798         0.5561         0.9341      -166.6694      -117.8999              0
      7415.5000         0.8502         0.5612         1.0097      -149.8152      -101.0574      0.1212396
      7416.0000         0.9204          0.569         1.0938      -125.8369      -77.09096      0.3296438
      7416.5000         0.9907         0.5768         1.2028      -107.1425      -58.40836      0.4921012
      7417.0000         1.0778         0.5845         1.3119       -91.9919      -43.26956       0.623743
      7417.5000         1.1651         0.5953         1.2972       -89.0243      -40.31376      0.6494455
      7418.0000          1.195         0.6414         1.2513       -94.5884      -45.88967      0.6009594
      7418.5000         1.1487         0.6875         1.1945      -105.3021      -56.61517      0.5076942
      7419.0000         1.0121         0.7326         1.1473      -116.3075      -67.63237      0.4118924
      7419.5000         0.9208         0.7668         1.1268        -132.05      -83.38667      0.2748985
      7420.0000         0.8412          0.801          1.076      -149.7058      -101.0543      0.1212672
      7420.5000         0.7616         0.8351         0.9914      -160.1919      -111.5522     0.02998113
      7421.0000         0.6883         0.7952         0.9053      -167.1887      -118.5608              0
      7421.5000         0.6254         0.7626         0.8177       -166.437      -117.8209              0
      7422.0000         0.5626         0.7349         0.7299       -162.228      -113.6237     0.01196793
      7422.5000         0.5772         0.7073         0.6493      -118.1477      -69.55519      0.3951722
      7423.0000         0.6487         0.6796         0.7947       -73.5162      -24.93549      0.7831696
      7423.5000         0.7202         0.6583         0.9144       -64.5972       -16.0283      0.8606235
      7424.0000         0.7813         0.6861         1.0121       -59.4134       -10.8563      0.9055974
      7424.5000         0.8273         0.7138         1.0986       -52.8016      -4.256306      0.9629887
      7425.0000         0.8733         0.7416         1.1419       -50.9521      -2.418606      0.9789686
      7425.5000         0.9192         0.7755         1.1807        -49.105     -0.5833092      0.9949278
      7426.0000         0.9334         0.8118         1.2195       -47.9116      0.5982895              1
      7426.5000         0.9053         0.8482         1.2328       -49.2371     -0.7390137      0.9935738
      7427.0000         0.8772         0.8845         1.2436       -50.7289      -2.242619       0.980499
      7427.5000         0.8491         0.9208         1.3345        -51.952       -3.47752      0.9697607
      7428.0000         0.8246         0.9572         1.4045       -50.4215      -1.958824      0.9829667
      7428.5000         0.8123         0.9942          1.397       -48.8932     -0.4423256      0.9961537
      7429.0000         0.7999         1.0358         1.2934        -47.365        1.07407              1
      7429.5000         0.8088         1.0773         1.2198       -45.9301       2.497169              1
      7430.0000         0.8858         1.1188          1.298       -46.5035       1.911964              1
      7430.5000         0.9628         1.1604         1.4322       -47.2807       1.122963              1
      7431.0000         0.9159         1.1838         1.4634       -48.6495     -0.2576408      0.9977596
      7431.5000         0.8491          1.206          1.455       -50.0161      -1.636044      0.9857736
      7432.0000         0.7822         1.2281         1.4041        -50.278      -1.909744      0.9833935
      7432.5000         0.7054         1.2332         1.3498       -49.3556     -0.9991455      0.9913118
      7433.0000         0.6262         1.2055         1.2957       -48.4332    -0.08855057        0.99923
      7433.5000          0.741         1.1604         1.2385       -47.5107      0.8221474              1
      7434.0000         0.8536         1.1096          1.165       -46.8372       1.483845              1
      7434.5000         0.9348         1.0642         1.2155       -46.2695       2.039742              1
      7435.0000         1.0161          1.048         1.3641       -47.0347       1.262741              1
      7435.5000         1.0836         1.0318         1.4783       -47.6838      0.6018372              1
      7436.0000         1.0274         1.0156         1.5293       -46.5245       1.749332              1
      7436.5000         0.9711         0.9494          1.536       -45.3652       2.896832              1
      7437.0000         0.9521         0.9492         1.4625       -44.2048       4.045429              1
      7437.5000         1.2442          0.949         1.3464       -42.3975       5.840927              1
      7438.0000         1.4712         0.9669         1.2286       -41.5007       6.725922              1
      7438.5000         1.5604          0.985         1.3789       -42.7779        5.43692              1
      7439.0000         1.4389         1.0146         1.5615       -45.5474       2.655617              1
      7439.5000         1.3174         1.0524         1.6907       -44.6979       3.493317              1
      7440.0000         1.1281         1.0901         1.7923       -43.7015       4.477913              1
      7440.5000          0.915         1.1278         1.7464       -42.3475        5.82011              1
      7441.0000         0.8257         1.1656         1.6421       -42.0764       6.079407              1
      7441.5000         0.9381          1.219         1.5384        -46.668       1.476006              1
      7442.0000         0.9748         1.2958         1.6249       -51.8701      -3.737896      0.9674966
      7442.5000         1.0115         1.3788         1.7176       -56.7759      -8.655502      0.9247348
