#------------------------------------------------------------------------------
# Created by    : vladimir.rabinovich
# Created on    : 09/19/2023 17:21:34
#------------------------------------------------------------------------------
~Version Information Section
VERS.           2.0     :   CWLS log ASCII Standard - VERSION 2.0
WRAP.           NO      :   One line per depth step
~Well Information Section
#MNEM       .UNIT                                         VALUE :DESCRIPTION
#------------------------------------------------------------------------------
STRT        .FT                                            4495 :START DEPTH
STOP        .FT                                            9058 :STOP DEPTH
STEP        .FT                                             0.5 :STEP      
NULL        .                                           -999.25 :NULL      
COMP        .                          SEAGULL ENERGY E & P INC :COMPANY   
WELL        .                               OCS G11322 ST00BP00 :WELL      
FLD         .                                           WILDCAT :FIELD     
LOC         .                                                   :LOCATION  
CNTY        .                             GALVESTON LARGE BLOCK :LOCATION  
STAT        .                                             TEXAS :STATE     
CTRY        .                                     UNITED STATES :COUNTRY   
SRVC        .                                                   :SERVICE COMPANY
DATE        .                             9/13/2023 11:19:34 AM :LOG DATE  
API         .                                    42706402570000 :API NUMBER
UWI         .                                    42706402570000 :UNIQUE WELL ID
XCOORD      .                                  1032943.49501878 :SURFACE X 
YCOORD      .                                  10418025.6284813 :SURFACE Y 
LAT         .                                         28.694364 :LATITUDE  
LON         .                                        -94.895236 :LONGITUDE 
ELEV        .FT                                              97 :ELEVATION VALUE
ELEV_TYPE   .                                                KB :ELEVATION REFERENCE TYPE
~Curve Information Section
#MNEM       .UNIT                                      API CODE :CURVE DESCRIPTION
#------------------------------------------------------------------------------
DEPT        .FT                                                 :DEPTH     
CALI        .IN                                                 :          
DCAL        .IN                                                 :          
DPHI        .%                                                  :          
DRHO        .G/C3                                               :          
GR          .GAPI                                               :          
GR_1        .GAPI                                               :          
GR_NORM     .GAPI                                               :GammaRay Normalized
ILD         .OHMM                                               :          
ILM         .OHMM                                               :          
NPHI        .%                                                  :          
SGRD        .OHMM                                               :          
SP          .MV                                                 :          
SP_NORM     .MV                                                 :SP Normalized
VSH_GR      .V/V                                                :Volume of Shale from GR
VSH_SP      .V/V                                                :Volume of Shale from SP
~A        DEPTH           CALI           DCAL           DPHI           DRHO             GR           GR_1        GR_NORM            ILD            ILM           NPHI           SGRD             SP        SP_NORM         VSH_GR         VSH_SP
# ...
      8422.0000        -999.25         0.9051        17.2385        -0.0102        -999.25        74.3478       81.27567         0.6742         0.6817        41.0996          0.758       -44.8573      -2.635075              1      0.9560821
      8422.5000        -999.25         0.8195        17.4642        -0.0074        -999.25         76.047       83.41239         0.6714         0.6838        40.9052         0.7459       -44.7821      -2.559875              1      0.9573354
      8423.0000        -999.25         0.7751        17.7261        -0.0051        -999.25        77.2352       84.90653         0.6779         0.6876         40.316          0.736       -44.8239      -2.601673              1      0.9566388
      8423.5000        -999.25         0.7856        17.7619         -0.003        -999.25        74.8193       81.86858         0.6853         0.6905        39.6279         0.7316       -45.2974      -3.075176              1       0.948747
      8424.0000        -999.25         0.8529        17.8157        -0.0019        -999.25        71.1415       77.24381         0.6903         0.6943        38.8107         0.7423        -46.097      -3.874775      0.9413577      0.9354204
      8424.5000        -999.25          0.934        17.8056         -0.001        -999.25        68.2936       73.66264         0.6908         0.7004        37.9436         0.7667       -46.5745      -4.352276      0.8651625       0.927462
      8425.0000        -999.25         0.9763        17.8855        -0.0008        -999.25        66.0121       70.79369         0.6892         0.7063        36.7964         0.7935       -46.4777      -4.255474      0.8041211      0.9290754
      8425.5000        -999.25         1.0179        17.9234        -0.0009        -999.25        64.0625        68.3421         0.6898         0.7103        36.5232            0.8       -45.9455      -3.723274      0.7519596      0.9379454
      8426.0000        -999.25         1.0623        17.6424              0        -999.25        63.8755       68.10695         0.6923         0.7166        36.9162         0.7861       -45.2645      -3.042274      0.7469563      0.9492954
      8426.5000        -999.25         1.1073        17.1544         0.0018        -999.25        67.5586       72.73838         0.6944         0.7161        37.5085         0.7706       -44.7106      -2.488377      0.8454974       0.958527
      8427.0000        -999.25         1.1538        16.6975          0.005        -999.25        70.0878       75.91881         0.6947         0.7087        38.0456         0.7637       -45.0455      -2.823277      0.9131661      0.9529454
      8427.5000        -999.25         1.2035        16.2188         0.0088        -999.25        72.8434       79.38393         0.6941         0.7057        38.4768         0.7629       -45.3093      -3.087074       0.986892      0.9485487
      8428.0000        -999.25         1.2349        16.2255         0.0122        -999.25        74.1232       80.99325         0.6904         0.7041        38.5196         0.7647       -45.4983      -3.276073              1      0.9453987
      8428.5000        -999.25         1.2265         16.321         0.0108        -999.25        72.7485       79.26458         0.6873         0.7022         37.928          0.763       -45.5859      -3.363674      0.9843528      0.9439388
      8429.0000        -999.25         1.2192        16.3423         0.0087        -999.25        71.1415       77.24381         0.6863         0.7003        37.1217         0.7609       -45.2382      -3.015976      0.9413577      0.9497337
      8429.5000        -999.25         1.2167        16.3737         0.0066        -999.25        70.8728       76.90593         0.6814         0.6991        36.9933         0.7662       -44.6085      -2.386276      0.9341687      0.9602287
      8430.0000        -999.25          1.225        16.4677         0.0046        -999.25        72.0188         78.347         0.6712         0.6949        37.2073         0.7711        -43.965      -1.742775      0.9648298      0.9709538
      8430.5000        -999.25         1.2414        16.7065         0.0025        -999.25        72.3206       78.72652         0.6643         0.6883        37.3996         0.7724       -43.7289      -1.506676      0.9729046      0.9748887
      8431.0000        -999.25         1.2605         16.991          0.001        -999.25        72.0952       78.44307         0.6591         0.6833        37.7599         0.7691       -43.4941      -1.271873      0.9668738      0.9788021
      8431.5000        -999.25         1.2778        17.0849        -0.0001        -999.25        74.5559       81.53736         0.6565         0.6785        38.3577          0.776       -42.9382     -0.7159767              1       0.988067
      8432.0000        -999.25         1.3052        16.5084        -0.0012        -999.25        76.0115       83.36775         0.6549         0.6739        39.1469         0.7756       -42.1136      0.1086235              1              1
      8432.5000        -999.25         1.3431        16.3029        -0.0024        -999.25        76.2427       83.65848         0.6539         0.6712        39.9252         0.7509       -41.4312      0.7910271              1              1
      8433.0000        -999.25         1.3592        16.3572        -0.0041        -999.25        76.1405       83.52997         0.6542         0.6735        40.3253         0.7369       -41.2911      0.9311256              1              1
      8433.5000        -999.25         1.2887        16.0461         -0.007        -999.25        75.2251       82.37887         0.6537         0.6784        39.9653          0.744       -41.1879       1.034325              1              1
      8434.0000        -999.25         1.1743        15.9667        -0.0101        -999.25        71.9846       78.30399          0.651         0.6824        40.1821         0.7593        -40.932       1.290226      0.9639148              1
      8434.5000        -999.25         1.0635        16.3946        -0.0131        -999.25        69.9679       75.76803         0.6488         0.6828        40.5931         0.7739       -40.4005       1.821724      0.9099581              1
      8435.0000        -999.25         1.0164         16.335        -0.0184        -999.25        69.2677       74.88754         0.6472         0.6741        41.7902         0.7739       -39.9407       2.281525      0.8912243              1
      8435.5000        -999.25         0.9876         16.438        -0.0223        -999.25        68.4503       73.85969         0.6459         0.6646        43.0417          0.756       -39.3559       2.866325      0.8693551              1
      8436.0000        -999.25         0.9907        16.7314        -0.0242        -999.25        68.1161       73.43943         0.6334         0.6603        43.7469         0.7392          -38.8       3.422226      0.8604134              1
      8436.5000        -999.25         0.9836         16.594        -0.0205        -999.25        68.0005       73.29407         0.6213         0.6565        43.9753          0.735       -38.5067       3.715527      0.8573206              1
      8437.0000        -999.25         0.9721        16.3979        -0.0169        -999.25          67.61       72.80302         0.6095         0.6494        44.0491         0.7405       -38.4416       3.780624      0.8468729              1
      8437.5000        -999.25         0.9808        16.9287        -0.0181        -999.25        67.4979       72.66206         0.6028         0.6382         43.994         0.7467       -38.3691       3.853127      0.8438736              1
      8438.0000        -999.25          0.987        17.6219        -0.0214        -999.25        67.8595       73.11676         0.5974         0.6301        44.1625         0.7408       -38.2485       3.973724      0.8535481              1
      8438.5000        -999.25         0.9786        17.6211        -0.0238        -999.25        68.7151       74.19266         0.5936         0.6235        44.6738           0.72       -38.0829       4.139324      0.8764395              1
