#------------------------------------------------------------------------------
# Created by    : vladimir.rabinovich
# Created on    : 09/19/2023 17:20:01
#------------------------------------------------------------------------------
~Version Information Section
VERS.           2.0     :   CWLS log ASCII Standard - VERSION 2.0
WRAP.           NO      :   One line per depth step
~Well Information Section
#MNEM       .UNIT                                         VALUE :DESCRIPTION
#------------------------------------------------------------------------------
STRT        .FT                                            3530 :START DEPTH
STOP        .FT                                           11780 :STOP DEPTH
STEP        .FT                                             0.5 :STEP      
NULL        .                                           -999.25 :NULL      
COMP        .                                        TEXACO INC :COMPANY   
WELL        .                                     ST TR 00820-L :WELL      
FLD         .                                           WILDCAT :FIELD     
LOC         .                                                   :LOCATION  
CNTY        .                        MUSTANG ISLAND LARGE BLOCK :LOCATION  
STAT        .                                             TEXAS :STATE     
CTRY        .                                     UNITED STATES :COUNTRY   
SRVC        .                                                   :SERVICE COMPANY
DATE        .                             9/13/2023 11:18:55 AM :LOG DATE  
API         .                                    42702302010000 :API NUMBER
UWI         .                                    42702302010000 :UNIQUE WELL ID
XCOORD      .                                  295719.314319733 :SURFACE X 
YCOORD      .                                  9994218.17259751 :SURFACE Y 
LAT         .                                        27.4796405 :LATITUDE  
LON         .                                       -97.1466422 :LONGITUDE 
ELEV        .FT                                              78 :ELEVATION VALUE
ELEV_TYPE   .                                                KB :ELEVATION REFERENCE TYPE
~Curve Information Section
#MNEM       .UNIT                                      API CODE :CURVE DESCRIPTION
#------------------------------------------------------------------------------
DEPT        .FT                                                 :DEPTH     
ASFL        .OHMM                                               :          
CILD        .MMHO                                               :          
GR          .GAPI                                               :          
GR_NORM     .GAPI                                               :GammaRay Normalized
ILD         .OHMM                                               :          
SP          .MV                                                 :          
SP_NORM     .MV                                                 :SP Normalized
VSH_GR      .V/V                                                :Volume of Shale from GR
VSH_SP      .V/V                                                :Volume of Shale from SP
~A        DEPTH           ASFL           CILD             GR        GR_NORM            ILD             SP        SP_NORM         VSH_GR         VSH_SP
# ...
      7902.5000         0.8468       1404.164        78.2329        75.8783         0.6801       -35.7834      -3.028988      0.9123042      0.9743166
      7903.0000         0.8439       1413.227        78.9783       76.92855         0.6766       -35.9649      -3.208443        0.93465       0.972045
      7903.5000         0.8317       1422.289        81.2966       80.21417         0.6726       -36.1464      -3.387897              1      0.9697735
      7904.0000          0.818       1436.426        83.8793       83.87556         0.6686       -36.3278      -3.567253              1      0.9675031
      7904.5000         0.8044        1464.48         84.494       84.74007         0.6616       -36.5089      -3.746307              1      0.9652366
      7905.0000         0.7907       1492.486        84.4845       84.71745         0.6543       -36.6904      -3.925762              1       0.962965
      7905.5000         0.7776       1518.711        83.5931       83.44157         0.6469       -36.6564      -3.889713              1      0.9634213
      7906.0000         0.7657       1534.494        82.7029       82.16734         0.6396       -36.3762      -3.607471              1       0.966994
      7906.5000         0.7674       1550.301        81.8115       80.89139         0.6322       -36.0957      -3.324924              1      0.9705706
      7907.0000         0.7763       1555.229        80.6658       79.25407         0.6249       -35.8156      -3.042782      0.9841291       0.974142
      7907.5000         0.7852       1547.875        79.4979       77.58519         0.6181       -35.5353      -2.760437       0.948621       0.977716
      7908.0000         0.7941       1540.531        78.3314        75.9183         0.6122       -35.1364      -2.359489      0.9131554      0.9827912
      7908.5000         0.7916       1533.189        77.4167       74.60927         0.6064       -34.7118      -1.932846      0.8853036      0.9881918
      7909.0000         0.7865       1542.252         78.176       75.67927         0.6005       -34.5659      -1.784901      0.9080696      0.9900646
      7909.5000         0.7787        1571.33        79.7438       77.89828         0.5946       -34.8223      -2.039257      0.9552826      0.9868448
      7910.0000         0.7708       1600.457         81.309       80.11363         0.5887        -35.079      -2.293911              1      0.9836214
      7910.5000          0.763       1629.537        82.8937       82.35669         0.5841       -35.3354      -2.548267              1      0.9804017
      7911.0000         0.7552       1651.004         84.542       84.69012         0.5822       -35.4938      -2.704624              1      0.9784225
      7911.5000         0.7474       1671.666        86.1903       87.02354         0.5803       -35.5724      -2.781178              1      0.9774535
      7912.0000         0.7408        1692.33        86.9326        88.0694         0.5784        -35.651      -2.857735              1      0.9764844
      7912.5000         0.7375       1691.566        87.4951       88.85973         0.5765       -35.7296      -2.934288              1      0.9755154
      7913.0000         0.7342       1685.566        88.0576       89.65004         0.5746       -35.8082      -3.010845              1      0.9745463
      7913.5000         0.7309       1678.742        88.6206       90.44106         0.5728       -35.8129        -3.0135              1      0.9745126
      7914.0000         0.7295       1671.924        88.8357       90.73767         0.5709        -35.739      -2.937553              1       0.975474
      7914.5000         0.7355       1665.105        88.3107       89.98245          0.569       -35.6653      -2.861809              1      0.9764328
      7915.0000         0.7415       1667.301        86.7211       87.71427         0.5651       -35.5914      -2.785862              1      0.9773942
      7915.5000         0.7474       1676.156        85.1852        85.5224           0.56       -35.4542      -2.646618              1      0.9791567
      7916.0000         0.7384       1684.998        83.8157       83.56701         0.5548       -35.1117      -2.302071              1      0.9835181
      7916.5000         0.7253       1716.969        82.4437       81.60806         0.5497       -34.7692      -1.957527              1      0.9878794
      7917.0000         0.7122       1750.926        81.6536       80.47612         0.5445       -34.4273      -1.613583              1      0.9922332
      7917.5000         0.7023       1784.885        81.8262       80.71232         0.5394       -34.0848      -1.269039              1      0.9965944
      7918.0000         0.6958       1818.842        82.0444       81.01334         0.5342       -33.7858     -0.9679947              1              1
      7918.5000         0.6894       1852.799        82.0132        80.9599          0.529       -33.5516     -0.7317505              1              1
      7919.0000         0.6829       1881.158        80.1301       78.27457         0.5239       -33.5824     -0.7605057      0.9632888              1
      7919.5000         0.6764         1893.6        81.0375       79.55507         0.5191       -34.0435      -1.219559      0.9905334      0.9972208
      7920.0000           0.67       1906.041        82.3801       81.45406         0.5144       -34.2823      -1.456314              1      0.9942239
      7920.5000         0.6635       1918.482        83.5735       83.14101         0.5096       -34.4476      -1.619572              1      0.9921573
      7921.0000         0.6585       1930.924         84.767       84.82807         0.5048       -34.5698      -1.739727              1      0.9906363
      7921.5000         0.6548       1943.365        85.9604       86.51504            0.5       -34.3619      -1.529781              1      0.9932939
      7922.0000         0.6511        1958.82        85.9109       86.43559         0.4952       -34.1539      -1.319736              1      0.9959527
      7922.5000         0.6474       1975.408        85.3514       85.63136         0.4959       -33.9459      -1.109692              1      0.9986115
      7923.0000          0.651       1963.699        84.7921       84.82741         0.5056       -33.7376     -0.8993454              1              1
      7923.5000          0.664       1918.959        84.2327       84.02329         0.5152       -33.5297     -0.6894035              1              1
      7924.0000         0.6842       1874.414        83.7855       83.37866         0.5274       -33.3311     -0.4887543              1              1
      7924.5000         0.7256       1829.967        83.7697       83.34711         0.5396       -33.2883     -0.4439087              1              1
      7925.0000          0.767       1785.518        83.7538       83.31543         0.5518       -33.2844     -0.4379654              1              1
      7925.5000         0.8063        1741.07        83.7379       83.28377         0.5691       -33.4055     -0.5570183              1              1
      7926.0000         0.8425       1696.623        83.6986        83.2188         0.6237       -33.5267     -0.6761742              1              1
      7926.5000         0.8642       1612.996        83.6434       83.13127         0.6783       -33.6478     -0.7952309              1              1
      7927.0000          0.871       1523.613        82.9047       82.07236         0.7158       -33.7691     -0.9144859              1              1
      7927.5000         0.8765       1401.053        81.8384       80.54787         0.7365       -34.2094      -1.352741              1      0.9955349
      7928.0000         0.8789       1337.334        80.1228        78.1006         0.7453       -34.6562      -1.797497      0.9595873      0.9899051
      7928.5000         0.8695       1318.135        78.2103       75.37352          0.754       -35.1037       -2.24295      0.9015642      0.9842665
