#------------------------------------------------------------------------------
# Created by    : vladimir.rabinovich
# Created on    : 09/19/2023 17:20:48
#------------------------------------------------------------------------------
~Version Information Section
VERS.           2.0     :   CWLS log ASCII Standard - VERSION 2.0
WRAP.           NO      :   One line per depth step
~Well Information Section
#MNEM       .UNIT                                         VALUE :DESCRIPTION
#------------------------------------------------------------------------------
STRT        .FT                                             495 :START DEPTH
STOP        .FT                                            6623 :STOP DEPTH
STEP        .FT                                             0.5 :STEP      
NULL        .                                           -999.25 :NULL      
COMP        .                                      SHELL OIL CO :COMPANY   
WELL        .                                     ST TR 00691-L :WELL      
FLD         .                                           WILDCAT :FIELD     
LOC         .                                                   :LOCATION  
CNTY        .                      MATAGORDA ISLAND LARGE BLOCK :LOCATION  
STAT        .                                             TEXAS :STATE     
CTRY        .                                     UNITED STATES :COUNTRY   
SRVC        .                                                   :SERVICE COMPANY
DATE        .                             9/13/2023 11:12:05 AM :LOG DATE  
API         .                                    42703000200000 :API NUMBER
UWI         .                                    42703000200000 :UNIQUE WELL ID
XCOORD      .                                  411465.852171861 :SURFACE X 
YCOORD      .                                  10158718.0598508 :SURFACE Y 
LAT         .                                        27.9414781 :LATITUDE  
LON         .                                       -96.8060481 :LONGITUDE 
ELEV        .FT                                              11 :ELEVATION VALUE
ELEV_TYPE   .                                                KB :ELEVATION REFERENCE TYPE
~Curve Information Section
#MNEM       .UNIT                                      API CODE :CURVE DESCRIPTION
#------------------------------------------------------------------------------
DEPT        .FT                                                 :DEPTH     
ASN         .OHMM                                               :          
CILD        .OHMM                                               :          
ILD         .OHMM                                               :          
SP          .MV                                                 :          
SP_NORM     .MV                                                 :SP Normalized
VSH_SP      .V/V                                                :Volume of Shale from SP
~A        DEPTH            ASN           CILD            ILD             SP        SP_NORM         VSH_SP
# ...
      4941.0000         0.6048       2892.184         0.6298       -79.2103       -37.1753      0.2005613
      4941.5000         0.6524       2686.164         0.6917       -72.3966       -30.3626      0.3553954
      4942.0000         0.7471       2480.141          0.752       -70.9447       -28.9116      0.3883727
      4942.5000          1.074       2274.121         0.8104       -69.9865       -27.9544      0.4101273
      4943.0000         1.4009       2068.098         0.8579       -69.5319       -27.5007      0.4204386
      4943.5000         1.4608           1861         0.9025       -70.6428       -28.6126      0.3951682
      4944.0000         1.4828       1653.375         0.9469       -71.7538       -29.7246      0.3698955
      4944.5000         1.5061       1445.875          0.991       -72.1326       -30.1043      0.3612659
      4945.0000         1.5278        1238.25         1.0246       -72.3263        -30.299      0.3568409
      4945.5000         1.5661        1030.75         0.8597       -72.3469       -30.3205      0.3563523
      4946.0000         1.5554           1373         0.7171       -72.3676       -30.3422      0.3558591
      4946.5000         1.2773         1860.5         0.6199       -72.6653       -30.6409      0.3490705
      4947.0000         1.1058       2205.313         0.5332       -73.2778       -31.2543      0.3351296
      4947.5000         1.0076       2495.168         0.4585        -74.046       -32.0235      0.3176478
      4948.0000          0.896       2784.824         0.3909       -76.8173       -34.7957      0.2546432
      4948.5000         0.7844        3074.48         0.3305       -79.5831       -37.5625      0.1917614
      4949.0000         0.6994       3364.336         0.2807       -81.0192       -38.9996         0.1591
      4949.5000         0.6608       3653.992         0.2382       -82.4565       -40.4378      0.1264136
      4950.0000         0.6452       3943.648         0.2105       -83.6799       -41.6622     0.09858634
      4950.5000         0.6297       4138.086         0.1833       -84.2189       -42.2021     0.08631594
      4951.0000         0.6174       4217.523         0.1821       -84.6907       -42.6749     0.07557046
      4951.5000         0.6061       4246.461         0.1809       -85.1566       -43.1418     0.06495909
      4952.0000         0.5949       4263.391         0.1796       -85.6229        -43.609     0.05434088
      4952.5000         0.5862       4263.305         0.1784       -85.7645       -43.7516     0.05110004
      4953.0000         0.5816       4258.086         0.1773       -85.8071       -43.7951     0.05011134
      4953.5000         0.5778        4246.18         0.1769       -86.1249       -44.1139     0.04286593
      4954.0000          0.574       4225.117         0.1764       -86.4426       -44.4325     0.03562503
      4954.5000         0.5696       4204.086          0.176       -86.7638       -44.7547     0.02830228
      4955.0000         0.5652        4182.18         0.1756       -87.0868       -45.0787     0.02093861
      4955.5000         0.5607       4159.023         0.1752       -87.4097       -45.4025     0.01357954
      4956.0000         0.5555       4135.836         0.1747       -87.6316       -45.6254    0.008513624
      4956.5000         0.5502       4100.227         0.1743       -87.7747       -45.7694    0.005240874
      4957.0000         0.5446       4072.621         0.1739       -87.9014       -45.8971    0.002338669
      4957.5000         0.5389        4052.59          0.175       -87.4767       -45.4734     0.01196818
      4958.0000         0.5328       4035.102         0.1764       -84.3264        -42.324     0.08354542
      4958.5000         0.5276       4015.645         0.1779       -82.8345       -40.8331      0.1174296
      4959.0000          0.523       4005.141         0.1793       -82.4391       -40.4386      0.1263955
      4959.5000         0.5195        4000.02         0.1807       -82.0333       -40.0338      0.1355955
      4960.0000         0.5162       3994.902         0.1822       -81.5735        -39.575      0.1460227
      4960.5000         0.5215       3981.563         0.1847       -81.1381       -39.1405      0.1558978
      4961.0000         0.5302       3950.719         0.1883       -80.9581       -38.9615      0.1599659
      4961.5000         0.5403       3919.254          0.192       -81.2889       -39.2932      0.1524272
      4962.0000         0.5454       3882.504         0.1957       -81.6196       -39.6249      0.1448886
      4962.5000         0.5504        3866.93         0.1993       -81.9506       -39.9569      0.1373432
      4963.0000          0.553       3880.949          0.203       -82.3514       -40.3586      0.1282136
      4963.5000         0.5556       3915.055         0.2067       -82.8384       -40.8466      0.1171227
      4964.0000         0.5582       3946.094          0.209       -83.3252       -41.3343      0.1060386
      4964.5000         0.5582       3971.551         0.2109       -83.8082       -41.8183     0.09503867
      4965.0000         0.5577       3990.582         0.2129       -84.2113       -42.2224     0.08585453
      4965.5000         0.5572       4046.254         0.2148       -84.6143       -42.6263     0.07667498
      4966.0000         0.5567       4034.941         0.2167        -85.017         -43.03     0.06750003
      4966.5000         0.5561       4016.355         0.2186       -85.4435       -43.4574     0.05778633
      4967.0000         0.5556       4003.676         0.2205       -85.8759       -43.8908     0.04793635
      4967.5000         0.5551       3998.254         0.2212       -86.2633       -44.2792     0.03910905
      4968.0000         0.5554       3992.832         0.2219       -86.5649       -44.5817     0.03223411
      4968.5000         0.5571        3978.57         0.2226       -86.8668       -44.8846     0.02534996
      4969.0000         0.5588       3963.754         0.2234         -87.03       -45.0487     0.02162049
      4969.5000         0.5605       3948.938         0.2241       -87.1411       -45.1608     0.01907271
      4970.0000         0.5609        3912.68         0.2248       -86.9824        -45.003     0.02265913
      4970.5000         0.5611       3887.039         0.2255       -86.5151       -44.5367     0.03325679
      4971.0000         0.5612       3875.809         0.2262        -86.009       -44.0316     0.04473634
      4971.5000          0.561       3894.738         0.2269       -85.4955        -43.519     0.05638634
      4972.0000         0.5597       3914.039         0.2275       -85.0562       -43.0807     0.06634773
      4972.5000         0.5585       3929.883         0.2282       -85.0109       -43.0364     0.06735455
      4973.0000         0.5572       3956.551         0.2289       -85.0969       -43.1233     0.06537957
      4973.5000         0.5546         3970.5         0.2296       -85.2792       -43.3066     0.06121367
      4974.0000         0.5519       3984.563         0.2303       -85.4615       -43.4898     0.05705001
      4974.5000         0.5492       3992.852         0.2315       -85.6438       -43.6731      0.0528841
      4975.0000         0.5465       3999.129         0.2327       -85.8262       -43.8564     0.04871819
      4975.5000         0.5455       4005.719          0.234       -85.9565       -43.9877     0.04573406
      4976.0000         0.5445       4012.223         0.2352       -86.0405       -44.0727     0.04380226
      4976.5000         0.5428       4018.602         0.2364       -86.2334       -44.2665     0.03939776
      4977.0000         0.5403       4025.262         0.2377       -86.5083       -44.5424     0.03312726
      4977.5000         0.5378       4032.473         0.2389       -86.7831       -44.8181     0.02686136
      4978.0000         0.5343       4039.699         0.2376       -87.0415       -45.0775     0.02096592
      4978.5000         0.5299       4048.652         0.2359       -87.2917       -45.3287      0.0152568
