#------------------------------------------------------------------------------
# Created by    : vladimir.rabinovich
# Created on    : 09/19/2023 17:22:50
#------------------------------------------------------------------------------
~Version Information Section
VERS.           2.0     :   CWLS log ASCII Standard - VERSION 2.0
WRAP.           NO      :   One line per depth step
~Well Information Section
#MNEM       .UNIT                                         VALUE :DESCRIPTION
#------------------------------------------------------------------------------
STRT        .FT                                            2472 :START DEPTH
STOP        .FT                                            8382 :STOP DEPTH
STEP        .FT                                             0.5 :STEP      
NULL        .                                           -999.25 :NULL      
COMP        .                                 EPL OIL & GAS LLC :COMPANY   
WELL        .                               OCS G07215 ST00BP00 :WELL      
FLD         .                                 BRAZOS BLOCK 0376 :FIELD     
LOC         .                                                   :LOCATION  
CNTY        .                                BRAZOS LARGE BLOCK :LOCATION  
STAT        .                                             TEXAS :STATE     
CTRY        .                                     UNITED STATES :COUNTRY   
SRVC        .                                                   :SERVICE COMPANY
DATE        .                             9/13/2023 11:19:08 AM :LOG DATE  
API         .                                    42704402290000 :API NUMBER
UWI         .                                    42704402290000 :UNIQUE WELL ID
XCOORD      .                                  871225.230552878 :SURFACE X 
YCOORD      .                                  10399792.7272756 :SURFACE Y 
LAT         .                                         28.636239 :LATITUDE  
LON         .                                        -95.398308 :LONGITUDE 
ELEV        .FT                                              95 :ELEVATION VALUE
ELEV_TYPE   .                                                KB :ELEVATION REFERENCE TYPE
~Curve Information Section
#MNEM       .UNIT                                      API CODE :CURVE DESCRIPTION
#------------------------------------------------------------------------------
DEPT        .FT                                                 :DEPTH     
DT          .US/F                                               :          
GR          .GAPI                                               :          
GR_NORM     .GAPI                                               :GammaRay Normalized
ILD         .OHMM                                               :          
ILM         .OHMM                                               :          
SFL         .OHMM                                               :          
SP          .MV                                                 :          
SP_NORM     .MV                                                 :SP Normalized
VSH_GR      .V/V                                                :Volume of Shale from GR
VSH_SP      .V/V                                                :Volume of Shale from SP
~A        DEPTH             DT             GR        GR_NORM            ILD            ILM            SFL             SP        SP_NORM         VSH_GR         VSH_SP
# ...
      4064.5000       131.3246        50.5833       63.22544         0.6734         0.6665         0.8357       -59.9687      -1.392654      0.6430944      0.9912744
      4065.0000        129.912        49.5036       61.48601         0.6882         0.6834         0.8893       -59.5184     -0.9127464      0.6060852              1
      4065.5000       128.0446        49.3958       61.31193         0.7152         0.7077         0.9076       -59.7865      -1.151237      0.6023815      0.9966392
      4066.0000       123.9628        49.7606       61.89901         0.7146         0.7331         0.8938       -60.2101      -1.545231      0.6148726      0.9878837
      4066.5000       116.6605        49.9564       62.21392          0.707         0.7502         0.8661       -60.5646      -1.870125      0.6215727      0.9806639
      4067.0000       113.9418        50.0815       62.41494         0.6946         0.7581         0.8711       -60.6847      -1.960617      0.6258498       0.978653
      4067.5000        114.325        50.4316       62.97835         0.6809           0.74         0.8691       -60.7589      -2.005207      0.6378373      0.9776621
      4068.0000        120.097        51.1788       64.18135         0.6694         0.7109         0.7938       -60.6872        -1.9039       0.663433      0.9799134
      4068.5000       128.7794        52.1398       65.72868         0.6603         0.6908         0.7153       -60.5665      -1.753593      0.6963548      0.9832535
      4069.0000       136.4965        53.2614       67.53466         0.6539         0.6706         0.6702       -60.3257      -1.483185        0.73478      0.9892626
      4069.5000       139.2623        54.0187       68.75391         0.6505         0.6478         0.6431       -59.8437     -0.9715767      0.7607216              1
      4070.0000       139.5619        53.1889       67.41699         0.6521         0.6397          0.676       -59.3292     -0.4274712      0.7322764              1
      4070.5000       132.8585        51.9678        65.4498         0.6551         0.6626          0.839       -59.4408     -0.5094604      0.6904212              1
      4071.0000       121.8771        51.1099        64.0676         0.6632         0.6981         1.0094       -60.2847      -1.325657      0.6610128      0.9927632
      4071.5000       112.3703        51.0787       64.01691         0.6705         0.7285         1.1151       -61.1774      -2.228806      0.6599343      0.9726932
      4072.0000       109.1132         51.623       64.89308         0.6746         0.7462         1.0992       -62.1199      -3.181755      0.6785762      0.9515166
      4072.5000       108.8623         51.283       64.34502         0.6753         0.7486         0.9539       -62.9808      -4.053101      0.6669154      0.9321533
      4073.0000       113.0445        50.1405       62.50444         0.6757         0.7353         0.8621       -63.9263      -5.009048      0.6277542        0.91091
      4073.5000       118.5134        47.6935       58.56282         0.6763         0.7188         0.8437       -65.0713      -6.164494      0.5438898      0.8852335
      4074.0000       120.3194        46.8176       57.15163         0.6781         0.7051          0.869       -66.4463      -7.549938      0.5138645      0.8544458
      4074.5000          121.3        48.5743       59.98052         0.6817         0.6955         0.8709       -67.9094      -9.023491      0.5740536      0.8217002
      4075.0000       125.1415        49.5755       61.59261         0.6903         0.6946         0.8724       -68.9818      -10.10633      0.6083535      0.7976371
      4075.5000       129.6015        47.8973       58.88923         0.7104         0.7122         0.9064       -69.5321      -10.66708      0.5508347       0.785176
      4076.0000       130.2636        45.5954       55.18131         0.7467         0.7397         1.0233       -69.5226      -10.66803      0.4719428      0.7851549
      4076.5000       111.0559        41.8483       49.14572          0.774          0.791         1.1816       -69.0385      -10.19437       0.343526      0.7956806
      4077.0000       107.1694        41.2256       48.14234         0.7911         0.8872         1.2157       -68.4255      -9.591824      0.3221774      0.8090706
      4077.5000        106.018        41.5859       48.72218          0.806         0.9247         1.1767       -68.9225      -10.09927      0.3345145      0.7977939
      4078.0000       104.9667        42.5547       50.28207         0.8223         0.9553         1.1701       -70.3514      -11.53862      0.3677037      0.7658085
      4078.5000       103.2915        43.6643       52.06875          0.829         0.9944         1.2149       -73.8397      -15.03736      0.4057181      0.6880586
      4079.0000       101.7879        44.6296       53.62301         0.8248         0.9815         1.2225       -79.3135      -20.52161      0.4387874      0.5661864
      4079.5000       101.1688        44.2533       53.01648         0.8165         0.9409         1.1789        -82.405      -23.62356      0.4258825      0.4972543
      4080.0000       111.7543        41.3891       48.40292          0.805         0.9033         1.1454       -85.7327       -26.9617      0.3277216      0.4230732
      4080.5000       117.0461        41.6356       48.79948         0.7899         0.8785         1.1435       -88.0011      -29.24055      0.3361591      0.3724321
      4081.0000       120.2741        41.5044       48.58769         0.7487          0.882            1.2       -90.4012       -31.6511      0.3316529      0.3188644
      4081.5000       113.1318        40.5062       46.97952         0.7127         0.8973         1.3789       -91.9637      -33.22405      0.2974367        0.28391
      4082.0000       101.5732        36.9557       41.26059         0.6739         0.9101         1.6886       -93.5515      -34.82229      0.1757572      0.2483935
      4082.5000         91.317        36.2711       40.15751         0.6322         0.9243          1.736       -95.3406      -36.62184      0.1522874      0.2084035
      4083.0000        87.7592        36.4273       40.40863         0.5711         0.8599         1.3522       -96.9498      -38.24149      0.1576304      0.1724114
      4083.5000        99.4681        36.6422       40.75429         0.5196         0.7482         1.0414       -97.8081      -39.11023      0.1649849      0.1531059
      4084.0000       110.8278        36.6309       40.73563         0.4638         0.6215         0.7684       -98.3518      -39.66438       0.164588      0.1407915
      4084.5000       118.0356        36.4941       40.51483         0.4223         0.4984          0.691       -98.6826      -40.00563        0.15989      0.1332081
      4085.0000       121.1011        36.1829       40.01316         0.3873         0.4444         0.6644       -98.8502      -40.18367      0.1492161      0.1292517
      4085.5000       123.4039        35.3452       38.66349         0.3671          0.408         0.6716       -98.9346      -40.27853      0.1204998      0.1271439
      4086.0000       127.1302        34.5585       37.39595         0.3515         0.3833           0.68       -99.0093      -40.36367     0.09353094      0.1252517
      4086.5000       132.8441        33.7635       36.11507         0.3403         0.3631         0.6789       -99.0748      -40.43962     0.06627817      0.1235641
      4087.0000       140.9516        33.0697       34.99717          0.331         0.3518         0.6607        -99.087      -40.46227     0.04249289      0.1230608
      4087.5000       144.8659        33.3181       35.39678         0.3339         0.3482         0.6415       -98.7051      -40.09081     0.05099528      0.1313153
      4088.0000       144.1552         33.978       36.45916         0.3436         0.3533         0.6224       -98.1781      -39.57426     0.07359923      0.1427942
      4088.5000          140.6        34.7479       37.69871         0.3596         0.3715         0.6289       -97.3975      -38.80411      0.0999725      0.1599087
