#------------------------------------------------------------------------------
# Created by    : vladimir.rabinovich
# Created on    : 09/19/2023 17:22:39
#------------------------------------------------------------------------------
~Version Information Section
VERS.           2.0     :   CWLS log ASCII Standard - VERSION 2.0
WRAP.           NO      :   One line per depth step
~Well Information Section
#MNEM       .UNIT                                         VALUE :DESCRIPTION
#------------------------------------------------------------------------------
STRT        .FT                                            3493 :START DEPTH
STOP        .FT                                            8566 :STOP DEPTH
STEP        .FT                                             0.5 :STEP      
NULL        .                                           -999.25 :NULL      
COMP        .                          SEAGULL ENERGY E & P INC :COMPANY   
WELL        .                               OCS G09038 ST00BP00 :WELL      
FLD         .                                           WILDCAT :FIELD     
LOC         .                                                   :LOCATION  
CNTY        .                             GALVESTON LARGE BLOCK :LOCATION  
STAT        .                                             TEXAS :STATE     
CTRY        .                                     UNITED STATES :COUNTRY   
SRVC        .                                                   :SERVICE COMPANY
DATE        .                             9/13/2023 11:19:36 AM :LOG DATE  
API         .                                    42706402070000 :API NUMBER
UWI         .                                    42706402070000 :UNIQUE WELL ID
XCOORD      .                                  986976.405819811 :SURFACE X 
YCOORD      .                                  10491452.3738699 :SURFACE Y 
LAT         .                                         28.894171 :LATITUDE  
LON         .                                        -95.042508 :LONGITUDE 
ELEV        .FT                                              93 :ELEVATION VALUE
ELEV_TYPE   .                                                KB :ELEVATION REFERENCE TYPE
~Curve Information Section
#MNEM       .UNIT                                      API CODE :CURVE DESCRIPTION
#------------------------------------------------------------------------------
DEPT        .FT                                                 :DEPTH     
DCAL        .IN                                                 :          
DPHI        .%                                                  :          
DRHO        .G/C3                                               :          
GR          .GAPI                                               :          
GR_NORM     .GAPI                                               :GammaRay Normalized
ILD         .OHMM                                               :          
ILM         .OHMM                                               :          
NPHI        .%                                                  :          
SGRD        .OHMM                                               :          
SP          .MV                                                 :          
SP_NORM     .MV                                                 :SP Normalized
VSH_GR      .V/V                                                :Volume of Shale from GR
VSH_SP      .V/V                                                :Volume of Shale from SP
~A        DEPTH           DCAL           DPHI           DRHO             GR        GR_NORM            ILD            ILM           NPHI           SGRD             SP        SP_NORM         VSH_GR         VSH_SP
# ...
      6533.0000         0.7646        17.6943         0.0331        76.5507        74.9486         1.0227          1.112        36.3047         1.3152       -47.9322       1.752316      0.8925234              1
      6533.5000         0.7461        18.4161         0.0316        73.6746       71.74787         1.0211         1.1337        35.9594         1.2755       -47.7057       1.980179      0.8244228              1
      6534.0000         0.7309        18.7859         0.0337        72.2689       70.18092         1.0182         1.1516        33.3278         1.5202       -47.3683       2.318935      0.7910833              1
      6534.5000         0.7177        15.8335         0.0537        74.7699       72.95473         1.0139         1.1607        32.2842         1.7189       -46.8355       2.853096      0.8501008              1
      6535.0000         0.7071        14.8136         0.0603        77.0747       75.51057         1.0098         1.1472        32.5355         1.7613       -46.5688       3.121151      0.9044802              1
      6535.5000         0.6975        15.2818         0.0583        80.2065       78.98528         0.9967         1.1036         33.858         1.6119       -46.5791       3.112213      0.9784101              1
      6536.0000         0.7076        16.1424         0.0559         85.062       84.37521         0.9665         1.0536        35.3951         1.2952       -46.8734       2.819271              1              1
      6536.5000         0.7149        17.0721         0.0539        86.8416       86.34748          0.935         1.0125        37.8633         1.2046       -47.2633       2.430729              1              1
      6537.0000         0.7205        17.6668         0.0513        85.6519       85.02052         0.9108         0.9845        39.5288         1.1816       -47.6561       2.039291              1              1
      6537.5000         0.7326        18.2037         0.0488        84.6635       83.91724         0.9014         0.9672        40.2906         1.1855       -48.1171       1.579651              1              1
      6538.0000         0.7401        18.7591         0.0447        82.8491       81.89616         0.8985         0.9606        40.7915         1.1976       -48.6498       1.048309              1              1
      6538.5000         0.7223        19.2923         0.0399        80.5518       79.33855         0.8993         0.9593        41.1888         1.2168       -49.1465      0.5529709      0.9859267              1
      6539.0000         0.7015        19.5325         0.0367        80.5859       79.37137         0.9032         0.9602        41.3867         1.2385       -49.7693       -0.06847      0.9866248      0.9990218
      6539.5000         0.6857        19.1267         0.0365        81.3099       80.17075         0.9071         0.9611        41.1839         1.2651        -50.507     -0.8048134              1      0.9885027
      6540.0000         0.6793        18.1213         0.0407        82.0575       80.99635         0.9109         0.9639        40.9803         1.2964       -51.0508      -1.347252              1      0.9807535
      6540.5000         0.6786        18.1072         0.0402         82.874       81.89851         0.9161          0.968        41.1208         1.3008       -51.0771      -1.372192              1      0.9803972
      6541.0000          0.692        18.6425         0.0361         83.793       82.91456         0.9219         0.9734        41.4683         1.2754       -50.6088     -0.9025345              1      0.9871066
      6541.5000         0.7286        19.4178          0.032        84.9155       84.15671         0.9309         0.9834        42.0052          1.242       -50.2058     -0.4981766              1      0.9928832
      6542.0000         0.7836        20.1366          0.029        83.1943        82.2392         0.9417         0.9951        42.9453         1.2053       -49.9343     -0.2253151              1      0.9967812
      6542.5000         0.8561        20.5969         0.0247        82.3325       81.27657          0.954         1.0131        43.9336         1.1901       -49.7899    -0.07955933              1      0.9988635
      6543.0000         0.9369        20.8804         0.0191        81.1653       79.97462         0.9677         1.0336        43.0255          1.209       -49.8849     -0.1731987      0.9994601      0.9975258
      6543.5000         1.0236        20.4521          0.028        79.0442       77.61278         0.9831         1.0563        41.6295          1.257       -49.8437     -0.1306381       0.949208      0.9981337
      6544.0000         1.1103        19.3546         0.0331        80.2339        78.9296          1.001         1.0806        40.1473         1.3146       -49.7103    0.004119873      0.9772256              1
      6544.5000         1.1442        18.0923         0.0375        77.8372       76.26154         1.0232         1.1072        38.1959         1.3712       -49.7038     0.01197815      0.9204582              1
      6545.0000         1.0566        16.5018         0.0391        76.0812       74.30536         1.0484         1.1373        36.6143         1.4604       -49.8892     -0.1720581      0.8788374       0.997542
      6545.5000         0.9692        15.3449         0.0403        74.5128       72.55763         1.0723         1.1742        35.6193          1.529       -50.2437     -0.5251999      0.8416517      0.9924971
      6546.0000         0.8919        14.5823         0.0396        71.7845       69.52112          1.095         1.2019        34.9199         1.5236       -51.1738      -1.453945      0.7770451      0.9792293
      6546.5000         0.8226        14.2371         0.0379        73.0363       70.90695         1.1107         1.1941        35.7047         1.4671         -52.08      -2.358784      0.8065309      0.9663031
      6547.0000         0.7641         14.586         0.0369        75.6814       73.84087         1.1019         1.1764        36.3975         1.4319       -52.2331      -2.510525      0.8689548      0.9641353
      6547.5000          0.716        15.4556         0.0366        77.9341       76.33881         1.0805         1.1602        37.0784         1.4107       -52.2795      -2.555565      0.9221024      0.9634919
      6548.0000         0.6897        16.1439          0.037        79.9283       78.54952         1.0625         1.1476        37.8135         1.3719       -52.4852      -2.759903      0.9691388      0.9605728
      6548.5000         0.7284        16.9711         0.0375        81.0559       79.79735         1.0554         1.1346        38.6348         1.3173       -53.0887      -3.362045      0.9956883      0.9519708
      6549.0000         0.7777        18.1651         0.0401        79.1436       77.66751         1.0566         1.1245        39.4078         1.3283       -53.7167      -3.988689      0.9503726      0.9430187
      6549.5000         0.8325        19.1542         0.0439        77.8247       76.19699         1.0609         1.1305        40.2951         1.3805       -54.0374      -4.308029      0.9190849      0.9384567
      6550.0000         0.8647        20.2784         0.0475        76.3755       74.58171         1.0866         1.1515        41.1252           1.41        -54.192      -4.461269      0.8847172      0.9362676
      6550.5000         0.8941        21.0996         0.0486        76.1133        74.2853           1.11          1.181        41.1045         1.3766       -54.1603      -4.428211      0.8784106      0.9367399
      6551.0000         0.9077        21.3127         0.0466        76.2896       74.47614         1.1242         1.2137        39.7271         1.3597       -54.1763      -4.442852       0.882471      0.9365307
      6551.5000         0.9092        20.2368         0.0408        77.6161       75.94495         1.1326         1.2442        38.4796         1.4475       -54.1233      -4.388489      0.9137224      0.9373073
