#------------------------------------------------------------------------------
# Created by    : vladimir.rabinovich
# Created on    : 09/19/2023 17:19:50
#------------------------------------------------------------------------------
~Version Information Section
VERS.           2.0     :   CWLS log ASCII Standard - VERSION 2.0
WRAP.           NO      :   One line per depth step
~Well Information Section
#MNEM       .UNIT                                         VALUE :DESCRIPTION
#------------------------------------------------------------------------------
STRT        .FT                                             880 :START DEPTH
STOP        .FT                                            8374 :STOP DEPTH
STEP        .FT                                             0.5 :STEP      
NULL        .                                           -999.25 :NULL      
COMP        .                                        EXXON CORP :COMPANY   
WELL        .                               OCS G04552 ST00BP00 :WELL      
FLD         .                                 BRAZOS BLOCK 0451 :FIELD     
LOC         .                                                   :LOCATION  
CNTY        .                                BRAZOS LARGE BLOCK :LOCATION  
STAT        .                                             TEXAS :STATE     
CTRY        .                                     UNITED STATES :COUNTRY   
SRVC        .                                                   :SERVICE COMPANY
DATE        .                             9/13/2023 11:19:08 AM :LOG DATE  
API         .                                    42704401130000 :API NUMBER
UWI         .                                    42704401130000 :UNIQUE WELL ID
XCOORD      .                                  760277.642000753 :SURFACE X 
YCOORD      .                                  10343629.6463693 :SURFACE Y 
LAT         .                                         28.475327 :LATITUDE  
LON         .                                        -95.739931 :LONGITUDE 
ELEV        .FT                                              95 :ELEVATION VALUE
ELEV_TYPE   .                                                KB :ELEVATION REFERENCE TYPE
~Curve Information Section
#MNEM       .UNIT                                      API CODE :CURVE DESCRIPTION
#------------------------------------------------------------------------------
DEPT        .FT                                                 :DEPTH     
ASFL        .OHMM                                               :          
CALI        .IN                                                 :          
CILD        .MMHO                                               :          
DT          .US/F                                               :          
GR          .GAPI                                               :          
GR_NORM     .GAPI                                               :GammaRay Normalized
ILD         .OHMM                                               :          
ILM         .OHMM                                               :          
RHOB        .G/C3                                               :          
SP          .MV                                                 :          
SP_NORM     .MV                                                 :SP Normalized
VSH_GR      .V/V                                                :Volume of Shale from GR
VSH_SP      .V/V                                                :Volume of Shale from SP
~A        DEPTH           ASFL           CALI           CILD             DT             GR        GR_NORM            ILD            ILM           RHOB             SP        SP_NORM         VSH_GR         VSH_SP
# ...
      2001.0000          0.911        -999.25       1631.074       162.9109        63.2742       78.09074         0.5844         0.5908        -999.25       -40.2083         1.0777      0.9593773              1
      2001.5000         0.9213        -999.25       1598.541        162.071        62.8881       77.62379         0.5877         0.6014        -999.25       -40.0289         1.2591      0.9494423              1
      2002.0000         0.9261        -999.25       1578.037       160.6143        62.5719        77.2418         0.5906         0.6088        -999.25       -39.8601         1.4298      0.9413149              1
      2002.5000         0.9247        -999.25       1570.896       158.4871        62.2456       76.84745         0.5934         0.6114        -999.25       -39.6919            1.6      0.9329244              1
      2003.0000         0.9233        -999.25       1576.074       157.0925        61.8799       76.40528         0.5963         0.6113        -999.25       -39.5237         1.7702      0.9235166              1
      2003.5000         0.9219        -999.25       1582.834        155.969        61.4209        75.8498         0.5993         0.6084        -999.25       -39.3865         1.9094      0.9116979              1
      2004.0000         0.9163        -999.25       1589.729       155.3333        60.7891       75.08455         0.6022         0.6026        -999.25       -39.3029         1.9949       0.895416              1
      2004.5000           0.91        -999.25       1597.404       156.4526        60.7891       75.08635         0.6052         0.5946        -999.25       -39.2193         2.0805      0.8954542              1
      2005.0000         0.9045        -999.25       1605.674        158.322        61.6825       76.17289         0.6082           0.59        -999.25       -39.1729         2.1289      0.9185721              1
      2005.5000         0.9023        -999.25       1609.299       159.9062        62.8378       77.57751         0.6111         0.5905        -999.25       -39.1271         2.1767      0.9484578              1
      2006.0000         0.9083        -999.25       1606.115       160.3247        64.8033       79.96571         0.6143         0.5947        -999.25       -39.1127         2.1931      0.9992705              1
      2006.5000         0.9143        -999.25        1602.93       159.9758        66.9478       82.57127         0.6185         0.6041        -999.25       -39.1453         2.1624              1              1
      2007.0000         0.9203        -999.25       1593.826       159.1101        65.3239       80.60144         0.6228         0.6151        -999.25       -39.1779         2.1318              1              1
      2007.5000          0.931        -999.25       1576.723       157.8547        64.7052       79.85207         0.6271         0.6295        -999.25       -39.2313         2.0804      0.9968525              1
      2008.0000         0.9419        -999.25       1558.416       156.8831        64.1897       79.22802         0.6313         0.6445        -999.25       -39.2891         2.0246      0.9835749              1
      2008.5000          0.951        -999.25       1540.104       155.9885        63.7971       78.75329         0.6369         0.6579        -999.25        -39.347         1.9686      0.9734742              1
      2009.0000         0.9507        -999.25       1528.652       154.9839        62.9433       77.71848         0.6435         0.6479        -999.25        -39.409         1.9086      0.9514569              1
      2009.5000         0.9466        -999.25       1516.877       154.2671        62.9161       77.68729         0.6501          0.637        -999.25       -39.4831         1.8365      0.9507933              1
      2010.0000         0.9425        -999.25       1504.871       154.4766        68.7231       84.73958         0.6574         0.6265        -999.25       -39.5572         1.7644              1              1
      2010.5000         0.9278        -999.25       1489.816       154.8679        70.0588       86.36312          0.665         0.6291        -999.25       -39.6453         1.6782              1              1
      2011.0000         0.9099        -999.25       1473.939       154.8557        70.8086        87.2753         0.6727         0.6442        -999.25       -39.7487         1.5768              1              1
      2011.5000         0.9106        -999.25         1454.5       154.1626        71.5582       88.18734         0.6812         0.6655        -999.25       -39.8494         1.4781              1              1
      2012.0000         0.9412        -999.25       1434.432       152.5403        71.7368       88.40604         0.6897         0.6781        -999.25       -39.9291         1.4004              1              1
      2012.5000         0.9663        -999.25       1413.154       149.6931        71.4799       88.09592         0.6981         0.6892        -999.25       -40.0088         1.3226              1              1
      2013.0000         0.9846        -999.25       1391.195       147.9797        69.9092       86.19072         0.7061         0.6991        -999.25       -40.0901         1.2433              1              1
      2013.5000         0.9955        -999.25       1366.576       147.6833        68.5532       84.54618         0.7131         0.7089        -999.25        -40.173         1.1624              1              1
      2014.0000         0.9869        -999.25       1343.408       149.0947         67.764       83.58979         0.7177         0.7174        -999.25       -40.2559         1.0815              1              1
      2014.5000         0.9786        -999.25       1320.482       150.6333        66.7961       82.41645         0.7222         0.7239        -999.25       -40.3563         0.9831              1              1
      2015.0000         0.9721        -999.25       1357.365       151.6108        65.0758       80.32973         0.7192         0.7231        -999.25       -40.4709         0.8704              1              1
      2015.5000         0.9656        -999.25       1380.475       152.1167        64.7335       79.91594         0.7126         0.7135        -999.25       -40.5586         0.7847      0.9982115              1
      2016.0000         0.9613        -999.25       1399.877       152.4067        65.3093       80.61686         0.7061         0.6981        -999.25       -40.6383          0.707              1              1
      2016.5000         0.9574        -999.25       1413.877        152.575         65.885       81.31767         0.6995         0.6839        -999.25       -40.7026         0.6447              1              1
      2017.0000         0.9535        -999.25       1427.879       152.6919        66.5242       82.09555          0.692         0.6711        -999.25       -40.7039         0.6453              1              1
      2017.5000         0.9483        -999.25       1442.596       153.0452        67.2706       83.00362         0.6844         0.6585        -999.25       -40.7051         0.6461              1              1
      2018.0000         0.9414        -999.25       1459.223       153.7439        68.4155        84.3955         0.6768         0.6458        -999.25       -40.7056         0.6476              1              1
      2018.5000         0.9346        -999.25       1475.848       155.1152        70.0582       86.39191         0.6692         0.6339        -999.25       -40.6777         0.6775              1              1
      2019.0000         0.9277        -999.25       1493.141       156.7446        74.4504       91.72644         0.6616         0.6232        -999.25       -40.6499         0.7072              1              1
      2019.5000         0.9212        -999.25       1510.477       158.3645        75.0514       92.45797          0.654         0.6145        -999.25        -40.622         0.7371              1              1
