#------------------------------------------------------------------------------
# Created by    : vladimir.rabinovich
# Created on    : 09/19/2023 17:20:10
#------------------------------------------------------------------------------
~Version Information Section
VERS.           2.0     :   CWLS log ASCII Standard - VERSION 2.0
WRAP.           NO      :   One line per depth step
~Well Information Section
#MNEM       .UNIT                                         VALUE :DESCRIPTION
#------------------------------------------------------------------------------
STRT        .FT                                            1664 :START DEPTH
STOP        .FT                                            5300 :STOP DEPTH
STEP        .FT                                             0.5 :STEP      
NULL        .                                           -999.25 :NULL      
COMP        .                       CORPUS CHRISTI OIL & GAS CO :COMPANY   
WELL        .                                ST TR 00597-L NE/4 :WELL      
FLD         .                                           WILDCAT :FIELD     
LOC         .                                                   :LOCATION  
CNTY        .                      MATAGORDA ISLAND LARGE BLOCK :LOCATION  
STAT        .                                             TEXAS :STATE     
CTRY        .                                     UNITED STATES :COUNTRY   
SRVC        .                                                   :SERVICE COMPANY
DATE        .                             9/13/2023 11:12:01 AM :LOG DATE  
API         .                                    42703301570000 :API NUMBER
UWI         .                                    42703301570000 :UNIQUE WELL ID
XCOORD      .                                   499677.54355151 :SURFACE X 
YCOORD      .                                  10240770.6634848 :SURFACE Y 
LAT         .                                        28.1741034 :LATITUDE  
LON         .                                       -96.5406837 :LONGITUDE 
ELEV        .FT                                              79 :ELEVATION VALUE
ELEV_TYPE   .                                                KB :ELEVATION REFERENCE TYPE
~Curve Information Section
#MNEM       .UNIT                                      API CODE :CURVE DESCRIPTION
#------------------------------------------------------------------------------
DEPT        .FT                                                 :DEPTH     
ASFL        .OHMM                                               :          
CILD        .MMHO                                               :          
ILD         .OHMM                                               :          
SP          .MV                                                 :          
SP_NORM     .MV                                                 :SP Normalized
VSH_SP      .V/V                                                :Volume of Shale from SP
~A        DEPTH           ASFL           CILD            ILD             SP        SP_NORM         VSH_SP
# ...
      4058.0000         1.0686       923.5966         1.0827       -41.4299       3.321522              1
      4058.5000         1.0331       939.5991         1.0643       -40.6013       4.078522              1
      4059.0000         0.9975       963.5919         1.0378       -39.7727       4.835522              1
      4059.5000         0.9508        963.614         1.0378       -38.9441       5.599621              1
      4060.0000         1.0305        987.607         1.0125       -38.1155       6.366909              1
      4060.5000         1.1471       963.6581         1.0377       -37.2869       7.134205              1
      4061.0000         1.1511       931.7187         1.0733       -35.5976       8.762199              1
      4061.5000         1.3542       787.9137         1.2692       -33.7991       10.49939              1
      4062.0000         1.5574       700.0409         1.4285       -33.2003       11.03688              1
      4062.5000         2.0802       628.1484          1.592       -37.1972       6.978672              1
      4063.0000         2.1283       572.2365         1.7475       -41.1941       2.920467              1
      4063.5000         2.1243       500.3434         1.9986        -45.191      -1.137741              1
      4064.0000         1.6974       500.3643         1.9985       -49.0983       -5.10635       0.918254
      4064.5000         1.5441       516.3662         1.9366       -49.0993      -5.168655      0.9166144
      4065.0000         1.3908       628.2545         1.5917       -49.4002      -5.530861      0.9070826
      4065.5000         1.2374       708.1812         1.4121       -49.4011      -5.593071      0.9054455
      4066.0000         1.0841       796.0988         1.2561       -43.5977       0.149025              1
      4066.5000         0.9226        899.998         1.1111       -37.7943       5.891113              1
      4067.0000         0.9105       979.9258         1.0205       -31.9909       11.63321              1
      4067.5000         0.8985       1043.873          0.958       -26.1875        17.3753              1
      4068.0000         0.9508       1083.848         0.9226       -23.0142       20.48729              1
      4068.5000         1.0066       1091.861         0.9159       -23.6149       19.82528              1
      4069.0000         1.0106       1075.902         0.9295       -24.2156       19.16328              1
      4069.5000         1.0186       1059.943         0.9434       -24.8163       18.50127              1
      4070.0000         1.0306       1035.993         0.9653       -25.4169       17.83936              1
      4070.5000         1.0386       988.0714         1.0121       -25.7177       17.47725              1
      4071.0000         1.0586       956.1304         1.0459       -23.9191       19.21455              1
      4071.5000         1.0866       924.1894          1.082       -21.8205       21.25184              1
      4072.0000         1.1227       892.2481         1.1208       -20.0218       22.98923              1
      4072.5000         1.1995       852.3159         1.1733       -18.2232       24.72653              1
      4073.0000         1.1917       812.3835         1.2309       -16.7244       26.16402              1
      4073.5000         1.2197       780.4418         1.2813       -11.9272       30.89991              1
      4074.0000         1.2984        740.509         1.3504       -15.9666        26.7992              1
      4074.5000         1.3771       684.5942         1.4607       -20.0059        22.6986              1
      4075.0000         1.4558       636.6701         1.5707       -24.0452       18.59799              1
      4075.5000         1.5345       588.7457         1.6985       -28.0846       14.49728              1
      4076.0000         1.7378       540.8211          1.849       -33.5263       8.994274              1
      4076.5000         1.8147       500.8872         1.9965       -33.8262       8.633068              1
      4077.0000         1.8915       476.9351         2.0967       -33.2272       9.170761              1
      4077.5000         1.9436       452.9829         2.2076       -32.0284       10.30825              1
      4078.0000         1.8032       397.0871         2.5183       -30.8295       11.44584              1
      4078.5000         1.6627       405.0782         2.4687       -30.2306       11.98344              1
      4079.0000         1.5223       493.0007         2.0284       -37.2151        4.93763              1
      4079.5000         1.3819       668.8257         1.4952       -44.1996      -2.108177      0.9971532
      4080.0000         1.2415       764.7403         1.3076       -51.1841      -9.153988      0.8117372
      4080.5000          1.101       900.6111         1.1104       -58.1687      -16.19989      0.6263186
      4081.0000         0.9606       1233.076          0.811       -65.1532       -23.2457      0.4409027
      4081.5000         0.7658       1565.541         0.6388       -72.1377      -30.29151      0.2554865
      4082.0000         0.7217       1898.005         0.5269       -77.6286      -35.84372      0.1093759
      4082.5000         0.6817        2230.47         0.4483       -78.2297      -36.50612     0.09194424
      4083.0000         0.6696       2634.865         0.3795       -79.1306      -37.46833     0.06662288
      4083.5000         0.6696       2930.567         0.3412       -80.9315      -39.33054     0.01761738
      4084.0000         0.6736       3034.481         0.3295       -82.4324      -40.89275              0
      4084.5000         0.6896       3098.438         0.3227       -85.7331      -44.25475              0
      4085.0000         0.7056       3130.431         0.3194       -85.7342      -44.31716              0
      4085.5000         0.7497       3138.449         0.3186       -83.6357      -42.27996              0
      4086.0000         0.7897       3050.572         0.3278        -82.137      -40.84258              0
      4086.5000         0.8017       2730.918         0.3662       -79.4385      -38.20538     0.04722686
      4087.0000         0.9132       2347.384          0.426       -80.9395      -39.76769    0.006113454
      4087.5000         1.0246       2339.393         0.4275       -82.1405         -41.03              0
      4088.0000         1.1361         2102.8         0.4756       -83.0415       -41.9923              0
      4088.5000         1.2476       1866.207         0.5358       -74.2067      -33.21881      0.1784522
      4089.0000          1.359       1629.614         0.6136       -65.3719      -24.44532      0.4093337
      4089.5000         1.4705       1393.022         0.7179       -56.5371      -15.67183       0.640215
      4090.0000         1.5707       1156.429         0.8647       -47.7023      -6.898335      0.8710964
      4090.5000         1.5707        919.836         1.0872       -39.5519       1.190762              1
      4091.0000         1.4728       637.3712         1.5689       -38.6529        2.02845              1
      4091.5000         1.3749        645.384         1.5495       -38.0539       2.566143              1
      4092.0000          1.277       669.3801         1.4939       -37.1549       3.403835              1
      4092.5000         1.1791       653.4182         0.9605       -36.2558       4.241631              1
      4093.0000         1.0812       821.2639         1.0204       -34.7568       5.679321              1
      4093.5000         0.9657       893.2105         0.9604       -34.1578       6.217014              1
      4094.0000         0.9697       965.1575         0.8804       -34.4587       5.854809              1
      4094.5000         0.9972       1069.072         0.8203       -34.7596       5.492599              1
      4095.0000         1.0247       1133.027         0.8002       -35.6604       4.530491              1
      4095.5000         1.0577           1181         0.7802       -35.6613       4.468285              1
