#------------------------------------------------------------------------------
# Created by    : vladimir.rabinovich
# Created on    : 09/19/2023 17:19:44
#------------------------------------------------------------------------------
~Version Information Section
VERS.           2.0     :   CWLS log ASCII Standard - VERSION 2.0
WRAP.           NO      :   One line per depth step
~Well Information Section
#MNEM       .UNIT                                         VALUE :DESCRIPTION
#------------------------------------------------------------------------------
STRT        .FT                                            3520 :START DEPTH
STOP        .FT                                           13769 :STOP DEPTH
STEP        .FT                                             0.5 :STEP      
NULL        .                                           -999.25 :NULL      
COMP        .                           WILLIAMS EXPLORATION CO :COMPANY   
WELL        .                                          SL 73414 :WELL      
FLD         .                                           WILDCAT :FIELD     
LOC         .                                                   :LOCATION  
CNTY        .                           HIGH ISLAND LARGE BLOCK :LOCATION  
STAT        .                                             TEXAS :STATE     
CTRY        .                                     UNITED STATES :COUNTRY   
SRVC        .                                                   :SERVICE COMPANY
DATE        .                             9/13/2023 11:19:15 AM :LOG DATE  
API         .                                    42708301040000 :API NUMBER
UWI         .                                    42708301040000 :UNIQUE WELL ID
XCOORD      .                                  1272749.25589155 :SURFACE X 
YCOORD      .                                  10699068.0748216 :SURFACE Y 
LAT         .                                        29.4758188 :LATITUDE  
LON         .                                       -94.1558378 :LONGITUDE 
ELEV        .FT                                             106 :ELEVATION VALUE
ELEV_TYPE   .                                                KB :ELEVATION REFERENCE TYPE
~Curve Information Section
#MNEM       .UNIT                                      API CODE :CURVE DESCRIPTION
#------------------------------------------------------------------------------
DEPT        .FT                                                 :DEPTH     
ASFL        .OHMM                                               :          
CILD        .MMHO                                               :          
ILD         .OHMM                                               :          
SP          .MV                                                 :          
SP_NORM     .MV                                                 :SP Normalized
VSH_SP      .V/V                                                :Volume of Shale from SP
~A        DEPTH           ASFL           CILD            ILD             SP        SP_NORM         VSH_SP
# ...
     12374.0000         0.6008        1934.65         0.5185       -62.2994      -1.723522      0.9895142
     12374.5000         0.5712        1977.23         0.4812       -61.6053      -1.035099      0.9994913
     12375.0000         0.5535        2013.43         0.4514       -60.9132      -0.348671              1
     12375.5000         0.5358        2049.73         0.4216       -60.2192       0.339653              1
     12376.0000         0.5171       2070.969         0.3919        -59.334       1.219177              1
     12376.5000         0.4984       2077.453         0.3645       -58.4452       2.102303              1
     12377.0000         0.5089       2036.467         0.3421       -58.2875        2.25433              1
     12377.5000         0.5228        1995.48         0.3197       -59.0613       1.474854              1
     12378.0000         0.5367       2014.229         0.2974       -59.8351      0.6953812              1
     12378.5000         0.5544        2053.52          0.275       -60.6089      -0.084095              1
     12379.0000         0.5578       2094.703         0.2629       -61.3827      -0.863575              1
     12379.5000         0.5461       2135.887         0.2632       -61.4384     -0.9249458              1
     12380.0000         0.5344        2182.66         0.2635        -61.305     -0.7972221              1
     12380.5000         0.5227       1997.574         0.2638       -61.1716     -0.6694984              1
     12381.0000          0.511       1751.061         0.2644       -61.0382     -0.5417709              1
     12381.5000         0.4958        1618.43         0.3023       -60.8088     -0.3180466              1
     12382.0000         0.5021       1524.492         0.3402       -60.5175    -0.03242493              1
     12382.5000         0.5791       1465.357         0.3781       -60.2261      0.2533035              1
     12383.0000         0.6372       1426.166          0.416       -59.9343      0.5394287              1
     12383.5000         0.6832       1387.074         0.4539       -59.6922      0.7758522              1
     12384.0000         0.7296        1356.41         0.4918       -60.7202     -0.2578201              1
     12384.5000         0.7947       1453.689         0.5293       -61.7501      -1.293396      0.9957479
     12385.0000          0.831       1561.189         0.5656       -62.2961      -1.845074      0.9877526
     12385.5000         0.7699       1645.555         0.6018       -62.1092      -1.663845       0.990379
     12386.0000         0.7111        1729.92          0.638       -61.9218      -1.482121      0.9930127
     12386.5000         0.6523       1814.883         0.6742       -61.7343      -1.300293      0.9956479
     12387.0000         0.6169       1901.242         0.6803       -61.5469      -1.118572      0.9982815
     12387.5000         0.5863       1941.133         0.6634       -61.9756      -1.552948      0.9919863
     12388.0000         0.5557       1907.525         0.6465       -62.5388      -2.121819      0.9837418
     12388.5000         0.5294        1866.34         0.6297        -63.101      -2.689697      0.9755116
     12389.0000         0.5326       1828.047         0.6128        -62.587      -2.181374      0.9828786
     12389.5000           0.55       1942.129          0.596       -62.0739      -1.673943      0.9902327
     12390.0000         0.5674       2032.178         0.5791       -61.5609      -1.166622      0.9975852
     12390.5000         0.5848       2081.141          0.558       -61.0477     -0.6590958              1
     12391.0000         0.5714       2130.203         0.5351       -60.5347     -0.1517677              1
     12391.5000         0.5545        2179.27         0.5121       -60.0215      0.3557549              1
     12392.0000         0.5376       2231.922          0.489       -59.5085      0.8630791              1
     12392.5000         0.5207       2285.973          0.466       -59.0046       1.361305              1
     12393.0000         0.5037       2332.941          0.443       -58.5231       1.837128              1
     12393.5000         0.4911       2219.953          0.438       -58.0416       2.312954              1
     12394.0000         0.4785       2103.281         0.4454       -57.5601        2.78878              1
     12394.5000         0.4659       1986.406         0.4528       -57.8458       2.497406              1
     12395.0000         0.4534       1864.146         0.4602       -58.6326       1.704929              1
     12395.5000         0.4405       1731.516         0.4676       -60.3954    -0.06354523              1
     12396.0000         0.4496       1595.693         0.4751       -62.1583      -1.832119      0.9879403
     12396.5000         0.4854       1501.557         0.4825       -63.9212      -3.600697      0.9623088
     12397.0000         0.5213       1408.615         0.4899       -64.9196      -4.604771      0.9477569
     12397.5000          0.557        1352.57         0.4973       -65.7397      -5.430546      0.9357892
     12398.0000         0.5916       1281.967         0.5048       -66.5599       -6.25642        0.92382
     12398.5000         0.6262       1224.129         0.5122         -67.24      -6.942192      0.9138813
     12399.0000         0.6608       1261.225         0.5202       -67.8153       -7.52317      0.9054613
     12399.5000         0.6955       1298.223         0.5286       -68.3896      -8.103149      0.8970558
     12400.0000         0.7369       1335.318         0.5371       -68.9648      -8.684017      0.8886374
     12400.5000         0.7804       1372.416         0.5455       -69.7257      -9.450596      0.8775276
     12401.0000         0.7502       1428.758          0.554       -71.2844      -11.01497      0.8548555
     12401.5000         0.7176       1491.584         0.5625       -72.8469      -12.58315      0.8321283
     12402.0000          0.685       1457.379          0.571       -74.0957      -13.83762      0.8139475
     12402.5000         0.6738       1417.738         0.5794       -75.2482      -14.99579      0.7971624
     12403.0000         0.6761       1390.715         0.5879       -76.1407      -15.89397      0.7841454
     12403.5000         0.6912       1392.459         0.5924       -75.3446      -15.10354      0.7956008
     12404.0000         0.7062       1405.672         0.5899       -74.5486      -14.31322      0.8070548
     12404.5000         0.7213       1418.861         0.5874       -74.8881      -14.65839      0.8020523
     12405.0000         0.7364       1433.195         0.5849        -75.636      -15.41197      0.7911308
     12405.5000          0.728       1448.828         0.5823       -74.9586      -14.74025       0.800866
     12406.0000         0.6885       1464.434         0.5798       -72.9657      -12.75302      0.8296664
     12406.5000         0.6445       1456.381         0.5773       -70.9764       -10.7694      0.8584145
     12407.0000         0.6433       1412.902         0.5748       -68.9834      -8.782066      0.8872164
     12407.5000         0.6633       1369.324         0.5723       -67.2484      -7.052742      0.9122791
     12408.0000         0.6865       1329.934         0.5697       -68.0073      -7.817322      0.9011982
     12408.5000         0.7097       1300.965         0.5672       -68.7664      -8.582096      0.8901145
     12409.0000         0.7329       1271.994         0.5647       -68.4453      -8.266666       0.894686
     12409.5000         0.7561       1252.623         0.5622       -67.7383      -7.565342      0.9048501
     12410.0000         0.7836       1371.617         0.5596       -67.0312      -6.863914      0.9150158
     12410.5000           0.77       1433.146         0.5571       -66.3262      -6.164597      0.9251508
     12411.0000         0.7319       1494.775         0.5546       -65.6191      -5.463173      0.9353163
     12411.5000         0.6952       1556.303          0.552       -64.9121      -4.761845      0.9454805
