#------------------------------------------------------------------------------
# Created by    : vladimir.rabinovich
# Created on    : 09/19/2023 17:22:46
#------------------------------------------------------------------------------
~Version Information Section
VERS.           2.0     :   CWLS log ASCII Standard - VERSION 2.0
WRAP.           NO      :   One line per depth step
~Well Information Section
#MNEM       .UNIT                                         VALUE :DESCRIPTION
#------------------------------------------------------------------------------
STRT        .FT                                             862 :START DEPTH
STOP        .FT                                           11792 :STOP DEPTH
STEP        .FT                                             0.5 :STEP      
NULL        .                                           -999.25 :NULL      
COMP        .                     FREEPORT-MCMORAN OIL & GAS CO :COMPANY   
WELL        .                               OCS G08155 ST00BP00 :WELL      
FLD         .                            HIGH ISLAND BLOCK 0262 :FIELD     
LOC         .                                                   :LOCATION  
CNTY        .                           HIGH ISLAND LARGE BLOCK :LOCATION  
STAT        .                                             TEXAS :STATE     
CTRY        .                                     UNITED STATES :COUNTRY   
SRVC        .                                                   :SERVICE COMPANY
DATE        .                             9/13/2023 11:19:59 AM :LOG DATE  
API         .                                    42708403380000 :API NUMBER
UWI         .                                    42708403380000 :UNIQUE WELL ID
XCOORD      .                                  1194111.75057656 :SURFACE X 
YCOORD      .                                  10524686.1808471 :SURFACE Y 
LAT         .                                         28.993839 :LATITUDE  
LON         .                                         -94.39647 :LONGITUDE 
ELEV        .FT                                              98 :ELEVATION VALUE
ELEV_TYPE   .                                                KB :ELEVATION REFERENCE TYPE
~Curve Information Section
#MNEM       .UNIT                                      API CODE :CURVE DESCRIPTION
#------------------------------------------------------------------------------
DEPT        .FT                                                 :DEPTH     
DT          .US/F                                               :          
GR          .GAPI                                               :          
GR_NORM     .GAPI                                               :GammaRay Normalized
ILD         .OHMM                                               :          
ILM         .OHMM                                               :          
SFL         .OHMM                                               :          
SP          .MV                                                 :          
SP_NORM     .MV                                                 :SP Normalized
VSH_GR      .V/V                                                :Volume of Shale from GR
VSH_SP      .V/V                                                :Volume of Shale from SP
~A        DEPTH             DT             GR        GR_NORM            ILD            ILM            SFL             SP        SP_NORM         VSH_GR         VSH_SP
# ...
     11029.5000        99.2053        86.3719       91.55994         0.9126         0.9185         0.9679       -51.9619      -3.153225              1      0.9112904
     11030.0000        99.3392        86.2572         91.407         0.9155         0.9199         0.9789       -51.8811      -3.088726              1      0.9162518
     11030.5000        99.8668        85.7952       90.79792         0.9181         0.9206         0.9845       -51.7629      -2.986824              1      0.9240904
     11031.0000       100.3879        86.5068       91.73022         0.9212         0.9176         0.9708       -51.6368      -2.877018              1      0.9325371
     11031.5000       100.5388        87.5665       93.11972          0.925         0.9145         0.9552       -51.5612      -2.817719              1      0.9370986
     11032.0000        100.381        87.6826       93.26992         0.9263         0.9099         0.9375       -51.5569      -2.829716              1      0.9361757
     11032.5000       100.1815        85.9603        91.0056         0.9229         0.9041         0.9408       -51.5357      -2.824814              1      0.9365528
     11033.0000        99.9525        84.7709       89.44118         0.9197         0.8984         0.9547       -51.4738      -2.779213              1      0.9400606
     11033.5000        100.235        86.1412       91.23861         0.9164         0.8913         0.9717        -51.433      -2.754707              1      0.9419456
     11034.0000       100.5828        86.1746       91.28018         0.9132         0.8841         0.9764       -51.5495      -2.887505              1      0.9317304
     11034.5000       100.9857        84.3639       88.89977         0.9099         0.8737         0.9671       -51.8641      -3.218407              1      0.9062764
     11035.0000       101.4208        82.5236       86.48049         0.9082         0.8628         0.9509       -52.3497      -3.720303              1       0.867669
     11035.5000        101.835        80.9705        84.4384         0.9085         0.8551         0.9295       -52.3523      -3.739197              1      0.8662156
     11036.0000       102.1926        80.1407       83.34627         0.9089         0.8477         0.9077        -51.845      -3.248196              1       0.903985
     11036.5000        102.858        80.1565       83.36474         0.9104         0.8414         0.8892       -51.2651      -2.684593              1       0.947339
     11037.0000       103.2085        80.7915       84.19643         0.9119         0.8411         0.8855       -50.8981      -2.333893              1      0.9743159
     11037.5000       102.4984        81.8237        85.5498         0.9131         0.8409          0.892       -50.8253      -2.277386              1      0.9786626
     11038.0000       101.3933        82.7134       86.71601         0.9116         0.8419         0.8994       -50.8976      -2.365986              1      0.9718472
     11038.5000       100.5363        82.9655       87.04482         0.9101         0.8514          0.916       -50.8919      -2.376583              1      0.9710321
     11039.0000       100.2715        82.9213       86.98448         0.9086         0.8609         0.9464       -50.8373       -2.33828              1      0.9739785
     11039.5000       100.3125        83.3848       87.59094         0.9059         0.8706          0.962       -50.8229      -2.340179              1      0.9738324
     11040.0000        100.527        84.9301        89.6182         0.8992         0.8809         0.9648       -50.8134      -2.346977              1      0.9733095
     11040.5000        100.907        87.2383       92.64742         0.8926         0.8918         0.9614       -50.7119      -2.261772              1      0.9798637
     11041.0000       101.1377        88.5299       94.34148          0.886         0.9028         0.9717       -50.6105      -2.176674              1      0.9864097
     11041.5000       101.1232        88.2921       94.02687         0.8818         0.9073         0.9809        -50.783      -2.365471              1      0.9718869
     11042.0000       101.4431        85.1464       89.89311         0.8784         0.9046         0.9884       -50.9348      -2.533566              1      0.9589565
     11042.5000       102.0968        78.9651       81.77248          0.875         0.8988         0.9934       -51.0314      -2.646465              1      0.9502719
     11043.0000       102.5385        77.0206       79.21634         0.8735         0.8918         0.9914       -50.9683      -2.599663      0.9833264      0.9538721
     11043.5000       102.3727        78.0095       80.51284         0.8738         0.8861         0.9857       -50.8705      -2.518158              1      0.9601417
     11044.0000       102.2443        81.0098       84.45107         0.8743         0.8828         0.9771       -50.8159      -2.479855              1      0.9630881
     11044.5000       102.1594        82.8558       86.87324         0.8767         0.8795         0.9638       -50.7922      -2.472454              1      0.9636574
     11045.0000       102.2313        82.9341       86.97379         0.8791         0.8777         0.9482       -50.7858      -2.482353              1      0.9628959
     11045.5000       102.5128        81.8434       85.53901         0.8819         0.8759         0.9344       -50.8032      -2.516048              1       0.960304
     11046.0000       102.9539        81.1367       84.60855         0.8848         0.8725         0.9245       -50.7739      -2.503048              1       0.961304
     11046.5000       103.6442         81.688       85.33032         0.8852         0.8677         0.9186       -50.6932      -2.438644              1      0.9662581
     11047.0000       103.9919        82.9089       86.93153         0.8846          0.863         0.9154       -50.6135       -2.37524              1      0.9711354
     11047.5000       104.0708        84.3442       88.81432         0.8795         0.8562         0.9129       -50.5317      -2.309742              1      0.9761737
     11048.0000        103.822        85.8306       90.76421         0.8737         0.8492          0.903       -50.4454      -2.239738              1      0.9815586
     11048.5000       103.3312        86.2296       91.28596         0.8677         0.8517         0.8937       -50.3578      -2.168434              1      0.9870435
     11049.0000       102.8652        84.8593       89.48396         0.8613         0.8556         0.8877       -50.2748      -2.101734              1      0.9921743
     11049.5000        102.505        82.3899       86.23843         0.8567         0.8612         0.9017       -50.1917      -2.034931              1       0.997313
     11050.0000       102.3746        81.4507       85.00262         0.8653         0.8679         0.9243       -50.1097      -1.969227              1              1
     11050.5000       102.5804        81.2491       84.73556         0.8735         0.8746         0.9513       -50.0289      -1.904728              1              1
     11051.0000       102.9047        81.3346       84.84555         0.8805         0.8767         0.9581       -49.9479      -1.840023              1              1
     11051.5000       103.3292        81.1689       84.62563         0.8848         0.8788          0.944       -49.8892      -1.797619              1              1
     11052.0000       104.0498        81.4954       85.05216          0.883         0.8807         0.9223       -49.8454      -1.770119              1              1
     11052.5000       104.1968        82.5295       86.40803         0.8812         0.8815         0.9029       -49.8032      -1.744217              1              1
     11053.0000       102.8606        83.2092       87.29843         0.8811         0.8823         0.9014       -49.7799      -1.737213              1              1
     11053.5000       101.6453        83.5774       87.77973         0.8814         0.8837         0.9161       -49.7567      -1.730309              1              1
