#------------------------------------------------------------------------------
# Created by    : vladimir.rabinovich
# Created on    : 09/19/2023 17:20:12
#------------------------------------------------------------------------------
~Version Information Section
VERS.           2.0     :   CWLS log ASCII Standard - VERSION 2.0
WRAP.           NO      :   One line per depth step
~Well Information Section
#MNEM       .UNIT                                         VALUE :DESCRIPTION
#------------------------------------------------------------------------------
STRT        .FT                                             970 :START DEPTH
STOP        .FT                                            6500 :STOP DEPTH
STEP        .FT                                             0.5 :STEP      
NULL        .                                           -999.25 :NULL      
COMP        .                                CONTINENTAL OIL CO :COMPANY   
WELL        .                               OCS G03106 ST00BP00 :WELL      
FLD         .                       MATAGORDA ISLAND BLOCK 0687 :FIELD     
LOC         .                                                   :LOCATION  
CNTY        .                      MATAGORDA ISLAND LARGE BLOCK :LOCATION  
STAT        .                                             TEXAS :STATE     
CTRY        .                                     UNITED STATES :COUNTRY   
SRVC        .                                                   :SERVICE COMPANY
DATE        .                             9/13/2023 11:12:09 AM :LOG DATE  
API         .                                    42703400330000 :API NUMBER
UWI         .                                    42703400330000 :UNIQUE WELL ID
XCOORD      .                                  468864.661343862 :SURFACE X 
YCOORD      .                                  10154488.9405743 :SURFACE Y 
LAT         .                                         27.934663 :LATITUDE  
LON         .                                        -96.628194 :LONGITUDE 
ELEV        .FT                                              96 :ELEVATION VALUE
ELEV_TYPE   .                                                KB :ELEVATION REFERENCE TYPE
~Curve Information Section
#MNEM       .UNIT                                      API CODE :CURVE DESCRIPTION
#------------------------------------------------------------------------------
DEPT        .FT                                                 :DEPTH     
ASFL        .OHMM                                               :          
CALI        .IN                                                 :          
CILD        .MMHO                                               :          
DRHO        .G/C3                                               :          
DT          .US/F                                               :          
DTL         .US/F                                               :          
GR          .GAPI                                               :          
GR_1        .GAPI                                               :          
GR_NORM     .GAPI                                               :GammaRay Normalized
ILD         .OHMM                                               :          
ILM         .OHMM                                               :          
NPHI        .%                                                  :          
RHOB        .G/C3                                               :          
SFL         .OHMM                                               :          
SP          .MV                                                 :          
SP_NORM     .MV                                                 :SP Normalized
VSH_GR      .V/V                                                :Volume of Shale from GR
VSH_SP      .V/V                                                :Volume of Shale from SP
~A        DEPTH           ASFL           CALI           CILD           DRHO             DT            DTL             GR           GR_1        GR_NORM            ILD            ILM           NPHI           RHOB            SFL             SP        SP_NORM         VSH_GR         VSH_SP
# ...
      4288.0000         0.8203        14.9328        1294.59         0.0177       120.9561        -999.25        -999.25        59.5121       78.80497          0.749         0.7897        40.0283         2.2789         0.7762       -43.7039        -2.1945      0.9745739      0.9778796
      4288.5000         0.8231         15.068       1288.119         0.0176       119.9528        -999.25        -999.25        60.1612       79.82826         0.7503         0.7933        39.0037         2.2905         0.8007       -43.5723        -2.0629       0.996346      0.9803166
      4289.0000          0.826        15.0762       1281.654         0.0186       119.7566        -999.25        -999.25         61.036       81.20718         0.7515           0.79        38.6945          2.299           0.83       -43.7621        -2.2527              1      0.9768019
      4289.5000         0.8289        15.0005        1275.23         0.0169       120.3593        -999.25        -999.25        60.6127       80.54106         0.7528         0.7863        40.7637         2.3007          0.849       -44.0375        -2.5281              1      0.9717019
      4290.0000         0.8317        14.9477       1268.832         0.0093       121.0175        -999.25        -999.25        59.8185       79.29038          0.754         0.7827        41.9498         2.2977         0.8645       -43.9481        -2.4387      0.9849017      0.9733574
      4290.5000         0.8342        14.9989       1262.428         0.0026       121.6917        -999.25        -999.25        59.0229       78.03751         0.7553          0.787        43.0898         2.3054         0.8321       -43.8026        -2.2932      0.9582448      0.9760519
      4291.0000         0.8347        15.0593       1256.029         0.0076       121.7247        -999.25        -999.25        59.1697       78.26942         0.7565         0.7915        42.5891         2.3225         0.8069       -43.7042        -2.1948      0.9631792      0.9778741
      4291.5000         0.8351        15.0744       1250.904         0.0204       121.3759        -999.25        -999.25        60.2261       79.93446         0.7578         0.7961        41.4876         2.3403         0.8148       -44.0485        -2.5391      0.9986054      0.9714981
      4292.0000         0.8356         15.116       1246.598         0.0296       120.3409        -999.25        -999.25        61.4214       81.81834          0.759         0.8031        40.8545         2.3364         0.8336       -44.5262        -3.0168              1      0.9626518
      4292.5000          0.836        15.2644       1250.205         0.0238       118.6792        -999.25        -999.25        62.0567       82.81991         0.7595         0.8114        40.8774         2.3034         0.8464       -44.8054         -3.296              1      0.9574815
      4293.0000         0.8361        15.3857       1263.783         0.0176       117.3033        -999.25        -999.25        61.6848       82.23458         0.7599         0.8197        42.0263         2.2913         0.8423       -44.8132        -3.3038              1       0.957337
      4293.5000         0.8284        15.3706       1277.361          0.014        116.217        -999.25        -999.25        61.0914        81.3003         0.7602         0.8259         42.587         2.2855           0.84       -44.7497        -3.2403              1       0.958513
      4294.0000         0.8206        15.3025       1298.107         0.0136       115.8234        -999.25        -999.25        60.4528       80.29495         0.7605         0.8286        42.5526         2.2804         0.8381       -44.6474         -3.138              1      0.9604074
      4294.5000         0.8129        15.2621       1319.572         0.0149       115.5752        -999.25        -999.25        60.2947       80.04649         0.7608         0.8313         41.957          2.276         0.8474       -44.7677        -3.2583              1      0.9581797
      4295.0000         0.8051        15.2953       1341.051         0.0133        115.825        -999.25        -999.25        60.1376       79.79961         0.7611          0.834        40.9854          2.273         0.8557       -44.9219        -3.4125      0.9957363      0.9553241
      4295.5000         0.7974        15.3306       1362.527         0.0134       116.6479        -999.25        -999.25        60.6245       80.56737         0.7615         0.8333        40.8108         2.2792          0.851       -44.9332        -3.4238              1      0.9551148
      4296.0000         0.7896        15.3788       1383.994         0.0208       118.0022        -999.25        -999.25        61.0799       81.28548         0.7618         0.8319        40.7523         2.2872          0.821       -44.8903        -3.3809              1      0.9559093
      4296.5000         0.7834        15.3917       1397.639          0.029       120.2467        -999.25        -999.25        61.1088       81.33164         0.7621           0.83        40.5064         2.2924         0.7885       -44.8107        -3.3013              1      0.9573833
      4297.0000         0.7773        15.0534        1407.26         0.0312       122.1342        -999.25        -999.25         60.249       79.97764         0.7624         0.8214        40.0322         2.2887         0.7758       -44.6788        -3.1694      0.9995242      0.9598259
      4297.5000         0.7711        14.8405       1416.883         0.0298        123.771        -999.25        -999.25        58.9814       77.98109         0.7628         0.8129        39.9409         2.2849         0.8009       -44.5468        -3.0374      0.9570445      0.9622704
      4298.0000          0.765        14.5364       1426.498          0.037       124.2892        -999.25        -999.25        58.9415       77.91887         0.7621         0.8032        40.4452          2.287         0.8189       -44.1122        -2.6028      0.9557206      0.9703185
      4298.5000         0.7588        14.1862       1426.854         0.0466        124.585        -999.25        -999.25        59.9003       79.43011         0.7602         0.7884        41.8659         2.2914          0.821        -43.639        -2.1296      0.9878748      0.9790815
      4299.0000         0.7603         14.058       1424.137         0.0506       123.6079        -999.25        -999.25        61.2374       81.53757         0.7583         0.7738        42.6342         2.2941         0.8129       -43.0535        -1.5441              1      0.9899241
      4299.5000         0.7628        14.0226        1421.42         0.0476       122.6023        -999.25        -999.25        62.8248       84.03922         0.7563         0.7586        43.4091          2.292         0.7999       -42.4336        -0.9242              1              1
      4300.0000         0.7652         14.011       1418.701          0.049       122.3456        -999.25        -999.25        64.2089       86.22054         0.7544         0.7435        43.8458         2.2922         0.7842       -41.9549        -0.4455              1              1
      4300.5000         0.7676        13.9954       1415.984         0.0546       122.1686        -999.25        -999.25        65.2996       87.93962         0.7524         0.7296        44.1636         2.2995         0.7711       -41.5194          -0.01              1              1
      4301.0000         0.7718        13.9917       1413.885         0.0598       122.2997        -999.25        -999.25        66.2111       89.37637         0.7505          0.718        44.5045         2.3035         0.7656       -41.4352         0.0742              1              1
      4301.5000         0.7791        13.9578       1423.902         0.0563       122.7499        -999.25        -999.25        66.8533       90.38879         0.7486         0.7095        44.0637         2.2935         0.7499       -41.4818         0.0276              1              1
