#------------------------------------------------------------------------------
# Created by    : vladimir.rabinovich
# Created on    : 09/19/2023 17:21:39
#------------------------------------------------------------------------------
~Version Information Section
VERS.           2.0     :   CWLS log ASCII Standard - VERSION 2.0
WRAP.           NO      :   One line per depth step
~Well Information Section
#MNEM       .UNIT                                         VALUE :DESCRIPTION
#------------------------------------------------------------------------------
STRT        .FT                                             930 :START DEPTH
STOP        .FT                                           10010 :STOP DEPTH
STEP        .FT                                             0.5 :STEP      
NULL        .                                           -999.25 :NULL      
COMP        .                 FAIRWAYS SPEC SALES & SERVICE INC :COMPANY   
WELL        .                               OCS G02357 ST00BP00 :WELL      
FLD         .                            HIGH ISLAND BLOCK 0154 :FIELD     
LOC         .                                                   :LOCATION  
CNTY        .                           HIGH ISLAND LARGE BLOCK :LOCATION  
STAT        .                                             TEXAS :STATE     
CTRY        .                                     UNITED STATES :COUNTRY   
SRVC        .                                                   :SERVICE COMPANY
DATE        .                             9/13/2023 11:20:04 AM :LOG DATE  
API         .                                    42708400540000 :API NUMBER
UWI         .                                    42708400540000 :UNIQUE WELL ID
XCOORD      .                                  1183911.52517142 :SURFACE X 
YCOORD      .                                  10615048.6542629 :SURFACE Y 
LAT         .                                         29.242029 :LATITUDE  
LON         .                                        -94.431816 :LONGITUDE 
ELEV        .FT                                              73 :ELEVATION VALUE
ELEV_TYPE   .                                                KB :ELEVATION REFERENCE TYPE
~Curve Information Section
#MNEM       .UNIT                                      API CODE :CURVE DESCRIPTION
#------------------------------------------------------------------------------
DEPT        .FT                                                 :DEPTH     
CALI        .IN                                                 :          
DRHO        .G/C3                                               :          
DT          .US/F                                               :          
GR          .GAPI                                               :          
GR_1        .GAPI                                               :          
GR_NORM     .GAPI                                               :GammaRay Normalized
ILD         .OHMM                                               :          
NPHI        .%                                                  :          
RHOB        .G/C3                                               :          
SFL         .OHMM                                               :          
SP          .MV                                                 :          
SP_NORM     .MV                                                 :SP Normalized
VSH_GR      .V/V                                                :Volume of Shale from GR
VSH_SP      .V/V                                                :Volume of Shale from SP
~A        DEPTH           CALI           DRHO             DT             GR           GR_1        GR_NORM            ILD           NPHI           RHOB            SFL             SP        SP_NORM         VSH_GR         VSH_SP
# ...
      1344.0000        -999.25        -999.25        -999.25        -999.25        76.9413       99.14792         1.1077        -999.25        -999.25         0.9063        36.3658      -2.565178              1              1
      1344.5000        -999.25        -999.25        -999.25        -999.25         76.157        98.0708         1.1095        -999.25        -999.25         0.9129        35.6717      -3.261372              1      0.9846252
      1345.0000        -999.25        -999.25        -999.25        -999.25        75.1345       96.66693          1.116        -999.25        -999.25         0.9256        35.4719      -3.463264              1      0.9727492
      1345.5000        -999.25        -999.25        -999.25        -999.25        71.6372       91.86829         1.1319        -999.25        -999.25         0.9344        36.0991      -2.838161              1              1
      1346.0000        -999.25        -999.25        -999.25        -999.25        67.0822       85.61873         1.1427        -999.25        -999.25         0.9323        35.5361      -3.403255              1      0.9762791
      1346.5000        -999.25        -999.25        -999.25        -999.25        62.8251       79.77783         1.1601        -999.25        -999.25         0.9193        35.8579      -3.083549       0.995273      0.9950853
      1347.0000        -999.25        -999.25        -999.25        -999.25        61.0006       77.27383         1.1779        -999.25        -999.25         0.9006        36.4567      -2.486843      0.9419965              1
      1347.5000        -999.25        -999.25        -999.25        -999.25        61.9275       78.54404         1.1967        -999.25        -999.25         0.8956         38.417     -0.5286369       0.969022              1
      1348.0000        -999.25        -999.25        -999.25        -999.25        63.3385        80.4783          1.219        -999.25        -999.25         0.9716        40.3885       1.440769              1              1
      1348.5000        -999.25        -999.25        -999.25        -999.25        59.9323       75.80461         1.2418        -999.25        -999.25         1.0501        41.3377       2.387875      0.9107364              1
      1349.0000        -999.25        -999.25        -999.25        -999.25         56.452       71.02928          1.265        -999.25        -999.25         1.0715        40.5942       1.642281      0.8091336              1
      1349.5000        -999.25        -999.25        -999.25        -999.25        54.1868       67.92075         1.2817        -999.25        -999.25          1.069        40.4012       1.447186      0.7429947              1
      1350.0000        -999.25        -999.25        -999.25        -999.25        51.9209       64.81126         1.2927        -999.25        -999.25         1.0596        40.0848       1.128693      0.6768354              1
      1350.5000        -999.25        -999.25        -999.25        -999.25        49.9916        62.1635         1.2849        -999.25        -999.25         1.0502        37.3528      -1.605404         0.6205              1
      1351.0000        -999.25        -999.25        -999.25        -999.25        52.0108       64.93205         1.2561        -999.25        -999.25         1.0008        36.2977      -2.662598      0.6794054              1
      1351.5000        -999.25        -999.25        -999.25        -999.25        54.5058       68.35329          1.218        -999.25        -999.25         0.9261        36.6316      -2.330791      0.7521977              1
      1352.0000        -999.25        -999.25        -999.25        -999.25        57.4694       72.41734          1.181        -999.25        -999.25         0.8382        37.3252      -1.639286      0.8386669              1
      1352.5000        -999.25        -999.25        -999.25        -999.25        59.9437       75.81017         1.1452        -999.25        -999.25         0.8236        37.8513       -1.11528      0.9108548              1
      1353.0000        -999.25        -999.25        -999.25        -999.25        59.1951       74.78204         1.1074        -999.25        -999.25          0.868        38.3773     -0.5913734      0.8889795              1
      1353.5000        -999.25        -999.25        -999.25        -999.25         57.135       71.95486         1.0673        -999.25        -999.25         0.9109        38.7311     -0.2396698      0.8288267              1
      1354.0000        -999.25        -999.25        -999.25        -999.25        53.5019       66.96992         1.0287        -999.25        -999.25         0.9264        38.4829     -0.4899635      0.7227642              1
      1354.5000        -999.25        -999.25        -999.25        -999.25         50.715       63.14575         0.9904        -999.25        -999.25         0.8545        37.1122      -1.862755       0.641399              1
      1355.0000        -999.25        -999.25        -999.25        -999.25        48.7774       60.48661         0.9369        -999.25        -999.25         0.8138        35.7564       -3.22065      0.5848214      0.9870206
      1355.5000        -999.25        -999.25        -999.25        -999.25        47.2953       58.45229           0.89        -999.25        -999.25         0.7876        34.4658       -4.51334      0.5415381        0.91098
      1356.0000        -999.25        -999.25        -999.25        -999.25         46.484       57.33814         0.8485        -999.25        -999.25         0.7693        33.1755      -5.805737      0.5178328      0.8349566
      1356.5000        -999.25        -999.25        -999.25        -999.25        46.6958       57.62741         0.8089        -999.25        -999.25         0.7522        32.5019       -6.48143      0.5239874        0.79521
      1357.0000        -999.25        -999.25        -999.25        -999.25        47.1586       58.26099           0.78        -999.25        -999.25         0.7347        33.0051      -5.980324      0.5374678      0.8246868
      1357.5000        -999.25        -999.25        -999.25        -999.25        47.6923       58.99183         0.7541        -999.25        -999.25          0.717        33.0369      -5.950619      0.5530176      0.8264342
      1358.0000        -999.25        -999.25        -999.25        -999.25        47.2445       58.37631         0.7385        -999.25        -999.25         0.6997        33.0437      -5.945911      0.5399215      0.8267111
      1358.5000        -999.25        -999.25        -999.25        -999.25         45.459       55.92579         0.7328        -999.25        -999.25         0.6784        32.9566      -6.035107      0.4877828      0.8214643
      1359.0000        -999.25        -999.25        -999.25        -999.25        43.6936       53.50287          0.727        -999.25        -999.25         0.6611        32.5974        -6.3964      0.4362313      0.8002117
      1359.5000        -999.25        -999.25        -999.25        -999.25        41.9291       51.08117         0.7323        -999.25        -999.25         0.6611        32.5475      -6.448395      0.3847056      0.7971532
      1360.0000        -999.25        -999.25        -999.25        -999.25        40.5822       49.23231         0.7428        -999.25        -999.25         0.6787        32.0951      -6.902889      0.3453682      0.7704183
      1360.5000        -999.25        -999.25        -999.25        -999.25        43.5566       53.31116         0.7535        -999.25        -999.25         0.7071        31.0766      -7.923485      0.4321523      0.7103832
      1361.0000        -999.25        -999.25        -999.25        -999.25        45.9628       56.61058         0.7664        -999.25        -999.25         0.7449        30.8367      -8.165478      0.5023528      0.6961484
      1361.5000        -999.25        -999.25        -999.25        -999.25        47.9583       59.34665         0.7801        -999.25        -999.25         0.7892        32.2329      -6.771374      0.5605669      0.7781545
