#------------------------------------------------------------------------------
# Created by    : vladimir.rabinovich
# Created on    : 09/19/2023 17:20:32
#------------------------------------------------------------------------------
~Version Information Section
VERS.           2.0     :   CWLS log ASCII Standard - VERSION 2.0
WRAP.           NO      :   One line per depth step
~Well Information Section
#MNEM       .UNIT                                         VALUE :DESCRIPTION
#------------------------------------------------------------------------------
STRT        .FT                                             642 :START DEPTH
STOP        .FT                                           11989 :STOP DEPTH
STEP        .FT                                             0.5 :STEP      
NULL        .                                           -999.25 :NULL      
COMP        .                       CORPUS CHRISTI OIL & GAS CO :COMPANY   
WELL        .                               OCS G05177 ST00BP00 :WELL      
FLD         .                              GALVESTON BLOCK 0151 :FIELD     
LOC         .                                                   :LOCATION  
CNTY        .                             GALVESTON LARGE BLOCK :LOCATION  
STAT        .                                             TEXAS :STATE     
CTRY        .                                     UNITED STATES :COUNTRY   
SRVC        .                                                   :SERVICE COMPANY
DATE        .                             9/13/2023 11:19:27 AM :LOG DATE  
API         .                                    42706401010000 :API NUMBER
UWI         .                                    42706401010000 :UNIQUE WELL ID
XCOORD      .                                   1130272.6689428 :SURFACE X 
YCOORD      .                                  10609756.0111422 :SURFACE Y 
LAT         .                                         29.225567 :LATITUDE  
LON         .                                        -94.599775 :LONGITUDE 
ELEV        .FT                                              83 :ELEVATION VALUE
ELEV_TYPE   .                                                KB :ELEVATION REFERENCE TYPE
~Curve Information Section
#MNEM       .UNIT                                      API CODE :CURVE DESCRIPTION
#------------------------------------------------------------------------------
DEPT        .FT                                                 :DEPTH     
ASN         .OHMM                                               :          
CILD        .MMHO                                               :          
DT          .US/F                                               :          
ILD         .OHMM                                               :          
RHOB        .G/CC                                               :          
SP          .MV                                                 :          
SP_NORM     .MV                                                 :SP Normalized
VSH_SP      .V/V                                                :Volume of Shale from SP
~A        DEPTH            ASN           CILD             DT            ILD           RHOB             SP        SP_NORM         VSH_SP
# ...
      7427.0000         0.6531       4121.648       108.8223         0.2177        -999.25      -127.0065      -81.78171              0
      7427.5000         0.6614       4030.809       107.2788         0.2229        -999.25      -126.8992      -81.67354              0
      7428.0000         0.6741       3976.668       106.8132         0.2286        -999.25       -126.863      -81.63647              0
      7428.5000         0.6978       3916.898       104.4471         0.2382        -999.25      -126.8649       -81.6375              0
      7429.0000          0.723       3853.059       102.4609         0.2479        -999.25      -126.8666      -81.63834              0
      7429.5000         0.7499       3793.238       100.1611         0.2575        -999.25      -126.8684      -81.63927              0
      7430.0000         0.7559       3802.918        97.5967         0.2589        -999.25      -126.8031       -81.5731              0
      7430.5000         0.7245       3892.375        93.7403         0.2472        -999.25       -126.731      -81.50014              0
      7431.0000         0.6842       3980.938        92.2041         0.2355        -999.25      -126.6589      -81.42717              0
      7431.5000         0.6598       4265.313        91.9027         0.2239        -999.25      -126.6117       -81.3791              0
      7432.0000         0.6409       4542.422        96.4016         0.2156        -999.25      -126.5742      -81.34074              0
      7432.5000         0.6148       4628.695       101.9806         0.2093        -999.25      -126.5369      -81.30257              0
      7433.0000         0.6183       4664.039       104.1567         0.2029        -999.25      -126.2255       -80.9903              0
      7433.5000         0.6485       4692.781       102.9298         0.1965        -999.25      -125.8105      -80.57443              0
      7434.0000         0.6999       4619.563        95.9798         0.2059        -999.25      -125.3955      -80.15856              0
      7434.5000         0.7522       4518.289         90.886         0.2165        -999.25      -123.5035       -78.2657              0
      7435.0000         0.8281       4213.094        88.4217         0.2464        -999.25      -121.1395      -75.90083              0
      7435.5000         1.0068           3436        86.4214         0.2852        -999.25      -115.1322      -69.89266    0.001533399
      7436.0000         1.1251       2900.723        85.8106          0.324        -999.25      -109.0145       -63.7741     0.08894146
      7436.5000         1.2505       2567.125        87.2159         0.3627        -999.25      -105.4962      -60.25492      0.1392154
      7437.0000         1.0861        2122.93        92.3309         0.4068        -999.25      -101.4557      -56.21356      0.1969491
      7437.5000         1.0229       2030.098        96.5178         0.4524        -999.25       -95.4999      -50.25689      0.2820444
      7438.0000         0.9205       1931.807        99.7766         0.4979        -999.25       -89.5293      -44.28542      0.3673511
      7438.5000         0.7617       1833.117        99.1685         0.5369        -999.25        -69.338      -24.09325      0.6558107
      7439.0000         0.7616       1747.039        95.7761         0.5496        -999.25       -72.6616      -27.41599      0.6083431
      7439.5000         0.8092       1695.014        93.0025         0.5137        -999.25       -79.3528      -34.10632      0.5127668
      7440.0000         0.8582       1931.906        90.3835         0.4778        -999.25       -89.2499      -44.00255      0.3713921
      7440.5000         0.9015       2163.238        90.3941         0.4285        -999.25       -99.1506      -53.90238       0.229966
      7441.0000         0.9257       2443.219        91.1805         0.3776        -999.25      -102.7645      -57.51542      0.1783511
      7441.5000         0.9492       3491.664        92.4396         0.3268        -999.25      -113.2278      -67.97784     0.02888794
      7442.0000         0.9408       3930.313        93.8673           0.28        -999.25       -116.897      -71.64619              0
      7442.5000         0.9004       3999.875        96.1147         0.2557        -999.25      -120.0991      -74.84741              0
      7443.0000         0.8751       4110.633       100.4898         0.2506        -999.25      -123.3564      -78.10385              0
      7443.5000         0.8465       4222.328       103.2908          0.249        -999.25      -122.6101      -77.35668              0
      7444.0000         0.8323       4313.961       105.4745         0.2474        -999.25      -118.1543      -72.90001              0
      7444.5000         0.8535       4430.523       103.3196         0.2458        -999.25      -113.3381      -68.08295     0.02738648
      7445.0000         0.8748           4014       100.5459         0.2441        -999.25      -106.2645      -61.00848      0.1284503
      7445.5000         0.8892       3601.668        97.7723         0.2631        -999.25       -88.3674      -43.11051      0.3841355
      7446.0000         0.8974       3401.313        94.3799         0.2821        -999.25       -83.3455      -38.08774      0.4558894
      7446.5000         0.9057       2239.887        93.1504         0.3012        -999.25       -79.9336      -34.67498      0.5046432
      7447.0000         0.9057       2150.031        94.5557         0.3417        -999.25       -77.2719      -32.01241      0.5426799
      7447.5000         0.9028       2062.266        97.9692         0.3938        -999.25       -76.6661      -31.40574      0.5513466
      7448.0000         0.8959       2000.113       103.2389         0.4434        -999.25       -77.5247      -32.26347      0.5390933
      7448.5000         0.8849       2010.986       105.2603         0.4523        -999.25        -78.384      -33.12191      0.5268299
      7449.0000         0.8739       2052.137       105.5802         0.4612        -999.25       -79.2424      -33.97944      0.5145795
      7449.5000         0.8662       2116.672       105.9001         0.4531        -999.25       -80.1736      -34.90977       0.501289
      7450.0000         0.8651       2181.207       106.3747         0.4413        -999.25       -81.1285       -35.8638      0.4876599
      7450.5000         0.8687       2253.387       106.6947         0.4295        -999.25       -82.0844      -36.81883      0.4740167
      7451.0000         0.8733        2318.07       107.3239         0.4177        -999.25       -83.0393      -37.77287      0.4603876
      7451.5000         0.8779       2352.871       106.8705         0.4059        -999.25       -84.0898       -38.8225      0.4453929
      7452.0000         0.8825       2387.668        106.417         0.3941        -999.25       -85.3693      -40.10114      0.4271266
      7452.5000         0.8871       2419.738       106.5823         0.3823        -999.25       -86.6469      -41.37786      0.4088877
      7453.0000         0.8885       2446.992       106.9022         0.3705        -999.25       -87.9686       -42.6987      0.3900186
      7453.5000          0.889        2474.27       107.9955         0.3622        -999.25       -89.3711      -44.10033      0.3699953
      7454.0000         0.8896       2501.523       108.3154         0.3586        -999.25       -90.7737      -45.50206      0.3499706
      7454.5000         0.8902       2523.613       107.5526         0.3551        -999.25       -91.5458       -46.2733      0.3389529
      7455.0000         0.8897       2545.309       106.7856         0.3516        -999.25       -92.2875      -47.01413      0.3283696
      7455.5000         0.8887       2566.445        106.491          0.348        -999.25       -93.3804      -48.10616      0.3127691
      7456.0000         0.8876       2579.848       106.0049         0.3445        -999.25       -94.6046      -49.32949       0.295293
