#------------------------------------------------------------------------------
# Created by    : vladimir.rabinovich
# Created on    : 09/19/2023 17:20:23
#------------------------------------------------------------------------------
~Version Information Section
VERS.           2.0     :   CWLS log ASCII Standard - VERSION 2.0
WRAP.           NO      :   One line per depth step
~Well Information Section
#MNEM       .UNIT                                         VALUE :DESCRIPTION
#------------------------------------------------------------------------------
STRT        .FT                                            3532 :START DEPTH
STOP        .FT                                           13690 :STOP DEPTH
STEP        .FT                                             0.5 :STEP      
NULL        .                                           -999.25 :NULL      
COMP        .                              VASTAR RESOURCES INC :COMPANY   
WELL        .                                     ST TR 00023-L :WELL      
FLD         .                          HIGH ISLAND BLOCK 0024-L :FIELD     
LOC         .                                                   :LOCATION  
CNTY        .                           HIGH ISLAND LARGE BLOCK :LOCATION  
STAT        .                                             TEXAS :STATE     
CTRY        .                                     UNITED STATES :COUNTRY   
SRVC        .                                                   :SERVICE COMPANY
DATE        .                             9/13/2023 11:19:15 AM :LOG DATE  
API         .                                    42708300330000 :API NUMBER
UWI         .                                    42708300330000 :UNIQUE WELL ID
XCOORD      .                                  1290562.53578251 :SURFACE X 
YCOORD      .                                  10712997.1214806 :SURFACE Y 
LAT         .                                        29.5146054 :LATITUDE  
LON         .                                       -94.1002609 :LONGITUDE 
ELEV        .FT                                              79 :ELEVATION VALUE
ELEV_TYPE   .                                                KB :ELEVATION REFERENCE TYPE
~Curve Information Section
#MNEM       .UNIT                                      API CODE :CURVE DESCRIPTION
#------------------------------------------------------------------------------
DEPT        .FT                                                 :DEPTH     
ASN         .OHMM                                               :          
CILD        .MMHO                                               :          
ILD         .OHMM                                               :          
SP          .MV                                                 :          
SP_NORM     .MV                                                 :SP Normalized
VSH_SP      .V/V                                                :Volume of Shale from SP
~A        DEPTH            ASN           CILD            ILD             SP        SP_NORM         VSH_SP
# ...
      6230.0000         1.0003        4177.57         0.2407      -158.7112      -91.90717              0
      6230.5000         0.9874       4228.047         0.2409      -158.9509      -92.14456              0
      6231.0000          0.987       4265.117         0.2411      -159.1907      -92.38206              0
      6231.5000         1.0128        4295.57         0.2411      -159.4307      -92.61974              0
      6232.0000         1.0371       4283.188         0.2409      -159.6702      -92.85693              0
      6232.5000         1.0526       4249.039         0.2408      -159.9099      -93.09431              0
      6233.0000         1.0423       4214.844         0.2407      -160.1499      -93.33201              0
      6233.5000         1.0227       4180.445         0.2405      -160.3894       -93.5692              0
      6234.0000         0.9954       4145.258         0.2404      -160.6292      -93.80669              0
      6234.5000         0.9681       4137.516         0.2402      -160.6619      -93.83707              0
      6235.0000         0.9409       4148.594         0.2401      -160.6257      -93.79857              0
      6235.5000         0.9137       4163.172           0.24      -160.5896      -93.76015              0
      6236.0000         0.8912       4212.313         0.2398      -160.5532      -93.72145              0
      6236.5000         0.8725       4261.445         0.2397      -160.2561      -93.42204              0
      6237.0000         0.8538       4310.586         0.2395       -159.938      -93.10162              0
      6237.5000         0.8291       4359.719         0.2393      -159.6199      -92.78121              0
      6238.0000         0.8019       4411.141         0.2388      -159.3672       -92.5262              0
      6238.5000         0.7761       4487.375         0.2383      -159.4763      -92.63299              0
      6239.0000         0.7565       4563.711         0.2378      -159.5852      -92.73958              0
      6239.5000         0.7368        4644.32         0.2373      -159.6943      -92.84637              0
      6240.0000         0.7172       4747.656         0.2368      -159.8035      -92.95325              0
      6240.5000         0.6934       4792.922         0.2363      -159.9124      -93.05984              0
      6241.0000         0.6573       4833.063         0.2358       -159.833      -92.97813              0
      6241.5000         0.6212       4847.172         0.2353      -159.5464      -92.68922              0
      6242.0000         0.5996       4850.484         0.2348        -159.26      -92.40051              0
      6242.5000         0.6025       4838.555         0.2343      -158.9739      -92.11211              0
      6243.0000         0.6172       4827.945         0.2338       -159.073      -92.20889              0
      6243.5000          0.632       4818.805         0.2335      -159.3381      -92.47168              0
      6244.0000         0.6468       4809.656         0.2334      -159.6035      -92.73476              0
      6244.5000         0.6615       4800.523         0.2333      -159.8691      -92.99805              0
      6245.0000         0.6724       4800.898         0.2331      -160.1345      -93.26115              0
      6245.5000         0.6775       4816.969          0.233      -160.4001      -93.52443              0
      6246.0000         0.6691       4833.047         0.2329      -160.6541      -93.77612              0
      6246.5000         0.6608       4849.117         0.2327      -160.8489      -93.96861              0
      6247.0000         0.6524       4860.977         0.2326      -161.0437      -94.16109              0
      6247.5000          0.644       4846.672         0.2325      -161.2385      -94.35358              0
      6248.0000         0.6356        4832.25         0.2323      -161.4331      -94.54588              0
      6248.5000         0.6272       4813.938         0.2322      -161.6282      -94.73867              0
      6249.0000         0.6188       4795.625         0.2321       -161.823      -94.93115              0
      6249.5000         0.6105       4777.313          0.232      -162.0176      -95.12344              0
      6250.0000         0.6021       4758.992         0.2304      -162.2124      -95.31593              0
      6250.5000         0.5937       4740.656         0.2279      -161.9548      -95.05602              0
      6251.0000         0.5853        4714.18         0.2254      -161.4092       -94.5081              0
      6251.5000         0.5769       4686.758         0.2229       -160.863       -93.9596              0
      6252.0000         0.5692       4659.359         0.2204      -160.3169      -93.41118              0
      6252.5000         0.5626       4631.938         0.2179      -159.7712      -92.86317              0
      6253.0000          0.556       4604.539         0.2154       -159.521      -92.61066              0
      6253.5000         0.5642       4586.867         0.2129      -159.3979      -92.48525              0
      6254.0000         0.6142       4570.164         0.2104      -159.6057      -92.69073              0
      6254.5000         0.6641       4553.492         0.2091      -159.9583      -93.04102              0
      6255.0000          0.686        4552.57         0.2084      -160.3103      -93.39072              0
      6255.5000         0.6993       4572.797         0.2076      -160.6631      -93.74121              0
      6256.0000         0.7126       4607.195         0.2069      -161.0156      -94.09139              0
      6256.5000         0.7259       4641.539         0.2061      -161.3677      -94.44119              0
      6257.0000         0.7381       4675.938         0.2053      -161.7202      -94.79137              0
      6257.5000         0.7498       4710.281         0.2046      -162.0725      -95.14136              0
      6258.0000         0.7616       4744.875         0.2038      -162.4011      -95.46764              0
      6258.5000         0.7635        4826.57         0.2059      -162.6685      -95.73274              0
      6259.0000         0.7427       4968.422         0.2157       -162.936      -95.99793              0
      6259.5000         0.7211       5039.945         0.2254      -163.2034      -96.26302              0
      6260.0000         0.6996       4985.594         0.2352      -162.8545      -95.91181              0
      6260.5000          0.678       4931.195          0.245      -162.1079      -95.16289              0
      6261.0000         0.6564       4820.711         0.2548      -160.7124      -93.76508              0
      6261.5000         0.6348       4679.758         0.2654      -159.2061      -92.25647              0
      6262.0000         0.6133       4553.688         0.2846      -157.7017      -90.74976              0
      6262.5000         0.5933           4071         0.3038      -155.7493      -88.79504     0.01353883
      6263.0000         0.5835       3759.773         0.3231      -153.2991      -86.34254       0.041095
      6263.5000         0.5753       3534.441         0.3423      -150.6921      -83.73322     0.07041322
      6264.0000         0.6102       3309.105         0.3615      -147.0308      -80.06963      0.1115772
      6264.5000          0.645       3107.793         0.3808      -142.5066      -75.54311      0.1624369
      6265.0000         0.6798       2936.609            0.4      -136.6218      -69.65599      0.2285844
      6265.5000         0.7004       2894.371         0.4192      -130.8623      -63.89419      0.2933237
      6266.0000         0.7081        2852.68         0.3957      -128.3218      -61.35136      0.3218948
      6266.5000         0.7158       2907.277         0.3703      -130.1414      -63.16866      0.3014757
      6267.0000         0.7235       3214.207          0.345      -131.9812      -65.00615      0.2808298
      6267.5000         0.7312       3471.109         0.3197      -133.9595      -66.98214      0.2586277
