#------------------------------------------------------------------------------
# Created by    : vladimir.rabinovich
# Created on    : 09/19/2023 17:21:25
#------------------------------------------------------------------------------
~Version Information Section
VERS.           2.0     :   CWLS log ASCII Standard - VERSION 2.0
WRAP.           NO      :   One line per depth step
~Well Information Section
#MNEM       .UNIT                                         VALUE :DESCRIPTION
#------------------------------------------------------------------------------
STRT        .FT                                            2957 :START DEPTH
STOP        .FT                                            7390 :STOP DEPTH
STEP        .FT                                             0.5 :STEP      
NULL        .                                           -999.25 :NULL      
COMP        .                              DEVON LOUISIANA CORP :COMPANY   
WELL        .                               OCS G09039 ST00BP00 :WELL      
FLD         .                              GALVESTON BLOCK 0273 :FIELD     
LOC         .                                                   :LOCATION  
CNTY        .                             GALVESTON LARGE BLOCK :LOCATION  
STAT        .                                             TEXAS :STATE     
CTRY        .                                     UNITED STATES :COUNTRY   
SRVC        .                                                   :SERVICE COMPANY
DATE        .                             9/13/2023 11:19:54 AM :LOG DATE  
API         .                                    42706403330000 :API NUMBER
UWI         .                                    42706403330000 :UNIQUE WELL ID
XCOORD      .                                  1020560.14583294 :SURFACE X 
YCOORD      .                                  10500181.0477632 :SURFACE Y 
LAT         .                                        28.9197225 :LATITUDE  
LON         .                                       -94.9380297 :LONGITUDE 
ELEV        .FT                                              98 :ELEVATION VALUE
ELEV_TYPE   .                                                KB :ELEVATION REFERENCE TYPE
~Curve Information Section
#MNEM       .UNIT                                      API CODE :CURVE DESCRIPTION
#------------------------------------------------------------------------------
DEPT        .FT                                                 :DEPTH     
CALI        .IN                                                 :          
DCAL        .IN                                                 :          
DPHI        .%                                                  :          
DRHO        .G/C3                                               :          
GR          .GAPI                                               :          
GR_NORM     .GAPI                                               :GammaRay Normalized
ILD         .OHMM                                               :          
ILM         .OHMM                                               :          
LL3         .OHMM                                               :          
NPHI        .%                                                  :          
SP          .MV                                                 :          
SP_NORM     .MV                                                 :SP Normalized
VSH_GR      .V/V                                                :Volume of Shale from GR
VSH_SP      .V/V                                                :Volume of Shale from SP
~A        DEPTH           CALI           DCAL           DPHI           DRHO             GR        GR_NORM            ILD            ILM            LL3           NPHI             SP        SP_NORM         VSH_GR         VSH_SP
# ...
      5027.0000         11.809         1.9481        16.0322         0.0247        38.4382       40.58041         1.0675         1.2272         2.2722        18.5005       -38.6586      -35.60703      0.1612854      0.4913281
      5027.5000        11.8507          1.966         16.445         0.0313        37.3666       39.40596         1.0331         1.2243         2.3152        18.9974       -42.7927      -39.74333      0.1362969      0.4322381
      5028.0000        11.8866          1.968        17.6352         0.0325        37.1202       39.13567         0.9349          1.148         2.4106        20.1035       -46.9896      -43.94243      0.1305461       0.372251
      5028.5000        11.9147         1.9906        19.8509         0.0284        36.9547       38.95403          0.811         0.9939         2.4023        21.6554       -51.3425      -48.29753      0.1266814      0.3100353
      5029.0000        11.9447         2.0438        22.6086         0.0249        36.6846       38.65777         0.6857         0.8027          1.887         23.455       -55.9697      -52.92693       0.120378       0.243901
      5029.5000        11.9789         2.0938        25.8782         0.0197        35.8963       37.79372         0.5715         0.6298          1.759        25.2647       -60.9584      -57.91783       0.101994      0.1726024
      5030.0000        12.0238         2.1553         29.576         0.0145        34.3048        36.0496         0.4716         0.5011         1.6063        26.7689       -65.9553      -62.91693     0.06488508      0.1011867
      5030.5000        12.0909         2.2295         31.934         0.0121        32.4482       34.01502         0.3894         0.4162          1.327        28.3346       -70.3292      -67.29303     0.02159614       0.038671
      5031.0000        12.1953         2.3164        32.9362         0.0092        30.9898       32.41673         0.3263         0.3634         1.2787        29.8752       -73.6394      -70.60543              0              0
      5031.5000        12.2827         2.3662        33.3309         0.0125        29.6449       30.94282         0.2799         0.3309         1.2837        31.0888       -75.7216      -72.68983              0              0
      5032.0000        12.3119         2.3688        33.2653         0.0184        28.8857       30.11065         0.2463           0.31         1.2513        31.8019       -76.9041      -73.87453              0              0
      5032.5000        12.3274         2.3799        33.1271         0.0209        29.0237       30.26156         0.2225          0.296         1.2735        32.2292       -77.4948      -74.46743              0              0
      5033.0000        12.3276         2.3887        33.0768         0.0229        29.8662       31.18438         0.2061         0.2866         1.3164        32.7167        -77.782      -74.75683              0              0
      5033.5000        12.3168         2.3787        33.1071         0.0249        30.5165       31.89661          0.196         0.2806         1.3082        33.3065       -77.8965      -74.87353              0              0
      5034.0000        12.2961         2.3642        33.2502         0.0239        31.8683       33.37748         0.1916         0.2773         1.2744        33.6974       -78.0078      -74.98703     0.00803148              0
      5034.5000        12.2602         2.3127        33.5852         0.0185        32.1527       33.68879         0.1913         0.2759         1.2729          33.42       -78.1499      -75.13133     0.01465501              0
      5035.0000        12.2426         2.3079        33.8822         0.0115        31.9385       33.45378         0.1932          0.276         1.2753        32.5193       -78.4368      -75.42043    0.009654999              0
      5035.5000        12.2558         2.3375        34.0599         0.0077         32.176        33.7137         0.1961         0.2773          1.206        31.5366       -79.0776      -76.06343     0.01518517              0
      5036.0000        12.2981         2.3742        34.0368         0.0145        32.1173       33.64909         0.1989          0.279         1.1852         31.017       -80.3545      -77.34253     0.01381034              0
      5036.5000        12.2912         2.3516        33.7692         0.0265        31.6942       33.18519         0.2011         0.2803          1.143        31.1855       -82.0336      -79.02383    0.003940177              0
      5037.0000        12.2705         2.3833        33.4303          0.033        31.1772        32.6184         0.2025         0.2804         1.1599         31.825       -83.7159      -80.70833              0              0
      5037.5000         12.306         2.4066        33.0373         0.0335        30.2306        31.5809         0.2032         0.2788         1.1966        32.7095       -84.9418      -81.93643              0              0
      5038.0000        12.3125         2.2669        32.8294         0.0307        28.5539       29.74343         0.2032          0.276         1.1848        33.7363       -85.5361      -82.53294              0              0
      5038.5000        12.1851         2.0946        32.8039         0.0273        27.4779       28.56415         0.2027          0.273         1.1618        34.5044       -85.6998      -82.69883              0              0
      5039.0000        12.0253         1.9913        32.8043         0.0259        26.9307       27.96428         0.2021         0.2705         1.1135        34.6455       -85.8994      -82.90063              0              0
      5039.5000        11.8872         1.8818        32.7108         0.0285        26.5009       27.49304         0.2018         0.2693         1.1061         34.076       -86.0608      -83.06423              0              0
      5040.0000        11.7887         1.7915        32.5406         0.0279         26.183       27.14441         0.2031         0.2697          1.097        33.0042       -86.1462      -83.15183              0              0
      5040.5000        11.7361          1.815        32.3539         0.0286        25.9944       26.93745         0.2067         0.2725         1.0859        31.6408       -86.1613      -83.16913              0              0
      5041.0000        11.7253         1.8203        32.3275         0.0252        25.9259       26.86209         0.2127         0.2784          1.061        30.3697       -86.0859      -83.09593              0              0
      5041.5000        11.7377         1.8391        32.4236         0.0184        25.9422       26.87965         0.2197         0.2876         1.1058        29.2909       -85.8557      -82.86793              0              0
      5042.0000        11.7534         1.9246        32.5193         0.0152        26.1609       27.11898         0.2263         0.2988         1.0941        28.4392       -85.4708      -82.48523              0              0
      5042.5000        11.8028         1.9961        32.4613         0.0173        26.6063       27.60669         0.2319         0.3091         1.0226        27.8711       -84.8098      -81.82643              0              0
      5043.0000        11.8633         2.0974        32.2253         0.0186        26.7366       27.74915         0.2369         0.3161         1.0602        27.5896       -83.9945      -81.01333              0              0
      5043.5000        11.9522         2.1861        32.0666         0.0203        26.8472       27.87004         0.2421         0.3196         1.1761        27.8109       -83.2605      -80.28152              0              0
      5044.0000         12.063         2.2489        32.1217         0.0174        27.7415       28.84962         0.2469         0.3205         1.0913        28.6413         -82.63      -79.65323              0              0
      5044.5000        12.1385         2.2702        32.2767         0.0173         29.333       30.59313         0.2503         0.3202         1.0599        30.1316       -82.0311      -79.05653              0              0
