#------------------------------------------------------------------------------
# Created by    : vladimir.rabinovich
# Created on    : 09/19/2023 17:20:09
#------------------------------------------------------------------------------
~Version Information Section
VERS.           2.0     :   CWLS log ASCII Standard - VERSION 2.0
WRAP.           NO      :   One line per depth step
~Well Information Section
#MNEM       .UNIT                                         VALUE :DESCRIPTION
#------------------------------------------------------------------------------
STRT        .FT                                             880 :START DEPTH
STOP        .FT                                           10998 :STOP DEPTH
STEP        .FT                                             0.5 :STEP      
NULL        .                                           -999.25 :NULL      
COMP        .                        HUGHES TEXAS PETROLEUM LTD :COMPANY   
WELL        .                                ST TR 00564-L NE/4 :WELL      
FLD         .                       MATAGORDA ISLAND BLOCK 0565 :FIELD     
LOC         .                                                   :LOCATION  
CNTY        .                      MATAGORDA ISLAND LARGE BLOCK :LOCATION  
STAT        .                                             TEXAS :STATE     
CTRY        .                                     UNITED STATES :COUNTRY   
SRVC        .                                                   :SERVICE COMPANY
DATE        .                             9/13/2023 11:12:01 AM :LOG DATE  
API         .                                    42703303560000 :API NUMBER
UWI         .                                    42703303560000 :UNIQUE WELL ID
XCOORD      .                                  580856.659723482 :SURFACE X 
YCOORD      .                                  10268633.8274002 :SURFACE Y 
LAT         .                                         28.256926 :LATITUDE  
LON         .                                       -96.2914173 :LONGITUDE 
ELEV        .FT                                              25 :ELEVATION VALUE
ELEV_TYPE   .                                                KB :ELEVATION REFERENCE TYPE
~Curve Information Section
#MNEM       .UNIT                                      API CODE :CURVE DESCRIPTION
#------------------------------------------------------------------------------
DEPT        .FT                                                 :DEPTH     
ASFL        .OHMM                                               :          
GR          .GAPI                                               :          
GR_NORM     .GAPI                                               :GammaRay Normalized
ILD         .OHMM                                               :          
SP          .MV                                                 :          
SP_NORM     .MV                                                 :SP Normalized
VSH_GR      .V/V                                                :Volume of Shale from GR
VSH_SP      .V/V                                                :Volume of Shale from SP
~A        DEPTH           ASFL             GR        GR_NORM            ILD             SP        SP_NORM         VSH_GR         VSH_SP
# ...
      5629.5000         1.2846        -999.25        -999.25         0.6777       -98.8574      -48.60274        -999.25      0.2562072
      5630.0000         1.3285        -999.25        -999.25         0.6801      -100.3816      -50.13747        -999.25      0.2322271
      5630.5000         1.3585        -999.25        -999.25         0.6925      -101.9056        -51.672        -999.25        0.20825
      5631.0000         1.3885        -999.25        -999.25         0.7247      -103.0687      -52.84563        -999.25       0.189912
      5631.5000         1.4109        -999.25        -999.25         0.7608      -103.9006      -53.68805        -999.25      0.1767492
      5632.0000         1.4284        -999.25        -999.25         0.7789      -104.7325      -54.53048        -999.25      0.1635862
      5632.5000         1.4458        -999.25        -999.25         0.7948      -105.5638      -55.37231        -999.25      0.1504326
      5633.0000         1.4353        -999.25        -999.25         0.8095      -106.2698      -56.08884        -999.25      0.1392368
      5633.5000         1.3856        -999.25        -999.25         0.7744      -106.7729      -56.60248        -999.25      0.1312113
      5634.0000          1.336        -999.25        -999.25         0.7392      -107.2769      -57.11701        -999.25      0.1231717
      5634.5000         1.2192        -999.25        -999.25         0.7041      -107.7802      -57.63083        -999.25      0.1151432
      5635.0000         1.1366        -999.25        -999.25          0.654       -108.309      -58.17016        -999.25      0.1067162
      5635.5000         1.0944        -999.25        -999.25         0.6075      -109.1208      -58.99249        -999.25     0.09386736
      5636.0000         1.0356        -999.25        -999.25         0.5652      -109.9329      -59.81512        -999.25     0.08101368
      5636.5000           0.98        -999.25        -999.25         0.5232      -108.4686      -58.36135        -999.25      0.1037289
      5637.0000         0.9571        -999.25        -999.25         0.4908      -105.1735      -55.07678        -999.25      0.1550503
      5637.5000         0.9465        -999.25        -999.25          0.469      -101.8782      -51.79201        -999.25      0.2063748
      5638.0000         1.0316        -999.25        -999.25          0.479       -95.7843      -45.70864        -999.25      0.3014274
      5638.5000         1.0847        -999.25        -999.25         0.4976       -89.0293      -38.96417        -999.25      0.4068099
      5639.0000         1.1332        -999.25        -999.25         0.5355       -85.8164       -35.7618        -999.25      0.4568468
      5639.5000           1.16        -999.25        -999.25         0.6116       -81.1967      -31.15263        -999.25      0.5288651
      5640.0000         1.1868        -999.25        -999.25         0.7184       -77.2654      -27.23186        -999.25      0.5901271
      5640.5000         1.2136        -999.25        -999.25         0.8454       -75.3048      -25.28179        -999.25       0.620597
      5641.0000         1.2404        -999.25        -999.25         0.9374       -73.3441      -23.33162        -999.25      0.6510684
      5641.5000         1.2605        -999.25        -999.25         1.0623        -71.381      -21.37905        -999.25      0.6815774
      5642.0000         1.2805        -999.25        -999.25          1.125       -69.6959      -19.70448        -999.25      0.7077425
      5642.5000         1.3006        -999.25        -999.25         1.1741       -68.0284      -18.04751        -999.25      0.7336327
      5643.0000         1.3081        -999.25        -999.25         1.1776       -67.0481      -17.07774        -999.25      0.7487853
      5643.5000         1.3142        -999.25        -999.25         1.1281       -69.9442      -19.98437        -999.25      0.7033693
      5644.0000          1.273        -999.25        -999.25         1.0284       -72.8378       -22.8885        -999.25      0.6579922
      5644.5000         1.2314        -999.25        -999.25         0.9287       -75.7313      -25.79253        -999.25      0.6126167
      5645.0000         1.1864        -999.25        -999.25         0.8289       -81.4811      -31.55286        -999.25      0.5226116
      5645.5000         1.1393        -999.25        -999.25         0.7381       -87.8768      -37.95909        -999.25      0.4225143
      5646.0000         1.1062        -999.25        -999.25         0.6575       -94.2776      -44.37042        -999.25      0.3223372
      5646.5000         1.0878        -999.25        -999.25         0.5769      -100.6735      -50.77685        -999.25      0.2222368
      5647.0000         1.0851        -999.25        -999.25         0.4998      -106.9894      -57.10328        -999.25      0.1233863
      5647.5000          1.081        -999.25        -999.25          0.443      -111.7787      -61.90311        -999.25      0.0483889
      5648.0000         1.0646        -999.25        -999.25         0.3863      -114.9966      -65.13153        -999.25              0
      5648.5000         1.0238        -999.25        -999.25         0.3471      -116.2913      -66.43677        -999.25              0
      5649.0000         0.9841        -999.25        -999.25         0.3226      -117.3539      -67.50989        -999.25              0
      5649.5000          0.945        -999.25        -999.25         0.2981      -118.0695      -68.23603        -999.25              0
      5650.0000         0.9058        -999.25        -999.25         0.2828      -118.3391      -68.51616        -999.25              0
      5650.5000         0.8858        -999.25        -999.25         0.2747      -118.6089      -68.79649        -999.25              0
      5651.0000         0.8678        -999.25        -999.25         0.2667      -118.6628      -68.86092        -999.25              0
      5651.5000         0.8499        -999.25        -999.25         0.2586      -118.5399      -68.74855        -999.25              0
      5652.0000         0.8123        -999.25        -999.25         0.2533      -118.4172      -68.63637        -999.25              0
      5652.5000         0.7914        -999.25        -999.25         0.2542      -118.2944      -68.52411        -999.25              0
      5653.0000         0.7899        -999.25        -999.25         0.2551      -118.1487      -68.38893        -999.25              0
      5653.5000         0.7931        -999.25        -999.25         0.2561       -117.787      -68.03777        -999.25              0
      5654.0000         0.7979        -999.25        -999.25          0.257      -117.4253      -67.68659        -999.25              0
      5654.5000         0.8028        -999.25        -999.25         0.2585      -117.0636      -67.33542        -999.25              0
      5655.0000         0.8076        -999.25        -999.25          0.263      -116.7019      -66.98425        -999.25              0
      5655.5000          0.802        -999.25        -999.25         0.2676      -115.5603      -65.85318        -999.25              0
      5656.0000          0.793        -999.25        -999.25         0.2721      -114.3468      -64.65022        -999.25    0.005465388
      5656.5000         0.7731        -999.25        -999.25         0.2766      -113.1332      -63.44714        -999.25     0.02426338
      5657.0000         0.7463        -999.25        -999.25         0.2811      -111.9197      -62.24417        -999.25     0.04305983
      5657.5000         0.7195        -999.25        -999.25         0.2856      -109.7034       -60.0384        -999.25     0.07752496
      5658.0000         0.6919        -999.25        -999.25         0.3063       -107.376      -57.72153        -999.25      0.1137261
      5658.5000         0.6638        -999.25        -999.25         0.3271      -105.0487      -55.40476        -999.25      0.1499256
