#------------------------------------------------------------------------------
# Created by    : vladimir.rabinovich
# Created on    : 09/19/2023 17:21:20
#------------------------------------------------------------------------------
~Version Information Section
VERS.           2.0     :   CWLS log ASCII Standard - VERSION 2.0
WRAP.           NO      :   One line per depth step
~Well Information Section
#MNEM       .UNIT                                         VALUE :DESCRIPTION
#------------------------------------------------------------------------------
STRT        .FT                                            6712 :START DEPTH
STOP        .FT                                           10254 :STOP DEPTH
STEP        .FT                                             0.5 :STEP      
NULL        .                                           -999.25 :NULL      
COMP        .                                SHELL OFFSHORE INC :COMPANY   
WELL        .                               OCS G17145 ST00BP00 :WELL      
FLD         .                                           WILDCAT :FIELD     
LOC         .                                                   :LOCATION  
CNTY        .                           HIGH ISLAND LARGE BLOCK :LOCATION  
STAT        .                                             TEXAS :STATE     
CTRY        .                                     UNITED STATES :COUNTRY   
SRVC        .                                                   :SERVICE COMPANY
DATE        .                             9/13/2023 11:19:48 AM :LOG DATE  
API         .                                    42708404610000 :API NUMBER
UWI         .                                    42708404610000 :UNIQUE WELL ID
XCOORD      .                                  1236256.25309123 :SURFACE X 
YCOORD      .                                  10648843.7308139 :SURFACE Y 
LAT         .                                         29.336637 :LATITUDE  
LON         .                                        -94.268822 :LONGITUDE 
ELEV        .FT                                             110 :ELEVATION VALUE
ELEV_TYPE   .                                                KB :ELEVATION REFERENCE TYPE
~Curve Information Section
#MNEM       .UNIT                                      API CODE :CURVE DESCRIPTION
#------------------------------------------------------------------------------
DEPT        .FT                                                 :DEPTH     
CALI        .IN                                                 :          
CPCHM       .MMHO                                               :          
CPCM        .MMHO                                               :          
DFL         .OHMM                                               :          
DPHI        .%                                                  :          
DRHO        .G/C3                                               :          
DT          .US/F                                               :          
GR          .GAPI                                               :          
GR_NORM     .GAPI                                               :GammaRay Normalized
GRAM        .GAPI                                               :          
HDCN        .MMHO                                               :          
HDRS        .OHMM                                               :          
HMRS        .OHMM                                               :          
NPHI        .%                                                  :          
PE          .G/C3                                               :          
RACHM       .OHMM                                               :          
RACM        .OHMM                                               :          
RHOB        .G/C3                                               :          
ROPS        .F/HR                                               :          
RPCHM       .OHMM                                               :          
RPCM        .OHMM                                               :          
RPTHM       .MINS                                               :          
RPTM        .MINS                                               :          
SP01        .MV                                                 :          
TENS        .LBS                                                :          
VSH_GR      .V/V                                                :Volume of Shale from GR
~A        DEPTH           CALI          CPCHM           CPCM            DFL           DPHI           DRHO             DT             GR        GR_NORM           GRAM           HDCN           HDRS           HMRS           NPHI             PE          RACHM           RACM           RHOB           ROPS          RPCHM           RPCM          RPTHM           RPTM           SP01           TENS         VSH_GR
# ...
      9892.0000         9.0506       1908.795        -999.25         0.5678        16.6904          0.034       121.2156        60.7751       72.90088          78.21       1928.033         0.5187           0.53        36.5485         4.3583          0.567        -999.25         2.3746          6.714          0.524        -999.25       134.9385        -999.25       541.2783       4594.438      0.8489549
      9892.5000         9.0262       1919.854        -999.25         0.5748        16.6798         0.0316       117.3687        62.8816       73.71584         78.788       1868.156         0.5353          0.547        34.9742         4.4879          0.554        -999.25         2.3748         77.917          0.521        -999.25        137.271        -999.25       542.2598       4602.648      0.8662944
      9893.0000         8.9774       1802.078        -999.25         0.5967        16.8067         0.0307       118.3281        63.7086       73.95987          78.96        1763.01         0.5672         0.5809         33.069         4.6912          0.562        -999.25         2.3727         77.917          0.555        -999.25       139.0698        -999.25       542.6338       4607.898      0.8714866
      9893.5000         8.9693       1747.301        -999.25          0.708        16.5124         0.0376        121.639        64.2546       74.04625        79.0199       1610.393          0.621         0.6391        30.0613         4.7621          0.571        -999.25         2.3775          5.598          0.572        -999.25       128.9377        -999.25       542.8018       4616.453      0.8733245
      9894.0000         8.9937        1814.18        -999.25         0.9033        18.2611         0.0185       123.6499        64.0674       74.31278        79.2079        1468.48          0.681         0.7043        28.7065         5.2005          0.554        -999.25         2.3487          5.598          0.551        -999.25       129.3374        -999.25       542.7119       4611.969      0.8789954
      9894.5000         8.9855       1980.033        -999.25          0.976        20.1293        -0.0062       122.6094        64.4731       76.98975          81.11       1441.549         0.6937          0.723        30.7745         5.8611          0.525        -999.25         2.3179        40.6899          0.505        -999.25       130.0627        -999.25       542.5078        4598.75      0.9359522
      9895.0000         8.9774       2017.217        -999.25          0.877        20.8749        -0.0195       118.6968        62.4135       78.96755        82.5149       1552.268         0.6442          0.673        32.6386         6.2936           0.52        -999.25         2.3056        40.6899          0.496        -999.25       130.5671        -999.25       542.0469       4579.344       0.978033
      9895.5000         9.0343       1960.721        -999.25         0.6318        20.3197        -0.0168       116.2031        60.1666       77.93751        81.7809       1718.775         0.5818         0.6054        33.5865         6.2699          0.537        -999.25         2.3147          33.12           0.51        -999.25       130.9651        -999.25        541.707       4561.742      0.9561172
      9896.0000         9.1238        1816.41        -999.25         0.5586        19.9992        -0.0176        113.514        58.3722       76.39714         80.684       1830.842         0.5462         0.5656        34.1891         6.7934          0.557        -999.25           2.32          33.12          0.551        -999.25       131.2219        -999.25       541.3184       4565.352      0.9233434
      9896.5000         9.0832        1689.98        -999.25         0.5912        20.0104        -0.0269       118.2687        58.0914       74.35602         79.231       1842.924         0.5426         0.5568        34.9285         7.1149          0.569        -999.25         2.3198         34.877          0.592        -999.25       131.3926        -999.25         541.04       4574.336      0.8799153
      9897.0000         9.0343       1809.152        -999.25         0.6309        19.5737        -0.0313       124.8218        57.0147        73.7352         78.788       1821.701         0.5489         0.5573        35.3189         7.3528          0.567        -999.25          2.327         34.877          0.553        -999.25       131.2607        -999.25       541.0332       4586.766      0.8667064
      9897.5000         9.0506       2067.105        -999.25         0.6456        19.1178         -0.032       126.4265        59.1212       76.06315        80.4419       1840.596         0.5433         0.5481        36.9932         7.0148          0.555        -999.25         2.3346         16.876          0.484        -999.25       131.1948        -999.25       541.1807        4595.18      0.9162372
      9898.0000         9.1401       1833.594        -999.25          0.654        18.6764         -0.031        123.089        62.4447        76.1581        80.5079       1897.496          0.527         0.5328         37.067         7.1904          0.605        -999.25         2.3418         16.876          0.546        -999.25       134.5676        -999.25       541.4736       4592.766      0.9182575
      9898.5000         9.1564       1389.197        -999.25         0.6191        18.0186          -0.03        118.353        61.1808       70.62962         76.575       1950.359         0.5127         0.5222         37.214         6.7394          0.679        -999.25         2.3527         18.765          0.722        -999.25       138.3118        -999.25       541.8789       4597.063      0.8006302
      9899.0000         9.1238       1304.832        -999.25         0.6164        18.4637        -0.0378       120.3047        59.8857       62.81288        71.0149       1968.418          0.508         0.5202         36.899         6.8999           0.76        -999.25         2.3453         18.765          0.767        -999.25       139.9292        -999.25       541.7832       4600.328      0.6343166
      9899.5000         9.0262       1294.129        -999.25         0.6319        20.0706        -0.0477       126.7749        61.9922       52.85455        63.9319       1936.131         0.5165         0.5286        36.8655         7.0591          0.905        -999.25         2.3188         21.478          0.775        -999.25       140.9514        -999.25       541.4482       4609.508      0.4224373
      9900.0000         8.9449       813.4736        -999.25         0.7092        22.0479         -0.062       128.3108        60.4474       43.38575         57.197       1874.037         0.5336         0.5437        35.7814         7.4799          1.063        -999.25         2.2862         21.478          1.268        -999.25       141.2957        -999.25       541.0059        4613.07      0.2209735
      9900.5000         9.0913       453.7109        -999.25         0.7596        21.4657        -0.0618       124.7921        59.8389       34.28947         50.727       1844.834         0.5421          0.549        34.7917         7.7199          1.282        -999.25         2.2958         14.532          2.213        -999.25       141.4832        -999.25       540.4365       4607.945     0.02743546
      9901.0000         9.1889       428.5049        -999.25         0.6751        20.7926        -0.0707       119.4265        61.1496       29.28397         47.166       1884.283         0.5307          0.539         35.269         8.2225          1.534        -999.25         2.3069         14.532          2.334        -999.25       141.0823        -999.25       539.6289       4609.758              0
      9901.5000         9.1157       377.8008        -999.25         0.5428        18.7601        -0.0772       116.5343        56.7963       29.57158         47.369        1891.73         0.5286         0.5428        37.3278         9.2951          1.534        -999.25         2.3405         11.006          2.647        -999.25       136.6382        -999.25       538.8525       4608.031              0
