#------------------------------------------------------------------------------
# Created by    : vladimir.rabinovich
# Created on    : 09/19/2023 17:22:28
#------------------------------------------------------------------------------
~Version Information Section
VERS.           2.0     :   CWLS log ASCII Standard - VERSION 2.0
WRAP.           NO      :   One line per depth step
~Well Information Section
#MNEM       .UNIT                                         VALUE :DESCRIPTION
#------------------------------------------------------------------------------
STRT        .FT                                            2000 :START DEPTH
STOP        .FT                                            7372 :STOP DEPTH
STEP        .FT                                             0.5 :STEP      
NULL        .                                           -999.25 :NULL      
COMP        .                       CORPUS CHRISTI OIL & GAS CO :COMPANY   
WELL        .                                ST TR 00596-L SE/4 :WELL      
FLD         .                                           WILDCAT :FIELD     
LOC         .                                                   :LOCATION  
CNTY        .                      MATAGORDA ISLAND LARGE BLOCK :LOCATION  
STAT        .                                             TEXAS :STATE     
CTRY        .                                     UNITED STATES :COUNTRY   
SRVC        .                                                   :SERVICE COMPANY
DATE        .                             9/13/2023 11:19:13 AM :LOG DATE  
API         .                                    42703300520000 :API NUMBER
UWI         .                                    42703300520000 :UNIQUE WELL ID
XCOORD      .                                  480173.649028781 :SURFACE X 
YCOORD      .                                  10231220.1013933 :SURFACE Y 
LAT         .                                        28.1462983 :LATITUDE  
LON         .                                       -96.6002451 :LONGITUDE 
ELEV        .FT                                              82 :ELEVATION VALUE
ELEV_TYPE   .                                                GL :ELEVATION REFERENCE TYPE
~Curve Information Section
#MNEM       .UNIT                                      API CODE :CURVE DESCRIPTION
#------------------------------------------------------------------------------
DEPT        .FT                                                 :DEPTH     
CILD        .MMHO                                               :          
ILD         .OHMM                                               :          
SN          .OHMM                                               :          
SP          .MV                                                 :          
SP_NORM     .MV                                                 :SP Normalized
VSH_SP      .V/V                                                :Volume of Shale from SP
~A        DEPTH           CILD            ILD             SN             SP        SP_NORM         VSH_SP
# ...
      7320.0000       928.0721         1.0775          1.677       -37.3224      -7.109703      0.9114536
      7320.5000       959.3708         1.0423         1.6444       -40.3299      -10.09665      0.8681645
      7321.0000       990.6695         1.0094         1.6117       -43.3373       -13.0835      0.8248768
      7321.5000       1021.968         0.9785         1.5791       -46.3448      -16.07044      0.7815878
      7322.0000       1058.184          0.945         1.5464       -49.3522      -19.05729      0.7383002
      7322.5000       1046.876         0.9552         1.5138       -52.2615      -21.94604      0.6964343
      7323.0000       1035.568         0.9657         1.4811       -49.8476      -19.51158      0.7317162
      7323.5000        1024.26         0.9763         1.4485       -47.4337      -17.07713      0.7669982
      7324.0000       1014.252         0.9859         1.4158       -45.0198      -14.64267      0.8022801
      7324.5000       1014.265         0.9859         1.3832       -42.6059      -12.20822       0.837562
      7325.0000       1018.277         0.9821         1.3505        -40.192      -9.773766       0.872844
      7325.5000        1018.29          0.982         1.3103       -38.4811      -8.042309      0.8979375
      7326.0000       1042.295         0.9594         1.2703        -37.685      -7.225658      0.9097731
      7326.5000       1050.306         0.9521         1.2703       -37.2833      -6.803402      0.9158927
      7327.0000       1054.317         0.9485         1.2543       -33.3859      -2.885448      0.9726747
      7327.5000       1058.329         0.9449         1.2502       -26.6981       3.822905              1
      7328.0000       1058.343         0.9449         1.2462       -25.6998       4.841757              1
      7328.5000       1066.366         0.9378         1.2462       -25.3008       5.261312              1
      7329.0000       1062.368         0.9413         1.2502       -25.3012       5.281466              1
      7329.5000       1046.386         0.9557         1.2461       -27.1209       3.482321              1
      7330.0000       1034.403         0.9667         1.2541       -28.9406       1.683174              1
      7330.5000       1034.416         0.9667         1.2616       -30.7604     -0.1160736              1
      7331.0000       1026.432         0.9742          1.269       -32.5801       -1.91522      0.9867359
      7331.5000       1022.446          0.978         1.2701         -35.09      -4.404566      0.9506584
      7332.0000       1022.459          0.978          1.282       -35.0902      -4.384209      0.9509535
      7332.5000       1022.472          0.978         1.2938       -34.8906      -4.164055      0.9541441
      7333.0000       1022.486          0.978         1.3057       -34.4915      -3.744404      0.9602261
      7333.5000       1022.499          0.978         1.3176       -33.8927       -3.12505      0.9692022
      7334.0000        1011.17          0.989         1.3295       -33.4936      -2.705395      0.9752842
      7334.5000        1006.53         0.9935         1.3414       -33.4939      -2.685143      0.9755777
      7335.0000       999.6425         1.0004         1.3533        -33.694      -2.864689      0.9729756
      7335.5000       986.5748         1.0136         1.3651        -33.894      -3.044134      0.9703749
      7336.0000       968.8847         1.0321          1.377       -34.0941       -3.22368      0.9677727
      7336.5000       951.1946         1.0513         1.3889       -34.8933      -4.002325       0.956488
      7337.0000       930.6296         1.0745         1.4018       -35.2931      -4.381571      0.9509917
      7337.5000       934.6285         1.0699         1.4018        -34.894       -3.96192      0.9570736
      7338.0000       974.6303          1.026         1.4058       -34.6946      -3.741964      0.9602614
      7338.5000       982.6411         1.0177         1.3738       -34.2955      -3.322313      0.9663433
      7339.0000       998.6498         1.0014         1.3658       -33.6968      -2.703056       0.975318
      7339.5000       1002.662         0.9973         1.3778       -33.4974      -2.483101      0.9785058
      7340.0000       1010.686         0.9894         1.4079       -32.6989      -1.664047      0.9903761
      7340.5000       1001.705         0.9983         1.4381       -32.2998      -1.244396      0.9964581
      7341.0000        998.702         1.0013         1.4697       -32.1005       -1.02454      0.9996443
      7341.5000       979.2809         1.0212         1.4657       -31.1023   -0.005788803              1
      7342.0000       959.8597         1.0418         1.4467          -30.4      0.7170658              1
      7342.5000       940.4385         1.0633         1.4276       -30.1045       1.033121              1
      7343.0000       914.7885         1.0931         1.4086       -29.9052       1.252975              1
      7343.5000       910.7895         1.0979         1.3896        -30.904      0.2747288              1
      7344.0000       924.8899         1.0812         1.3706       -31.1041     0.09518242              1
      7344.5000       938.9904          1.065         1.3516       -33.1014      -1.881563      0.9872237
      7345.0000       953.0908         1.0492         1.3325       -34.1003      -2.859911      0.9730448
      7345.5000       967.1912         1.0339         1.3135       -33.3018      -2.040857      0.9849151
      7346.0000       981.2917         1.0191         1.2945       -32.5034      -1.221901       0.996784
      7346.5000       995.3921         1.0046         1.2755       -32.1044     -0.8023491              1
      7347.0000       1009.493         0.9906         1.2565       -31.1063      0.2163048              1
      7347.5000       1023.593          0.977         1.2374       -31.2044       0.120903              1
      7348.0000       1037.693         0.9637         1.2184       -31.3026     0.02270126              1
      7348.5000       1051.794         0.9508         1.2055       -31.9061     -0.5807972              1
      7349.0000       1065.894         0.9382         1.2215       -32.9049      -1.579597         0.9916
      7349.5000       1079.995         0.9259           1.23        -33.704      -2.378696      0.9800189
      7350.0000       1106.928         0.9034         1.2614       -34.1037      -2.778397      0.9742261
      7350.5000       1106.939         0.9034         1.2774       -34.1041      -2.778797      0.9742203
      7351.0000       1102.942         0.9067         1.2814       -33.3057      -1.980396      0.9857914
      7351.5000       1086.958           0.92         1.2749       -32.5076      -1.182297       0.997358
      7352.0000       1082.973         0.9234         1.2653       -32.1086     -0.7832985              1
      7352.5000       1078.987         0.9268         1.2588       -31.9093     -0.5839977              1
      7353.0000       1075.001         0.9302         1.2493       -32.1093     -0.7839966              1
      7353.5000       1071.015         0.9337         1.2482       -32.5171      -1.191799      0.9972203
      7354.0000        1063.03         0.9407         1.2472       -33.3081        -1.9828      0.9857565
      7354.5000       1047.046         0.9551         1.2533       -33.5081      -2.182796       0.982858
      7355.0000       1039.061         0.9624         1.2837       -34.9062      -3.580898      0.9625957
      7355.5000       1027.076         0.9736         1.3141       -34.9065        -3.5812      0.9625913
      7356.0000       1006.253         0.9938         1.3445       -35.3062      -3.980896      0.9567986
      7356.5000       999.1074         1.0009         1.3692       -34.4917      -3.166397       0.968603
      7357.0000       971.1255         1.0297         1.3692       -33.7095      -2.384197      0.9799392
      7357.5000       963.1399         1.0383         1.3651       -33.1109      -1.785599      0.9886145
