#------------------------------------------------------------------------------
# Created by    : vladimir.rabinovich
# Created on    : 09/19/2023 17:22:17
#------------------------------------------------------------------------------
~Version Information Section
VERS.           2.0     :   CWLS log ASCII Standard - VERSION 2.0
WRAP.           NO      :   One line per depth step
~Well Information Section
#MNEM       .UNIT                                         VALUE :DESCRIPTION
#------------------------------------------------------------------------------
STRT        .FT                                            2222 :START DEPTH
STOP        .FT                                            8603 :STOP DEPTH
STEP        .FT                                             0.5 :STEP      
NULL        .                                           -999.25 :NULL      
COMP        .                                    HRUBETZ OIL CO :COMPANY   
WELL        .                                     ST TR 00028-L :WELL      
FLD         .                                           WILDCAT :FIELD     
LOC         .                                                   :LOCATION  
CNTY        .                           HIGH ISLAND LARGE BLOCK :LOCATION  
STAT        .                                             TEXAS :STATE     
CTRY        .                                     UNITED STATES :COUNTRY   
SRVC        .                                                   :SERVICE COMPANY
DATE        .                             9/13/2023 11:19:15 AM :LOG DATE  
API         .                                    42708303040000 :API NUMBER
UWI         .                                    42708303040000 :UNIQUE WELL ID
XCOORD      .                                  1211101.11829014 :SURFACE X 
YCOORD      .                                  10709910.5532953 :SURFACE Y 
LAT         .                                         29.503814 :LATITUDE  
LON         .                                       -94.3499952 :LONGITUDE 
ELEV        .FT                                              60 :ELEVATION VALUE
ELEV_TYPE   .                                                KB :ELEVATION REFERENCE TYPE
~Curve Information Section
#MNEM       .UNIT                                      API CODE :CURVE DESCRIPTION
#------------------------------------------------------------------------------
DEPT        .FT                                                 :DEPTH     
CALI        .IN                                                 :          
GR          .GAPI                                               :          
GR_NORM     .GAPI                                               :GammaRay Normalized
ILD         .OHMM                                               :          
ILM         .OHMM                                               :          
RHOB        .G/C3                                               :          
SFL         .OHMM                                               :          
SP          .MV                                                 :          
SP_NORM     .MV                                                 :SP Normalized
VSH_GR      .V/V                                                :Volume of Shale from GR
VSH_SP      .V/V                                                :Volume of Shale from SP
~A        DEPTH           CALI             GR        GR_NORM            ILD            ILM           RHOB            SFL             SP        SP_NORM         VSH_GR         VSH_SP
# ...
      8162.0000        11.7969        69.3708       69.71808         0.8101         0.8443         2.1507         1.2148       -75.4543      -5.595581      0.7812357      0.9452907
      8162.5000        11.6775        70.3175       70.97698         0.7853         0.8321         2.1718         1.2521        -74.626      -4.798401      0.8080209      0.9547809
      8163.0000        11.5848        71.0831       71.99507         0.7613           0.82         2.1795         1.2105        -73.916      -4.119522      0.8296824      0.9628628
      8163.5000        11.5388        71.8489       73.01342         0.7391         0.8096         2.1671         1.1651       -73.3867      -3.621346      0.8513494      0.9687935
      8164.0000        11.4927        73.5551       75.28231         0.7278         0.8012         2.1575         1.1324       -73.1943      -3.460068      0.8996236      0.9707135
      8164.5000        11.4826         75.994       78.52553         0.7167         0.7928         2.1576         1.1292       -73.0016      -3.298492      0.9686282       0.972637
      8165.0000        11.4755        77.4592       80.47392         0.7058         0.7845         2.1834         1.1316       -72.7501       -3.07811              1      0.9752606
      8165.5000        11.4684        77.0868       79.97872         0.6999          0.785         2.2053          1.134       -72.4189       -2.77803      0.9995472       0.978833
      8166.0000         11.464        76.5321       79.24108         0.6984         0.7858         2.2191         1.1365       -72.0878       -2.47805      0.9838528      0.9824042
      8166.5000         11.462        75.8986       78.39866         0.6969         0.7866         2.2233          1.139       -71.7903       -2.21167      0.9659289      0.9855754
      8167.0000          11.46        75.7169       78.15704         0.6954         0.7872         2.2257         1.1415       -71.5757      -2.028191      0.9607881      0.9877596
      8167.5000         11.458        76.1805       78.77353         0.6939         0.7873         2.2278         1.1495        -71.361      -1.844612      0.9739048      0.9899451
      8168.0000         11.456         76.644       79.38988         0.6998         0.7875         2.2289         1.1626       -71.1464      -1.661133      0.9870188      0.9921294
      8168.5000         11.454        77.1113       80.01129         0.7063         0.7876         2.2284          1.175       -70.9314      -1.477249              1      0.9943185
      8169.0000        11.4564        77.3712       80.35691         0.7129         0.7878         2.2279         1.1739       -70.8134      -1.390381              1      0.9953526
      8169.5000        11.4597        76.5077       79.20863         0.7195         0.7885         2.2275         1.1738       -70.7202        -1.3283      0.9831624      0.9960917
      8170.0000         11.463        75.4044       77.74149         0.7261         0.7892         2.2383         1.1781       -70.6272      -1.266418      0.9519465      0.9968284
      8170.5000        11.4663        74.0884       75.99149         0.7316           0.79         2.2476         1.1878       -70.5342      -1.204544      0.9147125       0.997565
      8171.0000        11.4696        73.1001       74.67725         0.7371         0.7908         2.2434          1.196       -70.4673      -1.168762      0.8867499      0.9979909
      8171.5000        11.4729        73.4841       75.18789         0.7426         0.7916         2.2358         1.2012       -70.4016      -1.134186      0.8976147      0.9984025
      8172.0000        11.4756        74.7538       76.87632         0.7439         0.7924         2.2267          1.204       -70.3359      -1.099602      0.9335387      0.9988143
      8172.5000        11.4765        76.3169       78.95492         0.7433         0.7932         2.2177         1.2013       -70.4994       -1.29422      0.9777642      0.9964974
      8173.0000        11.4774        77.6857       80.77512         0.7501         0.7916         2.2099         1.1991       -70.8838       -1.70974              1      0.9915507
      8173.5000        11.4784        77.8376       80.97712         0.7607         0.7874          2.201         1.2066       -71.2681       -2.12516              1      0.9866052
      8174.0000        11.4793        76.7389       79.51608         0.7714         0.7833         2.1814         1.2141       -71.6924      -2.580582      0.9897039      0.9811835
      8174.5000        11.4802        75.5586       77.94654         0.7769         0.7792         2.1676         1.2187       -72.1768      -3.096115      0.9563094      0.9750463
      8175.0000        11.4812        75.7445       78.19374         0.7705         0.7788         2.1576         1.2231       -72.6611      -3.611534       0.961569      0.9689103
      8175.5000        11.4741        76.3193        78.9581         0.7641         0.7784         2.1514         1.2231       -73.1454      -4.126953      0.9778319      0.9627744
      8176.0000        11.4629        77.5889       80.64639         0.7511         0.7774         2.1503         1.2005       -73.3322      -4.344872              1      0.9601801
      8176.5000        11.4518        78.8585       82.33469         0.7381         0.7758         2.1491         1.1734       -73.2582      -4.301994              1      0.9606906
      8177.0000        11.4406        78.2518       81.52792         0.7551          0.778         2.1466         1.1771       -73.1841       -4.25901              1      0.9612023
      8177.5000        11.4294          75.95       78.46701         0.7729          0.797         2.1407         1.2006       -73.1421      -4.248131      0.9673832      0.9613318
      8178.0000        11.4182        74.4064       76.41435         0.7911         0.8165         2.1214          1.238       -73.1104      -4.247551      0.9237096      0.9613387
      8178.5000        11.4079        73.4573       75.15225         0.8204         0.8383           2.11         1.2359       -73.0786      -4.246872      0.8968564      0.9613467
      8179.0000        11.4013         73.549        75.2742         0.8526         0.8617         2.1108         1.2214       -73.0469      -4.246292      0.8994511      0.9613537
      8179.5000        11.3948        74.1624       76.08989         0.8861         0.8857         2.1346         1.2365       -72.9261      -4.156624      0.9168062      0.9624211
      8180.0000        11.3882        74.7751       76.90465         0.8909          0.891         2.1711         1.2841       -72.7666      -4.028244      0.9341415      0.9639495
      8180.5000        11.3817        75.3256       77.63669         0.8908          0.891         2.1836         1.3235       -72.6069      -3.899666      0.9497167      0.9654801
      8181.0000        11.3818        75.8582       78.34494         0.8906         0.8909         2.1857         1.3113       -72.4373      -3.761185      0.9647859      0.9671288
      8181.5000        11.3854        76.1262       78.70132         0.8765         0.8808         2.1859         1.2775       -71.8033      -3.158302      0.9723684      0.9743059
      8182.0000         11.389        76.1022       78.66941         0.8567         0.8557         2.1844         1.2445       -71.1696      -2.555725      0.9716896      0.9814795
      8182.5000        11.3925        75.9408       78.45479         0.8373         0.8313         2.1799         1.2129       -70.5356      -1.952843      0.9671232      0.9886566
      8183.0000        11.3961        75.7316       78.17658         0.8183         0.8076         2.1754          1.207       -70.1998      -1.648163      0.9612039      0.9922838
      8183.5000         11.409        75.5242       77.90079         0.7998         0.7846         2.1672         1.2012       -69.8972      -1.376686      0.9553359      0.9955156
      8184.0000        11.4415        75.3832       77.71329         0.7817         0.7622         2.1545         1.1969       -69.9558      -1.466408      0.9513467      0.9944475
