#------------------------------------------------------------------------------
# Created by    : vladimir.rabinovich
# Created on    : 09/19/2023 17:19:48
#------------------------------------------------------------------------------
~Version Information Section
VERS.           2.0     :   CWLS log ASCII Standard - VERSION 2.0
WRAP.           NO      :   One line per depth step
~Well Information Section
#MNEM       .UNIT                                         VALUE :DESCRIPTION
#------------------------------------------------------------------------------
STRT        .FT                                             960 :START DEPTH
STOP        .FT                                            9172 :STOP DEPTH
STEP        .FT                                             0.5 :STEP      
NULL        .                                           -999.25 :NULL      
COMP        .                                ODECO OIL & GAS CO :COMPANY   
WELL        .                               OCS G06101 ST00BP00 :WELL      
FLD         .                                           WILDCAT :FIELD     
LOC         .                                                   :LOCATION  
CNTY        .                             GALVESTON LARGE BLOCK :LOCATION  
STAT        .                                             TEXAS :STATE     
CTRY        .                                     UNITED STATES :COUNTRY   
SRVC        .                                                   :SERVICE COMPANY
DATE        .                             9/13/2023 11:19:27 AM :LOG DATE  
API         .                                    42706401070000 :API NUMBER
UWI         .                                    42706401070000 :UNIQUE WELL ID
XCOORD      .                                  1041316.87817256 :SURFACE X 
YCOORD      .                                  10447909.9182991 :SURFACE Y 
LAT         .                                         28.776905 :LATITUDE  
LON         .                                        -94.870587 :LONGITUDE 
ELEV        .FT                                              92 :ELEVATION VALUE
ELEV_TYPE   .                                                KB :ELEVATION REFERENCE TYPE
~Curve Information Section
#MNEM       .UNIT                                      API CODE :CURVE DESCRIPTION
#------------------------------------------------------------------------------
DEPT        .FT                                                 :DEPTH     
ASFL        .OHMM                                               :          
GR          .GAPI                                               :          
GR_NORM     .GAPI                                               :GammaRay Normalized
ILD         .OHMM                                               :          
SP          .MV                                                 :          
SP_NORM     .MV                                                 :SP Normalized
VSH_GR      .V/V                                                :Volume of Shale from GR
VSH_SP      .V/V                                                :Volume of Shale from SP
~A        DEPTH           ASFL             GR        GR_NORM            ILD             SP        SP_NORM         VSH_GR         VSH_SP
# ...
      3143.0000         0.8572        74.9337       85.38374          0.938       -79.1392      -5.473781              1      0.9087703
      3143.5000         0.8533        76.1067       87.10859         0.9378       -79.1769      -5.526567              1      0.9078906
      3144.0000         0.8489        77.2792       88.83272         0.9377       -79.2356      -5.608748              1      0.9065208
      3144.5000         0.8446        77.7371       89.50656         0.9375       -79.2943      -5.690918              1      0.9051514
      3145.0000         0.8402         77.538       89.21484         0.9374       -79.3529       -5.77296              1       0.903784
      3145.5000         0.8364        77.4724       89.11926         0.9373       -79.4116      -5.855141              1      0.9024143
      3146.0000         0.8333        77.5334        89.2098         0.9371       -79.4341       -5.88664              1      0.9018893
      3146.5000         0.8316        77.5945       89.30046          0.937       -79.4238       -5.87222              1      0.9021297
      3147.0000           0.83        77.6556       89.39114         0.9369       -79.4136      -5.857939              1      0.9023677
      3147.5000         0.8321        77.7167        89.4818         0.9382       -79.4033       -5.84352              1       0.902608
      3148.0000         0.8347        77.8552       89.68623         0.9398       -79.3931      -5.829239              1       0.902846
      3148.5000         0.8373          78.02       89.92932         0.9414       -79.3761      -5.805441              1      0.9032426
      3149.0000         0.8399        78.1849       90.17253         0.9431        -79.337        -5.7507              1       0.904155
      3149.5000         0.8426        78.3042       90.34875         0.9447       -79.2979       -5.69596              1      0.9050673
      3150.0000         0.8452        77.6696       89.41694         0.9463       -79.2588      -5.641219              1      0.9059797
      3150.5000         0.8478        77.0345       88.48439          0.948       -79.2196      -5.586339              1      0.9068943
      3151.0000         0.8504        76.3999       87.55257         0.9496       -79.1805      -5.531598              1      0.9078067
      3151.5000         0.8531        75.7651       86.62045         0.9512       -79.1414      -5.476868              1      0.9087189
      3152.0000          0.857        75.1191       85.67188         0.9529       -79.1064      -5.427863              1      0.9095356
      3152.5000         0.8615         74.444       84.68054         0.9545       -79.0718      -5.379424              1      0.9103429
      3153.0000         0.8661        73.7683       83.68832         0.9552       -79.0371      -5.330846              1      0.9111525
      3153.5000         0.8707        73.0931       82.69683         0.9554       -79.0024      -5.282268              1      0.9119622
      3154.0000          0.875        72.4178       81.70519         0.9557       -78.9677      -5.233679              1       0.912772
      3154.5000         0.8719        71.7423       80.71326          0.956        -78.933      -5.185102              1      0.9135817
      3155.0000         0.8688         71.067       79.72163         0.9562       -78.8983      -5.136523      0.9940771      0.9143913
      3155.5000         0.8714        70.3917       78.72999         0.9565       -78.8636      -5.087945      0.9729785      0.9152009
      3156.0000          0.874        69.9038       78.01379         0.9567       -78.8772      -5.106979      0.9577401      0.9148837
      3156.5000         0.8765        69.4539       77.35343          0.957       -78.8914      -5.126868      0.9436901      0.9145522
      3157.0000         0.8791         69.004       76.69306         0.9573       -78.9055      -5.146606      0.9296396      0.9142233
      3157.5000         0.8861        68.5538       76.03228         0.9575       -78.9197      -5.166484      0.9155805      0.9138919
      3158.0000         0.8975         68.104       75.37204         0.9583       -78.9337      -5.186084      0.9015328      0.9135653
      3158.5000          0.909        67.6542       74.71184         0.9592       -78.9479      -5.205962      0.8874859       0.913234
      3159.0000         0.9204        67.3647       74.28723         0.9601        -78.962        -5.2257      0.8784517       0.912905
      3159.5000         0.9311        67.1455       73.96593         0.9611       -78.9762      -5.245578      0.8716156      0.9125737
      3160.0000         0.9378        66.9264       73.64478          0.962       -78.9904      -5.265466      0.8647826      0.9122422
      3160.5000         0.9446        66.7593       73.40006         0.9629       -79.0045      -5.285205      0.8595758      0.9119133
      3161.0000         0.9513        67.5007       74.49059         0.9638       -79.0187      -5.305083      0.8827784      0.9115819
      3161.5000         0.9517        68.2418       75.58067         0.9648       -79.0327      -5.324683      0.9059716      0.9112553
      3162.0000          0.949        68.9833       76.67135         0.9657       -79.0469       -5.34456      0.9291776       0.910924
      3162.5000         0.9465        69.7247       77.76186         0.9666        -79.061      -5.364299      0.9523801       0.910595
      3163.0000         0.9442        70.4662       78.85254         0.9675       -79.0752      -5.384187      0.9755859      0.9102635
      3163.5000         0.9418        71.5903       80.50552         0.9687       -79.0894      -5.404065              1      0.9099323
      3164.0000         0.9395        72.9116       82.44834           0.97       -79.0624      -5.366264              1      0.9105623
      3164.5000         0.9371        71.6807       80.64012         0.9713       -79.0249      -5.313766              1      0.9114372
      3165.0000         0.9348        69.4347          77.34         0.9726       -78.9875      -5.261407      0.9434042      0.9123099
      3165.5000         0.9307        68.8573       76.49224         0.9739       -78.9502      -5.209188      0.9253668      0.9131802
      3166.0000         0.9264        68.3904        75.8069         0.9752       -78.9127      -5.156679      0.9107851      0.9140553
      3166.5000         0.9221        67.9231       75.12098         0.9766       -78.8754      -5.104459      0.8961911      0.9149257
      3167.0000         0.9177        67.4562       74.43562         0.9779       -78.8379      -5.051961       0.881609      0.9158006
      3167.5000         0.9134        67.0177       73.79203         0.9792       -78.8005      -4.999602      0.8679155      0.9166733
      3168.0000         0.9091        67.2672       74.15958         0.9805       -78.7632      -4.947381      0.8757356      0.9175436
      3168.5000         0.9047        67.5167       74.52715         0.9818       -78.7257      -4.894884      0.8835564      0.9184186
      3169.0000         0.9008        67.7662       74.89471          0.982       -78.7079      -4.869965      0.8913769      0.9188339
      3169.5000         0.8972        68.0157       75.26229         0.9819       -78.7067      -4.868288      0.8991977      0.9188619
      3170.0000         0.8936        68.2651        75.6297         0.9818       -78.7054      -4.866461      0.9070149      0.9188923
      3170.5000         0.8916        68.5146       75.99727         0.9816       -78.7041      -4.864645      0.9148355      0.9189226
      3171.0000         0.8957        69.5286       77.48843         0.9815       -78.7029      -4.862968      0.9465624      0.9189505
      3171.5000         0.9097        70.8187        79.3854         0.9813       -78.7017      -4.861281      0.9869234      0.9189786
      3172.0000         0.9237        72.1089       81.28251         0.9838       -78.7003      -4.859326              1      0.9190112
