#------------------------------------------------------------------------------
# Created by    : vladimir.rabinovich
# Created on    : 09/19/2023 17:22:15
#------------------------------------------------------------------------------
~Version Information Section
VERS.           2.0     :   CWLS log ASCII Standard - VERSION 2.0
WRAP.           NO      :   One line per depth step
~Well Information Section
#MNEM       .UNIT                                         VALUE :DESCRIPTION
#------------------------------------------------------------------------------
STRT        .FT                                             712 :START DEPTH
STOP        .FT                                            8940 :STOP DEPTH
STEP        .FT                                             0.5 :STEP      
NULL        .                                           -999.25 :NULL      
COMP        .                                      SHELL OIL CO :COMPANY   
WELL        .                               OCS G03086 ST00BP00 :WELL      
FLD         .                                           WILDCAT :FIELD     
LOC         .                                                   :LOCATION  
CNTY        .                      MATAGORDA ISLAND LARGE BLOCK :LOCATION  
STAT        .                                             TEXAS :STATE     
CTRY        .                                     UNITED STATES :COUNTRY   
SRVC        .                                                   :SERVICE COMPANY
DATE        .                             9/13/2023 11:19:05 AM :LOG DATE  
API         .                                    42703400050000 :API NUMBER
UWI         .                                    42703400050000 :UNIQUE WELL ID
XCOORD      .                                  597395.628989583 :SURFACE X 
YCOORD      .                                    10217429.66268 :SURFACE Y 
LAT         .                                         28.117488 :LATITUDE  
LON         .                                        -96.235866 :LONGITUDE 
ELEV        .FT                                              93 :ELEVATION VALUE
ELEV_TYPE   .                                                KB :ELEVATION REFERENCE TYPE
~Curve Information Section
#MNEM       .UNIT                                      API CODE :CURVE DESCRIPTION
#------------------------------------------------------------------------------
DEPT        .FT                                                 :DEPTH     
CALI        .IN                                                 :          
DRHO        .G/C3                                               :          
DT          .US/F                                               :          
GR          .GAPI                                               :          
GR_1        .GAPI                                               :          
GR_NORM     .GAPI                                               :GammaRay Normalized
ILD         .OHMM                                               :          
NPHI        .%                                                  :          
RHOB        .G/C3                                               :          
SFL         .OHMM                                               :          
SP          .MV                                                 :          
SP_NORM     .MV                                                 :SP Normalized
VSH_GR      .V/V                                                :Volume of Shale from GR
VSH_SP      .V/V                                                :Volume of Shale from SP
~A        DEPTH           CALI           DRHO             DT             GR           GR_1        GR_NORM            ILD           NPHI           RHOB            SFL             SP        SP_NORM         VSH_GR         VSH_SP
# ...
      8380.0000        11.1166        -0.0899        -999.25        55.3344        46.8669       70.40435          0.821        31.4631         2.3789         0.8883       -68.1067      -27.75982      0.7958372      0.3918222
      8380.5000        11.1635        -0.0791        -999.25        50.8084         45.562       66.97388         0.7634        30.4977         2.3575         1.0313       -71.1671      -30.81517      0.7228485      0.3223826
      8381.0000        11.1862        -0.0646        -999.25        48.2248        44.2286       63.46839         0.7348        28.9926         2.4007          1.148        -72.696        -32.339      0.6482636      0.2877499
      8381.5000         11.168        -0.0562        -999.25        50.1198          43.57       61.73829         0.7058        26.4666         2.4361         1.2429       -72.3622      -32.00014      0.6114531      0.2954513
      8382.0000        11.2826        -0.0711        -999.25        51.6717        42.7727       59.64327         0.6821        26.2852         2.4286         1.3457       -72.4374      -32.07029      0.5668781      0.2938571
      8382.5000        11.3631        -0.1052        -999.25        49.8702         42.137       57.97343         0.6737        28.2835         2.3503          1.302       -73.3077      -32.93552      0.5313497      0.2741926
      8383.0000         11.357        -0.1222        -999.25        48.3134        42.1822       58.09507         0.6635        31.1573         2.3543         1.0292       -73.6519      -33.27467      0.5339376      0.2664849
      8383.5000        11.2396        -0.0993        -999.25        48.1168        43.4821       61.51776         0.6458        33.7567         2.3917         0.9102       -71.9744      -31.59211      0.6067609      0.3047249
      8384.0000        11.2212         -0.089        -999.25        49.9002        44.7944       64.97305         0.6225        34.6434         2.4094         0.9025       -69.5874      -29.20005      0.6802776      0.3590899
      8384.5000        11.2191        -0.0861        -999.25         52.253        45.9062       67.90088         0.6188         34.121         2.4031         0.8916        -66.631      -26.23858      0.7425719      0.4263959
      8385.0000        11.2103         -0.093        -999.25        53.7525        46.9213       70.57424         0.6401        33.6585         2.4186         0.8659       -63.8405      -23.44302      0.7994519      0.4899313
      8385.5000         11.258        -0.0897        -999.25        55.6736        48.9269       75.85364         0.6739        33.4449         2.4337         0.8781       -61.0475      -20.64496      0.9117795      0.5535236
      8386.0000        11.2461        -0.0732        -999.25        58.3184        51.6754       83.08753         0.7164        33.5704         2.4697         0.9713       -60.1784       -19.7708              1       0.573391
      8386.5000        11.1831        -0.0662        -999.25        58.7151        51.7676       83.33282          0.757        34.1064         2.4796         1.0194       -59.4999      -19.08724              1      0.5889263
      8387.0000        11.1925        -0.0523        -999.25        56.1477           51.2       81.84216         0.7848         33.804         2.4764         0.9965       -59.3737      -18.95598              1      0.5919096
      8387.5000        11.1568        -0.0389        -999.25        50.3643        49.6797       77.84496         0.7789        30.2998         2.5005         0.9496        -61.778      -21.35522       0.954148      0.5373814
      8388.0000        10.9646        -0.0383        -999.25        48.1543        47.5602       72.27123         0.7588        27.2116         2.4719         1.2011       -65.4772      -25.04936      0.8355581      0.4534236
      8388.5000        10.9608        -0.0673        -999.25        48.6053        45.5892        67.0883          0.731        26.3002         2.4076         1.8918       -69.1293       -28.6964       0.725283      0.3705363
      8389.0000        11.0406        -0.0949        -999.25         47.215        44.0491       63.03895         0.6966        30.4227         2.3249         1.5803       -70.9615      -30.52354      0.6391265      0.3290105
      8389.5000        10.9545        -0.1231        -999.25        50.3693        43.4456       61.45385          0.664        32.0297         2.3364         1.1038       -72.3643      -31.92128       0.605401      0.2972436
      8390.0000        10.9157        -0.0977        -999.25        51.9922        44.4527       64.10619         0.6282         32.783         2.3795         1.0061       -72.7865      -32.33842      0.6618339      0.2877632
      8390.5000        10.9183        -0.0897        -999.25        53.1761        45.4592       66.75695          0.586        33.4247         2.3625         0.9906       -70.1768      -29.72366       0.718233      0.3471895
      8391.0000        10.9558        -0.0654        -999.25        55.1048        46.2374       68.80706         0.5651        33.1661         2.3786         0.8891       -68.0361       -27.5779      0.7618523      0.3959568
      8391.5000         10.984        -0.0489        -999.25        54.6682        46.2014       68.71503         0.5396        33.8227         2.3997         0.7894       -69.1764      -28.71313      0.7598944       0.370156
      8392.0000        10.9558        -0.0456        -999.25        51.7565        45.1633       65.98648         0.5212         34.181         2.3678         0.7636       -74.0344      -33.56607        0.70184      0.2598619
      8392.5000         10.877        -0.0592        -999.25        49.1367         42.618        59.2925         0.5287        33.1001         2.3277         0.8243       -76.8744      -36.40101      0.5594149      0.1954315
      8393.0000         10.864        -0.0545        -999.25         45.519        40.1518       52.80663         0.5427        32.0994         2.3293         0.8615       -78.8479      -38.36945      0.4214176      0.1506942
      8393.5000        10.8849        -0.0421        -999.25        44.2989        38.0868       47.37633         0.5607        32.1482         2.3938         0.9296       -78.7371      -38.25359      0.3058793      0.1533274
      8394.0000        10.8184        -0.0468        -999.25        46.2425        37.6039       46.10855         0.5918        32.1137         2.3503          1.026       -77.0552      -36.56663      0.2789053      0.1916675
      8394.5000        10.7219        -0.0632        -999.25             50        38.4656       48.37835         0.6234        31.6242         2.2925         0.9126       -75.2823      -34.78868      0.3271988      0.2320755
      8395.0000         10.695        -0.0298        -999.25        54.7305        39.0945       50.03563         0.6547        31.3376         2.3617         0.8649        -73.403      -32.90431      0.3624601       0.274902
      8395.5000        10.6928        -0.0267        -999.25        55.8898        39.7717       51.82001         0.6849        31.2998         2.3785         0.9526       -71.7688      -31.26505      0.4004258       0.312158
      8396.0000        10.6759        -0.0194        -999.25        53.8723        39.9045       52.17208         0.7101        31.6932         2.3865         0.9797       -71.7813       -31.2725      0.4079165      0.3119887
      8396.5000        10.6592        -0.0113        -999.25        50.4791        39.8066       51.91718         0.7137        32.3955         2.4055         0.9626       -72.2689      -31.75503      0.4024933      0.3010221
      8397.0000        10.6566        -0.0112        -999.25        49.8665        40.5381       53.84444         0.7032        35.3698         2.4131         0.9521       -75.1016      -34.58267      0.4434987      0.2367575
      8397.5000        10.6632        -0.0242        -999.25        49.0332        41.2549       55.73299         0.6904        35.5916         2.3997         0.9643       -77.5553      -37.03131      0.4836806      0.1811067
