#------------------------------------------------------------------------------
# Created by    : vladimir.rabinovich
# Created on    : 09/19/2023 17:21:40
#------------------------------------------------------------------------------
~Version Information Section
VERS.           2.0     :   CWLS log ASCII Standard - VERSION 2.0
WRAP.           NO      :   One line per depth step
~Well Information Section
#MNEM       .UNIT                                         VALUE :DESCRIPTION
#------------------------------------------------------------------------------
STRT        .FT                                             957 :START DEPTH
STOP        .FT                                           10053 :STOP DEPTH
STEP        .FT                                             0.5 :STEP      
NULL        .                                           -999.25 :NULL      
COMP        .                                    EXXON CO U S A :COMPANY   
WELL        .                               OCS G03237 ST00BP00 :WELL      
FLD         .                                           WILDCAT :FIELD     
LOC         .                                                   :LOCATION  
CNTY        .                           HIGH ISLAND LARGE BLOCK :LOCATION  
STAT        .                                             TEXAS :STATE     
CTRY        .                                     UNITED STATES :COUNTRY   
SRVC        .                                                   :SERVICE COMPANY
DATE        .                             9/13/2023 11:20:04 AM :LOG DATE  
API         .                                    42708400420000 :API NUMBER
UWI         .                                    42708400420000 :UNIQUE WELL ID
XCOORD      .                                  1163347.66403634 :SURFACE X 
YCOORD      .                                  10583934.5995257 :SURFACE Y 
LAT         .                                         29.155753 :LATITUDE  
LON         .                                        -94.495054 :LONGITUDE 
ELEV        .FT                                              94 :ELEVATION VALUE
ELEV_TYPE   .                                                KB :ELEVATION REFERENCE TYPE
~Curve Information Section
#MNEM       .UNIT                                      API CODE :CURVE DESCRIPTION
#------------------------------------------------------------------------------
DEPT        .FT                                                 :DEPTH     
CALI        .IN                                                 :          
DRHO        .G/C3                                               :          
DT          .US/F                                               :          
GR          .GAPI                                               :          
GR_1        .GAPI                                               :          
GR_NORM     .GAPI                                               :GammaRay Normalized
ILD         .OHMM                                               :          
NPHI        .%                                                  :          
RHOB        .G/C3                                               :          
SFL         .OHMM                                               :          
SP          .MV                                                 :          
SP_NORM     .MV                                                 :SP Normalized
VSH_GR      .V/V                                                :Volume of Shale from GR
VSH_SP      .V/V                                                :Volume of Shale from SP
~A        DEPTH           CALI           DRHO             DT             GR           GR_1        GR_NORM            ILD           NPHI           RHOB            SFL             SP        SP_NORM         VSH_GR         VSH_SP
# ...
     10029.0000        16.2778         0.1448       103.5421        81.4012        -999.25       70.34486         0.8426        40.6879         2.2552         0.9925       -42.7415       2.106983      0.7945716              1
     10029.5000        16.3843         0.1364       103.5406        81.0658        -999.25       69.82764         0.8451        40.2561         2.2625         0.9972       -43.0436       1.804886      0.7835669              1
     10030.0000        16.6507         0.1258       103.5377        82.6827        -999.25       72.32104           0.84        38.1732         2.2692         0.9878       -44.2776      0.5708847       0.836618              1
     10030.5000        16.5457         0.1198       103.4589        84.7181        -999.25       75.45977         0.8313        37.9083         2.2774         0.9383       -44.3013       0.547184      0.9033993              1
     10031.0000        15.5699          0.117       103.3704        85.5321        -999.25       76.71502         0.8243        37.4492         2.2704         0.8668       -43.8053       1.043182      0.9301068              1
     10031.5000        13.9316         0.1194       103.2781        85.0437        -999.25       75.96187         0.8125         36.283          2.263         0.8349       -42.8318       2.016685      0.9140823              1
     10032.0000        12.2914         0.1147       103.2786        85.3446        -999.25       76.42587         0.8013        35.2786         2.2332         0.8471       -42.3935       2.454983      0.9239547              1
     10032.5000        10.0044         0.1031       103.3103        86.6296        -999.25       78.40744         0.7918        35.8469         2.2127         0.8684       -42.7042       2.144283      0.9661158              1
     10033.0000        10.1441          0.094       103.3374        87.7638        -999.25       80.15647         0.7863        36.9017          2.235          0.885       -45.3281     -0.4796143              1              1
     10033.5000         11.196          0.092       103.3641          88.15        -999.25       80.75201         0.7832        37.7336         2.2562         0.8648        -46.226      -1.377518              1      0.9936014
     10034.0000        12.7906         0.0878       103.4236        86.1989        -999.25       77.74326         0.7827        36.9358         2.2481          0.841       -43.7271       1.121384      0.9519843              1
     10034.5000        14.0455         0.0803       103.4874        87.5756        -999.25       79.86624         0.7821        35.6792         2.2345         0.8742       -44.0273      0.8211823      0.9971541              1
     10035.0000        14.2478         0.0948       103.5061         89.257        -999.25       82.45909         0.7822        37.1079         2.2397         0.8964        -44.656      0.1924858              1              1
     10035.5000        14.5244          0.111       103.5125        89.9564        -999.25       83.53762         0.7832        38.4506          2.247         0.9015       -45.0987     -0.2502174              1              1
     10036.0000        15.0023         0.0988       103.4717        88.3729        -999.25       81.09573         0.7846        39.0626         2.2388         0.8957       -44.7059      0.1425858              1              1
     10036.5000        15.2975         0.0885       103.4019         86.709        -999.25       78.52987         0.7851         39.274         2.2643         0.9088       -45.2537     -0.4052162      0.9687206              1
     10037.0000        15.7967         0.1027       103.3412        85.3334        -999.25       76.40861         0.7826        39.1241         2.2749         0.9223       -43.9888       0.859684      0.9235874              1
     10037.5000        16.0257         0.1168       103.2874        85.2938        -999.25       76.34753         0.7803        38.6212         2.2677         0.9188       -41.4839       3.364586      0.9222879              1
     10038.0000        16.5467         0.1305       103.2617        84.6692        -999.25       75.38435          0.778         37.961         2.2682         0.8711       -44.6436      0.2048836      0.9017947              1
     10038.5000        15.3633         0.1409       103.2499        84.1733        -999.25       74.61964         0.7745        38.2525         2.2924         0.8843       -44.5481      0.3003845      0.8855243              1
     10039.0000        15.5575         0.1438       103.2712        84.4457        -999.25       75.03972         0.7689        38.5893         2.3077         0.8896       -43.6218       1.226685      0.8944621              1
     10039.5000         15.816         0.1376       103.3208        86.5603        -999.25       78.30058         0.7618         38.659         2.2746         0.8598       -45.8328     -0.9843178       0.963842              1
     10040.0000        15.8733         0.1299       103.3643        89.8141        -999.25       83.31817         0.7549        38.1583         2.2523         0.8121       -45.0801      -0.231617              1              1
     10040.5000        15.7838         0.1151       103.4059        91.6897        -999.25       86.21049          0.749        39.1212         2.2407         0.7767       -43.8202       1.028282              1              1
     10041.0000        15.5604          0.107       103.4755        91.2192        -999.25       85.48494         0.7439        40.1909         2.2287         0.7886       -44.3658      0.4826851              1              1
     10041.5000        15.1133         0.0972       103.4822        89.9998        -999.25       83.60454          0.741        40.6218         2.1704         0.8166       -46.6277      -1.779217              1      0.9867929
     10042.0000        15.3103         0.0838       103.4479        88.3085        -999.25       80.99643          0.739        40.4979         2.1282          0.839       -46.7567      -1.908215              1      0.9846065
     10042.5000        16.0231         0.0711       103.4137        85.9141        -999.25       77.30408         0.7379        39.9832         2.1211         0.8543       -44.8718    -0.02331543      0.9426401              1
     10043.0000        15.8155         0.0691       103.3779        85.2086        -999.25       76.21616         0.7384        39.3274           2.13         0.8656       -46.6624      -1.813915      0.9194927      0.9862048
     10043.5000        15.1083         0.0672       103.3145        86.0999        -999.25       77.59061         0.7388        38.7929         2.1187         0.8705       -46.8137      -1.965218      0.9487363      0.9836404
     10044.0000        14.0247         0.0648        103.259        86.1047        -999.25         77.598         0.7379        38.9631         2.0905         0.8724       -45.1644     -0.3159142      0.9488936              1
     10044.5000        -999.25        -999.25       103.2261        -999.25        -999.25        -999.25         0.7359        -999.25        -999.25         0.8689       -45.4859     -0.6374168        -999.25              1
     10045.0000        -999.25        -999.25       103.2844        -999.25        -999.25        -999.25         0.7319        -999.25        -999.25         0.8586       -45.3727     -0.5242157        -999.25              1
     10045.5000        -999.25        -999.25       103.3853        -999.25        -999.25        -999.25         0.7323        -999.25        -999.25         0.8384       -46.3896      -1.541115        -999.25      0.9908286
     10046.0000        -999.25        -999.25       103.4283        -999.25        -999.25        -999.25         0.7313        -999.25        -999.25         0.8073       -46.6178      -1.769318        -999.25      0.9869607
     10046.5000        -999.25        -999.25       103.4537        -999.25        -999.25        -999.25         0.7315        -999.25        -999.25         0.7661       -43.8152       1.033283        -999.25              1
