#------------------------------------------------------------------------------
# Created by    : vladimir.rabinovich
# Created on    : 09/19/2023 17:22:53
#------------------------------------------------------------------------------
~Version Information Section
VERS.           2.0     :   CWLS log ASCII Standard - VERSION 2.0
WRAP.           NO      :   One line per depth step
~Well Information Section
#MNEM       .UNIT                                         VALUE :DESCRIPTION
#------------------------------------------------------------------------------
STRT        .FT                                             394 :START DEPTH
STOP        .FT                                            7700 :STOP DEPTH
STEP        .FT                                             0.5 :STEP      
NULL        .                                           -999.25 :NULL      
COMP        .                                   MARATHON OIL CO :COMPANY   
WELL        .                                     ST TR 00248-L :WELL      
FLD         .                                           WILDCAT :FIELD     
LOC         .                                                   :LOCATION  
CNTY        .                             GALVESTON LARGE BLOCK :LOCATION  
STAT        .                                             TEXAS :STATE     
CTRY        .                                     UNITED STATES :COUNTRY   
SRVC        .                                                   :SERVICE COMPANY
DATE        .                             9/13/2023 11:19:42 AM :LOG DATE  
API         .                                    42706000210000 :API NUMBER
UWI         .                                    42706000210000 :UNIQUE WELL ID
XCOORD      .                                  969160.596945075 :SURFACE X 
YCOORD      .                                  10521676.5956168 :SURFACE Y 
LAT         .                                        28.9764138 :LATITUDE  
LON         .                                       -95.0998408 :LONGITUDE 
ELEV        .FT                                              10 :ELEVATION VALUE
ELEV_TYPE   .                                                KB :ELEVATION REFERENCE TYPE
~Curve Information Section
#MNEM       .UNIT                                      API CODE :CURVE DESCRIPTION
#------------------------------------------------------------------------------
DEPT        .FT                                                 :DEPTH     
LAT         .OHMM                                               :          
LN          .OHMM                                               :          
SN          .OHMM                                               :          
SP          .MV                                                 :          
SP_NORM     .MV                                                 :SP Normalized
VSH_SP      .V/V                                                :Volume of Shale from SP
~A        DEPTH            LAT             LN             SN             SP        SP_NORM         VSH_SP
# ...
      4764.0000         4.0858         0.4026         0.9445       -78.8577      -3.857498      0.9624013
      4764.5000         3.8132         0.4375         1.0035       -78.6342      -3.602592      0.9657553
      4765.0000         3.5408         0.5092         1.0574       -78.4109      -3.347878      0.9691069
      4765.5000         3.2208          0.631         1.0704       -78.3207      -3.226273      0.9707069
      4766.0000         2.8842         0.7528         1.0834       -79.4058      -4.279961      0.9568426
      4766.5000         2.5475         0.8747         1.0963       -80.4908      -5.333542      0.9429797
      4767.0000         2.2111         0.9965         1.0652       -81.5758      -6.387131      0.9291167
      4767.5000         1.8744         1.1008         0.9681        -82.364      -7.143921      0.9191589
      4768.0000          1.479         1.1449         0.8861       -80.7695      -5.518013      0.9405525
      4768.5000         1.0049         1.1086         0.8134       -79.1738      -3.890892      0.9619619
      4769.0000         0.7328         1.0597         0.7445       -77.5795      -2.265182      0.9833528
      4769.5000         0.6213         1.0108         0.7457        -75.985     -0.6392746              1
      4770.0000         0.5097          0.962         0.7469       -74.3893      0.9878387              1
      4770.5000          0.398         0.9131          0.748       -73.6488       1.759743              1
      4771.0000         0.2864         0.8642         0.7492       -73.5728       1.867165              1
      4771.5000         0.1749         0.8153         0.7487       -73.4967       1.974678              1
      4772.0000         0.1772         0.7664         0.7477       -73.4207       2.082085              1
      4772.5000         0.2379         0.7495         0.7467       -73.3445       2.189697              1
      4773.0000         0.2788         0.7328         0.7456       -72.9741       2.591515              1
      4773.5000         0.3196         0.7161         0.7446       -72.5562       3.040825              1
      4774.0000         0.3535         0.6994         0.7436       -72.8508       2.758957              1
      4774.5000         0.3435         0.6827         0.7411        -74.604        1.00576              1
      4775.0000         0.3335          0.666         0.7254       -76.3573     -0.7475433              1
      4775.5000         0.3235         0.6493         0.7098       -78.0477      -2.437943      0.9810797
      4776.0000         0.3065         0.6326         0.6941       -79.1842       -3.57444      0.9661258
      4776.5000         0.2653         0.6159         0.6785       -80.3218      -4.712044      0.9511573
      4777.0000         0.2241         0.6018         0.6628       -80.7775       -5.16774      0.9451613
      4777.5000         0.2401          0.598         0.6482       -79.6936      -4.083847      0.9594231
      4778.0000         0.3208         0.5942         0.6673       -78.6085      -2.998741      0.9737008
      4778.5000         0.4016         0.5924         0.6863        -77.572      -1.962242      0.9873389
      4779.0000         0.4823         0.5965         0.7054        -78.123      -2.513245      0.9800889
      4779.5000          0.563         0.6005         0.7244       -78.6748      -3.065041      0.9728284
      4780.0000         0.6438         0.6045         0.7435       -79.2258      -3.616043      0.9655784
      4780.5000         0.7245         0.6086         0.7625       -80.8951      -5.285347      0.9436138
      4781.0000         0.7358         0.6233         0.7816       -83.1246      -7.514847      0.9142783
      4781.5000         0.6783          0.686         0.8006       -85.3541      -9.744347      0.8849428
      4782.0000         0.6208         0.7486         0.8198        -87.175      -11.56525      0.8609836
      4782.5000         0.5634         0.8114         0.8403       -87.4791      -11.86935      0.8569823
      4783.0000         0.5059         0.8741         0.8609       -87.7833      -12.17355      0.8529797
      4783.5000         0.5361         0.9367         0.8814       -87.7076      -12.09785      0.8539757
      4784.0000         0.5917         0.9994          0.902       -87.1731      -11.56335      0.8610086
      4784.5000         0.6473         1.0081         0.9226       -86.6385      -11.02874      0.8680429
      4785.0000         0.7029         1.0016         0.8596       -86.1046      -10.49484      0.8750679
      4785.5000         0.7584          0.995         0.6849       -85.5701      -9.960342      0.8821008
      4786.0000         0.8037         0.9885         0.7065       -85.1613      -9.551544      0.8874797
      4786.5000         0.7887         0.9819         0.7281       -84.9434      -9.333641      0.8903468
      4787.0000         0.7737         0.9726         0.7496       -85.0093      -9.399544      0.8894797
      4787.5000         0.7587         0.9395         0.7712       -85.9441      -10.33434      0.8771797
      4788.0000         0.7436         0.9064            0.8       -86.8789      -11.26914      0.8648797
      4788.5000          0.683         0.8732         0.8295       -87.8145      -12.20474      0.8525692
      4789.0000         0.5965         0.8401          0.859       -88.7493      -13.13954      0.8402692
      4789.5000           0.51          0.807         0.8885       -88.7305      -13.12074      0.8405166
      4790.0000         0.5111         0.7739          0.918       -87.6328      -12.02304        0.85496
      4790.5000         0.6084         0.7407         0.9475       -86.5363      -10.92654      0.8693876
      4791.0000         0.7057         0.7056          0.977       -85.4387      -9.828941      0.8838297
      4791.5000         0.8029         0.6679         0.9708       -84.3411      -8.731346      0.8982717
      4792.0000         0.9003         0.6303         0.9494       -83.2446      -7.634842      0.9126995
      4792.5000         0.9975         0.5926         0.9279        -82.147      -6.537247      0.9271415
      4793.0000         1.0909          0.555         0.9064       -80.8723      -5.262543      0.9439139
      4793.5000           1.15         0.5173         0.8805       -79.5314      -3.921646      0.9615573
      4794.0000         1.2089         0.4797         0.8353       -78.1893      -2.579544      0.9792165
      4794.5000         1.2065         0.4421         0.7901       -76.8484       -1.23864        0.99686
      4795.0000         1.1597         0.4044         0.7449       -75.5063      0.1034546              1
      4795.5000         1.1129         0.3933         0.6997       -74.1654       1.444359              1
      4796.0000         1.1178         0.3888         0.6545       -72.8246       2.785156              1
      4796.5000         1.2896         0.3842         0.6093       -71.4825       4.127258              1
      4797.0000         1.4614         0.3796         0.5817       -70.6685       4.941254              1
      4797.5000         1.6333         0.3751         0.5561       -70.4677       5.142059              1
      4798.0000         1.7323         0.3812         0.5304       -73.0233       2.586456              1
      4798.5000         1.5716         0.3915         0.5049       -75.8947     -0.2849426              1
      4799.0000         1.4109         0.4019         0.4792       -78.7684      -3.158646      0.9715968
      4799.5000         1.2502         0.4123          0.527       -81.6398      -6.030045      0.9338152
      4800.0000         1.0896         0.4226         0.5754       -85.3176       -9.70784      0.8854232
      4800.5000         0.9289          0.433         0.6237            -89      -13.39024      0.8369705
      4801.0000         0.8696         0.4434         0.6721       -92.6824      -17.07265      0.7885178
      4801.5000         0.8218         0.4537         0.6957       -99.0214      -23.41164        0.70511
