#------------------------------------------------------------------------------
# Created by    : vladimir.rabinovich
# Created on    : 09/19/2023 17:22:54
#------------------------------------------------------------------------------
~Version Information Section
VERS.           2.0     :   CWLS log ASCII Standard - VERSION 2.0
WRAP.           NO      :   One line per depth step
~Well Information Section
#MNEM       .UNIT                                         VALUE :DESCRIPTION
#------------------------------------------------------------------------------
STRT        .FT                                             410 :START DEPTH
STOP        .FT                                            7624 :STOP DEPTH
STEP        .FT                                             0.5 :STEP      
NULL        .                                           -999.25 :NULL      
COMP        .                                      SHELL OIL CO :COMPANY   
WELL        .                                     ST TR 00249-L :WELL      
FLD         .                                           WILDCAT :FIELD     
LOC         .                                                   :LOCATION  
CNTY        .                             GALVESTON LARGE BLOCK :LOCATION  
STAT        .                                             TEXAS :STATE     
CTRY        .                                     UNITED STATES :COUNTRY   
SRVC        .                                                   :SERVICE COMPANY
DATE        .                             9/13/2023 11:19:42 AM :LOG DATE  
API         .                                    42706000200000 :API NUMBER
UWI         .                                    42706000200000 :UNIQUE WELL ID
XCOORD      .                                  981084.037319939 :SURFACE X 
YCOORD      .                                  10535303.7769946 :SURFACE Y 
LAT         .                                         29.014458 :LATITUDE  
LON         .                                       -95.0633058 :LONGITUDE 
ELEV        .FT                                              11 :ELEVATION VALUE
ELEV_TYPE   .                                                KB :ELEVATION REFERENCE TYPE
~Curve Information Section
#MNEM       .UNIT                                      API CODE :CURVE DESCRIPTION
#------------------------------------------------------------------------------
DEPT        .FT                                                 :DEPTH     
LAT         .OHMM                                               :          
SN          .OHMM                                               :          
SP          .MV                                                 :          
SP_NORM     .MV                                                 :SP Normalized
VSH_SP      .V/V                                                :Volume of Shale from SP
~A        DEPTH            LAT             SN             SP        SP_NORM         VSH_SP
# ...
      1378.0000         0.5158          0.703      -105.3553       2.394615              1
      1378.5000         0.5442         0.7275      -104.4003       3.336823              1
      1379.0000         0.5712         0.7635      -103.5923       4.132019              1
      1379.5000          0.607         0.7995      -103.0206       4.690918              1
      1380.0000         0.6568         0.8051      -102.7288       4.969917              1
      1380.5000         0.7199         0.7841      -102.4371       5.248817              1
      1381.0000         0.7645          0.763      -102.8358       4.837318              1
      1381.5000         0.7796          0.742      -103.9521       3.708214              1
      1382.0000         0.7684         0.7209      -105.0685       2.579025              1
      1382.5000         0.7572          0.707      -106.1846       1.450119              1
      1383.0000         0.7459         0.6971      -107.0497      0.5722198              1
      1383.5000         0.7414         0.6872      -107.9126     -0.3034744              1
      1384.0000         0.7379         0.6773      -108.7755      -1.179176      0.9938215
      1384.5000         0.7344         0.6743      -108.0042     -0.4206848              1
      1385.0000         0.7308         0.6763      -107.1023      0.4684143              1
      1385.5000         0.7273         0.6782      -106.2004       1.357521              1
      1386.0000         0.7285         0.6801      -105.2986       2.246521              1
      1386.5000         0.7355         0.6821      -104.9503       2.582016              1
      1387.0000         0.7424         0.6922      -104.8002       2.719322              1
      1387.5000         0.7364         0.7049      -106.1483       1.358421              1
      1388.0000         0.6941         0.7177      -107.4962   -0.002281189              1
      1388.5000         0.6519         0.7305      -108.8444      -1.363274      0.9874733
      1389.0000         0.6096         0.7358      -109.8528      -2.384476      0.9522595
      1389.5000         0.5673         0.7387      -110.5682      -3.112679       0.927149
      1390.0000         0.5367         0.7415      -111.2837      -3.840981      0.9020352
      1390.5000         0.5295         0.7198       -111.999      -4.569077      0.8769284
      1391.0000         0.5223         0.6888      -112.3622      -4.945076      0.8639629
      1391.5000         0.5151         0.6579      -111.7402      -4.335876      0.8849698
      1392.0000         0.5078          0.627      -111.1183      -3.726776      0.9059733
      1392.5000         0.5076          0.596      -110.1329      -2.754173      0.9395112
      1393.0000         0.5102         0.5999       -110.215      -2.849075      0.9362388
      1393.5000         0.5128         0.6121       -111.412      -4.058884      0.8945212
      1394.0000         0.5154         0.6243      -112.6086      -5.268272      0.8528182
      1394.5000          0.518         0.6325      -113.5599      -6.232376      0.8195732
      1395.0000         0.5206         0.6251      -114.4763      -7.161583      0.7875316
      1395.5000         0.5181         0.6177      -115.3925      -8.090576      0.7554974
      1396.0000         0.5107         0.6103      -116.3086      -9.019478      0.7234663
      1396.5000         0.5033         0.6029       -117.225      -9.948677      0.6914249
      1397.0000          0.496         0.6052      -115.6991       -8.43557       0.743601
      1397.5000         0.4886         0.6106      -112.8081      -5.557373      0.8428492
      1398.0000         0.4835         0.6161       -110.041      -2.803078      0.9378249
      1398.5000         0.5041         0.6133      -111.0834      -3.858276      0.9014388
      1399.0000         0.4926           0.61      -113.1279      -5.915573      0.8304975
      1399.5000         0.4673         0.6066      -114.7841      -7.584579      0.7729455
      1400.0000          0.442         0.6058      -115.9915      -8.804779      0.7308697
      1400.5000         0.4166         0.6111      -117.1986      -10.02467      0.6888044
      1401.0000         0.3929         0.6165      -117.7684      -10.60728      0.6687146
      1401.5000         0.3913         0.6218      -117.1251      -9.976776       0.690456
      1402.0000         0.3897         0.6266      -116.4818      -9.346268      0.7121977
      1402.5000         0.3882         0.6089      -115.8383      -8.715576      0.7339457
      1403.0000         0.3866         0.5912      -115.1891      -8.079178      0.7558904
      1403.5000          0.385         0.5735      -114.5291      -7.431976      0.7782077
      1404.0000         0.3834         0.5558      -113.8691      -6.784775       0.800525
      1404.5000         0.3844         0.5381      -114.8641      -7.792572      0.7657734
      1405.0000         0.4207         0.5803      -116.3768      -9.318077      0.7131698
      1405.5000          0.457         0.6241      -117.8895      -10.84357      0.6605664
      1406.0000         0.4934          0.668       -117.703      -10.66988       0.666556
      1406.5000         0.5297         0.7108      -115.3612      -8.340874      0.7468664
      1407.0000         0.6202         0.7431      -113.0198      -6.012268      0.8271632
      1407.5000         0.7496         0.7685      -111.0504      -4.055672       0.894632
      1408.0000         0.8824           0.78      -109.2187      -2.236771      0.9573528
      1408.5000         1.0292         0.7914      -107.3871     -0.4179764              1
      1409.0000         1.0167         0.7977      -106.7659      0.1904297              1
      1409.5000         0.9122          0.777      -106.4449      0.4986267              1
      1410.0000         0.8202         0.7563      -106.3857      0.5450287              1
      1410.5000         0.7477         0.7356      -106.3279      0.5900269              1
      1411.0000         0.6752         0.7149        -106.27      0.6351318              1
      1411.5000         0.6046         0.6942      -106.2122        0.68013              1
      1412.0000         0.5934         0.6858      -106.1543       0.725235              1
      1412.5000         0.5823           0.69      -106.0579      0.8088303              1
      1413.0000         0.5711         0.6942      -105.7401       1.113831              1
      1413.5000         0.5637         0.6983      -105.4224       1.418724              1
      1414.0000         0.5619         0.7025      -105.1045       1.723831              1
      1414.5000           0.56         0.7067      -104.7867       2.028831              1
      1415.0000         0.5582         0.7074      -104.4963       2.306427              1
      1415.5000         0.5564         0.7077       -104.387       2.402931              1
      1416.0000         0.5545         0.7081      -104.2775       2.499634              1
      1416.5000          0.552         0.7085      -103.9049       2.859428              1
      1417.0000         0.5466         0.7086      -102.9513       3.800232              1
      1417.5000         0.5412         0.7081      -101.9973       4.741432              1
      1418.0000         0.5358         0.7075      -103.1858       3.540131              1
      1418.5000         0.5304          0.707      -104.5212       2.191925              1
      1419.0000          0.525         0.7064      -105.6917       1.008629              1
      1419.5000         0.5196         0.7059      -106.8623     -0.1747665              1
      1420.0000         0.5142         0.7054       -108.033      -1.358269      0.9876459
      1420.5000         0.5037         0.7048        -108.39      -1.728065      0.9748943
      1421.0000         0.4931         0.6941      -108.7018      -2.052666      0.9637012
      1421.5000         0.4825         0.6799      -108.9689      -2.332573      0.9540492
