#------------------------------------------------------------------------------
# Created by    : vladimir.rabinovich
# Created on    : 09/19/2023 17:20:32
#------------------------------------------------------------------------------
~Version Information Section
VERS.           2.0     :   CWLS log ASCII Standard - VERSION 2.0
WRAP.           NO      :   One line per depth step
~Well Information Section
#MNEM       .UNIT                                         VALUE :DESCRIPTION
#------------------------------------------------------------------------------
STRT        .FT                                             222 :START DEPTH
STOP        .FT                                            9192 :STOP DEPTH
STEP        .FT                                             0.5 :STEP      
NULL        .                                           -999.25 :NULL      
COMP        .                                      PAN AMERICAN :COMPANY   
WELL        .                                     ST TR 00060-L :WELL      
FLD         .                                           WILDCAT :FIELD     
LOC         .                                                   :LOCATION  
CNTY        .                             GALVESTON LARGE BLOCK :LOCATION  
STAT        .                                             TEXAS :STATE     
CTRY        .                                     UNITED STATES :COUNTRY   
SRVC        .                                                   :SERVICE COMPANY
DATE        .                             9/13/2023 11:19:24 AM :LOG DATE  
API         .                                    42706000830000 :API NUMBER
UWI         .                                    42706000830000 :UNIQUE WELL ID
XCOORD      .                                  1150669.84230747 :SURFACE X 
YCOORD      .                                  10684730.4394491 :SURFACE Y 
LAT         .                                        29.4325033 :LATITUDE  
LON         .                                       -94.5389235 :LONGITUDE 
ELEV        .FT                                              11 :ELEVATION VALUE
ELEV_TYPE   .                                                KB :ELEVATION REFERENCE TYPE
~Curve Information Section
#MNEM       .UNIT                                      API CODE :CURVE DESCRIPTION
#------------------------------------------------------------------------------
DEPT        .FT                                                 :DEPTH     
ASN         .OHMM                                               :          
CILD        .MMHO                                               :          
ILD         .OHMM                                               :          
SP          .MV                                                 :          
SP_NORM     .MV                                                 :SP Normalized
VSH_SP      .V/V                                                :Volume of Shale from SP
~A        DEPTH            ASN           CILD            ILD             SP        SP_NORM         VSH_SP
# ...
      7366.0000         0.5503        -999.25         0.4434       -53.8939      -5.356476      0.9110923
      7366.5000         0.5606        -999.25         0.4246       -54.5537      -6.017651       0.897599
      7367.0000         0.5613        -999.25         0.4059        -56.108       -7.57333      0.8658504
      7367.5000         0.5607        -999.25         0.3871       -57.9485      -9.415203      0.8282611
      7368.0000         0.5539        -999.25         0.3683       -59.7864      -11.25448      0.7907249
      7368.5000          0.542        -999.25         0.3496       -61.9234      -13.39286      0.7470846
      7369.0000         0.5301        -999.25         0.3313       -64.8593      -16.33013      0.6871402
      7369.5000         0.5182        -999.25          0.313       -67.6039      -19.07611      0.6310999
      7370.0000         0.5063        -999.25         0.2948       -69.4224      -20.89599      0.5939594
      7370.5000         0.4943        -999.25         0.2826        -67.849      -19.32396      0.6260416
      7371.0000         0.4824        -999.25          0.271       -66.2756      -17.75193      0.6581238
      7371.5000         0.4705        -999.25         0.2856       -64.7024      -16.18011      0.6902018
      7372.0000         0.4777        -999.25         0.3011       -63.2357      -14.71479      0.7201063
      7372.5000         0.4948        -999.25         0.3166       -62.1587      -13.63917      0.7420578
      7373.0000         0.5127        -999.25         0.3321       -61.5215      -13.00335      0.7550338
      7373.5000         0.5308        -999.25         0.3476       -62.2947      -13.77792       0.739226
      7374.0000         0.5145        -999.25         0.3633       -63.0679       -14.5525      0.7234184
      7374.5000         0.4982        -999.25         0.3946       -64.3324      -15.81837      0.6975843
      7375.0000         0.4819        -999.25         0.4169       -66.0649      -17.55225      0.6621989
      7375.5000         0.4631        -999.25         0.3694       -67.7999      -19.28862      0.6267628
      7376.0000         0.4433        -999.25         0.3219       -69.6625       -21.1526      0.5887224
      7376.5000         0.4235        -999.25         0.2745        -73.603      -25.09448      0.5082759
      7377.0000         0.4036        -999.25          0.227       -82.9131      -34.40596      0.3182457
      7377.5000         0.3838        -999.25         0.1881       -84.6996      -36.19384      0.2817585
      7378.0000         0.3414        -999.25         0.1528       -86.4836      -37.97921      0.2453223
      7378.5000         0.2685        -999.25         0.1176       -88.2701      -39.76709      0.2088349
      7379.0000         0.2536        -999.25         0.0997       -90.4634      -41.96177      0.1640456
      7379.5000         0.2387        -999.25         0.0977       -92.8625      -44.36224      0.1150563
      7380.0000         0.2292        -999.25         0.0958       -94.8942      -46.39532     0.07356488
      7380.5000         0.2202        -999.25         0.0939       -96.4675      -47.96999      0.0414287
      7381.0000         0.2123        -999.25         0.0919       -97.7051      -49.20897     0.01614341
      7381.5000         0.2053        -999.25         0.0933         -97.89      -49.39524     0.01234195
      7382.0000         0.1983        -999.25         0.0984       -97.2468      -48.75343     0.02544029
      7382.5000         0.1914        -999.25         0.1036       -96.8215       -48.3295     0.03409179
      7383.0000         0.1923        -999.25         0.1087       -96.3964      -47.90578     0.04273925
      7383.5000         0.2047        -999.25         0.1138       -95.9712      -47.48195     0.05138872
      7384.0000         0.2228        -999.25         0.1189       -95.5454      -47.05753     0.06005034
      7384.5000         0.2409        -999.25         0.1567       -95.1202      -46.63371     0.06869981
      7385.0000         0.2589        -999.25         0.2106       -91.5172      -43.03208      0.1422025
      7385.5000          0.277        -999.25         0.2646       -89.1696      -40.68586      0.1900845
      7386.0000         0.2931        -999.25         0.3133       -89.4844      -41.00203       0.183632
      7386.5000         0.3047        -999.25         0.3081       -89.9414      -41.46041      0.1742773
      7387.0000         0.2997        -999.25         0.2845       -90.3984      -41.91879      0.1649227
      7387.5000         0.2909        -999.25          0.261       -90.8556      -42.37737       0.155564
      7388.0000         0.2822        -999.25         0.2374       -91.3126      -42.83574      0.1462093
      7388.5000         0.2734        -999.25         0.2139       -91.7697      -43.29422      0.1368527
      7389.0000         0.2646        -999.25         0.1921       -92.1271      -43.65299      0.1295308
      7389.5000         0.2555        -999.25         0.1704       -92.0986      -43.62587      0.1300842
      7390.0000         0.2463        -999.25         0.1487       -92.0703      -43.59895      0.1306338
      7390.5000         0.2372        -999.25         0.1269       -91.9534      -43.48343      0.1329913
      7391.0000         0.2281        -999.25         0.1052        -90.798       -42.3294      0.1565429
      7391.5000          0.219        -999.25         0.0834       -89.6412      -41.17398      0.1801229
      7392.0000         0.2099        -999.25         0.0632       -88.4857      -40.01986      0.2036763
      7392.5000         0.2109        -999.25          0.055       -86.9811      -38.51663      0.2343545
      7393.0000         0.2268        -999.25         0.0468       -84.7853      -36.32221      0.2791386
      7393.5000         0.2427        -999.25         0.0648        -82.543      -34.08128      0.3248718
      7394.0000         0.2585        -999.25         0.1262       -78.7788      -30.31846       0.401664
      7394.5000         0.2744        -999.25         0.1876       -73.9805      -25.52154      0.4995604
      7395.0000         0.3072        -999.25          0.249        -68.844      -20.38642      0.6043589
      7395.5000           0.39        -999.25         0.3296        -63.433      -14.97679      0.7147593
      7396.0000         0.4563        -999.25         0.4317       -60.6368      -12.18196      0.7717966
      7396.5000         0.5129        -999.25          0.534       -58.2867      -9.833244      0.8197297
      7397.0000         0.5456        -999.25         0.6304       -56.9033      -8.451221      0.8479342
      7397.5000         0.5685        -999.25         0.6928       -55.9316      -7.480896      0.8677368
      7398.0000         0.5551        -999.25         0.6379       -56.8077      -8.358376      0.8498291
      7398.5000         0.5417        -999.25         0.5831       -57.9338      -9.485851      0.8268194
      7399.0000         0.5282        -999.25         0.5233       -59.3552      -10.90863      0.7977831
      7399.5000         0.5148        -999.25          0.458        -60.774       -12.3288         0.7688
      7400.0000         0.5014        -999.25         0.3928       -62.1954      -13.75158      0.7397637
      7400.5000          0.488        -999.25         0.3275       -63.6168      -15.17435      0.7107275
      7401.0000         0.4746        -999.25         0.2626       -65.0381      -16.59703      0.6816932
      7401.5000         0.4646        -999.25         0.2769       -66.0258      -17.58611      0.6615079
      7402.0000         0.4602        -999.25         0.2912       -65.6613      -17.22299      0.6689186
      7402.5000         0.5448        -999.25         0.3055       -65.1367      -16.69977      0.6795965
      7403.0000         0.5942        -999.25         0.3198       -64.6129      -16.17734      0.6902584
      7403.5000         0.5908        -999.25         0.3341       -64.0885      -15.65432      0.7009323
