#------------------------------------------------------------------------------
# Created by    : vladimir.rabinovich
# Created on    : 09/19/2023 17:20:28
#------------------------------------------------------------------------------
~Version Information Section
VERS.           2.0     :   CWLS log ASCII Standard - VERSION 2.0
WRAP.           NO      :   One line per depth step
~Well Information Section
#MNEM       .UNIT                                         VALUE :DESCRIPTION
#------------------------------------------------------------------------------
STRT        .FT                                            2653 :START DEPTH
STOP        .FT                                           10423 :STOP DEPTH
STEP        .FT                                             0.5 :STEP      
NULL        .                                           -999.25 :NULL      
COMP        .                                       MONSANTO CO :COMPANY   
WELL        .                                     ST TR 00150-L :WELL      
FLD         .                                           WILDCAT :FIELD     
LOC         .                                                   :LOCATION  
CNTY        .                             GALVESTON LARGE BLOCK :LOCATION  
STAT        .                                             TEXAS :STATE     
CTRY        .                                     UNITED STATES :COUNTRY   
SRVC        .                                                   :SERVICE COMPANY
DATE        .                             9/13/2023 11:19:24 AM :LOG DATE  
API         .                                    42706300340000 :API NUMBER
UWI         .                                    42706300340000 :UNIQUE WELL ID
XCOORD      .                                  1113316.22146511 :SURFACE X 
YCOORD      .                                  10612518.3672968 :SURFACE Y 
LAT         .                                         29.232517 :LATITUDE  
LON         .                                       -94.6530532 :LONGITUDE 
ELEV        .FT                                              81 :ELEVATION VALUE
ELEV_TYPE   .                                                KB :ELEVATION REFERENCE TYPE
~Curve Information Section
#MNEM       .UNIT                                      API CODE :CURVE DESCRIPTION
#------------------------------------------------------------------------------
DEPT        .FT                                                 :DEPTH     
ASN         .OHMM                                               :          
CILD        .MMHO                                               :          
ILD         .OHMM                                               :          
SP          .MV                                                 :          
SP_NORM     .MV                                                 :SP Normalized
VSH_SP      .V/V                                                :Volume of Shale from SP
~A        DEPTH            ASN           CILD            ILD             SP        SP_NORM         VSH_SP
# ...
      5731.0000         0.6596       2618.672         0.4219       -63.6862      -7.415356      0.8508057
      5731.5000         0.6546       2728.293         0.4153       -66.2255       -9.96209      0.7915793
      5732.0000         0.6444       2709.715         0.4086        -67.874      -11.61802      0.7530693
      5732.5000         0.6341       2665.199         0.4036       -69.0366      -12.78805      0.7258593
      5733.0000         0.6269       2596.488         0.4199        -68.916      -12.67488      0.7284911
      5733.5000         0.6362       2522.473         0.4362       -68.0574      -11.82372      0.7482856
      5734.0000         0.6455       2439.625         0.4525        -67.078      -10.85175      0.7708895
      5734.5000          0.668       2288.652         0.4688       -66.0593      -9.840485      0.7944073
      5735.0000         0.6911       2178.516         0.4852       -65.1348      -8.923416      0.8157345
      5735.5000         0.7151           2104         0.5017       -64.9823      -8.778343      0.8191083
      5736.0000           0.74       2058.688         0.5183       -65.2554      -9.058876      0.8125843
      5736.5000         0.7483       2013.406         0.5348        -65.748       -9.55891      0.8009556
      5737.0000          0.743       1968.094         0.5514       -64.8082      -8.626537      0.8226387
      5737.5000         0.7378       1926.379         0.5605       -63.5349      -7.360672      0.8520774
      5738.0000         0.7326       1901.764         0.5627       -62.3101      -6.143303      0.8803883
      5738.5000         0.7282       1901.113         0.5648        -61.575      -5.415638      0.8973107
      5739.0000         0.7426       1904.656          0.567       -60.9633      -4.811367      0.9113635
      5739.5000         0.7579       1908.203         0.5663       -60.9525      -4.807999      0.9114419
      5740.0000         0.7733       1911.748         0.5655       -62.7118      -6.574734       0.870355
      5740.5000          0.789       1915.293         0.5647       -65.1329      -9.003262      0.8138776
      5741.0000         0.7859       1918.838         0.5639       -67.1949       -11.0727      0.7657512
      5741.5000         0.7707       1922.385         0.5631       -66.3411      -10.22633      0.7854342
      5742.0000          0.751        1925.93         0.5626       -64.1143      -8.006966      0.8370473
      5742.5000         0.7324       1929.473         0.5621       -61.9798      -5.879894      0.8865141
      5743.0000         0.7152        1933.02         0.5616       -60.7225      -4.630024      0.9155808
      5743.5000         0.6946       1936.564         0.5611       -59.4651      -3.380054      0.9446499
      5744.0000         0.6735       1940.109         0.5606         -58.38      -2.302391      0.9697118
      5744.5000         0.6683       1950.967         0.5601       -57.3749      -1.304722      0.9929134
      5745.0000         0.6695       1964.047         0.5596       -56.6871     -0.6243515              1
      5745.5000         0.6706       1974.848         0.5591       -55.9994     0.05591583              1
      5746.0000         0.6716       1976.852         0.5586       -55.4893      0.5585823              1
      5746.5000         0.6711       1984.523          0.558       -55.2748      0.7656517              1
      5747.0000         0.6705       1992.773         0.5574        -55.348      0.6850204              1
      5747.5000           0.67       2001.023         0.5568       -55.9404     0.08518982              1
      5748.0000         0.6694       2009.273         0.5563       -56.6404     -0.6222458              1
      5748.5000         0.6721       2017.516         0.5557       -57.7107      -1.699978      0.9837214
      5749.0000         0.6761       2025.766         0.5551       -58.7798      -2.776508      0.9586859
      5749.5000          0.686       2036.355         0.5545       -59.8821      -3.886238      0.9328782
      5750.0000          0.698       2052.488         0.5473       -61.0325      -5.044075      0.9059517
      5750.5000         0.7101        2067.52          0.539       -62.0961      -6.115105      0.8810441
      5751.0000         0.7197       2076.734         0.5308       -62.6023      -6.628735      0.8690992
      5751.5000         0.7134       2081.891         0.5225       -62.0628      -6.096668      0.8814728
      5752.0000          0.706       2085.891         0.5143       -61.4889      -5.530201      0.8946465
      5752.5000         0.6985       2090.418         0.5062       -60.9648      -5.013535       0.906662
      5753.0000          0.691        2095.43         0.4994       -60.4462      -4.502365      0.9185497
      5753.5000         0.6859       2101.633         0.4925       -60.8627        -4.9263      0.9086907
      5754.0000         0.6913        2114.32         0.4856       -61.6267      -5.697731      0.8907505
      5754.5000         0.6966       2132.773         0.4788       -62.3907      -6.469162      0.8728102
      5755.0000         0.6994       2159.324         0.4719       -63.1547      -7.240593      0.8548699
      5755.5000         0.6982       2255.477         0.4704       -64.3099      -8.403225       0.827832
      5756.0000         0.6946       2308.824         0.4785       -64.8475      -8.948261      0.8151567
      5756.5000         0.6875       2271.379         0.4865       -61.8789      -5.987087      0.8840212
      5757.0000         0.6804       2233.977         0.4946       -60.1824      -4.298019      0.9233019
      5757.5000         0.6733       2196.527         0.5026       -59.2566      -3.379654      0.9446592
      5758.0000         0.6662       2159.129         0.5128       -58.4563      -2.586784       0.963098
      5758.5000         0.6796       2076.918         0.5231        -57.691      -1.828918      0.9807228
      5759.0000         0.6964       1975.375         0.5333       -57.1165      -1.261848      0.9939105
      5759.5000         0.7132       1910.648         0.5435       -56.6705     -0.8232841              1
      5760.0000         0.7295       1880.119         0.5537       -57.4173      -1.577515      0.9865694
      5760.5000         0.7306       1844.658         0.5586       -58.1647      -2.332344      0.9690152
      5761.0000          0.723       1822.426         0.5635       -59.3088      -3.483875      0.9422355
      5761.5000         0.7153       1817.426         0.5646       -58.4883      -2.670811      0.9611439
      5762.0000         0.7075       1812.418         0.5633        -57.098      -1.287941      0.9933037
      5762.5000         0.6998       1807.412          0.562       -56.1855     -0.3828735              1
      5763.0000         0.7078       1802.406         0.5599       -55.7518       0.043396              1
      5763.5000         0.7177       1764.266         0.5568       -55.3329      0.4548607              1
      5764.0000         0.7277       1770.461         0.5537       -55.1862      0.5941315              1
      5764.5000         0.7356       1795.627         0.5519       -55.1571       0.615799              1
      5765.0000         0.7241       1824.486         0.5502       -55.2765      0.4889679              1
      5765.5000         0.7077       1853.322         0.5471       -55.3958      0.3622322              1
      5766.0000         0.6866       1882.182         0.5425       -55.5151      0.2355042              1
      5766.5000         0.6693       1912.365         0.5379       -55.3535      0.3896713              1
      5767.0000         0.6711       1944.063         0.5308       -54.8848      0.8509369              1
      5767.5000         0.6729        1976.25         0.5235       -54.4154       1.312904              1
      5768.0000         0.6772       2002.441         0.5161       -54.2007       1.520176              1
      5768.5000         0.6832       2064.063          0.509       -54.9703       0.743145              1
