#------------------------------------------------------------------------------
# Created by    : vladimir.rabinovich
# Created on    : 09/19/2023 17:20:57
#------------------------------------------------------------------------------
~Version Information Section
VERS.           2.0     :   CWLS log ASCII Standard - VERSION 2.0
WRAP.           NO      :   One line per depth step
~Well Information Section
#MNEM       .UNIT                                         VALUE :DESCRIPTION
#------------------------------------------------------------------------------
STRT        .FT                                             727 :START DEPTH
STOP        .FT                                            8206 :STOP DEPTH
STEP        .FT                                             0.5 :STEP      
NULL        .                                           -999.25 :NULL      
COMP        .                              PHOENIX RESOURCES CO :COMPANY   
WELL        .                                          BLK 335L :WELL      
FLD         .                                 BRAZOS BLOCK 0309 :FIELD     
LOC         .                                                   :LOCATION  
CNTY        .                                BRAZOS LARGE BLOCK :LOCATION  
STAT        .                                             TEXAS :STATE     
CTRY        .                                     UNITED STATES :COUNTRY   
SRVC        .                                                   :SERVICE COMPANY
DATE        .                             9/13/2023 11:18:52 AM :LOG DATE  
API         .                                    42704300210000 :API NUMBER
UWI         .                                    42704300210000 :UNIQUE WELL ID
XCOORD      .                                  898426.347293712 :SURFACE X 
YCOORD      .                                  10460523.5569112 :SURFACE Y 
LAT         .                                        28.8046676 :LATITUDE  
LON         .                                       -95.3172337 :LONGITUDE 
ELEV        .FT                                              70 :ELEVATION VALUE
ELEV_TYPE   .                                                DF :ELEVATION REFERENCE TYPE
~Curve Information Section
#MNEM       .UNIT                                      API CODE :CURVE DESCRIPTION
#------------------------------------------------------------------------------
DEPT        .FT                                                 :DEPTH     
ASN         .OHMM                                               :          
CALI        .IN                                                 :          
DT          .US/F                                               :          
ILD         .OHMM                                               :          
SP          .MV                                                 :          
SP_NORM     .MV                                                 :SP Normalized
VSH_SP      .V/V                                                :Volume of Shale from SP
~A        DEPTH            ASN           CALI             DT            ILD             SP        SP_NORM         VSH_SP
# ...
      5182.5000         0.4079        10.0739        112.906         0.2338      -111.6332      -65.76016     0.06144692
      5183.0000         0.3882        10.1069       113.4193         0.2373      -109.9227      -64.04648     0.08628292
      5183.5000         0.3903        10.1154       114.2845         0.2409       -107.752       -61.8726      0.1177883
      5184.0000         0.4199        10.0937       114.7953         0.2449      -105.2639      -59.38133      0.1538938
      5184.5000         0.4627        10.0465       115.0247         0.2491      -102.0281      -56.14235      0.2008355
      5185.0000         0.5014        10.0195       115.0775         0.2534       -102.001      -56.11208      0.2012743
      5185.5000         0.5234        10.0217       114.5348         0.2573      -108.2703       -62.3782      0.1104609
      5186.0000         0.5388        10.0332       113.9393         0.2596      -112.3577      -66.46242     0.05126931
      5186.5000         0.5394        10.0458       113.6013         0.2619      -115.1912      -69.29274     0.01025015
      5187.0000           0.54        10.0574       113.1881         0.2643      -116.3889      -70.48727              0
      5187.5000           0.54        10.0678        112.614         0.2546      -116.9924      -71.08759              0
      5188.0000         0.5397        10.0819       111.9557         0.2445      -117.1549      -71.24692              0
      5188.5000         0.5394        10.1004       111.1368         0.2445      -116.8844      -70.97324              0
      5189.0000         0.5377        10.1141       110.1665         0.2518      -115.9884      -70.07407              0
      5189.5000         0.5254        10.1249       109.4193          0.259      -114.6692      -68.75168     0.01809162
      5190.0000         0.4493        10.1317       109.1735          0.274      -112.8958       -66.9751     0.04383916
      5190.5000         0.4104        10.1373       109.4833         0.2908      -110.0992      -64.17532      0.0844156
      5191.0000         0.4203        10.1392        109.965         0.2907      -105.3824      -59.45535       0.152821
      5191.5000         0.4451        10.1243       110.3983         0.2905      -102.5156      -56.58538      0.1944148
      5192.0000         0.4776        10.1021       110.7225         0.2896      -103.7855       -57.8521      0.1760566
      5192.5000         0.5165         10.092       110.9158         0.2852      -108.8873      -62.95072      0.1021635
      5193.0000         0.5683        10.0889       110.9509         0.2809      -111.4863      -65.54654     0.06454291
      5193.5000         0.5864        10.0877       110.7341         0.2766      -113.3783      -67.43537     0.03716853
      5194.0000         0.5467        10.0865        110.462         0.2714      -114.8037      -68.85759     0.01655667
      5194.5000         0.5049         10.091       110.3665          0.265      -114.7407      -68.79141     0.01751576
      5195.0000         0.4652        10.1019       110.4637         0.2587      -113.7003      -67.74783      0.0326401
      5195.5000         0.4284        10.1151       110.8259         0.2518       -112.858      -66.90236     0.04489335
      5196.0000         0.4009        10.1263       111.0947         0.2431      -111.8208      -65.86198     0.05997124
      5196.5000         0.3783        10.1311       111.1238         0.2344      -110.8268      -64.86481     0.07442308
      5197.0000         0.3586        10.1703        111.132         0.2296      -109.1934      -63.22823     0.09814166
      5197.5000         0.3516        10.2366       111.0848         0.2295       -105.802      -59.83365      0.1473384
      5198.0000         0.3532        10.2434       111.0549         0.2342      -100.7939      -54.82237      0.2199656
      5198.5000         0.3549        10.2155       111.2845         0.2522       -99.7561       -53.7814      0.2350522
      5199.0000         0.3586        10.1585       112.1362         0.2703      -100.2175      -54.23962      0.2284114
      5199.5000         0.3724        10.1413       113.2845         0.2872       -98.1974      -52.21635      0.2577341
      5200.0000         0.3906         10.151       112.8927         0.3026       -95.1837      -49.19947       0.301457
      5200.5000         0.4105        10.1664       112.0596         0.3179       -94.2777      -48.29029      0.3146335
      5201.0000         0.4322        10.1833       111.1635         0.3339       -93.1166      -47.12601      0.3315071
      5201.5000         0.4555         10.201        110.219         0.3507       -91.6874      -45.69363      0.3522662
      5202.0000         0.4879        10.2323       109.8027         0.3602       -90.9735      -44.97656      0.3626586
      5202.5000         0.5132        10.2625       110.2704         0.3662       -90.9701      -44.96998      0.3627539
      5203.0000         0.5385        10.2552        110.407          0.364       -92.6562       -46.6529      0.3383638
      5203.5000         0.5638         10.204       110.1581         0.3588       -96.9362      -50.92973      0.2763807
      5204.0000         0.5847        10.1634       110.3499         0.3468      -100.6952      -54.68555      0.2219486
      5204.5000         0.5829        10.1436       109.9427         0.3347      -101.5918      -55.57897      0.2090005
      5205.0000         0.5604        10.1322       109.8792         0.3238      -103.5042       -57.4882      0.1813305
      5205.5000         0.5254        10.1408       110.6683         0.3135      -106.6536      -60.63442       0.135733
      5206.0000         0.4955        10.1489       111.4224         0.3032      -109.0625      -63.04014      0.1008675
      5206.5000         0.4632        10.1464       111.9854         0.2929      -110.1455      -64.11996     0.08521791
      5207.0000          0.433        10.1407       112.4452         0.2844      -110.4528      -64.42409     0.08081032
      5207.5000         0.4048        10.1356       112.8112         0.2764      -109.8672      -63.83531     0.08934331
      5208.0000         0.3813        10.1305       113.1819         0.2683      -107.5989      -61.56383      0.1222633
      5208.5000         0.3699        10.1262       113.4084         0.2641      -100.5743      -54.53606      0.2241151
      5209.0000         0.3684        10.1252       113.1238         0.2654       -95.4391      -49.39768      0.2985843
      5209.5000         0.3698        10.1312       112.5275         0.2668       -96.5092       -50.4646      0.2831217
      5210.0000         0.3729        10.1547        111.923         0.2768      -100.0363      -53.98853      0.2320504
      5210.5000         0.3775        10.1818       111.6974         0.2936       -98.7799      -52.72895      0.2503051
      5211.0000         0.3847        10.2016       111.9178         0.3104       -95.9587      -49.90458       0.291238
      5211.5000         0.3933         10.204       111.9615         0.3303       -93.0461      -46.98879      0.3334958
      5212.0000         0.4104        10.1855       111.7589         0.3579       -90.8051      -44.74462        0.36602
      5212.5000         0.4377        10.1594       111.0015         0.3855       -88.2035      -42.13984      0.4037704
      5213.0000         0.4722        10.1586       109.9001         0.4131       -82.3341      -36.26726      0.4888803
      5213.5000         0.5099        10.1683       108.9298         0.4457       -77.6123      -31.54228      0.5573582
      5214.0000         0.5423        10.1762       108.2488         0.4821       -78.0504      -31.97721      0.5510549
      5214.5000         0.5846        10.1827       108.0044         0.5187       -78.8632      -32.78683      0.5393213
      5215.0000         0.6298        10.1774       107.9821         0.5567       -77.3285      -31.24895      0.5616093
      5215.5000         0.6685        10.1806        107.571          0.595       -72.8066      -26.72388      0.6271901
