#------------------------------------------------------------------------------
# Created by    : vladimir.rabinovich
# Created on    : 09/19/2023 17:21:24
#------------------------------------------------------------------------------
~Version Information Section
VERS.           2.0     :   CWLS log ASCII Standard - VERSION 2.0
WRAP.           NO      :   One line per depth step
~Well Information Section
#MNEM       .UNIT                                         VALUE :DESCRIPTION
#------------------------------------------------------------------------------
STRT        .FT                                            4234 :START DEPTH
STOP        .FT                                            7516 :STOP DEPTH
STEP        .FT                                             0.5 :STEP      
NULL        .                                           -999.25 :NULL      
COMP        .                          SEAGULL ENERGY E & P INC :COMPANY   
WELL        .                               OCS G11311 ST00BP00 :WELL      
FLD         .                                           WILDCAT :FIELD     
LOC         .                                                   :LOCATION  
CNTY        .                             GALVESTON LARGE BLOCK :LOCATION  
STAT        .                                             TEXAS :STATE     
CTRY        .                                     UNITED STATES :COUNTRY   
SRVC        .                                                   :SERVICE COMPANY
DATE        .                             9/13/2023 11:19:54 AM :LOG DATE  
API         .                                    42706403550000 :API NUMBER
UWI         .                                    42706403550000 :UNIQUE WELL ID
XCOORD      .                                  972569.007613557 :SURFACE X 
YCOORD      .                                  10477919.1442114 :SURFACE Y 
LAT         .                                         28.856272 :LATITUDE  
LON         .                                        -95.086774 :LONGITUDE 
ELEV        .FT                                              94 :ELEVATION VALUE
ELEV_TYPE   .                                                KB :ELEVATION REFERENCE TYPE
~Curve Information Section
#MNEM       .UNIT                                      API CODE :CURVE DESCRIPTION
#------------------------------------------------------------------------------
DEPT        .FT                                                 :DEPTH     
CALI        .IN                                                 :          
DPHI        .%                                                  :          
DRHO        .G/C3                                               :          
DTLN        .US/F                                               :          
GR          .GAPI                                               :          
GR_NORM     .GAPI                                               :GammaRay Normalized
IDPH        .OHMM                                               :          
IMPH        .OHMM                                               :          
NPHI        .%                                                  :          
SFLU        .OHMM                                               :          
SP          .MV                                                 :          
SP_NORM     .MV                                                 :SP Normalized
VSH_GR      .V/V                                                :Volume of Shale from GR
VSH_SP      .V/V                                                :Volume of Shale from SP
~A        DEPTH           CALI           DPHI           DRHO           DTLN             GR        GR_NORM           IDPH           IMPH           NPHI           SFLU             SP        SP_NORM         VSH_GR         VSH_SP
# ...
      5296.0000         13.183        32.8889        -0.0173       113.3964        28.4458        36.5923          0.253         0.2829         39.176         0.5179      -134.3826      -66.75709       0.076432     0.04632732
      5296.5000        13.6732         32.309        -0.0198       112.9358        29.9014       37.88468         0.2581         0.2938         36.689         0.5451      -135.5959       -67.8895      0.1039293     0.03014995
      5297.0000        14.0181        31.6917        -0.0229       112.7944        30.9843       38.84591         0.2615         0.3054        35.3684          0.635      -136.3323      -68.57681       0.124381     0.02033125
      5297.5000        14.0084         31.522        -0.0254       112.9261        30.2947       38.23227         0.2627          0.319        35.1918         0.7566      -137.0686      -69.26402      0.1113249     0.01051396
      5298.0000         13.053        32.0299        -0.0261        113.223        28.7685       36.87531         0.2601         0.3258        35.8383         0.8169      -137.8047      -69.95105     0.08245338   0.0006992885
      5298.5000        11.5964         32.814        -0.0268       113.8013        26.1674        34.5633         0.2563         0.3252        36.4133          0.778        -138.24      -70.35734     0.03326181              0
      5299.0000        10.5378        33.7717        -0.0267       114.4257        24.5962       33.16636         0.2524         0.3195        36.3096          0.672      -137.5474       -69.7109    0.003539552    0.004130009
      5299.5000        10.3422          34.51        -0.0271       114.3722        24.6687       33.22984         0.2485         0.3078        35.7474         0.5718      -136.3003      -68.54694    0.004890279     0.02075806
      5300.0000        10.2184        34.4496        -0.0272       113.5709        24.8734       33.41079         0.2447         0.2954        35.2292         0.5098      -135.8767      -68.15157    0.008740202      0.0264061
      5300.5000        10.1913        34.1559         -0.026       112.5184        24.4014       32.99049          0.241         0.2815        34.9524         0.4997       -136.217      -68.46919              0     0.02186868
      5301.0000        10.1966        33.7628         -0.025        111.943        23.9994       32.63238         0.2373         0.2664        35.4597         0.5332      -136.7419       -68.9591              0     0.01487002
      5301.5000          10.21        33.3381        -0.0268       111.6118        23.7021       32.36731         0.2337         0.2627        35.8693         0.5636      -137.2354       -69.4197              0    0.008289991
      5302.0000        10.2086        32.8657         -0.029       111.3651        23.6164       32.29023         0.2301         0.2607        34.9397         0.5564      -137.1172      -69.30939              0    0.009865897
      5302.5000        10.1739        32.5208        -0.0311       110.9615        22.9011       31.65376         0.2266         0.2586        33.7171         0.5243      -136.4309      -68.66883              0      0.0190167
      5303.0000        10.1314        32.3168        -0.0331       110.4447        22.8846       31.63817         0.2234         0.2565        34.1039          0.508       -136.021      -68.28626              0     0.02448196
      5303.5000        10.0917        32.3776        -0.0346       109.9191        24.1404       32.75302         0.2205         0.2544        34.5618         0.5566      -136.7166      -68.93549              0     0.01520735
      5304.0000        10.0535        32.4905        -0.0355       109.0818        26.1074       34.49977         0.2197         0.2523        34.3755         0.5978      -136.8979      -69.10471     0.03191002     0.01278992
      5304.5000        10.0063        32.5646        -0.0358       107.0831        27.3473       35.60049         0.2191         0.2503         33.728         0.5879      -136.4441      -68.68116     0.05532967     0.01884057
      5305.0000          9.954        32.5774        -0.0345        106.025        25.9761       34.38125         0.2178         0.2482        33.6423         0.5569      -135.8638      -68.13954     0.02938835     0.02657798
      5305.5000         9.9587        32.4562        -0.0304        105.495        24.4449       33.01985         0.2157         0.2462        33.6169         0.5394      -135.5781      -67.87289   0.0004222951     0.03038733
      5306.0000         9.9819        31.8167        -0.0255       104.8861        24.2154         32.815         0.2143         0.2442         32.927         0.5663      -135.5679      -67.86337              0     0.03052325
      5306.5000        10.0223        31.1029        -0.0186       104.4478        24.7369       33.27744         0.2141         0.2425        31.9297         0.5921      -135.5146      -67.81362    0.005902879     0.03123398
      5307.0000        10.1001        30.5182         -0.012       104.1389        24.4543       33.02541          0.216         0.2404        33.3176         0.6023      -135.5388      -67.83621   0.0005406319     0.03091126
      5307.5000        10.2339        30.7509        -0.0062       103.8448        23.8965       32.52888         0.2184         0.2393         35.016         0.5996      -135.6992      -67.98592              0     0.02877263
      5308.0000        10.3762        31.1557        -0.0013       103.9778        23.4739       32.15247         0.2214         0.2383        35.7148         0.5842       -136.187      -68.44119              0     0.02226868
      5308.5000        10.5119         31.783         0.0016       104.4375        24.6869       33.22929         0.2261         0.2383        34.9307         0.5654       -135.458      -67.76079     0.00487843     0.03198874
      5309.0000        10.6738         32.728         0.0036       105.0394         26.335        34.6927         0.2304         0.2407         35.399         0.5652      -134.7288      -67.08022     0.03601488     0.04171121
      5309.5000        10.8601        34.4114         0.0048       106.2872        27.7581        35.9562         0.2348         0.2473        38.1973         0.5651      -134.5435      -66.90726     0.06289779     0.04418193
      5310.0000        11.0512        37.0032          0.005       108.0718        27.4079       35.64411         0.2412         0.2566        41.2081         0.5578      -135.1492      -67.47258     0.05625769       0.036106
      5310.5000        11.2728        39.4813         0.0033       109.8564        26.0824       34.46548         0.2454         0.2669        45.1915         0.5347       -135.498      -67.79813     0.03118044     0.03145523
      5311.0000        11.6966        41.9593         0.0005        111.275        25.6185       34.05238         0.2504          0.276        49.0343         0.4938      -134.7761      -67.12435     0.02239097     0.04108069
      5311.5000        12.4798        42.5291        -0.0044       111.6812        26.1868       34.55638         0.2557         0.2847        50.1761         0.4897      -134.0996      -66.49295     0.03311441     0.05010071
      5312.0000        12.9072        43.2747        -0.0098       111.9254        27.1128        35.3782         0.2616         0.2948        47.8641         0.5228      -133.3843      -65.82533     0.05059993     0.05963811
      5312.5000        12.7756        45.0135        -0.0142       112.1066        28.1557       36.30389         0.2661         0.3037        44.0498         0.5463      -132.9885      -65.45592     0.07029554     0.06491536
      5313.0000         12.688        47.3389        -0.0171       112.1383        29.3643        37.3768         0.2707          0.311        43.4871         0.5537      -132.2646      -64.78029     0.09312341      0.0745673
      5313.5000        12.9625        48.5106         -0.016       112.4514        29.2368       37.26259         0.2729         0.3163        44.1568         0.5624      -131.1604       -63.7497     0.09069337     0.08928996
