#------------------------------------------------------------------------------
# Created by    : vladimir.rabinovich
# Created on    : 09/19/2023 17:22:52
#------------------------------------------------------------------------------
~Version Information Section
VERS.           2.0     :   CWLS log ASCII Standard - VERSION 2.0
WRAP.           NO      :   One line per depth step
~Well Information Section
#MNEM       .UNIT                                         VALUE :DESCRIPTION
#------------------------------------------------------------------------------
STRT        .FT                                             873 :START DEPTH
STOP        .FT                                           11612 :STOP DEPTH
STEP        .FT                                             0.5 :STEP      
NULL        .                                           -999.25 :NULL      
COMP        .                                   MARATHON OIL CO :COMPANY   
WELL        .                               OCS G04137 ST00BP04 :WELL      
FLD         .                       MATAGORDA ISLAND BLOCK 0527 :FIELD     
LOC         .                                                   :LOCATION  
CNTY        .                      MATAGORDA ISLAND LARGE BLOCK :LOCATION  
STAT        .                                             TEXAS :STATE     
CTRY        .                                     UNITED STATES :COUNTRY   
SRVC        .                                                   :SERVICE COMPANY
DATE        .                             9/13/2023 11:19:05 AM :LOG DATE  
API         .                                    42703400590000 :API NUMBER
UWI         .                                    42703400590000 :UNIQUE WELL ID
XCOORD      .                                  609906.580547661 :SURFACE X 
YCOORD      .                                  10277311.7025511 :SURFACE Y 
LAT         .                                         28.282909 :LATITUDE  
LON         .                                        -96.202007 :LONGITUDE 
ELEV        .FT                                              95 :ELEVATION VALUE
ELEV_TYPE   .                                                KB :ELEVATION REFERENCE TYPE
~Curve Information Section
#MNEM       .UNIT                                      API CODE :CURVE DESCRIPTION
#------------------------------------------------------------------------------
DEPT        .FT                                                 :DEPTH     
GR          .GAPI                                               :          
GR_NORM     .GAPI                                               :GammaRay Normalized
ILD         .OHMM                                               :          
SP          .MV                                                 :          
SP_NORM     .MV                                                 :SP Normalized
VSH_GR      .V/V                                                :Volume of Shale from GR
VSH_SP      .V/V                                                :Volume of Shale from SP
~A        DEPTH             GR        GR_NORM            ILD             SP        SP_NORM         VSH_GR         VSH_SP
# ...
      1007.0000         31.552       66.93985        -999.25        -999.25        -999.25      0.7221245        -999.25
      1007.5000        31.6925       67.12743        -999.25        -999.25        -999.25      0.7261155        -999.25
      1008.0000        30.2717       64.75362        -999.25        -999.25        -999.25       0.675609        -999.25
      1008.5000        31.0883       66.05031        -999.25        -999.25        -999.25      0.7031981        -999.25
      1009.0000        30.0992       64.38474        -999.25        -999.25        -999.25      0.6677605        -999.25
      1009.5000        29.0751       62.66176        -999.25        -999.25        -999.25      0.6311013        -999.25
      1010.0000        28.0514       60.93943        -999.25        -999.25        -999.25      0.5944559        -999.25
      1010.5000        28.8018       62.12751        -999.25        -999.25        -999.25      0.6197342        -999.25
      1011.0000        29.4733       63.18615        -999.25        -999.25        -999.25      0.6422586        -999.25
      1011.5000        30.1198        64.2038        -999.25        -999.25        -999.25      0.6639107        -999.25
      1012.0000        30.7352        65.1704        -999.25        -999.25        -999.25      0.6844767        -999.25
      1012.5000        30.6892       65.05199        -999.25        -999.25        -999.25      0.6819573        -999.25
      1013.0000         30.442       64.60351        -999.25        -999.25        -999.25      0.6724151        -999.25
      1013.5000        30.3085       64.34156        -999.25        -999.25        -999.25      0.6668417        -999.25
      1014.0000        30.2952       64.27679        -999.25        -999.25        -999.25      0.6654637        -999.25
      1014.5000        30.3259        64.2842        -999.25        -999.25        -999.25      0.6656213        -999.25
      1015.0000        30.3405       64.26519        -999.25        -999.25        -999.25      0.6652168        -999.25
      1015.5000        30.3515        64.2403        -999.25        -999.25        -999.25      0.6646872        -999.25
      1016.0000        30.3579       64.20785        -999.25        -999.25        -999.25      0.6639968        -999.25
      1016.5000        30.3424       64.13948        -999.25        -999.25        -999.25      0.6625422        -999.25
      1017.0000        30.2634       63.96693        -999.25        -999.25        -999.25      0.6588709        -999.25
      1017.5000        30.1949       63.81159        -999.25        -999.25        -999.25      0.6555658        -999.25
      1018.0000        30.2518         63.862        -999.25        -999.25        -999.25      0.6566382        -999.25
      1018.5000        30.3249       63.93896        -999.25        -999.25        -999.25      0.6582757        -999.25
      1019.0000         30.358       63.95032        -999.25        -999.25        -999.25      0.6585174        -999.25
      1019.5000        30.3046       63.81975        -999.25        -999.25        -999.25      0.6557394        -999.25
      1020.0000        30.5323       64.15034        -999.25        -999.25        -999.25      0.6627733        -999.25
      1020.5000        30.8971       64.70586        -999.25        -999.25        -999.25      0.6745927        -999.25
      1021.0000        31.2298       65.20872        -999.25        -999.25        -999.25       0.685292        -999.25
      1021.5000         31.419       65.47616        -999.25        -999.25        -999.25      0.6909821        -999.25
      1022.0000        31.1179       64.93923        -999.25        -999.25        -999.25      0.6795581        -999.25
      1022.5000        30.4816       63.85245        -999.25        -999.25        -999.25      0.6564351        -999.25
      1023.0000        31.7241       65.84781        -999.25        -999.25        -999.25      0.6988896        -999.25
      1023.5000        34.2684       69.97881        -999.25        -999.25        -999.25      0.7867831        -999.25
      1024.0000        35.8321       72.50111         1.9757      -121.4064      -14.81957      0.8404491              0
      1024.5000        37.7139       75.54527         1.1733      -118.9912      -12.40437      0.9052185              0
      1025.0000        38.4193       76.65952         0.9197      -116.6458      -10.05897      0.9289259              0
      1025.5000        38.4424       76.65446         0.8145      -114.3052      -7.718369      0.9288182     0.04023307
      1026.0000        38.9792       77.49213         0.6979      -111.9993      -5.412468      0.9466411      0.3696474
      1026.5000        40.7086       80.28626         0.8922      -110.1781       -3.59127              1      0.6298185
      1027.0000        40.3595       79.67063         1.0248      -108.7367      -2.149872      0.9929922      0.8357326
      1027.5000         39.877       78.83614         1.1556      -107.3871     -0.8002701       0.975237              1
      1028.0000        38.0477       75.79221         1.1908      -106.0586      0.5282288      0.9104725              1
      1028.5000        36.3609       72.98206         1.1851      -104.6713       1.915527      0.8506822              1
      1029.0000         35.196        71.0281         1.1728      -103.4194       3.167427      0.8091085              1
      1029.5000         34.678       70.13537         1.1832      -102.3818       4.205032      0.7901142              1
      1030.0000        33.6676       68.43485         1.2157      -101.6841       4.902733       0.753933              1
      1030.5000        31.9033       65.49755         1.2586      -101.1735        5.41333      0.6914372              1
      1031.0000        31.7431        65.1918         1.3066      -101.1364       5.450432      0.6849318              1
      1031.5000        30.9638       63.87041         1.3042      -101.3438       5.243027      0.6568173              1
      1032.0000        29.8211       61.95284         1.2915      -101.2639       5.322929      0.6160179              1
      1032.5000        28.6656       60.01429          1.258      -101.0148       5.572029      0.5747722              1
      1033.0000        28.4221       59.57188         1.2302      -100.7217       5.865128      0.5653592              1
      1033.5000        29.0374       60.53835         1.2491      -100.4283       6.158531      0.5859223              1
      1034.0000        29.9397       61.97561         1.2741      -100.2734       6.313431      0.6165023              1
      1034.5000        30.8543       63.43306         1.2688       -100.129       6.457832       0.647512              1
      1035.0000        31.6431       64.68416         1.2233      -100.0219       6.564934       0.674131              1
      1035.5000        32.3332        65.7733          1.179       -99.9354       6.651428      0.6973042              1
      1036.0000        33.0055       66.83329         1.1509       -99.9332       6.653633      0.7198572              1
      1036.5000        31.7947         64.804         1.1173       -99.9569       6.629929      0.6766809              1
      1037.0000        30.7881       63.10971         1.0948      -100.0078       6.579033      0.6406322              1
      1037.5000        30.3734       62.38646         1.0846      -100.0203       6.566528      0.6252438              1
      1038.0000        30.2575       62.15337         1.0831      -100.0282       6.558632      0.6202844              1
      1038.5000        30.1504       61.93472         1.0881      -100.0503        6.53653      0.6156322              1
      1039.0000        30.2239       62.01237         1.0938      -100.0624       6.524429      0.6172845              1
      1039.5000        30.3766       62.21991         1.1001      -100.0139       6.572929      0.6217002              1
      1040.0000        30.5006       62.38039         1.1027       -99.9653       6.621529      0.6251146              1
