#------------------------------------------------------------------------------
# Created by    : vladimir.rabinovich
# Created on    : 09/19/2023 17:20:34
#------------------------------------------------------------------------------
~Version Information Section
VERS.           2.0     :   CWLS log ASCII Standard - VERSION 2.0
WRAP.           NO      :   One line per depth step
~Well Information Section
#MNEM       .UNIT                                         VALUE :DESCRIPTION
#------------------------------------------------------------------------------
STRT        .FT                                             500 :START DEPTH
STOP        .FT                                            9234 :STOP DEPTH
STEP        .FT                                             0.5 :STEP      
NULL        .                                           -999.25 :NULL      
COMP        .                                      SHELL OIL CO :COMPANY   
WELL        .                                OCS 00713 ST00BP00 :WELL      
FLD         .                                           WILDCAT :FIELD     
LOC         .                                                   :LOCATION  
CNTY        .                             GALVESTON LARGE BLOCK :LOCATION  
STAT        .                                             TEXAS :STATE     
CTRY        .                                     UNITED STATES :COUNTRY   
SRVC        .                                                   :SERVICE COMPANY
DATE        .                             9/13/2023 11:19:25 AM :LOG DATE  
API         .                                    42706000510000 :API NUMBER
UWI         .                                    42706000510000 :UNIQUE WELL ID
XCOORD      .                                  1104646.85179908 :SURFACE X 
YCOORD      .                                   10481381.387581 :SURFACE Y 
LAT         .                                         28.871549 :LATITUDE  
LON         .                                        -94.674396 :LONGITUDE 
ELEV        .FT                                              82 :ELEVATION VALUE
ELEV_TYPE   .                                                KB :ELEVATION REFERENCE TYPE
~Curve Information Section
#MNEM       .UNIT                                      API CODE :CURVE DESCRIPTION
#------------------------------------------------------------------------------
DEPT        .FT                                                 :DEPTH     
ASN         .OHMM                                               :          
ASN_1       .OHMM                                               :          
GR_NORM     .                                                   :GammaRay Normalized
ILD         .OHMM                                               :          
LAT         .OHMM                                               :          
LN          .OHMM                                               :          
SP          .MV                                                 :          
SP_1        .MV                                                 :          
SP_NORM     .MV                                                 :SP Normalized
VSH_SP      .V/V                                                :Volume of Shale from SP
~A        DEPTH            ASN          ASN_1        GR_NORM            ILD            LAT             LN             SP           SP_1        SP_NORM         VSH_SP
# ...
      5743.0000         0.8191        -999.25        -999.25         0.6994        -999.25        -999.25       -65.3333        -999.25      -1.451675              1
      5743.5000         0.8209        -999.25        -999.25         0.6979        -999.25        -999.25       -64.0479        -999.25     -0.1675758              1
      5744.0000          0.826        -999.25        -999.25         0.6981        -999.25        -999.25       -63.7266        -999.25        0.15242              1
      5744.5000         0.8359        -999.25        -999.25         0.6983        -999.25        -999.25       -63.9443        -999.25    -0.06657791              1
      5745.0000         0.8422        -999.25        -999.25         0.6986        -999.25        -999.25       -64.1669        -999.25     -0.2904778              1
      5745.5000         0.8459        -999.25        -999.25         0.6988        -999.25        -999.25       -64.3256        -999.25     -0.4504776              1
      5746.0000          0.846        -999.25        -999.25         0.7021        -999.25        -999.25       -64.4841        -999.25     -0.6102791              1
      5746.5000         0.8443        -999.25        -999.25         0.7059        -999.25        -999.25       -64.6095        -999.25     -0.7369766              1
      5747.0000         0.8409        -999.25        -999.25         0.7068        -999.25        -999.25       -64.7074        -999.25     -0.8361778              1
      5747.5000         0.8352        -999.25        -999.25         0.7075        -999.25        -999.25       -64.7889        -999.25     -0.9189835              1
      5748.0000         0.8298        -999.25        -999.25         0.7099        -999.25        -999.25        -64.748        -999.25     -0.8793793              1
      5748.5000          0.829        -999.25        -999.25         0.7123        -999.25        -999.25       -64.1718        -999.25     -0.3044777              1
      5749.0000         0.8508        -999.25        -999.25         0.7146        -999.25        -999.25       -63.4464        -999.25      0.4196205              1
      5749.5000         0.8695        -999.25        -999.25         0.7173        -999.25        -999.25       -62.8177        -999.25        1.04702              1
      5750.0000          0.871        -999.25        -999.25         0.7451        -999.25        -999.25       -63.2351        -999.25      0.6283188              1
      5750.5000         0.8736        -999.25        -999.25         0.7445        -999.25        -999.25       -63.7078        -999.25      0.1543159              1
      5751.0000         0.8744        -999.25        -999.25         0.7456        -999.25        -999.25       -64.3662        -999.25     -0.5053864              1
      5751.5000         0.8781        -999.25        -999.25         0.7469        -999.25        -999.25       -65.1155        -999.25      -1.255985              1
      5752.0000         0.8842        -999.25        -999.25         0.7464        -999.25        -999.25       -65.8855        -999.25      -2.027279      0.9992422
      5752.5000         0.9002        -999.25        -999.25         0.7514        -999.25        -999.25       -66.4601        -999.25       -2.60318       0.983245
      5753.0000         0.9265        -999.25        -999.25         0.7652        -999.25        -999.25       -66.7333        -999.25      -2.877682        0.97562
      5753.5000         0.9535        -999.25        -999.25         0.7824        -999.25        -999.25       -66.7845        -999.25      -2.930183      0.9741616
      5754.0000         0.9682        -999.25        -999.25         0.7999        -999.25        -999.25       -66.6783        -999.25      -2.825283      0.9770755
      5754.5000         0.9775        -999.25        -999.25          0.823        -999.25        -999.25       -66.3376        -999.25      -2.485886      0.9865032
      5755.0000         0.9799        -999.25        -999.25         0.8365        -999.25        -999.25       -65.8429        -999.25      -1.992489              1
      5755.5000         0.9807        -999.25        -999.25         0.8518        -999.25        -999.25       -65.3455        -999.25       -1.49638              1
      5756.0000         0.9936        -999.25        -999.25         0.8709        -999.25        -999.25       -65.0199        -999.25      -1.172081              1
      5756.5000         1.0312        -999.25        -999.25         0.8942        -999.25        -999.25       -65.0389        -999.25      -1.192387              1
      5757.0000         1.0686        -999.25        -999.25         0.9112        -999.25        -999.25       -65.2153        -999.25      -1.370087              1
      5757.5000         1.0991        -999.25        -999.25         0.9159        -999.25        -999.25       -65.6321        -999.25      -1.788189              1
      5758.0000         1.1079        -999.25        -999.25         0.9045        -999.25        -999.25        -66.176        -999.25      -2.333389      0.9907392
      5758.5000         1.1063        -999.25        -999.25         0.8809        -999.25        -999.25       -66.8137        -999.25      -2.972385      0.9729893
      5759.0000         1.0944        -999.25        -999.25         0.8551        -999.25        -999.25       -67.4594        -999.25      -3.619381      0.9550172
      5759.5000         1.0736        -999.25        -999.25         0.8258        -999.25        -999.25       -68.0897        -999.25      -4.250984      0.9374726
      5760.0000         1.0447        -999.25        -999.25         0.7973        -999.25        -999.25       -68.9764        -999.25      -5.138988      0.9128059
      5760.5000         1.0128        -999.25        -999.25          0.775        -999.25        -999.25       -72.4648        -999.25      -8.628685      0.8158699
      5761.0000         0.9697        -999.25        -999.25          0.755        -999.25        -999.25       -74.7733        -999.25      -10.93849      0.7517087
      5761.5000         0.9436        -999.25        -999.25          0.738        -999.25        -999.25        -76.411        -999.25      -12.57749      0.7061808
      5762.0000         0.9281        -999.25        -999.25         0.7302        -999.25        -999.25       -76.9873        -999.25      -13.15509      0.6901365
      5762.5000         0.9289        -999.25        -999.25         0.7276        -999.25        -999.25        -76.651        -999.25      -12.82009       0.699442
      5763.0000         0.9349        -999.25        -999.25         0.7311        -999.25        -999.25       -76.6567        -999.25      -12.82709      0.6992476
      5763.5000         0.9377        -999.25        -999.25         0.7369        -999.25        -999.25       -75.4274        -999.25      -11.59909      0.7333587
      5764.0000         0.9338        -999.25        -999.25         0.7443        -999.25        -999.25       -75.1334        -999.25      -11.30639      0.7414892
      5764.5000         0.9244        -999.25        -999.25         0.7492        -999.25        -999.25       -75.1306        -999.25      -11.30489      0.7415308
      5765.0000          0.917        -999.25        -999.25         0.7563        -999.25        -999.25       -75.1173        -999.25      -11.29289      0.7418641
      5765.5000         0.9144        -999.25        -999.25         0.7695        -999.25        -999.25       -75.4514        -999.25      -11.62829      0.7325475
      5766.0000         0.9275        -999.25        -999.25          0.799        -999.25        -999.25       -73.9792        -999.25      -10.15739      0.7734057
      5766.5000         0.9575        -999.25        -999.25         0.8372        -999.25        -999.25       -72.1732        -999.25      -8.352692      0.8235363
      5767.0000         1.0026        -999.25        -999.25         0.8706        -999.25        -999.25       -69.4218        -999.25      -5.602589      0.8999281
