#------------------------------------------------------------------------------
# Created by    : vladimir.rabinovich
# Created on    : 09/19/2023 17:20:28
#------------------------------------------------------------------------------
~Version Information Section
VERS.           2.0     :   CWLS log ASCII Standard - VERSION 2.0
WRAP.           NO      :   One line per depth step
~Well Information Section
#MNEM       .UNIT                                         VALUE :DESCRIPTION
#------------------------------------------------------------------------------
STRT        .FT                                            2653 :START DEPTH
STOP        .FT                                           10423 :STOP DEPTH
STEP        .FT                                             0.5 :STEP      
NULL        .                                           -999.25 :NULL      
COMP        .                                       MONSANTO CO :COMPANY   
WELL        .                                     ST TR 00150-L :WELL      
FLD         .                                           WILDCAT :FIELD     
LOC         .                                                   :LOCATION  
CNTY        .                             GALVESTON LARGE BLOCK :LOCATION  
STAT        .                                             TEXAS :STATE     
CTRY        .                                     UNITED STATES :COUNTRY   
SRVC        .                                                   :SERVICE COMPANY
DATE        .                             9/13/2023 11:19:24 AM :LOG DATE  
API         .                                    42706300340000 :API NUMBER
UWI         .                                    42706300340000 :UNIQUE WELL ID
XCOORD      .                                  1113316.22146511 :SURFACE X 
YCOORD      .                                  10612518.3672968 :SURFACE Y 
LAT         .                                         29.232517 :LATITUDE  
LON         .                                       -94.6530532 :LONGITUDE 
ELEV        .FT                                              81 :ELEVATION VALUE
ELEV_TYPE   .                                                KB :ELEVATION REFERENCE TYPE
~Curve Information Section
#MNEM       .UNIT                                      API CODE :CURVE DESCRIPTION
#------------------------------------------------------------------------------
DEPT        .FT                                                 :DEPTH     
ASN         .OHMM                                               :          
CILD        .MMHO                                               :          
ILD         .OHMM                                               :          
SP          .MV                                                 :          
SP_NORM     .MV                                                 :SP Normalized
VSH_SP      .V/V                                                :Volume of Shale from SP
~A        DEPTH            ASN           CILD            ILD             SP        SP_NORM         VSH_SP
# ...
      3679.0000         1.1793       1792.777         0.5597       -74.3822      -20.60832      0.4700454
      3679.5000          1.208        1769.02          0.534        -75.444      -21.65662      0.4417129
      3680.0000         1.2499       1750.186         0.5252       -75.2458      -21.44493      0.4474343
      3680.5000         1.2562       1735.752         0.5234       -73.5074      -19.69305      0.4947825
      3681.0000         1.2258       1721.318         0.5322       -71.7703      -17.94246      0.5420958
      3681.5000         1.1606       1706.885         0.5409       -69.9692      -16.12786      0.5911388
      3682.0000         1.1011        1705.09         0.5496       -68.1533      -14.29847      0.6405818
      3682.5000         1.0488       1712.809         0.5549       -66.3374      -12.46909      0.6900247
      3683.0000         1.0016       1721.037         0.5583       -64.5203       -10.6385      0.7395001
      3683.5000         0.9576       1729.264         0.5618       -62.7985      -8.903206      0.7863998
      3684.0000         0.9164        1679.07         0.5828       -61.4821      -7.573315      0.8223429
      3684.5000         0.8962       1555.314         0.6465       -60.1658      -6.243523      0.8582832
      3685.0000         0.9153       1490.816         0.6959         -58.85      -4.914234      0.8942099
      3685.5000         0.9867       1424.992         0.7388       -57.5336      -3.584343      0.9301529
      3686.0000         1.0378       1343.928         0.7777       -56.4786      -2.515854       0.959031
      3686.5000         1.1584       1262.518         0.8126       -55.4501      -1.473866      0.9871928
      3687.0000         1.3558       1180.668         0.8474       -55.9047      -1.914978      0.9752709
      3687.5000         1.2809       1073.432         0.8788       -56.3288      -2.325584      0.9641734
      3688.0000         1.1986       1148.271         0.8548       -56.7529      -2.736195      0.9530758
      3688.5000         1.0582       1300.307         0.7772       -57.1771      -3.146908      0.9419755
      3689.0000         0.9874       1386.959         0.6995       -57.6013      -3.557613      0.9308753
      3689.5000         0.9282       1463.662         0.6326       -56.5118      -2.454624      0.9606858
      3690.0000         0.8899       1532.525         0.5689        -55.701      -1.630337      0.9829639
      3690.5000         0.8554       1677.305         0.5236       -54.7876     -0.7034454              1
      3691.0000         0.8319       2074.301         0.5043         -54.03     0.06764603              1
      3691.5000         0.8137       1962.211         0.5025        -53.601      0.5101318              1
      3692.0000         0.8034       1859.629         0.5006        -53.457      0.6676254              1
      3692.5000         0.7999       1636.625         0.5194       -53.5372       0.600914              1
      3693.0000         0.8121       1557.961         0.5416       -53.6174      0.5342026              1
      3693.5000         0.8303       1470.279         0.5637       -53.6976      0.4674911              1
      3694.0000         0.8484       1389.215         0.5957       -53.4047      0.7738838              1
      3694.5000         0.8741       1310.451         0.6325       -52.8567       1.335373              1
      3695.0000         0.9103       1232.475         0.6692       -52.3086       1.896961              1
      3695.5000          0.951        1202.43          0.707       -51.4916       2.727455              1
      3696.0000         0.9936       1172.387         0.7451        -50.572       3.660545              1
      3696.5000         1.0064       1160.896         0.7832       -50.9113       3.334732              1
      3697.0000         1.0104       1154.365         0.8095       -51.4861       2.773426              1
      3697.5000         1.0067       1151.371         0.8206        -52.324       1.949013              1
      3698.0000         1.0024        1166.59         0.8056       -53.2664       1.020103              1
      3698.5000         0.9969       1181.797         0.7932       -54.0808      0.2191963              1
      3699.0000         0.9858       1198.631         0.7832        -54.511     -0.1975174              1
      3699.5000         0.9746       1216.068         0.7732       -54.2475     0.07947159              1
      3700.0000         0.9635       1233.492         0.7632        -53.676       0.664463              1
      3700.5000         0.9499       1250.914         0.7602       -53.1713       1.182655              1
      3701.0000         0.9349       1256.783         0.7574       -52.6669       1.700542              1
      3701.5000         0.9217       1257.121         0.7546       -52.1622       2.218731              1
      3702.0000         0.9104       1257.459         0.7518       -51.9197       2.474724              1
      3702.5000         0.9021       1257.795          0.749       -51.8296       2.578312              1
      3703.0000         0.8962       1258.133         0.7466         -51.87       2.551403              1
      3703.5000         0.8903       1255.848         0.7457       -52.0293       2.405594              1
      3704.0000          0.888       1250.816         0.7449        -52.379       2.069382              1
      3704.5000         0.8882       1245.787          0.744       -52.7287       1.733173              1
      3705.0000         0.8885        1240.76         0.7432       -53.3211       1.154266              1
      3705.5000         0.8909        1235.73         0.7413       -54.2081      0.2807541              1
      3706.0000         0.8937       1263.059         0.7366       -55.0958     -0.5934563              1
      3706.5000         0.8966       1290.443         0.7318         -56.35      -1.834164       0.977455
      3707.0000         0.8995       1320.033         0.7271       -57.7058      -3.176476      0.9411764
      3707.5000         0.9024       1364.291         0.7155       -59.1465      -4.603687       0.902603
      3708.0000         0.9064       1411.563         0.7032       -60.1387      -5.582397      0.8761514
      3708.5000         0.9112       1483.904         0.6843       -61.1838      -6.614006      0.8482701
      3709.0000         0.9159       1828.947          0.652       -64.6852      -10.10192      0.7540022
      3709.5000         0.9206           2108         0.6197       -69.0969      -14.50013      0.6351317
      3710.0000         0.9274           2388         0.5736       -75.9152      -21.30494      0.4512179
      3710.5000         0.9353       2667.875         0.5235       -81.8364      -27.21265        0.29155
      3711.0000         0.9436        2947.75         0.4667       -83.9796      -29.34236      0.2339903
      3711.5000         0.9375        3227.75         0.4083       -85.5359      -30.88516      0.1922929
      3712.0000         0.9208       3507.625         0.3618       -86.8578      -32.19358      0.1569303
      3712.5000         0.9041       3930.547         0.3218       -87.6833      -33.00558      0.1349842
      3713.0000         0.8862       4021.047         0.2818       -88.2966       -33.6054      0.1187731
      3713.5000          0.866       4066.703         0.2597        -88.228       -33.5233      0.1209918
      3714.0000         0.8516       4027.055         0.2398       -86.1461      -31.42792      0.1776237
      3714.5000         0.8562       3888.152         0.2355       -83.6155      -28.88383       0.246383
      3715.0000         0.8652         3743.5         0.2637       -81.1782      -26.43304      0.3126206
      3715.5000         0.8741           3397         0.2958       -78.6832      -23.92455      0.3804177
      3716.0000         0.8666        3050.75         0.3299        -75.679      -20.90686      0.4619767
      3716.5000         0.8564         2704.5          0.364       -71.5968      -16.81117      0.5726711
