#------------------------------------------------------------------------------
# Created by    : vladimir.rabinovich
# Created on    : 09/19/2023 17:22:30
#------------------------------------------------------------------------------
~Version Information Section
VERS.           2.0     :   CWLS log ASCII Standard - VERSION 2.0
WRAP.           NO      :   One line per depth step
~Well Information Section
#MNEM       .UNIT                                         VALUE :DESCRIPTION
#------------------------------------------------------------------------------
STRT        .FT                                             456 :START DEPTH
STOP        .FT                                           11667 :STOP DEPTH
STEP        .FT                                             0.5 :STEP      
NULL        .                                           -999.25 :NULL      
COMP        .                              PATRICK PETROLEUM CO :COMPANY   
WELL        .                                     ST TR 00693-L :WELL      
FLD         .                                           WILDCAT :FIELD     
LOC         .                                                   :LOCATION  
CNTY        .                      MATAGORDA ISLAND LARGE BLOCK :LOCATION  
STAT        .                                             TEXAS :STATE     
CTRY        .                                     UNITED STATES :COUNTRY   
SRVC        .                                                   :SERVICE COMPANY
DATE        .                             9/13/2023 11:12:01 AM :LOG DATE  
API         .                                    42703302660000 :API NUMBER
UWI         .                                    42703302660000 :UNIQUE WELL ID
XCOORD      .                                  384413.417453263 :SURFACE X 
YCOORD      .                                  10143960.4717662 :SURFACE Y 
LAT         .                                        27.8986234 :LATITUDE  
LON         .                                       -96.8882217 :LONGITUDE 
ELEV        .FT                                              92 :ELEVATION VALUE
ELEV_TYPE   .                                                KB :ELEVATION REFERENCE TYPE
~Curve Information Section
#MNEM       .UNIT                                      API CODE :CURVE DESCRIPTION
#------------------------------------------------------------------------------
DEPT        .FT                                                 :DEPTH     
CILD        .MMHO                                               :          
DPHI        .%                                                  :          
DT          .US/F                                               :          
GR          .GAPI                                               :          
GR_NORM     .GAPI                                               :GammaRay Normalized
ILD         .OHMM                                               :          
SN          .OHMM                                               :          
SP          .MV                                                 :          
SP_NORM     .MV                                                 :SP Normalized
VSH_GR      .V/V                                                :Volume of Shale from GR
VSH_SP      .V/V                                                :Volume of Shale from SP
~A        DEPTH           CILD           DPHI             DT             GR        GR_NORM            ILD             SN             SP        SP_NORM         VSH_GR         VSH_SP
# ...
      2683.5000       1112.079           31.5        -999.25        35.0909       51.71257         0.8857          1.381       -55.8485      -26.35448      0.3981398       0.396322
      2684.0000       1079.208          31.38        -999.25        36.3453       53.63449         0.9098          1.426       -55.8889      -26.38753      0.4390317       0.395535
      2684.5000       1042.376          31.86        -999.25        36.8687       54.42916         0.9501         1.4692       -54.2929      -24.78419      0.4559397      0.4337099
      2685.0000       1011.485         32.484        -999.25        34.5051       50.77187           0.99         1.5298       -52.2121      -22.69604      0.3781249      0.4834276
      2685.5000       972.2772         33.048        -999.25        31.9091       46.75619         1.0322          1.596       -50.8889       -21.3655      0.2926849      0.5151073
      2686.0000       932.6733         33.876        -999.25        29.3464       42.79187         1.0733         1.6662       -50.5051      -20.97435      0.2083377      0.5244203
      2686.5000       893.0693           34.8        -999.25          26.68       38.66764         1.1155          1.738       -50.4444      -20.90631       0.120588      0.5260404
      2687.0000       847.1287         35.808        -999.25          24.27       34.93878          1.162         1.7873       -50.4949      -20.94946     0.04125068      0.5250129
      2687.5000       817.0297         36.528        -999.25          22.67       32.45902         1.1895         1.8154        -51.596      -22.04321              0      0.4989711
      2688.0000       805.5446         36.684        -999.25           21.5       30.64234         1.2262         1.8307       -53.1144      -23.55427              0      0.4629936
      2688.5000            794          36.18        -999.25        20.4744       29.04833         1.2614         1.8569       -54.2066      -24.63912              0      0.4371637
      2689.0000            782         35.916        -999.25        21.8996       31.23364         1.2788         1.8943       -54.2931      -24.71828              0      0.4352791
      2689.5000            780         35.904        -999.25        23.1892       33.20986         1.2942         1.9557        -54.319      -24.73683    0.004465063      0.4348373
      2690.0000            780          35.58        -999.25        24.2241       34.79329         1.3013         1.9816       -54.3434      -24.75389     0.03815517      0.4344313
      2690.5000            776         35.772        -999.25        23.7879       34.10818         1.2854         1.9643       -54.2424      -24.64554      0.0235784      0.4370109
      2691.0000          777.2         36.108        -999.25        22.2222       31.68131         1.2732         1.8875       -54.3131       -24.7089              0      0.4355025
      2691.5000       793.9881         36.768        -999.25        23.4343         33.538         1.2495         1.8176       -55.3434      -25.73185     0.01144677      0.4111464
      2692.0000       831.6832          37.92        -999.25        25.5252       36.74986         1.2054          1.751       -57.0101      -27.39121     0.07978431      0.3716379
      2692.5000       882.7723         39.084        -999.25        27.4848       39.75927         1.1203         1.6707       -58.4206      -28.79436      0.1438142      0.3382294
      2693.0000       973.8614         40.188        -999.25        28.6364       41.52267         0.9988         1.5742       -58.3838      -28.75022      0.1813333      0.3392805
      2693.5000       1079.604         41.304        -999.25        29.5758       42.95884         0.9046         1.4872       -57.3232      -27.68227      0.2118901      0.3647078
      2694.0000       1189.328          42.48        -999.25          30.54       44.43325         0.8166         1.4368       -56.6667      -27.01842      0.2432607      0.3805137
      2694.5000           1326         43.416        -999.25          31.12       45.31519         0.7373         1.3986       -58.5455      -28.88988      0.2620254      0.3359552
      2695.0000         1440.8         44.124        -999.25          31.51       45.90416          0.691         1.3509        -60.259      -30.59604      0.2745566      0.2953325
      2695.5000         1533.2         43.248        -999.25          31.37        45.6758         0.6479         1.2983         -61.86      -32.18969       0.269698      0.2573884
      2696.0000       1595.636         42.048        -999.25          30.93       44.98485         0.6114          1.256       -63.2182      -33.54054      0.2549968      0.2252252
      2696.5000         1638.8         39.588        -999.25          30.54       44.37098         0.6023         1.2386         -64.21        -34.525      0.2419358      0.2017858
      2697.0000           1634          36.84        -999.25          30.77       44.71321         0.6014          1.204          -64.5      -34.80766      0.2492173      0.1950558
      2697.5000           1580          34.32        -999.25          32.85       47.90827         0.6168         1.1873         -64.07      -34.37031      0.3171973      0.2054689
      2698.0000       1506.182          33.54        -999.25        36.0909       52.89352         0.6505         1.1823         -62.52      -32.81297      0.4232664      0.2425484
      2698.5000         1432.4         33.276        -999.25        39.3412       57.89328         0.6844         1.1876       -60.4287      -30.71432      0.5296442      0.2925163
      2699.0000         1376.4          33.54        -999.25         42.202       62.29238         0.7052           1.18       -57.8586      -28.13687      0.6232421       0.353884
      2699.5000         1345.6         31.944        -999.25        44.4748       65.78474         0.7225         1.1775       -54.5051      -24.77603      0.6975476      0.4339041
      2700.0000       1335.287         31.692        -999.25        46.7374       69.26138         0.7405         1.1701       -50.0335      -20.29708      0.7715188      0.5405456
      2700.5000       1328.575          31.62        -999.25        49.1412       72.95577         0.7466         1.1632          -45.4      -15.65624      0.8501228      0.6510419
      2701.0000       1329.332         31.572        -999.25          51.48       76.54991         0.7466         1.1572          -41.2      -11.44889      0.9265938      0.7512168
      2701.5000       1329.693         31.524        -999.25          53.82       80.14594         0.7466         1.1562         -37.04      -7.281548              1      0.8504394
      2702.0000       1314.773         31.536        -999.25        56.2454       83.87361         0.7479         1.1553       -33.2454      -3.479601              1      0.9409619
      2702.5000       1302.574         31.584        -999.25          58.28       86.99866          0.756         1.1551       -30.7101     -0.9369564              1              1
      2703.0000       1272.871           31.5        -999.25        60.0625       89.73496         0.7651         1.1654        -29.604      0.1764889              1              1
      2703.5000       1228.515         31.272        -999.25        61.4748       91.90038         0.7945         1.1851       -30.3801     -0.5922661              1              1
      2704.0000       1183.996         29.424        -999.25        60.7624       90.78935         0.8334         1.2175       -31.3545       -1.55932              1      0.9866828
      2704.5000         1135.2         28.044        -999.25          58.55        87.3652          0.874         1.2636            -32      -2.197475              1      0.9714887
      2705.0000           1072         27.216        -999.25          56.39        84.0219         0.9146         1.3104         -31.55      -1.740129              1      0.9823779
      2705.5000           1010         26.556        -999.25          53.99       80.30845         0.9588         1.3312        -30.091     -0.2737846              1              1
