#------------------------------------------------------------------------------
# Created by    : vladimir.rabinovich
# Created on    : 09/19/2023 17:20:23
#------------------------------------------------------------------------------
~Version Information Section
VERS.           2.0     :   CWLS log ASCII Standard - VERSION 2.0
WRAP.           NO      :   One line per depth step
~Well Information Section
#MNEM       .UNIT                                         VALUE :DESCRIPTION
#------------------------------------------------------------------------------
STRT        .FT                                            3532 :START DEPTH
STOP        .FT                                           13690 :STOP DEPTH
STEP        .FT                                             0.5 :STEP      
NULL        .                                           -999.25 :NULL      
COMP        .                              VASTAR RESOURCES INC :COMPANY   
WELL        .                                     ST TR 00023-L :WELL      
FLD         .                          HIGH ISLAND BLOCK 0024-L :FIELD     
LOC         .                                                   :LOCATION  
CNTY        .                           HIGH ISLAND LARGE BLOCK :LOCATION  
STAT        .                                             TEXAS :STATE     
CTRY        .                                     UNITED STATES :COUNTRY   
SRVC        .                                                   :SERVICE COMPANY
DATE        .                             9/13/2023 11:19:15 AM :LOG DATE  
API         .                                    42708300330000 :API NUMBER
UWI         .                                    42708300330000 :UNIQUE WELL ID
XCOORD      .                                  1290562.53578251 :SURFACE X 
YCOORD      .                                  10712997.1214806 :SURFACE Y 
LAT         .                                        29.5146054 :LATITUDE  
LON         .                                       -94.1002609 :LONGITUDE 
ELEV        .FT                                              79 :ELEVATION VALUE
ELEV_TYPE   .                                                KB :ELEVATION REFERENCE TYPE
~Curve Information Section
#MNEM       .UNIT                                      API CODE :CURVE DESCRIPTION
#------------------------------------------------------------------------------
DEPT        .FT                                                 :DEPTH     
ASN         .OHMM                                               :          
CILD        .MMHO                                               :          
ILD         .OHMM                                               :          
SP          .MV                                                 :          
SP_NORM     .MV                                                 :SP Normalized
VSH_SP      .V/V                                                :Volume of Shale from SP
~A        DEPTH            ASN           CILD            ILD             SP        SP_NORM         VSH_SP
# ...
      5546.0000         0.5576       2186.184         0.5009       -68.8733       2.824814              1
      5546.5000          0.559       2206.008         0.4994        -69.618       2.080116              1
      5547.0000         0.5604       2229.906          0.498       -70.3629       1.335213              1
      5547.5000         0.5618       2260.262         0.4965       -71.3685      0.3296127              1
      5548.0000         0.5632       2318.566          0.495       -74.2704      -2.572289      0.9823338
      5548.5000         0.5629       2406.508         0.4935       -77.1686       -5.47049      0.9497698
      5549.0000         0.5617       3316.336         0.4921       -80.0704      -8.372284      0.9171653
      5549.5000         0.5604       3865.055         0.4828       -85.1183      -13.42019      0.8604473
      5550.0000         0.5592       3908.379         0.4643       -91.2318      -19.53368      0.7917564
      5550.5000          0.558       3951.754         0.4458      -101.9174      -30.21928      0.6716934
      5551.0000         0.5553       3997.344         0.4273      -110.5676      -38.86948      0.5745002
      5551.5000         0.5472       4011.625         0.4088      -114.6125      -42.91439      0.5290518
      5552.0000          0.539       4025.906         0.3903      -118.1819      -46.48379      0.4889462
      5552.5000         0.5309        4097.07         0.3671      -123.2002      -51.50209      0.4325608
      5553.0000         0.5227       4389.516         0.3402      -129.2915      -57.59339      0.3641192
      5553.5000         0.5146        4478.75         0.3134      -121.4708      -49.77269      0.4519922
      5554.0000         0.5017       4601.172         0.2866      -116.3936      -44.69549      0.5090395
      5554.5000         0.4822       4669.836         0.2598      -111.3162      -39.61809      0.5660889
      5555.0000         0.4628       4386.633         0.2485       -108.005      -36.30688      0.6032934
      5555.5000         0.4433       4164.742         0.2555      -105.2469      -33.54879      0.6342832
      5556.0000         0.4257        4058.32         0.2625      -103.7628      -32.06469      0.6509585
      5556.5000         0.4108       4028.625         0.2695      -102.5756      -30.87749      0.6642979
      5557.0000         0.4328       4010.125         0.2765      -101.3892      -29.69109      0.6776283
      5557.5000         0.4547       3992.633         0.2835        -99.764      -28.06589      0.6958889
      5558.0000         0.4767       3967.008         0.2905        -96.512      -24.81389      0.7324282
      5558.5000         0.4989       3650.219         0.3034       -93.2634      -21.56528      0.7689294
      5559.0000         0.5228       2843.984         0.3171       -89.2333      -17.53519      0.8142114
      5559.5000         0.5468       2803.766         0.3308        -84.167      -12.46889      0.8711361
      5560.0000         0.5707       2761.656         0.3445       -90.4869      -18.78879       0.800126
      5560.5000         0.5946       2704.121         0.3582      -102.2566      -30.55849      0.6678821
      5561.0000         0.5881       2631.281         0.3719      -108.2373      -36.53918      0.6006833
      5561.5000         0.5791       2558.445         0.3856      -101.5708      -29.87269      0.6755878
      5562.0000         0.5701       2492.813         0.3993       -96.2501      -24.55199      0.7353709
      5562.5000         0.5611       2458.777          0.413        -91.582      -19.88389      0.7878215
      5563.0000         0.5539       2430.309         0.4267       -86.9177      -15.21959      0.8402293
      5563.5000         0.5468       2404.449         0.4391       -82.6221      -10.92399      0.8884945
      5564.0000         0.5396       2382.141         0.4511       -79.6427      -7.944588      0.9219709
      5564.5000         0.5811       2360.477         0.4505       -82.8175      -11.11938      0.8862991
      5565.0000         0.6422       2337.945         0.4309       -93.6948      -21.99669      0.7640821
      5565.5000         0.6817       2506.477         0.4113      -105.2064      -33.50829      0.6347384
      5566.0000         0.7213       2690.309         0.3916      -115.8478      -44.14969      0.5151721
      5566.5000         0.7609       2874.141          0.372      -136.4741      -64.77599      0.2834158
      5567.0000         0.8005       3057.977         0.3524      -148.8486      -77.15049      0.1443765
      5567.5000         0.8303       3242.008         0.3327      -151.5994      -79.90128      0.1134687
      5568.0000         0.8591       3516.465         0.3131      -154.3501      -82.65199     0.08256196
      5568.5000         0.8878       3664.129         0.2941      -157.0989      -85.40079     0.05167646
      5569.0000          0.874       3920.898         0.2838      -159.8108      -88.11269     0.02120569
      5569.5000         0.8516         4218.5         0.2736      -162.5247      -90.82659              0
      5570.0000          0.811        5203.25         0.2633       -164.606      -92.90789              0
      5570.5000         0.7604       5329.547          0.253      -165.5444      -93.84629              0
      5571.0000         0.7281       5389.273         0.2428      -163.7468      -92.04868              0
      5571.5000         0.6977       5442.086         0.2325      -161.9512      -90.25309              0
      5572.0000         0.6733       5473.039         0.2222      -160.1555      -88.45739      0.0173327
      5572.5000         0.6521       5397.422         0.2194      -158.7112      -87.01308     0.03356085
      5573.0000         0.6347       5298.047         0.2216      -157.5303      -85.83219     0.04682931
      5573.5000         0.6285       5203.156         0.2237      -156.3494      -84.65128     0.06009794
      5574.0000         0.6223        5113.32         0.2259      -155.1685      -83.47039      0.0733664
      5574.5000         0.6161       5023.391          0.228      -153.9885      -82.29038     0.08662492
      5575.0000         0.6099       4933.563         0.2302      -152.8079      -81.10979     0.09988995
      5575.5000         0.6037       4634.961         0.2324       -151.627      -79.92889      0.1131586
      5576.0000         0.5977       4524.555         0.2353      -152.3459      -80.64779       0.105081
      5576.5000          0.592       4450.727         0.2383      -153.1802      -81.48209     0.09570681
      5577.0000         0.5863        4401.07         0.2413      -154.0154      -82.31728     0.08632266
      5577.5000         0.5807       4469.008         0.2442      -154.8506      -83.15249     0.07693833
      5578.0000          0.575       4545.625         0.2472      -155.6848      -83.98669     0.06756531
      5578.5000         0.5693       4659.305         0.2502      -154.7334      -83.03529     0.07825521
      5579.0000         0.5501       4776.258         0.2531      -153.7112      -82.01308     0.08974063
      5579.5000         0.5225       5043.664         0.2511      -152.6853      -80.98719      0.1012675
      5580.0000         0.4874       5188.695          0.242      -151.6472      -79.94909      0.1129316
      5580.5000         0.4685       5220.531         0.2328      -150.6094      -78.91129      0.1245922
      5581.0000         0.4642       5235.219         0.2236      -149.5713      -77.87319      0.1362563
      5581.5000           0.46       5239.031         0.2144      -150.4092      -78.71108      0.1268418
      5582.0000         0.4588       5242.859         0.2052      -151.5532      -79.85509      0.1139877
      5582.5000         0.4584       5264.242         0.1961      -152.6973      -80.99918      0.1011328
      5583.0000         0.4581       5289.656         0.1908      -153.8411      -82.14298      0.0882811
      5583.5000         0.4578       5324.609         0.1869      -155.2976      -83.59949     0.07191579
