#------------------------------------------------------------------------------
# Created by    : vladimir.rabinovich
# Created on    : 09/19/2023 17:19:56
#------------------------------------------------------------------------------
~Version Information Section
VERS.           2.0     :   CWLS log ASCII Standard - VERSION 2.0
WRAP.           NO      :   One line per depth step
~Well Information Section
#MNEM       .UNIT                                         VALUE :DESCRIPTION
#------------------------------------------------------------------------------
STRT        .FT                                            3966 :START DEPTH
STOP        .FT                                           12200 :STOP DEPTH
STEP        .FT                                             0.5 :STEP      
NULL        .                                           -999.25 :NULL      
COMP        .                       HOUSTON OIL & MINERALS CORP :COMPANY   
WELL        .                                ST TR 00526-L SW/4 :WELL      
FLD         .                                           CAVALLO :FIELD     
LOC         .                                                   :LOCATION  
CNTY        .                      MATAGORDA ISLAND LARGE BLOCK :LOCATION  
STAT        .                                             TEXAS :STATE     
CTRY        .                                     UNITED STATES :COUNTRY   
SRVC        .                                                   :SERVICE COMPANY
DATE        .                             9/13/2023 11:19:05 AM :LOG DATE  
API         .                                    42703302090000 :API NUMBER
UWI         .                                    42703302090000 :UNIQUE WELL ID
XCOORD      .                                  601997.830501628 :SURFACE X 
YCOORD      .                                  10286578.1750905 :SURFACE Y 
LAT         .                                        28.3077871 :LATITUDE  
LON         .                                       -96.2273179 :LONGITUDE 
ELEV        .FT                                             113 :ELEVATION VALUE
ELEV_TYPE   .                                                KB :ELEVATION REFERENCE TYPE
~Curve Information Section
#MNEM       .UNIT                                      API CODE :CURVE DESCRIPTION
#------------------------------------------------------------------------------
DEPT        .FT                                                 :DEPTH     
ASFL        .OHMM                                               :          
CILD        .MMHO                                               :          
ILD         .OHMM                                               :          
SP          .MV                                                 :          
SP_NORM     .MV                                                 :SP Normalized
VSH_SP      .V/V                                                :Volume of Shale from SP
~A        DEPTH           ASFL           CILD            ILD             SP        SP_NORM         VSH_SP
# ...
     12174.0000         2.3936       588.2353           1.76          -31.8      -2.623152      0.9746383
     12174.5000         2.3141       588.2353           1.76          -31.2      -1.871058      0.9863897
     12175.0000         2.2147       588.2353           1.78          -30.6      -1.118961      0.9981412
     12175.5000         2.1193       588.2353           1.78            -30     -0.3668652              1
     12176.0000         2.1193       588.2353           1.78            -30     -0.2147694              1
     12176.5000         2.1193       588.2353           1.78            -30    -0.06267357              1
     12177.0000         2.1193       588.2353           1.78       -29.8039      0.1362209              1
     12177.5000         2.1193       588.2353           1.78       -29.8039      0.1362209              1
     12178.0000         2.1193       588.2353           1.78       -29.8039      0.1362209              1
     12178.5000         2.1193       596.0784           1.78       -29.8039      0.1362209              1
     12179.0000         2.1193       596.0784           1.78       -29.8039      0.1362209              1
     12179.5000         2.1193       596.0784           1.78       -29.8039      0.1362209              1
     12180.0000         2.1193       596.0784            1.8       -29.8039      0.1362209              1
     12180.5000         2.1193       596.0784            1.8       -29.8039      0.1362209              1
     12181.0000         2.1193       596.0784            1.8       -29.8039      0.1362209              1
     12181.5000         2.1193       596.0784            1.8       -29.8039      0.1362209              1
     12182.0000         2.1193       596.0784            1.8       -29.6078      0.3323212              1
     12182.5000         2.1193       596.0784            1.8       -29.6078      0.3323212              1
     12183.0000         2.1193       596.0784            1.8       -29.6078      0.3323212              1
     12183.5000         2.1193       596.0784            1.8       -29.6078      0.3323212              1
     12184.0000         2.1193       596.0784            1.8       -29.6078      0.3323212              1
     12184.5000         2.1193       596.0784            1.8       -29.4118      0.5283203              1
     12185.0000         2.1193       596.0784            1.8       -29.4118      0.5283203              1
     12185.5000         2.1193       596.0784            1.8       -29.4118      0.5283203              1
     12186.0000         2.1193       596.0784            1.8       -29.4118      0.5283203              1
     12186.5000         2.1193       596.0784            1.8       -29.4118      0.5283203              1
     12187.0000         2.1193       596.0784            1.8       -29.4118      0.5283203              1
     12187.5000         2.1193       596.0784            1.8       -29.2157      0.7244205              1
     12188.0000         2.1193       596.0784            1.8       -29.0196      0.9205208              1
     12188.5000         2.1193       596.0784            1.8       -29.0196      0.9205208              1
     12189.0000         2.1193       596.0784            1.8       -29.0196      0.9205208              1
     12189.5000         2.1193       596.0784            1.8       -29.0196      0.9205208              1
     12190.0000         2.1193       596.0784            1.8       -29.0196      0.9205208              1
     12190.5000         2.1153       596.2709         1.7992       -29.0281      0.9120216              1
     12191.0000         2.1352       596.4637         1.7984       -29.4294      0.5107212              1
     12191.5000         2.1352       596.6569         1.7976       -29.6349      0.3052216              1
     12192.0000         2.1352       596.8504         1.7968       -29.6439      0.2962208              1
     12192.5000         2.1312       597.0443         1.7961        -29.456      0.4841213              1
     12193.0000         2.1312       597.2386         1.7953       -29.2678      0.6723213              1
     12193.5000         2.1312       597.4333         1.7945       -29.2765        0.66362              1
     12194.0000         2.1312       597.6285         1.7937       -29.0878      0.8523216              1
     12194.5000         2.1312       589.9109         1.7929       -29.0964      0.8437214              1
     12195.0000         2.1272        590.099         1.7922        -29.105      0.8351212              1
     12195.5000         2.1272       590.2874         1.7914       -29.1136      0.8265209              1
     12196.0000         2.1272       590.4762         1.7906       -29.3293      0.6108208              1
     12196.5000         2.1272       590.6653         1.7898       -29.5367      0.4034214              1
     12197.0000         2.1233       590.8549         1.7891       -29.7445      0.1956215              1
     12197.5000         2.1233       591.0448         1.7883       -29.7537      0.1864204              1
     12198.0000         2.1233        591.235         1.7875        -29.763      0.1771202              1
     12198.5000         2.1233       591.4257         1.7868       -29.7723        0.16782              1
     12199.0000         2.1233       591.6168          1.786       -29.7815      0.1586208              1
     12199.5000         2.1392       591.8082         1.7852       -29.7909      0.1492214              1
     12200.0000         2.1392            592         1.7845       -29.7909      0.1492214              1
