#------------------------------------------------------------------------------
# Created by    : vladimir.rabinovich
# Created on    : 09/19/2023 17:22:17
#------------------------------------------------------------------------------
~Version Information Section
VERS.           2.0     :   CWLS log ASCII Standard - VERSION 2.0
WRAP.           NO      :   One line per depth step
~Well Information Section
#MNEM       .UNIT                                         VALUE :DESCRIPTION
#------------------------------------------------------------------------------
STRT        .FT                                            2222 :START DEPTH
STOP        .FT                                            8603 :STOP DEPTH
STEP        .FT                                             0.5 :STEP      
NULL        .                                           -999.25 :NULL      
COMP        .                                    HRUBETZ OIL CO :COMPANY   
WELL        .                                     ST TR 00028-L :WELL      
FLD         .                                           WILDCAT :FIELD     
LOC         .                                                   :LOCATION  
CNTY        .                           HIGH ISLAND LARGE BLOCK :LOCATION  
STAT        .                                             TEXAS :STATE     
CTRY        .                                     UNITED STATES :COUNTRY   
SRVC        .                                                   :SERVICE COMPANY
DATE        .                             9/13/2023 11:19:15 AM :LOG DATE  
API         .                                    42708303040000 :API NUMBER
UWI         .                                    42708303040000 :UNIQUE WELL ID
XCOORD      .                                  1211101.11829014 :SURFACE X 
YCOORD      .                                  10709910.5532953 :SURFACE Y 
LAT         .                                         29.503814 :LATITUDE  
LON         .                                       -94.3499952 :LONGITUDE 
ELEV        .FT                                              60 :ELEVATION VALUE
ELEV_TYPE   .                                                KB :ELEVATION REFERENCE TYPE
~Curve Information Section
#MNEM       .UNIT                                      API CODE :CURVE DESCRIPTION
#------------------------------------------------------------------------------
DEPT        .FT                                                 :DEPTH     
CALI        .IN                                                 :          
GR          .GAPI                                               :          
GR_NORM     .GAPI                                               :GammaRay Normalized
ILD         .OHMM                                               :          
ILM         .OHMM                                               :          
RHOB        .G/C3                                               :          
SFL         .OHMM                                               :          
SP          .MV                                                 :          
SP_NORM     .MV                                                 :SP Normalized
VSH_GR      .V/V                                                :Volume of Shale from GR
VSH_SP      .V/V                                                :Volume of Shale from SP
~A        DEPTH           CALI             GR        GR_NORM            ILD            ILM           RHOB            SFL             SP        SP_NORM         VSH_GR         VSH_SP
# ...
      7734.5000         12.401        61.8502       59.71727         0.4502          0.601         2.2045         1.5297      -125.7646      -29.29739      0.5684527      0.6631263
      7735.0000        12.5712        62.0215       59.94507         0.4898         0.6504         2.2071         1.4301      -118.9176      -22.48152      0.5732994      0.7442676
      7735.5000        13.1155        62.1931       60.17326         0.5512         0.7038         2.1912         1.3195      -111.9679      -15.56294      0.5781546      0.8266317
      7736.0000        13.5798        62.2056       60.18989          0.622         0.7489         2.1265         1.2353       -105.231      -8.857162      0.5785083      0.9064624
      7736.5000        13.9247        62.1996       60.18191         0.6957         0.7942         2.0546         1.1763        -100.87      -4.527283      0.5783384      0.9580085
      7737.0000        14.1071        61.8879       59.76741          0.777         0.8423         2.0075         1.1344       -99.2122      -2.900597      0.5695195      0.9773738
      7737.5000        14.1057        60.8629       58.40438         0.8464         0.8718         2.0026         1.1785       -99.2749      -2.994423      0.5405188      0.9762568
      7738.0000        14.0981        59.0344       55.97287         0.9124         0.8948         2.0039         1.2594       -99.3376      -3.088242      0.4887844        0.97514
      7738.5000        13.9816        57.5771       54.03496         0.9372         0.9184         1.9894         1.2792      -100.6884      -4.470161      0.4475524      0.9586886
      7739.0000        13.8653        57.7825        54.3081         0.9059         0.9206         1.9713          1.256      -102.7102      -6.523079      0.4533639       0.934249
      7739.5000         13.749        58.1623       54.81316         0.8441         0.9179         1.9619         1.2332      -104.7356      -8.579605      0.4641097      0.9097666
      7740.0000        12.3973        58.5421       55.31821         0.7633         0.8617         1.9878         1.2725      -106.7574      -10.63253      0.4748555       0.885327
      7740.5000        12.0629        58.5309       55.30332          0.706         0.8091         2.0825         1.3133      -109.0801      -12.98635      0.4745387      0.8573053
      7741.0000        12.1323        58.4592       55.20797         0.6684         0.7863         2.1248         1.3555      -111.8982      -15.83557      0.4725101      0.8233861
      7741.5000        12.2219        58.3566       55.07154         0.6451         0.7641         2.1598         1.4123      -114.7125      -18.68099      0.4696072       0.789512
      7742.0000        12.3116        58.8019       55.66369         0.6332         0.7466         2.1949         1.4715       -117.527      -21.52661      0.4822061      0.7556356
      7742.5000        12.4012        59.8465       57.05279         0.6215         0.7381         2.2299          1.521      -119.7358      -23.76653      0.5117614      0.7289699
      7743.0000        12.4977        60.7736       58.28563         0.6161         0.7297         2.2527         1.5166      -121.8971      -25.95895      0.5379922      0.7028696
      7743.5000        12.6005        61.2127       58.86954         0.6204         0.7236         2.2395         1.4939      -120.8147      -24.90767      0.5504158      0.7153849
      7744.0000        12.7031        61.4494        59.1843         0.6249         0.7368         2.2287         1.4389      -118.1287      -22.25279      0.5571128      0.7469906
      7744.5000        12.8058        61.5925       59.37459         0.6359         0.7503          2.227          1.386      -114.6355      -18.79071      0.5611615      0.7882058
      7745.0000        12.9084        62.5386        60.6327         0.6597         0.7727         2.2267         1.3394      -111.0652      -15.25153      0.5879298      0.8303389
      7745.5000        13.2041        63.8155       62.33071         0.6844         0.8156         2.2266         1.3034       -106.985      -11.20246      0.6240576      0.8785421
      7746.0000        13.4901        64.8777       63.74321         0.7153         0.8609         2.2111         1.2683      -103.1359      -7.384483      0.6541109      0.9239942
      7746.5000        13.7484        65.3596       64.38403         0.7514         0.9088         2.1905         1.2336      -101.7598      -6.039505      0.6677452      0.9400059
      7747.0000        13.7158        65.6638       64.78856         0.7894         0.9444         2.1995         1.2796      -100.9595      -5.270325      0.6763523      0.9491628
      7747.5000        13.4988        65.6881       64.82087         0.8275         0.9505         2.2147         1.3274      -100.5471      -4.889038      0.6770398      0.9537019
      7748.0000        13.3408        64.8918       63.76196         0.8533         0.9566         2.2314         1.3769      -100.1707      -4.543762      0.6545098      0.9578124
      7748.5000        13.3878         63.884       62.42179           0.88         0.9472         2.2465         1.4154      -100.1343      -4.538483      0.6259956      0.9578752
      7749.0000        13.4864        62.9434         61.171         0.9051         0.9279         2.1472         1.4011      -100.0978      -4.533104      0.5993829      0.9579393
      7749.5000        13.6141        62.0028        59.9202         0.8832         0.9089         2.0959         1.2821       -99.8921      -4.358521      0.5727703      0.9600176
      7750.0000        13.6752        61.4365       59.16715         0.8618         0.8904         2.0722         1.2517       -99.2325      -3.730042      0.5567479      0.9674995
      7750.5000        13.4771        61.3375        59.0355         0.8363         0.8706         2.0623         1.2743       -99.2941      -3.822769      0.5539468      0.9663956
      7751.0000        13.2851        62.4126       60.46516         0.7937         0.8285         2.0719         1.3198      -100.4994      -5.059189      0.5843651      0.9516763
      7751.5000        13.0666        63.3959       61.77273         0.7533         0.7886         2.0952         1.3166      -103.4183      -8.009209      0.6121857       0.916557
      7752.0000        12.4962        64.3793       63.08044         0.7149         0.7523         2.1345         1.3139      -107.5133      -12.13533      0.6400095      0.8674365
      7752.5000         11.455        64.9835        63.8839         0.6784          0.723         2.1857         1.3616      -111.6229      -16.27605      0.6571042      0.8181422
      7753.0000        11.4534        64.2729       62.93896         0.6457         0.6949          2.231         1.4149      -115.7987      -20.48297      0.6369992      0.7680598
      7753.5000         11.468        63.4791       61.88337         0.6178         0.6706         2.2623          1.484      -119.9817      -24.69709      0.6145399      0.7178918
      7754.0000         11.489        62.3551       60.38868         0.5911         0.6535         2.2649         1.5566      -121.3082      -26.05471      0.5827379      0.7017297
      7754.5000        11.5099        61.3436       59.04362         0.5656         0.6369         2.2495         1.5527      -121.9792      -26.75684      0.5541195       0.693371
      7755.0000        11.5309        60.9547       58.52645         0.5411          0.629         2.2374         1.4009      -121.4834      -26.29215       0.543116       0.698903
      7755.5000        11.5519        60.6489        58.1198         0.5279         0.6317         2.2259         1.3293      -120.9633      -25.80318      0.5344639       0.704724
      7756.0000        11.5729        61.4586       59.19653         0.5183         0.6344         2.2124         1.3929      -120.3835       -25.2545       0.557373      0.7112559
      7756.5000        11.5939        62.2695       60.27486         0.5088         0.6371          2.194         1.3358      -118.0223      -22.92442      0.5803161       0.738995
