#------------------------------------------------------------------------------
# Created by    : vladimir.rabinovich
# Created on    : 09/19/2023 17:21:34
#------------------------------------------------------------------------------
~Version Information Section
VERS.           2.0     :   CWLS log ASCII Standard - VERSION 2.0
WRAP.           NO      :   One line per depth step
~Well Information Section
#MNEM       .UNIT                                         VALUE :DESCRIPTION
#------------------------------------------------------------------------------
STRT        .FT                                            4495 :START DEPTH
STOP        .FT                                            9058 :STOP DEPTH
STEP        .FT                                             0.5 :STEP      
NULL        .                                           -999.25 :NULL      
COMP        .                          SEAGULL ENERGY E & P INC :COMPANY   
WELL        .                               OCS G11322 ST00BP00 :WELL      
FLD         .                                           WILDCAT :FIELD     
LOC         .                                                   :LOCATION  
CNTY        .                             GALVESTON LARGE BLOCK :LOCATION  
STAT        .                                             TEXAS :STATE     
CTRY        .                                     UNITED STATES :COUNTRY   
SRVC        .                                                   :SERVICE COMPANY
DATE        .                             9/13/2023 11:19:34 AM :LOG DATE  
API         .                                    42706402570000 :API NUMBER
UWI         .                                    42706402570000 :UNIQUE WELL ID
XCOORD      .                                  1032943.49501878 :SURFACE X 
YCOORD      .                                  10418025.6284813 :SURFACE Y 
LAT         .                                         28.694364 :LATITUDE  
LON         .                                        -94.895236 :LONGITUDE 
ELEV        .FT                                              97 :ELEVATION VALUE
ELEV_TYPE   .                                                KB :ELEVATION REFERENCE TYPE
~Curve Information Section
#MNEM       .UNIT                                      API CODE :CURVE DESCRIPTION
#------------------------------------------------------------------------------
DEPT        .FT                                                 :DEPTH     
CALI        .IN                                                 :          
DCAL        .IN                                                 :          
DPHI        .%                                                  :          
DRHO        .G/C3                                               :          
GR          .GAPI                                               :          
GR_1        .GAPI                                               :          
GR_NORM     .GAPI                                               :GammaRay Normalized
ILD         .OHMM                                               :          
ILM         .OHMM                                               :          
NPHI        .%                                                  :          
SGRD        .OHMM                                               :          
SP          .MV                                                 :          
SP_NORM     .MV                                                 :SP Normalized
VSH_GR      .V/V                                                :Volume of Shale from GR
VSH_SP      .V/V                                                :Volume of Shale from SP
~A        DEPTH           CALI           DCAL           DPHI           DRHO             GR           GR_1        GR_NORM            ILD            ILM           NPHI           SGRD             SP        SP_NORM         VSH_GR         VSH_SP
# ...
      6620.0000        -999.25          0.383        20.1678        -0.0492        -999.25        61.6246       65.27649         0.5124         0.5591        41.3826         0.7704       -52.0573      -9.835075      0.6867338      0.8360821
      6620.5000        -999.25         0.3955        20.6582        -0.0491        -999.25        61.4583       65.06736         0.5123          0.559        41.5342         0.7639       -52.0605      -9.838276      0.6822842      0.8360288
      6621.0000        -999.25         0.4114        21.0661        -0.0486        -999.25        61.5865       65.22858         0.5118          0.556        41.6888         0.7806       -51.6788      -9.456573      0.6857144      0.8423904
      6621.5000        -999.25         0.4291        21.0998         -0.048        -999.25        62.7162       66.64915         0.5111         0.5532        42.1307         0.7866       -51.2448      -9.022575      0.7159395      0.8496237
      6622.0000        -999.25          0.453        20.8755        -0.0471        -999.25        62.0718       65.83883           0.51         0.5508        43.0489         0.7879       -50.9426      -8.720375      0.6986985      0.8546604
      6622.5000        -999.25         0.4765        20.6708         -0.043        -999.25        58.9073       61.85954         0.5114          0.549        44.1501         0.7889       -50.6207      -8.398476      0.6140327      0.8600254
      6623.0000        -999.25          0.493        20.5979        -0.0377        -999.25        57.9939       60.71094         0.5133         0.5476        44.4495         0.7892       -49.6631      -7.440876      0.5895945      0.8759854
      6623.5000        -999.25         0.5124        20.8305        -0.0312        -999.25        57.6871       60.32515         0.5151         0.5466        44.5966         0.7861       -48.4663      -6.244076      0.5813863      0.8959321
      6624.0000        -999.25         0.5244        21.0976        -0.0262        -999.25        58.2786       61.06894         0.5169         0.5474         44.657         0.7641       -47.2523      -5.030075      0.5972115      0.9161654
      6624.5000        -999.25         0.5344        21.0455        -0.0199        -999.25        60.5987       63.98643         0.5165         0.5475        44.6534         0.7424       -46.2527      -4.030476      0.6592858      0.9328254
      6625.0000        -999.25         0.5409        20.5806        -0.0135        -999.25        63.5107       67.64822         0.5151         0.5469        44.6994         0.7335       -45.5886      -3.366375      0.7371963      0.9438937
      6625.5000        -999.25         0.5342        20.0204        -0.0086        -999.25        64.7916       69.25893         0.5128         0.5446        44.8158         0.7302       -45.2621      -3.039875      0.7714667      0.9493354
      6626.0000        -999.25         0.5216        20.0397        -0.0062        -999.25        67.0223         72.064         0.5091         0.5421        44.8856         0.7281       -45.4131      -3.190876      0.8311489      0.9468187
      6626.5000        -999.25         0.5181        20.2581        -0.0068        -999.25        69.0044       74.55645         0.5051         0.5402        44.8704         0.7242       -45.7155      -3.493275      0.8841798      0.9417788
      6627.0000        -999.25         0.5134        20.5007        -0.0083        -999.25        68.8633       74.37901         0.4994          0.537        44.8829         0.7221       -46.2593      -4.037075      0.8804045      0.9327154
      6627.5000        -999.25         0.5061        20.7077        -0.0095        -999.25        68.5897       74.03497         0.4941          0.533        44.9067         0.7261       -46.9689      -4.746674      0.8730845      0.9208888
      6628.0000        -999.25         0.4966        20.9089        -0.0106        -999.25        68.2994       73.66992         0.4923         0.5284        44.8162         0.7295       -47.6088      -5.386574      0.8653175      0.9102238
      6628.5000        -999.25         0.4957        21.0947        -0.0119        -999.25        65.5282       70.18519          0.493         0.5249        44.6652         0.7321       -48.0862      -5.863976      0.7911742      0.9022671
      6629.0000        -999.25          0.489        21.1678        -0.0137        -999.25          61.96       65.69824         0.4951          0.525        44.7116         0.7352       -48.3345      -6.112274      0.6957073      0.8981287
      6629.5000        -999.25         0.4848        21.2157        -0.0162        -999.25        61.2037       64.74722         0.4978         0.5279        44.9236         0.7368       -48.5728      -6.350574      0.6754727      0.8941571
      6630.0000        -999.25         0.4789         21.229        -0.0196        -999.25        61.2037       64.74722         0.5005         0.5311        45.1656         0.7385       -48.9648      -6.742577      0.6754727      0.8876237
      6630.5000        -999.25         0.4697        21.4432        -0.0258        -999.25        61.5878       65.23021         0.5033         0.5344        45.4567         0.7512       -49.7789      -7.556675      0.6857491      0.8740554
      6631.0000        -999.25         0.4633        21.8561        -0.0336        -999.25        62.0238       65.77847         0.5029         0.5383         45.685         0.7681       -50.8087      -8.586475      0.6974143       0.856892
      6631.5000        -999.25         0.4595        21.5189        -0.0412        -999.25        62.4848       66.35817         0.5005         0.5393        45.1458         0.7834       -50.8114      -8.589176      0.7097483       0.856847
      6632.0000        -999.25         0.4603        21.5073        -0.0463        -999.25        62.7973       66.75114         0.4953         0.5366          44.73         0.7793       -49.5159      -7.293674      0.7181093      0.8784388
      6632.5000        -999.25         0.4581        21.8975          -0.05        -999.25        63.0042       67.01131         0.4867          0.529        44.8346         0.7452       -47.9119      -5.689674      0.7236449      0.9051721
      6633.0000        -999.25         0.4546        21.5841        -0.0492        -999.25        64.3945       68.75959         0.4752         0.5204        44.8416         0.7146       -47.7216      -5.499374      0.7608423      0.9083437
      6633.5000        -999.25         0.4661        21.1902        -0.0497        -999.25         65.809       70.53829         0.4641         0.5117        44.6445         0.6986       -49.1108      -6.888577       0.798687      0.8851904
      6634.0000        -999.25         0.4849        20.9337          -0.05        -999.25        65.8281       70.56231         0.4542         0.5037        43.9088         0.6993       -53.4615      -11.23927      0.7991981      0.8126788
      6634.5000        -999.25         0.5073        21.0191          -0.05        -999.25        64.7469       69.20273         0.4482         0.4987          42.92         0.7222       -57.9229      -15.70068      0.7702708      0.7383221
      6635.0000        -999.25         0.5191        21.9939        -0.0516        -999.25        63.6527       67.82678         0.4477         0.4954        42.0958         0.7495        -58.132      -15.90977      0.7409953      0.7348371
      6635.5000        -999.25         0.5342        22.7738        -0.0551        -999.25        63.5858       67.74265         0.4516         0.4948        41.7877         0.7602       -55.0188      -12.79657      0.7392054      0.7867238
      6636.0000        -999.25         0.5495        23.0359        -0.0567        -999.25        63.7441       67.94172         0.4565         0.4976        42.1633         0.7478       -51.8807      -9.658474      0.7434408      0.8390254
      6636.5000        -999.25         0.5503        22.3842        -0.0584        -999.25        63.8881        68.1228          0.462          0.502        42.6259         0.7403       -50.0472      -7.824974      0.7472935      0.8695838
