#------------------------------------------------------------------------------
# Created by    : vladimir.rabinovich
# Created on    : 09/19/2023 17:21:33
#------------------------------------------------------------------------------
~Version Information Section
VERS.           2.0     :   CWLS log ASCII Standard - VERSION 2.0
WRAP.           NO      :   One line per depth step
~Well Information Section
#MNEM       .UNIT                                         VALUE :DESCRIPTION
#------------------------------------------------------------------------------
STRT        .FT                                            3683 :START DEPTH
STOP        .FT                                            9328 :STOP DEPTH
STEP        .FT                                             0.5 :STEP      
NULL        .                                           -999.25 :NULL      
COMP        .                                SHELL OFFSHORE INC :COMPANY   
WELL        .                               OCS G11316 ST00BP00 :WELL      
FLD         .                                           WILDCAT :FIELD     
LOC         .                                                   :LOCATION  
CNTY        .                             GALVESTON LARGE BLOCK :LOCATION  
STAT        .                                             TEXAS :STATE     
CTRY        .                                     UNITED STATES :COUNTRY   
SRVC        .                                                   :SERVICE COMPANY
DATE        .                             9/13/2023 11:19:34 AM :LOG DATE  
API         .                                    42706402670000 :API NUMBER
UWI         .                                    42706402670000 :UNIQUE WELL ID
XCOORD      .                                  1097534.45360284 :SURFACE X 
YCOORD      .                                  10461685.9172371 :SURFACE Y 
LAT         .                                         28.817107 :LATITUDE  
LON         .                                        -94.695737 :LONGITUDE 
ELEV        .FT                                              91 :ELEVATION VALUE
ELEV_TYPE   .                                                KB :ELEVATION REFERENCE TYPE
~Curve Information Section
#MNEM       .UNIT                                      API CODE :CURVE DESCRIPTION
#------------------------------------------------------------------------------
DEPT        .FT                                                 :DEPTH     
CALI        .IN                                                 :          
CALI_1      .IN                                                 :          
CILD        .MMHO                                               :          
DRHO        .G/C3                                               :          
DT          .US/F                                               :          
GR          .GAPI                                               :          
GR_1        .GAPI                                               :          
GR_NORM     .GAPI                                               :GammaRay Normalized
ILD         .OHMM                                               :          
ILM         .OHMM                                               :          
NPHI        .%                                                  :          
RHOB        .G/C3                                               :          
SFL         .OHMM                                               :          
SP          .MV                                                 :          
SP_NORM     .MV                                                 :SP Normalized
VSH_GR      .V/V                                                :Volume of Shale from GR
VSH_SP      .V/V                                                :Volume of Shale from SP
~A        DEPTH           CALI         CALI_1           CILD           DRHO             DT             GR           GR_1        GR_NORM            ILD            ILM           NPHI           RHOB            SFL             SP        SP_NORM         VSH_GR         VSH_SP
# ...
      6803.0000        16.2301        16.2132       1747.008        -0.0136       109.7943        58.6906        58.4901       65.83411         0.5862         0.5116        45.1783         2.2672         0.7218       -29.4207      -2.767979       0.698598       0.953867
      6803.5000        16.1417        16.2079       1847.871        -0.0197       110.3165        59.6002        59.3972        67.2519         0.5641         0.4588        44.4806         2.2535         0.7061       -28.9036      -1.927796      0.7287638      0.9678701
      6804.0000        16.0313        16.0026       1810.514        -0.0197       110.6495        57.6847        58.1668       65.32986         0.5615         0.4606        43.4829         2.2387         0.7069          -28.4      -1.109478      0.6878693      0.9815087
      6804.5000        15.9324        15.9076       1595.418        -0.0185       108.8824        55.3422        55.3702       60.96062         0.6193         0.5169        42.2919         2.2187         0.7308       -28.1659     -0.7277064      0.5949067      0.9878716
      6805.0000        15.8498        15.8539       1388.287        -0.0176       106.7861        52.6813        52.4922        56.4642         0.6839         0.5947        41.0624          2.197         0.7522       -28.6611       -1.52728      0.4992383      0.9745454
      6805.5000        15.8412        15.8301       1278.871         -0.016        104.788        50.7979         50.646       53.57996         0.7273          0.677        39.8195         2.1845         0.7723       -29.3479      -2.637215      0.4378715      0.9560464
      6806.0000        15.9148         15.846       1326.846        -0.0073       102.6818        51.2842        50.4756       53.31417         0.7316         0.7427        38.9277         2.1802         0.7949       -29.9767      -3.653199      0.4322163      0.9391134
      6806.5000        16.0378        15.9925       1490.428         0.0018       100.9639        53.8735        52.8082        56.9593         0.6325         0.6028        38.7692         2.1775          0.737       -30.3613      -4.273619      0.5097724       0.928773
      6807.0000        15.9174        15.9359       1731.475         0.0043       100.1058        55.9149        56.0021       61.95023         0.5656         0.5119        39.8477         2.1755         0.6806       -30.5183      -4.525365      0.6159624      0.9245772
      6807.5000        15.6632        15.6852       1937.723         0.0028       100.2855        57.6761        57.8138       64.78146         0.5298         0.4456         41.289         2.1734         0.6406       -30.4414      -4.398234      0.6762012      0.9266961
      6808.0000         15.388        15.4297       1900.563         0.0001       104.3875        58.8671        58.7086       66.18004          0.506         0.4311        42.4874         2.1698         0.6508        -30.039      -3.743844      0.7059582      0.9376026
      6808.5000        15.1883        15.1868       1631.398        -0.0005       106.3241        58.3857        58.2563       65.47378         0.5941         0.5098         43.071         2.1735         0.6851        -29.658      -3.124122      0.6909314      0.9479313
      6809.0000        15.0473        15.0054       1521.295         0.0002       107.4706         57.154        57.6812       64.57564         0.6699         0.5837        43.3998         2.1819         0.7021       -29.3078      -2.554287      0.6718221      0.9574286
      6809.5000        14.9328         14.853       1502.199         0.0039       108.1901        57.6773        58.2952       65.53545         0.6656         0.6006        42.6852          2.195         0.7247       -28.9604      -1.988985      0.6922435      0.9668502
      6810.0000         14.837        14.7287       1591.094         0.0096       109.1848         60.042        60.1291        68.4014         0.6335         0.5739        41.8445         2.2193         0.7505       -28.6389      -1.465643      0.7532212      0.9755726
      6810.5000        14.7222        14.6226       1628.672         0.0134       110.5414        61.9476        61.6581       70.79089          0.609         0.5581        41.2498         2.2529         0.7283        -28.417      -1.103632      0.8040616      0.9816061
      6811.0000        14.5996        14.5428       1602.447         0.0185       111.6891          63.22         62.551        72.1865         0.6438         0.5796        41.0955         2.2818         0.7308       -28.5054      -1.244258      0.8337553      0.9792624
      6811.5000        14.4769        14.4531       1571.432         0.0229        112.224        63.7372        63.0247       72.92712         0.6415         0.5815        41.5416         2.3031         0.7639       -28.8956      -1.873749      0.8495133      0.9687709
      6812.0000          14.37        14.3772       1592.863         0.0262       111.1509        63.4542        63.3113       73.37538         0.6211         0.5548        41.9867         2.3139         0.7616       -29.3405      -2.591847      0.8590507      0.9568025
      6812.5000        14.2744        14.2719       1682.371         0.0276       109.7721         63.586        63.6815       73.95428         0.6001         0.5394        42.2501         2.3127          0.741       -29.7441      -3.243046      0.8713676      0.9459493
      6813.0000        14.1953        14.1543       1722.137         0.0299       109.0112        64.1259        64.1215       74.64221         0.5844         0.5395        42.3207          2.305          0.725       -29.7303      -3.218126      0.8860045      0.9463646
      6813.5000        14.1153        14.0782       1725.516         0.0328       109.0712        64.7758         64.712       75.56532         0.5861         0.5454        42.1367         2.2879         0.7147       -29.1023      -2.198302      0.9056452      0.9633616
      6814.0000        14.1088        14.0826        1699.23         0.0331       109.4644        65.5088        65.6406       77.01672         0.5986         0.5526        41.9043         2.2702         0.7122       -28.3828      -1.030261      0.9365259       0.982829
      6814.5000        14.1095        14.0896        1687.68         0.0307       110.1089        66.4659        66.7539        78.7567         0.6101         0.5634        41.6816         2.2588         0.7169       -27.6361      0.1818378      0.9735468              1
      6815.0000        14.1146        14.0902       1674.973         0.0283       111.0034        67.3027         67.574       80.03854          0.611         0.5638         41.697         2.2534         0.7211       -27.6234      0.2049788              1              1
      6815.5000        14.1201        14.0923       1694.463         0.0301       111.7869        68.0345        67.8065        80.4023          0.594         0.5499        41.8824         2.2595         0.7237       -27.9412      -0.307238              1      0.9948794
      6816.0000        14.1262         14.098       1754.578         0.0331       112.1543        66.4696        66.5206       78.39352         0.5732         0.5255        41.9872          2.266         0.7248       -28.3073     -0.8976926      0.9658197      0.9850385
      6816.5000        14.1472        14.0903       1775.615         0.0323       112.1714        64.9022        65.0668       76.12242         0.5807         0.5085        41.9114         2.2649         0.7247       -28.1952     -0.7135407      0.9174984      0.9881077
      6817.0000        14.1505        14.0861       1696.281         0.0279       111.9822        64.3795         64.172       74.72474          0.613         0.5744         41.848         2.2477         0.7242       -27.9613     -0.3320938      0.8877604      0.9944651
      6817.5000        14.1447        14.0863       1559.635         0.0224       111.5288        64.6628        64.5326       75.28864         0.6451         0.6067        41.8659         2.2263         0.7252       -28.5463      -1.277131      0.8997582      0.9787145
