#------------------------------------------------------------------------------
# Created by    : vladimir.rabinovich
# Created on    : 09/19/2023 17:20:36
#------------------------------------------------------------------------------
~Version Information Section
VERS.           2.0     :   CWLS log ASCII Standard - VERSION 2.0
WRAP.           NO      :   One line per depth step
~Well Information Section
#MNEM       .UNIT                                         VALUE :DESCRIPTION
#------------------------------------------------------------------------------
STRT        .FT                                             498 :START DEPTH
STOP        .FT                                            9565 :STOP DEPTH
STEP        .FT                                             0.5 :STEP      
NULL        .                                           -999.25 :NULL      
COMP        .                       BLUE DOLPHIN EXPLORATION CO :COMPANY   
WELL        .                                OCS 00714 ST00BP00 :WELL      
FLD         .                              GALVESTON BLOCK 0288 :FIELD     
LOC         .                                                   :LOCATION  
CNTY        .                             GALVESTON LARGE BLOCK :LOCATION  
STAT        .                                             TEXAS :STATE     
CTRY        .                                     UNITED STATES :COUNTRY   
SRVC        .                                                   :SERVICE COMPANY
DATE        .                             9/13/2023 11:19:25 AM :LOG DATE  
API         .                                    42706000390000 :API NUMBER
UWI         .                                    42706000390000 :UNIQUE WELL ID
XCOORD      .                                  1097340.72850425 :SURFACE X 
YCOORD      .                                  10481267.2561277 :SURFACE Y 
LAT         .                                        28.8709496 :LATITUDE  
LON         .                                       -94.6972159 :LONGITUDE 
ELEV        .FT                                              85 :ELEVATION VALUE
ELEV_TYPE   .                                                KB :ELEVATION REFERENCE TYPE
~Curve Information Section
#MNEM       .UNIT                                      API CODE :CURVE DESCRIPTION
#------------------------------------------------------------------------------
DEPT        .FT                                                 :DEPTH     
ASN         .OHMM                                               :          
CALI        .IN                                                 :          
DT          .US/F                                               :          
ILD         .OHMM                                               :          
SP          .MV                                                 :          
SP_1        .MV                                                 :          
SP_NORM     .MV                                                 :SP Normalized
VSH_SP      .V/V                                                :Volume of Shale from SP
~A        DEPTH            ASN           CALI             DT            ILD             SP           SP_1        SP_NORM         VSH_SP
# ...
      7725.5000         1.1306        10.7657       103.6477         0.8541       -56.0817        -999.25     -0.9121094              1
      7726.0000         1.1069        10.7563       101.7615         0.8441       -56.6493        -999.25      -1.485802      0.9875435
      7726.5000         1.0884        10.8193        97.4133         0.8363       -57.0458        -999.25      -1.888397      0.9772206
      7727.0000         1.0764         10.867        94.3917         0.8296       -56.5775        -999.25      -1.426189      0.9890721
      7727.5000         1.0754        10.7907        98.3351         0.8229       -55.7889        -999.25     -0.6436844              1
      7728.0000         1.0744        10.9086       101.6423         0.8163       -55.0228        -999.25      0.1163216              1
      7728.5000         1.0716        10.9911       106.9324         0.8096       -54.4396        -999.25       0.693428              1
      7729.0000         1.0654        10.9931       105.7454         0.8029       -54.8209        -999.25      0.3060341              1
      7729.5000         1.0591        10.9649       100.8441         0.7963       -54.9353        -999.25      0.1855431              1
      7730.0000         1.0529        10.9292       100.3136         0.7896       -55.1465        -999.25    -0.03175354              1
      7730.5000         1.0467        10.9012       106.3479         0.7835        -56.209        -999.25      -1.100346       0.997427
      7731.0000         1.0404        11.0552       106.9548         0.7806       -56.3739        -999.25      -1.271339      0.9930426
      7731.5000         1.0359        11.2721        105.443         0.7776       -56.0211        -999.25      -0.924633              1
      7732.0000         1.0339        11.2499       102.5753         0.7747       -55.9241        -999.25      -0.833725              1
      7732.5000         1.0442        11.2901       102.1796         0.7909       -55.3706        -999.25     -0.2863197              1
      7733.0000          1.085        11.4532       103.4858         0.8195       -55.3762        -999.25     -0.2980156              1
      7733.5000         1.1911        11.0354       100.7925         0.8481       -55.0447        -999.25     0.02739334              1
      7734.0000         1.2922        11.0997       100.3406         0.8755       -54.6313        -999.25      0.4346962              1
      7734.5000         1.3077        11.1927       101.5118         0.9028       -54.9084        -999.25      0.1515045              1
      7735.0000         1.3213        11.0814       101.8918         0.9301        -56.333        -999.25      -1.279186      0.9928414
      7735.5000         1.3184        10.9473       105.9207         0.9569       -56.8787        -999.25      -1.830982      0.9786928
      7736.0000         1.3088        10.7734       107.9165         0.9837       -57.3341        -999.25      -2.292473      0.9668597
      7736.5000         1.2998        10.8033       107.4022         1.0104       -57.8326        -999.25       -2.79707      0.9539213
      7737.0000         1.3177        10.7411       107.4714         1.0314       -58.8276        -999.25      -3.798161      0.9282523
      7737.5000         1.3319        10.3961       106.3715         1.0427       -59.2637        -999.25      -4.240353       0.916914
      7738.0000         1.3459         9.8438        107.056         1.0334       -59.1528        -999.25      -4.135551      0.9196013
      7738.5000         1.3333         9.8924       108.8704         1.0188       -57.3672        -999.25      -2.356041      0.9652297
      7739.0000         1.2112        10.0111       110.6622         1.0042       -56.0436        -999.25      -1.038536      0.9990119
      7739.5000          1.192        10.0182       113.5242         0.9884       -55.1227        -999.25     -0.1237297              1
      7740.0000         1.1791         9.9878       112.2562         0.9719        -54.287        -999.25      0.7058792              1
      7740.5000         1.1666        10.0085        106.177         0.9554       -53.9307        -999.25       1.056084              1
      7741.0000         1.1568        10.0954       103.7129          0.939        -54.259        -999.25      0.7216911              1
      7741.5000         1.1492           10.2       110.4037         0.9225       -55.5321        -999.25     -0.5575066              1
      7742.0000         1.1582        10.1657       109.8236          0.906        -57.135        -999.25      -2.166496      0.9700899
      7742.5000         1.1722        10.2496       100.4575         0.8895        -57.993        -999.25       -3.03059      0.9479336
      7743.0000         1.1835        10.4822        93.3148         0.8808       -57.9067        -999.25      -2.950386      0.9499901
      7743.5000         1.1911        10.5872        91.6399         0.8793       -56.9454        -999.25      -1.995178      0.9744826
      7744.0000         1.1988        10.6877        93.5913         0.8778       -55.7565        -999.25     -0.8123703              1
      7744.5000         1.2064        10.7916        98.4475         0.8763       -54.4015        -999.25      0.5365334              1
      7745.0000         1.2122        10.6112       104.4684         0.8747       -54.1042        -999.25      0.8277435              1
      7745.5000          1.216        10.3853       107.6338         0.8893       -54.6393        -999.25      0.2865448              1
      7746.0000         1.2199        10.1821       102.7057         0.9041       -55.8282        -999.25     -0.9084473              1
      7746.5000         1.2261         9.9894         91.532         0.9188       -57.8405        -999.25      -2.926838      0.9505939
      7747.0000         1.2366         9.8222        93.3871         0.9336       -58.7395        -999.25      -3.831932      0.9273863
      7747.5000         1.2659         9.8578        95.7811         0.9484       -58.6301        -999.25      -3.728626      0.9300352
      7748.0000         1.3085        10.0414       100.8892         0.9632       -58.4031        -999.25      -3.507721      0.9356995
      7748.5000         1.3393         9.9833        99.2075          0.978       -58.0441        -999.25      -3.154816      0.9447483
      7749.0000          1.362         9.7845        98.3396         0.9928       -57.6599        -999.25      -2.776707      0.9544434
      7749.5000         1.3472          9.829       101.3387          1.004        -57.311        -999.25      -2.433903      0.9632333
      7750.0000         1.3474        10.4391       103.4567         1.0118       -57.0352        -999.25      -2.164192      0.9701489
      7750.5000         1.3603        10.8116       106.0376         1.0196        -56.771        -999.25       -1.90609      0.9767669
      7751.0000         1.3187        10.9194        104.275         1.0274       -56.3542        -999.25       -1.49538       0.987298
      7751.5000         1.2811        10.7831       102.5134         1.0226       -56.0641        -999.25      -1.211372      0.9945802
      7752.0000         1.2608        10.6065       103.1688         0.9975       -55.9305        -999.25       -1.08387      0.9978495
      7752.5000         1.2543        10.5939       102.4843         0.9723       -56.0448        -999.25      -1.204262      0.9947625
      7753.0000         1.2608        11.0368        100.543          0.956       -56.3711        -999.25      -1.536655      0.9862396
      7753.5000         1.2689        11.0624        99.2468         0.9521        -56.645        -999.25       -1.81665      0.9790602
      7754.0000         1.2783        11.0565       101.8873         0.9483       -56.6383        -999.25      -1.816044      0.9790758
      7754.5000         1.2876        10.7344       104.5875         0.9518       -56.3655        -999.25      -1.549339      0.9859143
