#------------------------------------------------------------------------------
# Created by    : vladimir.rabinovich
# Created on    : 09/19/2023 17:20:31
#------------------------------------------------------------------------------
~Version Information Section
VERS.           2.0     :   CWLS log ASCII Standard - VERSION 2.0
WRAP.           NO      :   One line per depth step
~Well Information Section
#MNEM       .UNIT                                         VALUE :DESCRIPTION
#------------------------------------------------------------------------------
STRT        .FT                                            2377 :START DEPTH
STOP        .FT                                            9500 :STOP DEPTH
STEP        .FT                                             0.5 :STEP      
NULL        .                                           -999.25 :NULL      
COMP        .                                     SKELLY OIL CO :COMPANY   
WELL        .                                     ST TR 00146-L :WELL      
FLD         .                                           WILDCAT :FIELD     
LOC         .                                                   :LOCATION  
CNTY        .                             GALVESTON LARGE BLOCK :LOCATION  
STAT        .                                             TEXAS :STATE     
CTRY        .                                     UNITED STATES :COUNTRY   
SRVC        .                                                   :SERVICE COMPANY
DATE        .                             9/13/2023 11:19:24 AM :LOG DATE  
API         .                                    42706001330000 :API NUMBER
UWI         .                                    42706001330000 :UNIQUE WELL ID
XCOORD      .                                  1116482.89093459 :SURFACE X 
YCOORD      .                                  10631825.2810539 :SURFACE Y 
LAT         .                                         29.285733 :LATITUDE  
LON         .                                       -94.6439746 :LONGITUDE 
ELEV        .FT                                              61 :ELEVATION VALUE
ELEV_TYPE   .                                                KB :ELEVATION REFERENCE TYPE
~Curve Information Section
#MNEM       .UNIT                                      API CODE :CURVE DESCRIPTION
#------------------------------------------------------------------------------
DEPT        .FT                                                 :DEPTH     
ASN         .OHMM                                               :          
CALI        .IN                                                 :          
CILD        .MMHO                                               :          
DT          .US/F                                               :          
ILD         .OHMM                                               :          
SP          .MV                                                 :          
SP_NORM     .MV                                                 :SP Normalized
VSH_SP      .V/V                                                :Volume of Shale from SP
~A        DEPTH            ASN           CALI           CILD             DT            ILD             SP        SP_NORM         VSH_SP
# ...
      4737.0000          0.961        11.6237       1196.223       122.6925         0.9525       -57.3181       1.924717              1
      4737.5000          0.958        11.5387       1190.748       124.9662         0.9544        -58.023       1.217968              1
      4738.0000         0.9516        11.4597       1183.381       127.4009         0.9535        -57.868       1.371117              1
      4738.5000         0.9426        11.4002        1176.02       129.4907         0.9513        -57.636       1.601265              1
      4739.0000         0.9325        11.3643       1167.135       132.0667         0.9491       -56.9674       2.268017              1
      4739.5000         0.9279        11.3405       1156.307        133.438         0.9469       -56.2524       2.981167              1
      4740.0000         0.9291        11.2765       1146.922       133.9231          0.945       -54.6793       4.552414              1
      4740.5000         0.9303        11.1419       1142.898        134.645         0.9432       -52.5931       6.636761              1
      4741.0000         0.9315        10.9962       1138.875       135.4021         0.9414       -50.2981       8.929913              1
      4741.5000         0.9328        10.8966       1133.604       136.0767         0.9395       -48.2665       10.95966              1
      4742.0000         0.9353        10.7979       1128.004       136.7825         0.9398        -47.819       11.40531              1
      4742.5000         0.9414        10.8608       1123.277       137.3906         0.9413       -47.9409       11.28156              1
      4743.0000         0.9475        10.9366       1118.813       137.2642         0.9427       -48.1863       11.03431              1
      4743.5000         0.9537        11.0011       1115.188       136.5432         0.9441       -48.9812       10.23756              1
      4744.0000         0.9578        11.0636       1111.725       135.6863         0.9455       -49.6475       9.569408              1
      4744.5000          0.961        11.1467       1109.018       134.8113         0.9479       -49.9528       9.262257              1
      4745.0000         0.9647        11.2448       1105.887       134.7083         0.9531        -49.816       9.397205              1
      4745.5000         0.9688        11.3329       1101.865       135.4578         0.9583        -49.574       9.637356              1
      4746.0000         0.9729        11.4241       1097.846       135.5007         0.9632        -49.332       9.877506              1
      4746.5000          0.977        11.5106        1093.82       133.9131         0.9669       -49.2825       9.925156              1
      4747.0000         0.9812        11.8344       1090.883       132.6177         0.9706       -49.3686       9.837208              1
      4747.5000         0.9872        12.2314       1088.441       131.9727         0.9743       -49.2047       9.999256              1
      4748.0000         0.9932         12.734       1083.615       131.9541         0.9782       -48.8578        10.3443              1
      4748.5000         0.9992        13.4503       1077.465       133.6931         0.9929       -49.0434       10.15685              1
      4749.0000         1.0053        14.1425       1068.617       135.0396         1.0077       -49.6393       9.559101              1
      4749.5000         1.0114        14.2395       1056.336       133.5981         1.0224       -50.6743       8.522251              1
      4750.0000         1.0222        12.6628        1033.67       127.6395         1.0232       -52.9305       6.264202              1
      4750.5000         1.0343        12.2128       1012.303       118.8849         1.0206       -55.0256       4.167252              1
      4751.0000         1.0464        12.0506       990.6484       110.3402         1.0179       -56.2286       2.962402              1
      4751.5000         1.0588        12.2035       968.2959       102.0254         1.0203       -56.8887       2.300453              1
      4752.0000         1.0712        12.3144       947.9404        99.5464          1.024       -57.4043       1.782997              1
      4752.5000         1.0827         12.276        933.167        99.9979         1.0277       -57.6766       1.508846              1
      4753.0000         1.0938        12.1189       917.3691       101.8105         1.0314       -57.9189       1.264698              1
      4753.5000         1.1055        11.9754       901.3477       103.4957         1.0345       -58.1377       1.044048              1
      4754.0000         1.1186        11.9027       886.3936        104.725         1.0371       -58.3566      0.8232956              1
      4754.5000          1.133        11.9161       879.6182       104.7859         1.0397       -58.5258      0.6522484              1
      4755.0000         1.1373        11.9541       888.6719       104.8674         1.0228       -58.6547      0.5214958              1
      4755.5000           1.13        11.8317       903.6699       106.8274         0.9911       -58.7836      0.3907471              1
      4756.0000         1.1203        11.7804       918.8682       109.0267         0.9639       -58.5837      0.5887947              1
      4756.5000         1.0882        11.8224       946.9912       109.1807         0.9401       -58.3627      0.8079414              1
      4757.0000         1.0397        11.8218       980.2842       110.4802         0.8923        -57.993       1.175793              1
      4757.5000         1.0196        11.7496       1046.096       118.5701         0.8211       -57.1855       1.981441              1
      4758.0000         1.0134        11.6721       1211.635       126.3502         0.7897       -58.4418      0.7232933              1
      4758.5000         1.0117        11.5887       1206.531        132.469          0.794       -57.9193       1.243942              1
      4759.0000         1.0185        11.5793        1201.43       133.5857         0.7984       -57.7961       1.365292              1
      4759.5000         1.0253        11.3802       1202.914       125.9905         0.8027       -58.6018      0.5577431              1
      4760.0000         1.0375        10.8868       1207.277        113.918         0.8123       -62.4905      -3.332813      0.9684755
      4760.5000         1.0595        10.5588       1225.922       106.6526         0.8046       -64.4855      -5.329659      0.9414911
      4761.0000         1.0703        10.3405       1260.313       100.7225         0.7649       -66.2367      -7.082714      0.9178011
      4761.5000         1.0636           10.4         1325.4       101.5782         0.7252       -68.0305      -8.878365      0.8935356
      4762.0000         1.0386        10.5243       1395.184       108.5813          0.695       -68.3154      -9.165112      0.8896607
      4762.5000         1.0004        10.6485       1450.355       119.3147         0.6818        -67.288      -8.139565      0.9035194
      4763.0000         0.8856        10.8788       1493.713       124.2491         0.6759       -65.2679      -6.121311      0.9307931
      4763.5000         0.8368        11.0263       1523.584       125.8156         0.6759       -63.4518      -4.307064      0.9553099
      4764.0000         0.8178         10.975       1535.004       132.4563         0.6759       -61.3361      -2.193218      0.9838755
      4764.5000         0.8439        10.9414       1529.379        137.041          0.683       -61.8746      -2.733566      0.9765734
      4765.0000         0.8782        10.8726       1504.027       140.4314         0.6961       -64.0455      -4.906319      0.9472119
      4765.5000         0.9039         10.815       1458.672       143.4133         0.7306       -66.7467      -7.609364      0.9106843
      4766.0000         0.9301        10.8063       1274.299       143.0149         0.7726       -67.2373      -8.101814      0.9040295
