#------------------------------------------------------------------------------
# Created by    : vladimir.rabinovich
# Created on    : 09/19/2023 17:22:15
#------------------------------------------------------------------------------
~Version Information Section
VERS.           2.0     :   CWLS log ASCII Standard - VERSION 2.0
WRAP.           NO      :   One line per depth step
~Well Information Section
#MNEM       .UNIT                                         VALUE :DESCRIPTION
#------------------------------------------------------------------------------
STRT        .FT                                             712 :START DEPTH
STOP        .FT                                            8940 :STOP DEPTH
STEP        .FT                                             0.5 :STEP      
NULL        .                                           -999.25 :NULL      
COMP        .                                      SHELL OIL CO :COMPANY   
WELL        .                               OCS G03086 ST00BP00 :WELL      
FLD         .                                           WILDCAT :FIELD     
LOC         .                                                   :LOCATION  
CNTY        .                      MATAGORDA ISLAND LARGE BLOCK :LOCATION  
STAT        .                                             TEXAS :STATE     
CTRY        .                                     UNITED STATES :COUNTRY   
SRVC        .                                                   :SERVICE COMPANY
DATE        .                             9/13/2023 11:19:05 AM :LOG DATE  
API         .                                    42703400050000 :API NUMBER
UWI         .                                    42703400050000 :UNIQUE WELL ID
XCOORD      .                                  597395.628989583 :SURFACE X 
YCOORD      .                                    10217429.66268 :SURFACE Y 
LAT         .                                         28.117488 :LATITUDE  
LON         .                                        -96.235866 :LONGITUDE 
ELEV        .FT                                              93 :ELEVATION VALUE
ELEV_TYPE   .                                                KB :ELEVATION REFERENCE TYPE
~Curve Information Section
#MNEM       .UNIT                                      API CODE :CURVE DESCRIPTION
#------------------------------------------------------------------------------
DEPT        .FT                                                 :DEPTH     
CALI        .IN                                                 :          
DRHO        .G/C3                                               :          
DT          .US/F                                               :          
GR          .GAPI                                               :          
GR_1        .GAPI                                               :          
GR_NORM     .GAPI                                               :GammaRay Normalized
ILD         .OHMM                                               :          
NPHI        .%                                                  :          
RHOB        .G/C3                                               :          
SFL         .OHMM                                               :          
SP          .MV                                                 :          
SP_NORM     .MV                                                 :SP Normalized
VSH_GR      .V/V                                                :Volume of Shale from GR
VSH_SP      .V/V                                                :Volume of Shale from SP
~A        DEPTH           CALI           DRHO             DT             GR           GR_1        GR_NORM            ILD           NPHI           RHOB            SFL             SP        SP_NORM         VSH_GR         VSH_SP
# ...
      6184.0000        10.6503         -0.001       111.2031        76.5558        66.9438       71.04761         1.4648        30.3778         2.3688         1.8451       -57.4063      -7.227238      0.8095236      0.8584719
      6184.5000        10.5452        -0.0031       117.1404        77.8044        65.2823       66.67544         1.3428        31.3476         2.3574         1.4021       -58.0767       -7.89996      0.7164987      0.8431827
      6185.0000        10.3725        -0.0049       125.2344        78.7482        64.0814       63.51504         1.2732        31.5428         2.3318         1.5186       -59.5834      -9.408985      0.6492561      0.8088867
      6185.5000        10.2181        -0.0073       123.9019        79.5343        63.9465        63.1593          1.233        31.9358         2.3164          1.708       -61.7747      -11.60261      0.6416873      0.7590315
      6186.0000        10.1665        -0.0092       115.4945        79.7157        64.3328       64.17484           1.21        31.3907         2.3021          1.486       -60.8932      -10.72343      0.6632944      0.7790129
      6186.5000        10.1561        -0.0089        113.054        79.5315        64.8417       65.51291         1.1949        30.5386         2.3041          1.461       -58.0903      -7.922859       0.691764      0.8426623
      6187.0000        10.1744        -0.0055       108.9922          79.99        65.5089       67.26752         1.1815        31.2872         2.3312         1.4462       -56.0426      -5.877483      0.7290961      0.8891481
      6187.5000        10.2453        -0.0011       107.1038        80.7955        66.8547        70.8074          1.166        32.1954         2.3461         1.3643       -56.3348      -6.172009      0.8044128      0.8824543
      6188.0000        10.2959        -0.0008       107.0513        81.0819        67.0403       71.29489         1.1402        31.6263         2.3468         1.2974       -58.1759       -8.01543      0.8147849      0.8405584
      6188.5000        10.3224        -0.0033       107.5942        79.9943        66.8414       70.77081         1.1384         31.576         2.3356         1.1826       -58.2184      -8.060253      0.8036342      0.8395397
      6189.0000        10.3401        -0.0057       107.7208        77.6145        66.9452       71.04309           1.17        32.1325          2.322         1.1851       -58.4722       -8.31638      0.8094274      0.8337187
      6189.5000        10.3703        -0.0053       107.7302        76.5734        67.6544       72.90813         1.2711        32.0255         2.3125         1.2414       -57.4366      -7.283104      0.8491092      0.8572022
      6190.0000        10.4199         0.0037       109.4807        76.6123         68.316       74.64799         1.4017        30.7215         2.3108         1.2521        -56.258      -6.106827      0.8861274      0.8839357
      6190.5000        10.4901         0.0185       111.2229        75.8859        68.0977        74.0728         1.5097        29.6077         2.3084         1.2518       -56.7322      -6.583355      0.8738893      0.8731056
      6191.0000        10.5806         0.0147       113.4475        74.5846        66.4115        69.6356         1.5906         29.404         2.2948         1.3081       -57.1005      -6.953976      0.7794809      0.8646824
      6191.5000        10.5991        -0.0019       114.0966        73.4822        64.7797       65.34157         1.6453        28.7538         2.2664         1.7293       -58.0034        -7.8592      0.6881185      0.8441091
      6192.0000        10.3725        -0.0177       112.1409        72.9899        63.4514       61.84604         1.6708        28.0949         2.2556         2.2814       -56.9241      -6.782227      0.6137455      0.8685858
      6192.5000        10.0812        -0.0229       111.1144        73.3409        62.7769       60.07057          1.672        29.1261         2.2521         1.9723       -57.5023      -7.362751      0.5759695       0.855392
      6193.0000          9.933        -0.0169       112.0916        74.8672        64.6411       64.97446         1.6127        29.4935         2.2612          1.576       -59.7914      -9.654175      0.6803076      0.8033142
      6193.5000         9.9386        -0.0129       112.9873         76.467        65.8383       68.12344         1.5122        29.8879         2.2666         1.4371       -62.0632       -11.9283      0.7473071      0.7516296
      6194.0000         9.9822        -0.0057       113.8608        77.2513        67.8922       73.52637         1.4243        30.9655         2.2673         1.6337       -61.6435      -11.51093      0.8622633      0.7611153
      6194.5000        10.0527         0.0026       114.3325        77.7313        67.9027       73.55321         1.3137         31.676          2.286         1.3612       -57.9541      -7.823849      0.8628342      0.8449125
      6195.0000        10.1531          0.012       115.0022         78.071        67.6348       72.84755         1.2283        34.3779         2.3086         1.2146       -55.5103       -5.38237      0.8478202      0.9004007
      6195.5000        10.2535         0.0145       117.2712        78.3621        67.8792       73.48975         1.1769        35.4666         2.3127         1.0852       -52.7742      -2.648598      0.8614839      0.9625319
      6196.0000        10.2793         0.0124       120.4767        78.4077        68.5947       75.37138         1.1421        33.6274         2.2967         1.0263       -48.6812       1.442081      0.9015186              1
      6196.5000        10.2671         0.0012       120.2274        78.4564        68.9476       76.29904         1.1474        33.0483         2.2767         0.9999       -52.5117      -2.390743      0.9212562      0.9683922
      6197.0000         10.223        -0.0073       115.8671        78.1045        68.4084       74.87956         1.1833        32.2385         2.2774          1.078       -56.0203      -5.901672      0.8910545      0.8885984
      6197.5000        10.1642        -0.0079       110.2704        77.5164        67.4019       72.23068         1.2339        31.7116         2.2902         1.2463       -57.3533      -7.236992      0.8346954      0.8582502
      6198.0000        10.1151        -0.0016       105.6559        77.3928        66.0723       68.73172         1.3196         31.543          2.312         1.4142       -56.5316      -6.417618      0.7602494      0.8768723
      6198.5000        10.1008         0.0067       105.5886        77.3536        65.0818       66.12489         1.3967        30.7494         2.3249         1.2226       -56.1862      -6.074539      0.7047848      0.8846695
      6199.0000         10.101         0.0083        105.577        77.3005        63.8265        62.8214         1.4087        28.1725         2.3361         1.1537       -57.6285      -7.519169      0.6344978      0.8518371
      6199.5000        10.1177         0.0064       103.9236        77.3494        62.5958       59.58263         1.3984        25.4982         2.3498         1.3443       -59.5017      -9.394691      0.5655879      0.8092116
      6200.0000        10.2406         0.0143       101.2831        77.3633        61.5249       56.76429         1.3762        25.8668         2.3791         1.7113       -59.1055      -9.000813      0.5056233      0.8181633
      6200.5000        10.4455         0.0352       101.0784        77.9044        61.7762       57.42459         1.3418        28.4976         2.3913         1.7995       -57.4243      -7.321941      0.5196721      0.8563195
      6201.0000        10.5648         0.0522       103.7705        78.9119        64.4009       64.32932         1.2942        30.0602         2.3938         1.2824       -56.1664      -6.066364      0.6665812      0.8848553
      6201.5000        10.6146         0.0612       106.9933        79.3824         66.071        68.7225         1.2408        32.0588         2.3703          1.083       -55.4119      -5.314186      0.7600531      0.9019503
