#------------------------------------------------------------------------------
# Created by    : vladimir.rabinovich
# Created on    : 09/19/2023 17:20:06
#------------------------------------------------------------------------------
~Version Information Section
VERS.           2.0     :   CWLS log ASCII Standard - VERSION 2.0
WRAP.           NO      :   One line per depth step
~Well Information Section
#MNEM       .UNIT                                         VALUE :DESCRIPTION
#------------------------------------------------------------------------------
STRT        .FT                                             325 :START DEPTH
STOP        .FT                                           10896 :STOP DEPTH
STEP        .FT                                             0.5 :STEP      
NULL        .                                           -999.25 :NULL      
COMP        .                                      GETTY OIL CO :COMPANY   
WELL        .                               OCS G03737 ST00BP00 :WELL      
FLD         .                                           WILDCAT :FIELD     
LOC         .                                                   :LOCATION  
CNTY        .                             GALVESTON LARGE BLOCK :LOCATION  
STAT        .                                             TEXAS :STATE     
CTRY        .                                     UNITED STATES :COUNTRY   
SRVC        .                                                   :SERVICE COMPANY
DATE        .                             9/13/2023 11:10:15 AM :LOG DATE  
API         .                                    42706400540000 :API NUMBER
UWI         .                                    42706400540000 :UNIQUE WELL ID
XCOORD      .                                  1098214.74516992 :SURFACE X 
YCOORD      .                                   10573216.961531 :SURFACE Y 
LAT         .                                         29.123847 :LATITUDE  
LON         .                                        -94.698615 :LONGITUDE 
ELEV        .FT                                              99 :ELEVATION VALUE
ELEV_TYPE   .                                                KB :ELEVATION REFERENCE TYPE
~Curve Information Section
#MNEM       .UNIT                                      API CODE :CURVE DESCRIPTION
#------------------------------------------------------------------------------
DEPT        .FT                                                 :DEPTH     
ASFL        .OHMM                                               :          
DT          .US/F                                               :          
DTL         .US/F                                               :          
GR          .GAPI                                               :          
GR_1        .GAPI                                               :          
GR_NORM     .GAPI                                               :GammaRay Normalized
ILD         .OHMM                                               :          
RHOB        .G/CC                                               :          
SP          .MV                                                 :          
SP_NORM     .MV                                                 :SP Normalized
VSH_GR      .V/V                                                :Volume of Shale from GR
VSH_SP      .V/V                                                :Volume of Shale from SP
~A        DEPTH           ASFL             DT            DTL             GR           GR_1        GR_NORM            ILD           RHOB             SP        SP_NORM         VSH_GR         VSH_SP
# ...
     10185.5000         0.2883       124.8293       126.6367        54.8774        67.9159         77.158         0.2118         2.3349        -46.157        -0.0032         0.9395              1
     10186.0000         0.2877        125.645       126.9924        56.4119        67.5847        79.6834         0.2112         2.3123       -46.3098         -0.156         0.9933              1
     10186.5000         0.2871        126.214       126.3499        57.9512        67.2528        82.2167         0.2106         2.3027       -46.4622        -0.3084              1              1
     10187.0000         0.2872       126.1302       124.9144         59.249         66.921        84.3539         0.2101         2.3138       -46.6147        -0.4609              1              1
     10187.5000         0.2883       125.5577       123.2703        59.4296        66.4242        84.6582         0.2095         2.3321       -46.7672        -0.6134              1              1
     10188.0000         0.2893       124.3958       122.5415             58        65.7797         82.321         0.2089         2.3531        -46.919        -0.7652              1              1
     10188.5000         0.2913        122.676        121.803        55.3287        65.1351        77.9469         0.2083          2.371       -47.0685        -0.9147         0.9563              1
     10189.0000         0.2988       121.2886       121.0187        52.0696        64.4906        72.6084         0.2077         2.3757        -47.218        -1.0642         0.8427         0.9984
     10189.5000         0.3062       120.8693       120.8676        50.4912        63.8461        70.0271         0.2071         2.3545       -47.3674        -1.2136         0.7878         0.9945
     10190.0000         0.3137       120.9115       121.0271        50.0021        63.2015        69.2328         0.2066         2.3109       -47.5172        -1.3634         0.7709         0.9907
     10190.5000          0.317       121.1313       121.3549        50.9304         62.557        70.7638          0.206         2.3128       -47.6667        -1.5129         0.8035         0.9868
     10191.0000         0.3189       121.5471       121.8816        52.5819        61.9137        73.4812         0.2054         2.3351       -47.0742        -0.9204         0.8613              1
     10191.5000         0.3172       122.1073       122.4575        53.8968        62.0524        75.6464         0.2048         2.3568       -45.9717         0.1821         0.9074              1
     10192.0000         0.3146        122.767       123.2746        54.8896        62.6838        77.2831         0.2042          2.361       -44.8668          1.287         0.9422              1
     10192.5000          0.312       123.6439       123.7531        54.7653         63.314        77.0873         0.2036         2.3542       -43.9657         2.1881          0.938              1
     10193.0000         0.3094        124.058       124.2061        52.5721        63.9442        73.4975         0.2031         2.3438       -43.5789         2.5749         0.8616              1
     10193.5000          0.307       123.9429       124.2101         51.045        64.5754        71.0003         0.2025         2.3366       -43.1926         2.9612         0.8085              1
     10194.0000         0.3069       123.9788       124.2145        51.0035        65.3049        70.9403         0.2035         2.3327       -42.8058          3.348         0.8072              1
     10194.5000         0.3068       124.1224       124.4462        52.1672        66.1539        72.8575         0.2046         2.3359       -42.4459         3.7079          0.848              1
     10195.0000         0.3067       124.3921       124.8383        53.3942        67.0042        74.8785         0.2058         2.3462       -42.1266         4.0272          0.891              1
     10195.5000         0.3065       124.7219       125.2304        53.9725        67.8531        75.8353         0.2069         2.3628       -41.8073         4.3465         0.9114              1
     10196.0000         0.3064       125.0848       125.3853        54.0096           69.3        75.9042         0.2081         2.3594       -41.4803         4.6735         0.9129              1
     10196.5000         0.3063        125.083        125.346        54.4822        71.1439        76.6876         0.2092         2.3427       -41.0725         5.0813         0.9295              1
     10197.0000         0.3062       124.5358       124.9627        56.0191        73.1649         79.217         0.2104         2.3395       -40.9033         5.2505         0.9833              1
     10197.5000         0.3061       123.4917       124.1465        58.1378        71.6725        82.7008         0.2115         2.3593       -41.2142         4.9396              1              1
     10198.0000         0.3059       122.5446       123.1681        58.2562        70.1777        82.9031         0.2127         2.3683       -41.5245         4.6293              1              1
     10198.5000         0.3058       121.8923       122.2362        55.1043        69.4089        77.7405         0.2138         2.3652       -42.1165         4.0373         0.9519              1
     10199.0000         0.3056       121.5441       121.5108        52.6404        68.8767        73.7066          0.215         2.3495       -42.9212         3.2326         0.8661              1
     10199.5000         0.3055       121.0447       121.1083        51.9671        68.3446        72.6101         0.2161         2.3511       -43.7272         2.4266         0.8428              1
     10200.0000         0.3054       120.6522        121.018        53.1625        67.8125        74.5793         0.2173          2.361       -44.5331         1.6207         0.8847              1
     10200.5000         0.3052       120.7517       121.0397        56.7534        67.2804        80.4782         0.2184         2.3754        -45.711         0.4428              1              1
     10201.0000         0.3051       121.3555       121.5685        59.0905        66.7494        84.3203         0.2196         2.3851       -47.1068         -0.953              1              1
     10201.5000         0.3049       122.0508       122.4327        60.2956         66.365        86.3054         0.2205         2.3889        -46.948        -0.7942              1              1
     10202.0000         0.3048       122.5391       122.7441        59.1734        66.0427        84.4725         0.2214         2.3838       -46.6347        -0.4809              1              1
     10202.5000         0.3047       122.6884        122.595        57.1047        65.7205        81.0869         0.2222         2.3704       -46.3167        -0.1629              1              1
     10203.0000         0.3049       122.2424       122.2608        55.2043        65.3982        77.9774          0.223         2.3515        -45.998         0.1558          0.957              1
     10203.5000         0.3051       121.6725       121.7572        54.8421        65.0765        77.3913         0.2239         2.3499       -45.6799         0.4739         0.9445              1
     10204.0000         0.3053       121.2388       121.3631        55.5678        64.7543        78.5899         0.2247         2.3585       -45.3618          0.792           0.97              1
     10204.5000         0.3055       120.9207       120.9964         56.485         64.432        80.1026         0.2255         2.3604       -45.0437         1.1101              1              1
     10205.0000         0.3057       120.7813       120.9235        56.7461        64.1097        80.5391         0.2264          2.354       -44.8333         1.3205              1              1
     10205.5000         0.3059       120.8064       120.9279        55.1092        63.6876        77.8618         0.2272         2.3429       -45.1501         1.0037         0.9545              1
