#------------------------------------------------------------------------------
# Created by    : vladimir.rabinovich
# Created on    : 09/19/2023 17:21:52
#------------------------------------------------------------------------------
~Version Information Section
VERS.           2.0     :   CWLS log ASCII Standard - VERSION 2.0
WRAP.           NO      :   One line per depth step
~Well Information Section
#MNEM       .UNIT                                         VALUE :DESCRIPTION
#------------------------------------------------------------------------------
STRT        .FT                                            2690 :START DEPTH
STOP        .FT                                            8272 :STOP DEPTH
STEP        .FT                                             0.5 :STEP      
NULL        .                                           -999.25 :NULL      
COMP        .                        PG&E RESOURCES OFFSHORE CO :COMPANY   
WELL        .                               OCS G09053 ST00BP00 :WELL      
FLD         .                              GALVESTON BLOCK 0427 :FIELD     
LOC         .                                                   :LOCATION  
CNTY        .                             GALVESTON LARGE BLOCK :LOCATION  
STAT        .                                             TEXAS :STATE     
CTRY        .                                     UNITED STATES :COUNTRY   
SRVC        .                                                   :SERVICE COMPANY
DATE        .                             9/13/2023 11:11:09 AM :LOG DATE  
API         .                                    42706402380000 :API NUMBER
UWI         .                                    42706402380000 :UNIQUE WELL ID
XCOORD      .                                  948581.259723803 :SURFACE X 
YCOORD      .                                  10360666.4777899 :SURFACE Y 
LAT         .                                         28.532718 :LATITUDE  
LON         .                                        -95.155068 :LONGITUDE 
ELEV        .FT                                             119 :ELEVATION VALUE
ELEV_TYPE   .                                                KB :ELEVATION REFERENCE TYPE
~Curve Information Section
#MNEM       .UNIT                                      API CODE :CURVE DESCRIPTION
#------------------------------------------------------------------------------
DEPT        .FT                                                 :DEPTH     
CALI        .IN                                                 :          
DRHO        .G/C3                                               :          
DT          .US/F                                               :          
GR          .GAPI                                               :          
GR_1        .GAPI                                               :          
GR_NORM     .GAPI                                               :GammaRay Normalized
ILD         .OHMM                                               :          
ILM         .OHMM                                               :          
NPHI        .%                                                  :          
RFOC        .OHMM                                               :          
RHOB        .G/C3                                               :          
SP          .MV                                                 :          
SP_NORM     .MV                                                 :SP Normalized
VSH_GR      .V/V                                                :Volume of Shale from GR
VSH_SP      .V/V                                                :Volume of Shale from SP
~A        DEPTH           CALI           DRHO             DT             GR           GR_1        GR_NORM            ILD            ILM           NPHI           RFOC           RHOB             SP        SP_NORM         VSH_GR         VSH_SP
# ...
      5325.0000        13.2254          0.066       127.7911         95.748        97.3031       82.67405         0.8066          0.782        39.2643         1.0604          2.247       -45.5052      -2.140091              1      0.9707669
      5325.5000        13.2375         0.0647        126.683        96.4427       102.8037       88.89775           0.81         0.7867         39.017         1.0654         2.2437       -45.2656      -1.897156              1       0.976996
      5326.0000        13.2357         0.0658       126.7443        97.4681       107.8691       94.62891         0.8094         0.7849         39.562          1.082         2.2398       -44.9988      -1.627022              1      0.9839225
      5326.5000         13.238         0.0657       127.4083        96.7515       107.6943       94.42957         0.8088         0.7827         40.201         1.0881         2.2371       -44.7664      -1.391293              1      0.9899669
      5327.0000        13.2522         0.0638       128.6965        96.9286       100.1438        85.8829         0.8082         0.7806        40.3621         1.0896         2.2316       -44.5688      -1.190361              1       0.995119
      5327.5000         13.261          0.061       129.8745        98.7249        95.9071       81.08657         0.7997         0.7759         40.563         1.0682         2.2271       -44.3972      -1.015427              1      0.9996045
      5328.0000        13.2654         0.0586       131.0889       101.1957        92.7461       77.50764          0.791         0.7711        40.5754         1.0471         2.2305       -44.3556     -0.9704895      0.9469712              1
      5328.5000        13.2811         0.0567       131.1116       102.0275        94.2104       79.16334         0.7825         0.7666        40.3485         1.0289         2.2388       -44.4996       -1.11116      0.9821987      0.9971498
      5329.0000        13.3061         0.0563        130.792       101.4194         96.808       82.10162         0.7764         0.7637         40.176         1.0357         2.2456       -44.9545      -1.562725              1      0.9855711
      5329.5000        13.3279         0.0584        130.261       101.2432        96.9098       82.21531         0.7703         0.7608        40.1227         1.0481         2.2516       -45.1877      -1.792591              1      0.9796771
      5330.0000        13.3482         0.0623       129.7327       102.2777        96.5996       81.86273         0.7679         0.7628        39.9946         1.0606          2.258       -45.1677       -1.76926              1      0.9802754
      5330.5000        13.3627         0.0642       129.1267       103.0356        98.2125        83.6866         0.7723         0.7699        39.7212         1.0643         2.2642       -44.9827      -1.580929              1      0.9851044
      5331.0000          13.36          0.062       128.4338       102.8829        99.9324       85.63155         0.7768         0.7771        39.5613          1.068         2.2667       -44.6622      -1.257095              1      0.9934078
      5331.5000        13.3499         0.0651        127.526       102.4644        100.483       86.25317         0.7879         0.7891        39.3609         1.0702         2.2657       -44.3144     -0.9059601              1              1
      5332.0000        13.3498         0.0762       127.7598       102.3031        98.9752       84.54522         0.7992         0.8078        38.4885         1.0641         2.2652       -44.0919       -0.68013              1              1
      5332.5000        13.3558         0.0835       128.5088       102.4238        96.7194       81.99075         0.8107         0.8269        37.5292         1.0683          2.269       -44.1097     -0.6945953              1              1
      5333.0000        13.3621         0.0874       129.6233       102.6544        96.7865       82.06518         0.8297         0.8491        36.6775         1.0783         2.2764       -44.4281      -1.009663              1      0.9997522
      5333.5000        13.3666           0.09       129.6907       101.1227        96.5758        81.8252         0.8496         0.8776        35.7303         1.1051         2.2866       -44.5613      -1.139526              1      0.9964224
      5334.0000        13.3686          0.088       127.9662        93.1536        94.7582       79.76665         0.8699         0.9071        35.9156         1.1849         2.2988       -44.5546      -1.129498      0.9950352      0.9966795
      5334.5000        13.3718         0.0806       119.5718        91.7458        94.6578       79.65151         0.8892         0.9323        37.1572         1.2341         2.3061       -44.8485      -1.420063      0.9925854      0.9892291
      5335.0000        13.3791         0.0751       116.9104        93.6212        96.0146       81.18553         0.9078         0.9484        38.4501         1.2327         2.3056       -45.0919       -1.66013              1      0.9830736
      5335.5000        13.3766         0.0795       116.9655        96.1736        98.6061       84.11691         0.9267         0.9647        39.3741         1.1932         2.2992       -45.1945      -1.759396              1      0.9805283
      5336.0000        13.3785         0.0823       122.1931        96.7008       100.5326       86.29568         0.9439         0.9635        39.7597         1.1464         2.2949        -45.244      -1.805565              1      0.9793445
      5336.5000          13.38         0.0808       125.6799        96.5076       101.7256       87.64433         0.9492         0.9558        39.9053         1.1333         2.2971       -45.4096      -1.967831              1      0.9751838
      5337.0000        13.3753         0.0748       126.0177        96.0857       101.7578       87.67925         0.9546         0.9482        40.3217         1.1404         2.2985       -45.5681      -2.122997              1      0.9712052
      5337.5000        13.3744         0.0654       123.8215        95.6786       100.8406       86.63972         0.9553         0.9439        41.0317         1.1394         2.2961       -45.4054      -1.956966              1      0.9754624
      5338.0000        13.3904         0.0652       121.6885        96.5658        99.3358       84.93517         0.9489         0.9419        41.4843         1.1187         2.2891       -45.4592      -2.007435              1      0.9741684
      5338.5000        13.4471         0.0713        121.506        99.1024       101.2341       87.08202         0.9488         0.9469        40.4521         1.1026         2.2844       -45.3944      -1.939301              1      0.9759154
      5339.0000        13.5067          0.072       122.1332       100.3457       104.3903       90.65249         0.9622         0.9519        39.5992         1.1199         2.2819       -45.2299      -1.771465              1      0.9802188
      5339.5000        13.5689         0.0695       123.5764       100.9298       104.9241        91.2551         0.9748         0.9726        39.2292         1.1433         2.2843        -45.085      -1.623234              1      0.9840196
      5340.0000        13.6088         0.0617       125.4849       100.7278       104.2925       90.53879         0.9825         0.9941        39.0159         1.1644         2.2913       -45.0064      -1.541302              1      0.9861205
      5340.5000        13.6402         0.0551       125.8562       100.5277       101.2977       87.14795         0.9893         1.0161        38.4329         1.1732            2.3       -44.9752      -1.506767              1      0.9870059
      5341.0000        13.6597          0.051       124.5944       100.2008        96.5232       81.74297         0.9933         1.0258        36.7437         1.1852         2.3059       -44.9868      -1.515034              1       0.986794
      5341.5000        13.6718         0.0531       121.8781        98.0173        93.4012       78.20819         1.0033         1.0356        35.4762         1.2029           2.31       -45.2407      -1.765602      0.9618764      0.9803692
