#------------------------------------------------------------------------------
# Created by    : vladimir.rabinovich
# Created on    : 09/19/2023 17:21:34
#------------------------------------------------------------------------------
~Version Information Section
VERS.           2.0     :   CWLS log ASCII Standard - VERSION 2.0
WRAP.           NO      :   One line per depth step
~Well Information Section
#MNEM       .UNIT                                         VALUE :DESCRIPTION
#------------------------------------------------------------------------------
STRT        .FT                                            4500 :START DEPTH
STOP        .FT                                            8225 :STOP DEPTH
STEP        .FT                                             0.5 :STEP      
NULL        .                                           -999.25 :NULL      
COMP        .                             WALTER OIL & GAS CORP :COMPANY   
WELL        .                               OCS G08132 ST00BP00 :WELL      
FLD         .                              GALVESTON BLOCK 0385 :FIELD     
LOC         .                                                   :LOCATION  
CNTY        .                             GALVESTON LARGE BLOCK :LOCATION  
STAT        .                                             TEXAS :STATE     
CTRY        .                                     UNITED STATES :COUNTRY   
SRVC        .                                                   :SERVICE COMPANY
DATE        .                             9/13/2023 11:19:34 AM :LOG DATE  
API         .                                    42706402490000 :API NUMBER
UWI         .                                    42706402490000 :UNIQUE WELL ID
XCOORD      .                                  1009947.10754335 :SURFACE X 
YCOORD      .                                  10405011.8756564 :SURFACE Y 
LAT         .                                         28.657556 :LATITUDE  
LON         .                                        -94.966279 :LONGITUDE 
ELEV        .FT                                             101 :ELEVATION VALUE
ELEV_TYPE   .                                                KB :ELEVATION REFERENCE TYPE
~Curve Information Section
#MNEM       .UNIT                                      API CODE :CURVE DESCRIPTION
#------------------------------------------------------------------------------
DEPT        .FT                                                 :DEPTH     
CALI        .IN                                                 :          
DPHI        .%                                                  :          
DRHO        .G/C3                                               :          
GR          .GAPI                                               :          
GR_NORM     .GAPI                                               :GammaRay Normalized
ILD         .OHMM                                               :          
ILM         .OHMM                                               :          
NPHI        .%                                                  :          
SFL         .OHMM                                               :          
SP          .MV                                                 :          
SP_NORM     .MV                                                 :SP Normalized
VSH_GR      .V/V                                                :Volume of Shale from GR
VSH_SP      .V/V                                                :Volume of Shale from SP
~A        DEPTH           CALI           DPHI           DRHO             GR        GR_NORM            ILD            ILM           NPHI            SFL             SP        SP_NORM         VSH_GR         VSH_SP
# ...
      7958.0000        11.5825        28.3918        -0.0189        65.8015       67.92358         0.6218         0.6347        38.0143         0.7004       -43.1493      -4.850876       0.743055      0.9191521
      7958.5000        11.8327        28.6413        -0.0163        66.6641       68.68634         0.6171         0.6282        38.9664         0.6711         -43.41      -5.172384      0.7592838      0.9137936
      7959.0000        11.9279        28.5809        -0.0137         68.026       69.96921         0.6107         0.6229        39.2758          0.643       -43.1832      -4.925146      0.7865789      0.9179142
      7959.5000        12.0019        28.3517        -0.0106         69.447       71.31362         0.6044          0.624        39.4568         0.6388       -43.0811      -4.823386      0.8151835      0.9196103
      7960.0000        12.0782        28.2617        -0.0073        70.5325       72.30857         0.5982         0.6252        39.7938         0.6348       -43.3019      -5.098345      0.8363526      0.9150276
      7960.5000        12.1519        27.7914         -0.004        70.6721       72.31819         0.5928         0.6264        40.2294         0.6513       -43.3688      -5.193759      0.8365573      0.9134374
      7961.0000        12.1798        27.3013        -0.0018         69.976       71.45731         0.5877         0.6262         40.668         0.6691       -43.2327      -5.052332      0.8182405      0.9157945
      7961.5000         12.116        26.6751         0.0002        69.1254       70.43548         0.5827         0.6255        41.1278         0.6813       -43.0428      -4.848144      0.7964996      0.9191976
      7962.0000        12.0441         25.875         0.0023        68.2722       69.41095         0.5865         0.6255        41.5331         0.6863       -42.7673      -4.544083      0.7747011      0.9242653
      7962.5000        11.9659        24.6197         0.0027        69.3729       70.42172         0.5916         0.6256        41.7014         0.6703       -42.5547       -4.31341      0.7962068      0.9281098
      7963.0000        11.8635        23.8491         0.0051        70.4502       71.40813         0.5967         0.6307        41.6307         0.6553       -42.4023       -4.15297      0.8171942      0.9307838
      7963.5000        11.7703         23.353         0.0072        70.4603       71.28285         0.6011         0.6359        41.2651         0.6555       -41.9833      -3.681495      0.8145288      0.9386417
      7964.0000        11.7534        23.1102         0.0091        69.8961       70.55937         0.6052         0.6418        40.8094         0.6649       -41.4582      -3.086239      0.7991356      0.9485627
      7964.5000        11.8227        22.6481         0.0111        68.5914       69.06452         0.6093         0.6477        40.9146         0.6727       -41.5648      -3.227964      0.7673302      0.9462006
      7965.0000        11.9182        22.0541         0.0128        67.6271       67.77718         0.6121         0.6561        41.4363         0.6798       -41.7142      -3.419624      0.7399399      0.9430063
      7965.5000         11.917        22.0843          0.013        67.1271       66.75988         0.6123         0.6638        41.9604         0.6853       -41.8633      -3.610933      0.7182953      0.9398178
      7966.0000         11.793        22.2031         0.0132        67.8451       67.01133         0.6126         0.6671        42.3611         0.6809        -41.694      -3.430777      0.7236453      0.9428204
      7966.5000        11.6433        22.5502         0.0134        69.3829       68.11673         0.6128         0.6704        41.5173         0.6765       -41.5702      -3.303703      0.7471645      0.9449383
      7967.0000        11.5697        22.8973         0.0127        70.5715        68.8584         0.6125         0.6707        39.7809         0.6722        -42.087      -3.923997      0.7629446      0.9346001
      7967.5000        11.5029        23.2104         0.0116        70.1934       67.96807         0.6118         0.6703        38.1535         0.6689       -43.1423      -5.172539      0.7440015       0.913791
      7968.0000        11.4142        23.5144         0.0127        67.9355       65.11963          0.611         0.6699        37.2036         0.6659       -44.3472      -6.595612      0.6833963      0.8900731
      7968.5000         11.285        23.5684          0.016        64.7971       61.35399         0.6103         0.6687        37.5309         0.6863       -45.2405      -7.655159      0.6032764       0.872414
      7969.0000        11.1355          22.72          0.019        61.8973        57.8369         0.6094         0.6666        33.7612         0.7321       -46.5522      -9.202832      0.5284447      0.8466195
      7969.5000        10.8731        17.2266         0.0218        57.7864       53.05825         0.6072         0.6562         28.891         0.8393       -48.9067      -11.96711      0.4267712      0.8005482
      7970.0000        10.5105        13.4726         0.0219        53.8137       48.42355         0.6051         0.6421        25.5695          1.082       -51.0099       -14.4382      0.3281607      0.7593634
      7970.5000        10.4454        11.6667         0.0173        52.6927       46.75938          0.603         0.6249        22.7593         1.0095       -52.9196      -16.68355      0.2927527      0.7219409
      7971.0000        10.4554        13.5785           0.01        59.4398       53.29113          0.601         0.6134        25.5211         0.7542       -54.4386      -18.47307      0.4317262      0.6921155
      7971.5000        10.4649        15.2634         0.0062        66.4756       60.12362         0.5992         0.6053        29.8771         0.6572       -53.3544      -17.22553      0.5770984      0.7129079
      7972.0000        10.4735        16.1323         0.0075        74.2452       67.72049         0.5974         0.6104        33.1199         0.6059        -49.168      -12.35876      0.7387338      0.7940207
      7972.5000        10.4821        15.9247         0.0089        83.3214        76.6784         0.5957         0.6156        34.5432         0.5941       -46.3889      -9.133832      0.9293276      0.8477694
      7973.0000        10.4966        15.6869         0.0103         86.696       80.04834         0.5981         0.6207        34.0455         0.6348       -44.1249       -6.50986              1      0.8915023
      7973.5000        10.5188        15.8563         0.0117        87.8304       81.25648         0.6014         0.6258        33.4496         0.6772       -42.1699      -4.246381              1       0.929227
      7974.0000         10.551        16.0638         0.0131        86.5403       79.93911         0.6054         0.6309        33.2683         0.6929       -40.9097      -2.793509      0.9987045      0.9534415
      7974.5000        10.6112        16.3894         0.0145        84.6381       77.98413         0.6094         0.6304        33.7347         0.6806       -40.0649      -1.825271      0.9571092      0.9695788
      7975.0000         10.675        16.6817         0.0143         82.741       76.03445         0.6126         0.6292        34.4948         0.6583       -40.0697      -1.848227      0.9156267      0.9691962
      7975.5000        10.7502        16.7831         0.0132        81.7534       75.03219         0.6114          0.628        35.4552         0.6535       -40.4135      -2.266692      0.8943019      0.9622218
      7976.0000        10.7945        16.8844         0.0121        81.0197        74.2944         0.6102         0.6259        36.2712         0.6648       -41.0417      -3.016945      0.8786042      0.9497176
      7976.5000         10.751        17.4777         0.0106        80.2897       73.56046          0.609         0.6239        35.9664          0.687       -41.6208      -3.709925      0.8629886      0.9381679
