#------------------------------------------------------------------------------
# Created by    : vladimir.rabinovich
# Created on    : 09/19/2023 17:20:33
#------------------------------------------------------------------------------
~Version Information Section
VERS.           2.0     :   CWLS log ASCII Standard - VERSION 2.0
WRAP.           NO      :   One line per depth step
~Well Information Section
#MNEM       .UNIT                                         VALUE :DESCRIPTION
#------------------------------------------------------------------------------
STRT        .FT                                             242 :START DEPTH
STOP        .FT                                            8116 :STOP DEPTH
STEP        .FT                                             0.5 :STEP      
NULL        .                                           -999.25 :NULL      
COMP        .                                       HUNT OIL CO :COMPANY   
WELL        .                                     ST TR 00005-L :WELL      
FLD         .                                           WILDCAT :FIELD     
LOC         .                                                   :LOCATION  
CNTY        .                           HIGH ISLAND LARGE BLOCK :LOCATION  
STAT        .                                             TEXAS :STATE     
CTRY        .                                     UNITED STATES :COUNTRY   
SRVC        .                                                   :SERVICE COMPANY
DATE        .                             9/13/2023 11:19:33 AM :LOG DATE  
API         .                                    42708000010000 :API NUMBER
UWI         .                                    42708000010000 :UNIQUE WELL ID
XCOORD      .                                  1328371.56215902 :SURFACE X 
YCOORD      .                                  10754892.1390607 :SURFACE Y 
LAT         .                                        29.6307718 :LATITUDE  
LON         .                                       -93.9824852 :LONGITUDE 
ELEV        .FT                                              11 :ELEVATION VALUE
ELEV_TYPE   .                                                KB :ELEVATION REFERENCE TYPE
~Curve Information Section
#MNEM       .UNIT                                      API CODE :CURVE DESCRIPTION
#------------------------------------------------------------------------------
DEPT        .FT                                                 :DEPTH     
ASN         .OHMM                                               :          
LAT         .OHMM                                               :          
LN          .OHMM                                               :          
SN          .OHMM                                               :          
SP          .MV                                                 :          
SP_NORM     .MV                                                 :SP Normalized
VSH_SP      .V/V                                                :Volume of Shale from SP
~A        DEPTH            ASN            LAT             LN             SN             SP        SP_NORM         VSH_SP
# ...
      7042.5000         0.2899         0.2549         0.4642         0.2755         -119.6       -73.5656     0.04518951
      7043.0000         0.2924         0.2763         0.4566          0.292      -119.3557      -73.32258     0.04838713
      7043.5000         0.3053         0.3024         0.4491         0.3144       -118.816      -72.78416     0.05547152
      7044.0000         0.3215          0.343         0.4474         0.3458       -115.246      -69.21544      0.1024284
      7044.5000         0.3446         0.3835         0.4503         0.3773      -101.8823      -55.85302      0.2782497
      7045.0000         0.3712         0.4241         0.4532         0.4087       -88.5054       -42.4774      0.4542447
      7045.5000         0.4096         0.4591         0.4561          0.436       -75.1418      -29.11508      0.6300647
      7046.0000         0.4448         0.4907         0.4622         0.4631       -61.7783      -15.75286      0.8058834
      7046.5000         0.4816         0.5223         0.4694         0.4902       -48.4147      -2.390541      0.9817034
      7047.0000         0.5223         0.5539         0.4767         0.5172       -46.7375     -0.7146187              1
      7047.5000         0.5576         0.5828         0.4839         0.5443       -45.4498      0.5718002              1
      7048.0000          0.589         0.6007         0.4911          0.565       -44.2822       1.738121              1
      7048.5000         0.6157         0.6185         0.4943         0.5796       -43.9779       2.041138              1
      7049.0000         0.6297         0.6363         0.4958         0.5941       -44.1517       1.866058              1
      7049.5000         0.6314         0.6541         0.4973         0.6086       -44.3256        1.69088              1
      7050.0000         0.6238         0.6661         0.4988         0.6191       -44.4712       1.543999              1
      7050.5000         0.6206          0.678         0.5003         0.6192       -44.4961       1.517818              1
      7051.0000         0.6206         0.6898          0.498         0.6184        -44.521       1.491638              1
      7051.5000         0.6224          0.698         0.4941         0.6149       -44.5459       1.465462              1
      7052.0000          0.633         0.7002         0.4901         0.6114       -44.5716       1.438477              1
      7052.5000         0.6436         0.7025         0.4861         0.6108       -44.6608          1.348              1
      7053.0000         0.6559          0.704         0.4816         0.6187         -44.75       1.257519              1
      7053.5000         0.6677         0.7044         0.4757         0.6266       -44.8434       1.162838              1
      7054.0000         0.6704         0.7048         0.4699         0.6338       -45.0855      0.9194603              1
      7054.5000         0.6642         0.7052          0.464         0.6227       -45.3382      0.6654778              1
      7055.0000          0.658         0.7056         0.4581         0.6066       -45.8444      0.1580009              1
      7055.5000         0.6295          0.706         0.4531         0.5843        -46.813      -0.811882              1
      7056.0000         0.5923          0.706         0.4491          0.562       -47.9009      -1.901062      0.9881439
      7056.5000         0.5248         0.6824          0.445         0.5419        -51.262      -5.263443      0.9439021
      7057.0000         0.5035         0.6399          0.441         0.5218       -61.1067      -15.10942      0.8143497
      7057.5000         0.4899         0.5864         0.4369         0.5017       -70.9514       -24.9554      0.6847973
      7058.0000         0.4772         0.5354         0.4348          0.487       -80.8901      -34.89538      0.5540081
      7058.5000         0.4691         0.4858         0.4385         0.4734       -90.8423      -44.84886      0.4230413
      7059.0000         0.4632         0.4373         0.4421         0.4598       -100.546      -54.55384      0.2953442
      7059.5000         0.4551         0.3968         0.4458         0.4498      -102.5488      -56.55792      0.2689748
      7060.0000         0.4471         0.3563         0.4495         0.4443      -104.4476        -58.458      0.2439736
      7060.5000         0.4382         0.3162         0.4543         0.4389      -110.0012      -64.01288      0.1708832
      7061.0000         0.4283          0.278         0.4633         0.4507      -113.1642      -67.17716      0.1292479
      7061.5000         0.4189         0.2398         0.4724          0.466      -110.8071      -64.82134      0.1602455
      7062.0000         0.4149         0.2381         0.4814         0.4814       -103.494      -57.50953      0.2564536
      7062.5000         0.4965         0.2592         0.4904         0.5024        -96.181       -50.1978      0.3526605
      7063.0000         0.5274         0.2816         0.4994         0.5234        -88.868      -42.88608      0.4488674
      7063.5000         0.5542         0.3058         0.5083         0.5444       -81.5549      -35.57426      0.5450755
      7064.0000          0.592           0.33         0.5169         0.5654       -74.2419      -28.26254      0.6412824
      7064.5000          0.603         0.3542         0.5255         0.5833        -66.929      -20.95092      0.7374879
      7065.0000         0.6123         0.3784         0.5341          0.596       -65.3763       -19.3995      0.7579014
      7065.5000         0.6194         0.4026         0.5427         0.6086       -65.0431      -19.06758      0.7622687
      7066.0000         0.6265         0.4255         0.5447         0.6213       -64.6382      -18.66396      0.7675794
      7066.5000         0.6312          0.448         0.5465         0.6201       -63.5645      -17.59154      0.7816902
      7067.0000         0.6355         0.4705         0.5483         0.6181       -61.4106      -15.43892      0.8100142
      7067.5000         0.6398          0.493         0.5501         0.6161       -59.7653       -13.7949       0.831646
      7068.0000         0.6418         0.5102         0.5448         0.6088       -58.3517      -12.38258      0.8502291
      7068.5000         0.6387         0.5272         0.5373          0.597       -56.7501      -10.78226       0.871286
      7069.0000         0.6288         0.5442         0.5297         0.5851       -54.9521      -8.985542      0.8949271
      7069.5000         0.6095         0.5613         0.5221         0.5732       -52.7092      -6.743923      0.9244221
      7070.0000         0.5905         0.5783         0.5141         0.5614       -50.8943      -4.930302      0.9482855
      7070.5000         0.5769         0.5954         0.5056         0.5495       -49.3297      -3.366985      0.9688554
      7071.0000         0.5633         0.6125         0.4972         0.5377       -48.5725      -2.611061      0.9788018
      7071.5000          0.555         0.6296         0.4887         0.5258       -50.6895      -4.729343      0.9509297
      7072.0000         0.5492         0.6467         0.4702         0.5186       -52.0762      -6.117321      0.9326668
      7072.5000         0.5435         0.6633         0.4673         0.5133       -50.8473      -4.889706      0.9488196
      7073.0000         0.5382         0.6799         0.4644         0.5079       -49.5596      -3.603283      0.9657463
      7073.5000          0.533         0.6964         0.4615         0.5025       -48.5792      -2.624165      0.9786294
      7074.0000         0.5272         0.6956         0.4586         0.4971       -48.6699      -2.716145      0.9774191
      7074.5000         0.5209         0.6941         0.4543         0.4918       -50.8305      -4.878025      0.9489734
      7075.0000         0.5146         0.6779           0.45         0.4864       -52.0494      -6.098206      0.9329184
      7075.5000         0.5081         0.6368         0.4456         0.4818       -53.3488      -7.398884      0.9158041
