#------------------------------------------------------------------------------
# Created by    : vladimir.rabinovich
# Created on    : 09/19/2023 17:19:50
#------------------------------------------------------------------------------
~Version Information Section
VERS.           2.0     :   CWLS log ASCII Standard - VERSION 2.0
WRAP.           NO      :   One line per depth step
~Well Information Section
#MNEM       .UNIT                                         VALUE :DESCRIPTION
#------------------------------------------------------------------------------
STRT        .FT                                             816 :START DEPTH
STOP        .FT                                            7470 :STOP DEPTH
STEP        .FT                                             0.5 :STEP      
NULL        .                                           -999.25 :NULL      
COMP        .                                   KERR-MCGEE CORP :COMPANY   
WELL        .                               OCS G05003 ST00BP00 :WELL      
FLD         .                                 BRAZOS BLOCK 0412 :FIELD     
LOC         .                                                   :LOCATION  
CNTY        .                                BRAZOS LARGE BLOCK :LOCATION  
STAT        .                                             TEXAS :STATE     
CTRY        .                                     UNITED STATES :COUNTRY   
SRVC        .                                                   :SERVICE COMPANY
DATE        .                             9/13/2023 11:19:08 AM :LOG DATE  
API         .                                    42704401140000 :API NUMBER
UWI         .                                    42704401140000 :UNIQUE WELL ID
XCOORD      .                                  819493.037302503 :SURFACE X 
YCOORD      .                                  10380289.6446028 :SURFACE Y 
LAT         .                                         28.579682 :LATITUDE  
LON         .                                        -95.558179 :LONGITUDE 
ELEV        .FT                                              90 :ELEVATION VALUE
ELEV_TYPE   .                                                KB :ELEVATION REFERENCE TYPE
~Curve Information Section
#MNEM       .UNIT                                      API CODE :CURVE DESCRIPTION
#------------------------------------------------------------------------------
DEPT        .FT                                                 :DEPTH     
ASFL        .OHMM                                               :          
CALI        .IN                                                 :          
CILD        .MMHO                                               :          
GR          .GAPI                                               :          
GR_NORM     .GAPI                                               :GammaRay Normalized
ILD         .OHMM                                               :          
ILM         .OHMM                                               :          
RHOB        .G/C3                                               :          
SP          .MV                                                 :          
SP_NORM     .MV                                                 :SP Normalized
VSH_GR      .V/V                                                :Volume of Shale from GR
VSH_SP      .V/V                                                :Volume of Shale from SP
~A        DEPTH           ASFL           CALI           CILD             GR        GR_NORM            ILD            ILM           RHOB             SP        SP_NORM         VSH_GR         VSH_SP
# ...
      4813.5000         0.6643        10.4866       3442.172        -999.25        -999.25          0.258         0.3123         2.0465       -96.3585      -57.01228        -999.25     0.01732843
      4814.0000         0.6593        10.4911       3378.938        -999.25        -999.25         0.2558         0.3247         2.0735       -96.1864      -56.81822        -999.25     0.02073301
      4814.5000         0.6608        10.4958       3282.973        -999.25        -999.25         0.2536         0.3352         2.1302       -95.9086      -56.51845        -999.25     0.02599207
      4815.0000         0.6633        10.4992       3229.641        -999.25        -999.25         0.2515         0.3429         2.1754       -95.6306      -56.21849        -999.25     0.03125462
      4815.5000         0.6684         10.499       3184.777        -999.25        -999.25         0.2482         0.3423         2.1958       -95.3525      -55.91842        -999.25      0.0365189
      4816.0000          0.683        10.4989       3146.422        -999.25        -999.25         0.2444         0.3333         2.1991       -95.1068      -55.65075        -999.25     0.04121486
      4816.5000         0.6808        10.5036       3162.988        -999.25        -999.25         0.2405         0.3203         2.1931       -95.5804      -56.10239        -999.25      0.0332914
      4817.0000         0.6779        10.5089       3385.176        -999.25        -999.25         0.2367         0.3075         2.1804       -96.0542      -56.55423        -999.25     0.02536446
      4817.5000         0.6751        10.5141       3598.602        -999.25        -999.25         0.2329         0.2916         2.1605       -97.0414      -57.51946        -999.25    0.008430548
      4818.0000         0.6722        10.5257       3330.508        -999.25        -999.25          0.229         0.2811         2.1382       -98.0892       -58.5453        -999.25              0
      4818.5000         0.6682        10.5374       2879.496        -999.25        -999.25         0.2252         0.2877         2.1115        -98.757      -59.19114        -999.25              0
      4819.0000         0.6565        10.5491       2736.883        -999.25        -999.25         0.2223         0.3003         2.0908       -99.6328      -60.04496        -999.25              0
      4819.5000         0.6448        10.5574       2625.859        -999.25        -999.25         0.2237         0.3168         2.0884       -97.6743       -58.0645        -999.25              0
      4820.0000         0.6331        10.5648        2514.84        -999.25        -999.25         0.2251         0.3379         2.1058       -95.2628      -55.63103        -999.25     0.04156079
      4820.5000         0.6092        10.5664       2397.879        -999.25        -999.25         0.2264         0.3667         2.1577       -90.2882      -50.63447        -999.25      0.1292199
      4821.0000         0.6134        10.6275       2347.566        -999.25        -999.25         0.2278         0.4062         2.1994       -86.7028       -47.0271        -999.25       0.192507
      4821.5000         0.6411        10.8176       2304.039        -999.25        -999.25         0.2529         0.4411         2.2262       -85.2424      -45.54474        -999.25      0.2185134
      4822.0000         0.6711        11.0825       2260.465        -999.25        -999.25         0.2785         0.4512         2.2315       -82.7943      -43.07467        -999.25      0.2618479
      4822.5000         0.7106        11.3315       2227.832        -999.25        -999.25         0.3313         0.4267          2.209       -81.0598      -41.31821        -999.25       0.292663
      4823.0000         0.7417        11.5721       2287.105        -999.25        -999.25         0.3386         0.3966         2.1799       -82.2643      -42.50074        -999.25      0.2719168
      4823.5000         0.7253          11.83       2370.641        -999.25        -999.25         0.3366          0.369         2.1372       -83.6659      -43.88038        -999.25      0.2477127
      4824.0000         0.7091        11.9294       2523.656        -999.25        -999.25         0.3346         0.3453         2.1429       -85.8961      -46.08862        -999.25      0.2089717
      4824.5000          0.696        11.6596       2888.406        -999.25        -999.25         0.3326         0.3294         2.1514       -89.5781      -49.74865        -999.25      0.1447605
      4825.0000         0.6828        11.3439       3014.879        -999.25        -999.25         0.3307         0.3177          2.141       -90.9467      -51.09528        -999.25      0.1211354
      4825.5000         0.6697        11.0636       3154.914        -999.25        -999.25         0.3206         0.3091          2.105       -91.5104      -51.63702        -999.25      0.1116313
      4826.0000         0.6566        10.7782       3297.035        -999.25        -999.25         0.3091          0.303         2.1204       -91.5276      -51.63226        -999.25      0.1117148
      4826.5000         0.6466        10.4703        3451.73        -999.25        -999.25         0.2977          0.299         2.1495       -91.2319      -51.31459        -999.25      0.1172879
      4827.0000         0.6375        10.3293       3522.945        -999.25        -999.25         0.2863         0.2958         2.1832       -91.2003      -51.26102        -999.25      0.1182276
      4827.5000         0.6247        10.2403       3512.828        -999.25        -999.25         0.2749         0.2942         2.2061       -91.2565      -51.29526        -999.25      0.1176271
      4828.0000         0.6229        10.1513       3502.707        -999.25        -999.25         0.2635         0.2944         2.1821       -91.7057       -51.7225        -999.25      0.1101317
      4828.5000          0.625        10.0827       3492.594        -999.25        -999.25         0.2572         0.2982         2.1588       -92.2388      -52.23363        -999.25      0.1011644
      4829.0000          0.628        10.0235       3482.473        -999.25        -999.25         0.2561         0.3017          2.138       -93.2039      -53.17677        -999.25     0.08461815
      4829.5000         0.6317         9.9626       3472.359        -999.25        -999.25         0.2551         0.3045         2.1199       -94.4611      -54.41199        -999.25     0.06294746
      4830.0000         0.6354         9.9744       3451.457        -999.25        -999.25         0.2541         0.3041         2.1001       -95.9153      -55.84423        -999.25     0.03782051
      4830.5000         0.6322        10.1894       3429.844        -999.25        -999.25         0.2531         0.3023         2.0783       -97.9117      -57.81866        -999.25    0.003181324
      4831.0000         0.6278         10.359       3408.254        -999.25        -999.25         0.2521         0.2997         2.0566       -99.1058       -58.9908        -999.25              0
      4831.5000          0.621        10.4664       3386.664        -999.25        -999.25         0.2544         0.2963         2.0508       -99.6215      -59.48454        -999.25              0
      4832.0000         0.6131        10.5058       3359.551        -999.25        -999.25         0.2569         0.2927         2.0497      -100.3024      -60.14347        -999.25              0
      4832.5000         0.6051        10.5074        3393.77        -999.25        -999.25         0.2594         0.2887         2.0485      -100.7805      -60.59961        -999.25              0
      4833.0000         0.6009        10.5089       3430.238        -999.25        -999.25         0.2619         0.2855         2.0482      -100.8186      -60.61575        -999.25              0
      4833.5000          0.598        10.5079       3491.641        -999.25        -999.25         0.2644         0.2852         2.0519      -100.3682      -60.14338        -999.25              0
