#------------------------------------------------------------------------------
# Created by    : vladimir.rabinovich
# Created on    : 09/19/2023 17:20:34
#------------------------------------------------------------------------------
~Version Information Section
VERS.           2.0     :   CWLS log ASCII Standard - VERSION 2.0
WRAP.           NO      :   One line per depth step
~Well Information Section
#MNEM       .UNIT                                         VALUE :DESCRIPTION
#------------------------------------------------------------------------------
STRT        .FT                                             500 :START DEPTH
STOP        .FT                                            9234 :STOP DEPTH
STEP        .FT                                             0.5 :STEP      
NULL        .                                           -999.25 :NULL      
COMP        .                                      SHELL OIL CO :COMPANY   
WELL        .                                OCS 00713 ST00BP00 :WELL      
FLD         .                                           WILDCAT :FIELD     
LOC         .                                                   :LOCATION  
CNTY        .                             GALVESTON LARGE BLOCK :LOCATION  
STAT        .                                             TEXAS :STATE     
CTRY        .                                     UNITED STATES :COUNTRY   
SRVC        .                                                   :SERVICE COMPANY
DATE        .                             9/13/2023 11:19:25 AM :LOG DATE  
API         .                                    42706000510000 :API NUMBER
UWI         .                                    42706000510000 :UNIQUE WELL ID
XCOORD      .                                  1104646.85179908 :SURFACE X 
YCOORD      .                                   10481381.387581 :SURFACE Y 
LAT         .                                         28.871549 :LATITUDE  
LON         .                                        -94.674396 :LONGITUDE 
ELEV        .FT                                              82 :ELEVATION VALUE
ELEV_TYPE   .                                                KB :ELEVATION REFERENCE TYPE
~Curve Information Section
#MNEM       .UNIT                                      API CODE :CURVE DESCRIPTION
#------------------------------------------------------------------------------
DEPT        .FT                                                 :DEPTH     
ASN         .OHMM                                               :          
ASN_1       .OHMM                                               :          
GR_NORM     .                                                   :GammaRay Normalized
ILD         .OHMM                                               :          
LAT         .OHMM                                               :          
LN          .OHMM                                               :          
SP          .MV                                                 :          
SP_1        .MV                                                 :          
SP_NORM     .MV                                                 :SP Normalized
VSH_SP      .V/V                                                :Volume of Shale from SP
~A        DEPTH            ASN          ASN_1        GR_NORM            ILD            LAT             LN             SP           SP_1        SP_NORM         VSH_SP
# ...
      2827.5000        -999.25         0.9483        -999.25        -999.25         1.2201         0.8271        -999.25       -78.4296      -1.528999              1
      2828.0000        -999.25         0.9424        -999.25        -999.25         1.2115         0.8273        -999.25       -78.0262      -1.137787              1
      2828.5000        -999.25         0.9367        -999.25        -999.25         1.2038         0.8274        -999.25       -77.0496      -0.173378              1
      2829.0000        -999.25         0.9334        -999.25        -999.25         1.1961         0.8275        -999.25       -77.2524     -0.3883667              1
      2829.5000        -999.25         0.9308        -999.25        -999.25         1.1884         0.8297        -999.25       -77.7108     -0.8589554              1
      2830.0000        -999.25         0.9325        -999.25        -999.25         1.1806         0.8329        -999.25        -78.524      -1.684349              1
      2830.5000        -999.25         0.9359        -999.25        -999.25         1.1736         0.8362        -999.25       -77.7216     -0.8941422              1
      2831.0000        -999.25         0.9339        -999.25        -999.25         1.1684         0.8395        -999.25        -77.222      -0.406723              1
      2831.5000        -999.25          0.929        -999.25        -999.25         1.1633         0.8422        -999.25       -77.6973     -0.8942184              1
      2832.0000        -999.25         0.9323        -999.25        -999.25         1.1592         0.8415        -999.25       -78.5773      -1.786407              1
      2832.5000        -999.25         0.9363        -999.25        -999.25         1.1561         0.8402        -999.25       -78.0732      -1.294495              1
      2833.0000        -999.25         0.9362        -999.25        -999.25         1.1535         0.8365        -999.25       -76.9718     -0.2052917              1
      2833.5000        -999.25         0.9359        -999.25        -999.25         1.1517         0.8357        -999.25       -76.6904      0.0639267              1
      2834.0000        -999.25          0.935        -999.25        -999.25         1.1527         0.8316        -999.25       -76.8838     -0.1416626              1
      2834.5000        -999.25         0.9343        -999.25        -999.25         1.1568         0.8286        -999.25       -77.0989     -0.3689575              1
      2835.0000        -999.25         0.9342        -999.25        -999.25         1.1558         0.8257        -999.25       -77.3884     -0.6706467              1
      2835.5000        -999.25         0.9369        -999.25        -999.25         1.1518         0.8242        -999.25       -77.6694     -0.9638367              1
      2836.0000        -999.25         0.9436        -999.25        -999.25         1.1496         0.8227        -999.25       -78.0555      -1.362122              1
      2836.5000        -999.25         0.9404        -999.25        -999.25         1.1476         0.8212        -999.25       -78.4982      -1.817017              1
      2837.0000        -999.25         0.9298        -999.25        -999.25         1.1459         0.8197        -999.25       -78.0848       -1.41581              1
      2837.5000        -999.25         0.9266        -999.25        -999.25         1.1455         0.8182        -999.25       -77.4027      -0.745903              1
      2838.0000        -999.25         0.9271        -999.25        -999.25          1.149         0.8167        -999.25        -76.821      -0.176384              1
      2838.5000        -999.25         0.9274        -999.25        -999.25         1.1531         0.8152        -999.25       -76.2394      0.3930206              1
      2839.0000        -999.25         0.9248        -999.25        -999.25         1.1656         0.8137        -999.25       -76.1694      0.4508286              1
      2839.5000        -999.25         0.9142        -999.25        -999.25         1.1778         0.8163        -999.25       -76.5298     0.07823944              1
      2840.0000        -999.25         0.9028        -999.25        -999.25         1.1825          0.818        -999.25       -77.3193     -0.7234421              1
      2840.5000        -999.25         0.9006        -999.25        -999.25         1.1825         0.8218        -999.25       -77.6609      -1.077232              1
      2841.0000        -999.25         0.9096        -999.25        -999.25         1.1753         0.8251        -999.25        -77.469     -0.8975296              1
      2841.5000        -999.25          0.908        -999.25        -999.25         1.1626         0.8255        -999.25       -77.5212     -0.9619217              1
      2842.0000        -999.25         0.9049        -999.25        -999.25         1.1485          0.826        -999.25       -77.6205       -1.07341              1
      2842.5000        -999.25         0.9067        -999.25        -999.25          1.143         0.8264        -999.25        -77.401     -0.8660965              1
      2843.0000        -999.25         0.9051        -999.25        -999.25         1.1427         0.8272        -999.25       -77.3121     -0.7893906              1
      2843.5000        -999.25         0.8953        -999.25        -999.25         1.1473          0.828        -999.25       -77.4937     -0.9831772              1
      2844.0000        -999.25         0.8895        -999.25        -999.25         1.1541         0.8289        -999.25        -78.123      -1.624672              1
      2844.5000        -999.25         0.8871        -999.25        -999.25         1.1631         0.8298        -999.25       -77.8594      -1.373253              1
      2845.0000        -999.25         0.8886        -999.25        -999.25          1.171           0.83        -999.25       -77.3748     -0.9008484              1
      2845.5000        -999.25         0.8852        -999.25        -999.25         1.1774         0.8293        -999.25       -77.1814      -0.719635              1
      2846.0000        -999.25         0.8759        -999.25        -999.25         1.1834         0.8289        -999.25       -77.2539     -0.8043289              1
      2846.5000        -999.25         0.8789        -999.25        -999.25         1.1867         0.8296        -999.25        -77.552      -1.114616              1
      2847.0000        -999.25         0.8876        -999.25        -999.25           1.19         0.8304        -999.25       -76.7777     -0.3525085              1
      2847.5000        -999.25         0.8844        -999.25        -999.25         1.1825         0.8324        -999.25       -75.8206      0.5923996              1
      2848.0000        -999.25         0.8787        -999.25        -999.25         1.1722         0.8347        -999.25       -75.0588        1.34201              1
      2848.5000        -999.25         0.8796        -999.25        -999.25         1.1706         0.8357        -999.25       -75.4542      0.9344177              1
      2849.0000        -999.25         0.8949        -999.25        -999.25         1.1724          0.835        -999.25       -76.3358     0.04063416              1
      2849.5000        -999.25         0.8968        -999.25        -999.25         1.1781         0.8343        -999.25       -77.2723     -0.9080582              1
      2850.0000        -999.25         0.8836        -999.25        -999.25         1.1878         0.8336        -999.25       -77.9244       -1.57235              1
      2850.5000        -999.25         0.8719        -999.25        -999.25         1.1975         0.8329        -999.25       -78.1932       -1.85334              1
      2851.0000        -999.25         0.8661        -999.25        -999.25         1.2007         0.8322        -999.25       -78.0073      -1.679626              1
      2851.5000        -999.25         0.8697        -999.25        -999.25         1.2026         0.8343        -999.25       -76.6578     -0.3420105              1
