#------------------------------------------------------------------------------
# Created by    : vladimir.rabinovich
# Created on    : 09/19/2023 17:20:49
#------------------------------------------------------------------------------
~Version Information Section
VERS.           2.0     :   CWLS log ASCII Standard - VERSION 2.0
WRAP.           NO      :   One line per depth step
~Well Information Section
#MNEM       .UNIT                                         VALUE :DESCRIPTION
#------------------------------------------------------------------------------
STRT        .FT                                             507 :START DEPTH
STOP        .FT                                            6530 :STOP DEPTH
STEP        .FT                                             0.5 :STEP      
NULL        .                                           -999.25 :NULL      
COMP        .                                      SHELL OIL CO :COMPANY   
WELL        .                                ST TR 00692-L SE/4 :WELL      
FLD         .                                           WILDCAT :FIELD     
LOC         .                                                   :LOCATION  
CNTY        .                      MATAGORDA ISLAND LARGE BLOCK :LOCATION  
STAT        .                                             TEXAS :STATE     
CTRY        .                                     UNITED STATES :COUNTRY   
SRVC        .                                                   :SERVICE COMPANY
DATE        .                             9/13/2023 11:12:05 AM :LOG DATE  
API         .                                    42703000180000 :API NUMBER
UWI         .                                    42703000180000 :UNIQUE WELL ID
XCOORD      .                                  399042.886430441 :SURFACE X 
YCOORD      .                                  10159669.4462586 :SURFACE Y 
LAT         .                                        27.9430215 :LATITUDE  
LON         .                                       -96.8445442 :LONGITUDE 
ELEV        .FT                                              84 :ELEVATION VALUE
ELEV_TYPE   .                                                DF :ELEVATION REFERENCE TYPE
~Curve Information Section
#MNEM       .UNIT                                      API CODE :CURVE DESCRIPTION
#------------------------------------------------------------------------------
DEPT        .FT                                                 :DEPTH     
ASN         .OHMM                                               :          
CILD        .MMHO                                               :          
ILD         .OHMM                                               :          
SP          .MV                                                 :          
SP_NORM     .MV                                                 :SP Normalized
VSH_SP      .V/V                                                :Volume of Shale from SP
~A        DEPTH            ASN           CILD            ILD             SP        SP_NORM         VSH_SP
# ...
      2103.0000         1.0189       950.5117         1.0401       -49.8029        -1.6602              1
      2103.5000         1.0239       938.2686         1.0564       -49.7651        -1.6299              1
      2104.0000         1.0288       929.3262         1.0726       -49.7274        -1.5996              1
      2104.5000         1.0422        921.207         1.0888       -49.6896        -1.5693              1
      2105.0000         1.0559       904.5918         1.0873       -49.6519        -1.5391              1
      2105.5000         1.0784       890.0322         1.0818       -49.6141        -1.5088              1
      2106.0000         1.1192       871.3291         1.0764       -49.5764        -1.4785              1
      2106.5000         1.1517       926.7061          1.071       -51.7699        -3.6795      0.9838215
      2107.0000         1.1796       946.0713         1.0656       -55.4288        -7.3459      0.8965262
      2107.5000         1.1996       1035.689         1.0602        -62.407       -14.3316         0.7302
      2108.0000         1.2196       1138.689         1.0548       -70.6692       -22.6012      0.5333048
      2108.5000         1.2378       1241.689         1.0116       -74.2872       -26.2267      0.4469833
      2109.0000         1.2559       1344.641         0.9527       -77.2489       -29.1959      0.3762881
      2109.5000         1.2702       1447.641         0.8785       -79.3864       -31.3409      0.3252167
      2110.0000         1.2353       1550.643         0.7565       -83.8754       -35.8374      0.2181572
      2110.5000         1.2138       1653.643         0.6581       -84.6232       -36.5926      0.2001761
      2111.0000         1.2116       1756.643         0.6116       -85.3708       -37.3477      0.1821977
      2111.5000         1.2005       1859.594         0.5651       -85.5288       -37.5132      0.1782572
      2112.0000         1.1834       1962.594         0.5186       -85.4871        -37.479      0.1790714
      2112.5000         1.1559       1996.605          0.493       -85.8064       -37.8057      0.1712929
      2113.0000         1.1243       1993.664         0.4708       -86.2371       -38.2439      0.1608595
      2113.5000         1.0628       2040.066         0.4487        -86.668       -38.6823      0.1504214
      2114.0000         1.0443       2139.848         0.4332       -87.0986       -39.1204      0.1399905
      2114.5000         1.0279       2239.676          0.419       -87.5764       -39.6056      0.1284381
      2115.0000         1.0116       2339.457         0.4047       -88.5504       -40.5871       0.105069
      2115.5000         0.9955       2439.285         0.3904       -89.5243       -41.5685     0.08170237
      2116.0000         0.9795       2539.066         0.3761       -89.8019       -41.8536      0.0749143
      2116.5000         0.9532       2638.895         0.3618       -89.7362       -41.7954     0.07630003
      2117.0000         0.8841       2738.676         0.3475       -90.2424        -42.309     0.06407148
      2117.5000         0.8457       2838.457         0.3332       -90.7488       -42.8229     0.05183574
      2118.0000         0.8286       2938.285         0.3189       -91.1149       -43.1965      0.0429405
      2118.5000         0.8225       3038.066         0.3144       -91.4738       -43.5629     0.03421665
      2119.0000         0.8176       3060.559         0.3319       -91.8328       -43.9293      0.0254929
      2119.5000         0.8125       2816.609         0.3494       -91.7352       -43.8392     0.02763812
      2120.0000         0.8075       2572.559         0.3668       -87.6412       -39.7527      0.1249357
      2120.5000         0.8024       2328.508         0.3843       -83.5472       -35.6662      0.2222334
      2121.0000         0.8263       2084.457         0.4017        -79.452       -31.5784      0.3195619
      2121.5000         0.8564        1991.83         0.4192       -71.7079       -23.8418      0.5037667
      2122.0000         0.8881       1987.266         0.4367       -66.4637       -18.6051        0.62845
      2122.5000         0.9198       1853.549         0.4541       -62.2855       -14.4344      0.7277524
      2123.0000         0.9522       1719.881         0.5398        -59.009       -11.1653      0.8055881
      2123.5000          0.985       1586.164         0.6301       -57.3853        -9.5491      0.8440691
      2124.0000         1.0254       1452.447         0.7203        -56.302        -8.4733      0.8696833
      2124.5000         1.0741       1318.779          0.804       -55.8806        -8.0594      0.8795381
      2125.0000         1.1059       1185.063         0.8784       -64.7656       -16.9519      0.6678119
      2125.5000         1.1329       1051.344         0.9238       -69.1112       -21.3049       0.564169
      2126.0000         1.1455       961.0771          0.914       -71.3391       -23.5403      0.5109452
      2126.5000         1.1577       1064.623         0.8888       -75.9307       -28.1394      0.4014429
      2127.0000         1.1699       1168.217         0.8366       -76.4857       -28.7019        0.38805
      2127.5000         1.1787       1271.762         0.7843       -76.1812       -28.4048      0.3951238
      2128.0000         1.1872       1375.357          0.732       -75.6583       -27.8894      0.4073952
      2128.5000         1.1813       1478.902         0.6826       -74.6768       -26.9154      0.4305857
      2129.0000         1.1675       1582.498         0.6344       -75.9227       -28.1688      0.4007429
      2129.5000         1.1496       1686.043         0.5863       -77.2769       -29.5304      0.3683238
      2130.0000         1.1249       1789.639         0.5508        -78.631        -30.892      0.3359047
      2130.5000         1.1046       1893.184          0.532       -79.9851       -32.2536      0.3034857
      2131.0000         1.0905       1996.779         0.5133       -81.1914       -33.4674      0.2745857
      2131.5000         1.0825       2016.656         0.4945       -81.9403       -34.2237      0.2565785
      2132.0000         1.0744       2007.906         0.4757       -82.6896       -34.9805      0.2385595
      2132.5000         0.9171       2011.455         0.4698        -82.689       -34.9874      0.2383952
      2133.0000         0.8937        2063.18         0.4711       -82.4529       -34.7588      0.2438381
      2133.5000         0.8783       2113.047         0.4724       -82.2167       -34.5301      0.2492833
      2134.0000         0.8756       2121.824         0.4737       -81.9805       -34.3013      0.2547309
      2134.5000         0.8851       2130.602         0.4753       -81.7443       -34.0726      0.2601762
      2135.0000         0.8946       2147.316         0.4768       -81.6927       -34.0285      0.2612262
      2135.5000         0.9036       2174.563         0.4783       -81.6729       -34.0162       0.261519
      2136.0000         0.9113       2296.801         0.4799        -82.437       -34.7877        0.24315
      2136.5000         0.9009       2290.953         0.4814       -83.5959       -35.9541      0.2153785
      2137.0000         0.8894        2265.73          0.477        -84.796       -37.1617      0.1866262
      2137.5000          0.878       2251.969         0.4711       -85.9958        -38.369       0.157881
      2138.0000         0.8682       2238.207         0.4652       -86.8655       -39.2461      0.1369976
      2138.5000         0.8587       2224.441         0.4592       -86.5516       -38.9397      0.1442928
      2139.0000         0.8525       2209.121         0.4496       -86.2377       -38.6333      0.1515881
      2139.5000         0.8576       2186.621         0.4283       -85.9238       -38.3269      0.1588833
      2140.0000         0.8627       2164.121          0.407       -85.6099       -38.0205      0.1661786
      2140.5000         0.8697       2155.539         0.3859       -85.4666       -37.8846      0.1694143
