#------------------------------------------------------------------------------
# Created by    : vladimir.rabinovich
# Created on    : 09/19/2023 17:20:33
#------------------------------------------------------------------------------
~Version Information Section
VERS.           2.0     :   CWLS log ASCII Standard - VERSION 2.0
WRAP.           NO      :   One line per depth step
~Well Information Section
#MNEM       .UNIT                                         VALUE :DESCRIPTION
#------------------------------------------------------------------------------
STRT        .FT                                             242 :START DEPTH
STOP        .FT                                            8116 :STOP DEPTH
STEP        .FT                                             0.5 :STEP      
NULL        .                                           -999.25 :NULL      
COMP        .                                       HUNT OIL CO :COMPANY   
WELL        .                                     ST TR 00005-L :WELL      
FLD         .                                           WILDCAT :FIELD     
LOC         .                                                   :LOCATION  
CNTY        .                           HIGH ISLAND LARGE BLOCK :LOCATION  
STAT        .                                             TEXAS :STATE     
CTRY        .                                     UNITED STATES :COUNTRY   
SRVC        .                                                   :SERVICE COMPANY
DATE        .                             9/13/2023 11:19:33 AM :LOG DATE  
API         .                                    42708000010000 :API NUMBER
UWI         .                                    42708000010000 :UNIQUE WELL ID
XCOORD      .                                  1328371.56215902 :SURFACE X 
YCOORD      .                                  10754892.1390607 :SURFACE Y 
LAT         .                                        29.6307718 :LATITUDE  
LON         .                                       -93.9824852 :LONGITUDE 
ELEV        .FT                                              11 :ELEVATION VALUE
ELEV_TYPE   .                                                KB :ELEVATION REFERENCE TYPE
~Curve Information Section
#MNEM       .UNIT                                      API CODE :CURVE DESCRIPTION
#------------------------------------------------------------------------------
DEPT        .FT                                                 :DEPTH     
ASN         .OHMM                                               :          
LAT         .OHMM                                               :          
LN          .OHMM                                               :          
SN          .OHMM                                               :          
SP          .MV                                                 :          
SP_NORM     .MV                                                 :SP Normalized
VSH_SP      .V/V                                                :Volume of Shale from SP
~A        DEPTH            ASN            LAT             LN             SN             SP        SP_NORM         VSH_SP
# ...
      3391.0000         0.7186         0.7505         0.7323         0.7996       -62.0334      -12.19817      0.8164234
      3391.5000         0.7856         0.7313         0.7459         0.8164       -64.1271      -14.28757      0.7821709
      3392.0000         0.8097         0.7122         0.7594         0.8332       -69.8995      -20.05568      0.6876119
      3392.5000         0.8339          0.693          0.773           0.85       -71.4128      -21.56469       0.662874
      3393.0000          0.858         0.6738         0.7865         0.8669       -72.7114      -22.85899      0.6416559
      3393.5000         0.8765         0.6547         0.7985         0.8837       -73.9932      -24.13649      0.6207132
      3394.0000         0.8925         0.6355         0.8093         0.9005       -75.1283       -25.2673      0.6021754
      3394.5000         0.9085         0.6164         0.8201         0.9187       -75.6205       -25.7552      0.5941771
      3395.0000         0.9246         0.5972          0.831          0.939       -74.1926        -24.323      0.6176557
      3395.5000         0.9386          0.578         0.8418         0.9594       -72.7646      -22.89071      0.6411359
      3396.0000         0.9523         0.5572         0.8526         0.9797       -71.2616      -21.38341      0.6658457
      3396.5000          0.966         0.5338         0.8635              1       -69.7238      -19.84132       0.691126
      3397.0000         0.9813         0.5105         0.8715         1.0203        -68.186      -18.29922      0.7164063
      3397.5000         0.9982         0.4871          0.878         1.0406       -66.6483      -16.75723      0.7416849
      3398.0000         1.0152         0.4874         0.8844         1.0609       -65.3268      -15.43143      0.7634192
      3398.5000         1.0322         0.5008         0.8909         1.0748       -64.0325      -14.13284      0.7847076
      3399.0000         1.0547         0.5142         0.8973         1.0802       -62.7389      -12.83494      0.8059846
      3399.5000         1.0802         0.5277         0.9037         1.0856       -61.4554      -11.54714       0.827096
      3400.0000         1.1057         0.5411         0.9102          1.091       -60.1973      -10.28475       0.847791
      3400.5000         1.1424         0.5546         0.9166         1.0963        -61.082      -11.16515      0.8333582
      3401.0000         1.1411          0.568         0.9181         1.1017       -61.5425      -11.62135      0.8258795
      3401.5000         1.1231         0.5814         0.9188         1.1071       -59.8771       -9.95166      0.8532515
      3402.0000         1.1051         0.5949         0.9196         1.1125       -57.2714      -7.341663      0.8960383
      3402.5000         1.0871         0.6083         0.9203         1.1178       -55.6449      -5.710869      0.9227726
      3403.0000          1.067         0.6217         0.9211         1.1185       -54.0184       -4.08007      0.9495071
      3403.5000         1.0462         0.6352         0.9218         1.1081       -52.3911      -2.448479      0.9762545
      3404.0000         1.0255         0.6486         0.9226         1.0977       -51.3058      -1.358883      0.9941167
      3404.5000         1.0063          0.662         0.9197         1.0874       -50.7262     -0.7749863              1
      3405.0000         0.9983         0.6755         0.9109          1.077       -50.1462     -0.1906853              1
      3405.5000         0.9902         0.6889         0.9021         1.0666       -50.3452     -0.3853912              1
      3406.0000         0.9822         0.7023         0.8933         1.0563       -50.6113     -0.6471977              1
      3406.5000         0.9742         0.7157         0.8845         1.0459       -50.8777     -0.9093018              1
      3407.0000         0.9683         0.7291         0.8757         1.0355       -51.1438      -1.171104       0.997195
      3407.5000         0.9638         0.7426         0.8669         1.0252       -51.1606      -1.183609        0.99699
      3408.0000         0.9593          0.756         0.8592         1.0148       -51.1182      -1.136913      0.9977555
      3408.5000         0.9548         0.7694         0.8522         1.0061       -50.7516     -0.7660179              1
      3409.0000         0.9502         0.7857         0.8451         0.9982       -49.9721      0.0177803              1
      3409.5000         0.9446         0.8143          0.838         0.9903       -49.1927      0.8014755              1
      3410.0000         0.9391         0.8429          0.831         0.9825       -48.4133       1.585171              1
      3410.5000         0.9335         0.8715         0.8239         0.9746       -47.7101       2.292667              1
      3411.0000         0.9279         0.9001         0.8174         0.9667        -47.269        2.73806              1
      3411.5000         0.9223         0.9192          0.812         0.9588       -46.8691       3.142258              1
      3412.0000         0.9167         0.9281         0.8066         0.9509       -47.6169        2.39875              1
      3412.5000         0.9111         0.9369         0.8011         0.9431       -48.5146       1.505348              1
      3413.0000         0.9055         0.9458         0.7957         0.9352       -49.7736      0.2506409              1
      3413.5000         0.8994         0.9547         0.7903         0.9273       -51.1238      -1.095257      0.9984384
      3414.0000         0.8932         0.9635         0.7772         0.9194        -52.539      -2.506165      0.9753088
      3414.5000         0.8871          0.961         0.7627         0.9096        -53.814      -3.776867      0.9544776
      3415.0000         0.8809         0.9552         0.7483         0.8973       -55.0763      -5.034874      0.9338545
      3415.5000         0.8748         0.9494         0.7338          0.885       -56.2642      -6.218475      0.9144512
      3416.0000         0.8686         0.9436         0.7194         0.8727       -57.4514      -7.401382      0.8950593
      3416.5000         0.8624         0.9378         0.7054         0.8604       -58.6292      -8.574886      0.8758215
      3417.0000         0.8561          0.932         0.6918         0.8481       -59.8079       -9.74929       0.856569
      3417.5000         0.8493         0.9262         0.6782         0.8358       -61.0034      -10.94049      0.8370411
      3418.0000         0.8426         0.9221         0.6645         0.8236       -62.1998       -12.1326      0.8174984
      3418.5000         0.8358         0.9383         0.6509         0.8113       -64.0747       -14.0032      0.7868327
      3419.0000         0.8291         0.9545         0.6373          0.799       -67.2008        -17.125      0.7356557
      3419.5000         0.8223         0.9706         0.6302          0.787       -69.8082      -19.72811      0.6929818
      3420.0000         0.8179         0.9868          0.627         0.7912       -71.8226      -21.73822      0.6600292
      3420.5000         0.8144         1.0029         0.6237         0.7954       -73.6975      -23.60882      0.6293636
      3421.0000          0.811         1.0191         0.6205         0.7995       -75.5149      -25.42192      0.5996406
      3421.5000         0.8075         0.9827         0.6172         0.8037       -78.7762      -28.67893      0.5462471
      3422.0000         0.8041         0.9324         0.6139         0.8079       -81.0085      -30.90693      0.5097225
      3422.5000         0.8006         0.8704         0.6107         0.8275        -83.932      -33.82613      0.4618666
      3423.0000         0.8017          0.801         0.6111         0.8843        -88.231      -38.12084      0.3914616
      3423.5000         0.8126         0.7315         0.6146         0.9412       -93.7888      -43.67435      0.3004206
      3424.0000         0.8685         0.6631         0.6181          0.998       -96.7664      -46.64765      0.2516778
