#------------------------------------------------------------------------------
# Created by    : vladimir.rabinovich
# Created on    : 09/19/2023 17:20:30
#------------------------------------------------------------------------------
~Version Information Section
VERS.           2.0     :   CWLS log ASCII Standard - VERSION 2.0
WRAP.           NO      :   One line per depth step
~Well Information Section
#MNEM       .UNIT                                         VALUE :DESCRIPTION
#------------------------------------------------------------------------------
STRT        .FT                                             617 :START DEPTH
STOP        .FT                                           12396 :STOP DEPTH
STEP        .FT                                             0.5 :STEP      
NULL        .                                           -999.25 :NULL      
COMP        .                                        SUN OIL CO :COMPANY   
WELL        .                               OCS G01781 ST00BP00 :WELL      
FLD         .                                           WILDCAT :FIELD     
LOC         .                                                   :LOCATION  
CNTY        .                             GALVESTON LARGE BLOCK :LOCATION  
STAT        .                                             TEXAS :STATE     
CTRY        .                                     UNITED STATES :COUNTRY   
SRVC        .                                                   :SERVICE COMPANY
DATE        .                             9/13/2023 11:19:24 AM :LOG DATE  
API         .                                    42706001390000 :API NUMBER
UWI         .                                    42706001390000 :UNIQUE WELL ID
XCOORD      .                                  1010631.41746955 :SURFACE X 
YCOORD      .                                  10491097.5822315 :SURFACE Y 
LAT         .                                         28.894296 :LATITUDE  
LON         .                                        -94.968586 :LONGITUDE 
ELEV        .FT                                              65 :ELEVATION VALUE
ELEV_TYPE   .                                                KB :ELEVATION REFERENCE TYPE
~Curve Information Section
#MNEM       .UNIT                                      API CODE :CURVE DESCRIPTION
#------------------------------------------------------------------------------
DEPT        .FT                                                 :DEPTH     
ASN         .OHMM                                               :          
CILD        .MMHO                                               :          
DT          .US/F                                               :          
ILD         .OHMM                                               :          
SP          .MV                                                 :          
SP_NORM     .MV                                                 :SP Normalized
VSH_SP      .V/V                                                :Volume of Shale from SP
~A        DEPTH            ASN           CILD             DT            ILD             SP        SP_NORM         VSH_SP
# ...
      2962.0000         0.5094       2565.555       150.1328         0.3672       -94.4319       -8.17556        0.88348
      2962.5000         0.5144       2611.797       152.6941         0.3575       -95.3943      -9.143044      0.8652256
      2963.0000         0.5194       2663.777       151.8093         0.3479       -96.3572      -10.11103      0.8469617
      2963.5000          0.525       2696.844       148.3245         0.3383       -97.2852      -11.04411      0.8293564
      2964.0000         0.5317       2729.316       146.6821         0.3422       -97.9771      -11.74109      0.8162059
      2964.5000         0.5384       2755.355       146.2329          0.348       -98.6691      -12.43818      0.8030532
      2965.0000         0.5451        2773.23        138.873         0.3594        -99.361      -13.13516      0.7899026
      2965.5000         0.5509       2319.777       138.2356          0.373       -98.6156      -12.39485      0.8038707
      2966.0000         0.5506        2189.07       138.8042         0.3867       -96.6019      -10.38623      0.8417692
      2966.5000         0.5503           2125       138.5793         0.4004       -94.4894      -8.278824      0.8815316
      2967.0000         0.5605       2025.576       141.3662         0.4141       -92.3756      -6.170105      0.9213188
      2967.5000          0.574       2003.018        138.207         0.4278       -91.1141      -4.913689      0.9450247
      2968.0000         0.5875       1959.275       135.9231         0.4414       -90.1093      -3.913971      0.9638873
      2968.5000         0.6009       1888.764       135.3953         0.4551       -89.1042      -2.913963      0.9827554
      2969.0000         0.6029        1836.23       136.2642         0.4688       -89.4556      -3.270439      0.9760295
      2969.5000         0.6041        1820.91        136.499         0.4789       -89.9761      -3.796028      0.9661127
      2970.0000         0.6054       1821.189       136.1602         0.4801       -90.4967      -4.321709      0.9561942
      2970.5000         0.6066       1845.428       137.9597         0.4813       -91.0956      -4.925697      0.9447982
      2971.0000         0.6079       1879.039       138.1577         0.4825       -91.7078      -5.542984      0.9331512
      2971.5000         0.6049       1916.531       138.1409         0.4837       -92.2878      -6.128075      0.9221118
      2972.0000         0.5994       1964.154       139.8181         0.4736       -91.4878      -5.333153      0.9371103
      2972.5000         0.5938       1977.768       142.4685         0.4629       -90.6877      -4.538139      0.9521106
      2973.0000         0.5883       2012.195        144.616         0.4522       -89.8873      -3.742821      0.9671166
      2973.5000         0.5827       2053.164       146.1052         0.4414       -88.9893      -2.849915      0.9839638
      2974.0000         0.5759       2098.316       146.3828         0.4307       -87.5782      -1.443893              1
      2974.5000         0.5671       2185.285       143.6658           0.42       -86.1666    -0.03738403              1
      2975.0000         0.5583       2261.586       141.1523         0.4093       -84.8958        1.22834              1
      2975.5000         0.5496       2347.027       139.5769         0.4057       -84.7994       1.319649              1
      2976.0000         0.5468       2381.172       143.1462          0.404       -86.0177      0.0962677              1
      2976.5000         0.5486       2400.816       147.1724         0.4023       -87.2358      -1.126923              1
      2977.0000         0.5505       2412.164       151.6025         0.4006       -88.4535      -2.349701      0.9934019
      2977.5000         0.5547       2423.523       153.6375         0.3989       -89.6716      -3.572884       0.970323
      2978.0000         0.5622       2434.871       146.8489         0.3972       -91.7477      -5.654076      0.9310552
      2978.5000         0.5697       2438.195       141.7576         0.3955        -94.037      -7.948456       0.887765
      2979.0000         0.5773       2424.895         136.98         0.3938       -94.8138      -8.730339      0.8730125
      2979.5000         0.5848       2411.598       135.2844         0.4016       -93.6322      -7.553825      0.8952109
      2980.0000         0.5923       2398.293       133.9504         0.4107       -92.4504      -6.377113      0.9174129
      2980.5000         0.6001       2209.727       136.1096         0.4199       -91.2687      -5.200493      0.9396133
      2981.0000         0.6081       2086.715       138.1738          0.429       -90.0869      -4.023781      0.9618155
      2981.5000         0.6162       1996.797       139.7332         0.4382       -89.2677      -3.209663      0.9771762
      2982.0000         0.6242       1954.656        139.822         0.4473       -88.8491       -2.79615      0.9849783
      2982.5000         0.6322           1924       136.6567         0.4544       -88.4305      -2.382629      0.9927806
      2983.0000         0.6372       1912.297        131.696         0.4526       -88.2723      -2.229523      0.9956694
      2983.5000         0.6369        1900.59       126.6963         0.4509       -88.6085      -2.570801      0.9892302
      2984.0000         0.6367       1895.342        126.191         0.4491       -88.9449      -2.912292       0.982787
      2984.5000         0.6364       1895.879       130.4001         0.4474       -88.7471      -2.719574      0.9864231
      2985.0000         0.6362       1896.414       134.5354         0.4456       -88.0853      -2.062859       0.998814
      2985.5000          0.632       1913.566       137.3938         0.4439       -87.4237      -1.406342              1
      2986.0000         0.6225       1936.006        137.052         0.4421       -86.7621     -0.7498322              1
      2986.5000          0.613       1958.447       136.0298         0.4328       -86.1755     -0.1683121              1
      2987.0000         0.6036       2004.688       137.1816         0.4149       -85.6768      0.3252945              1
      2987.5000         0.5941       2099.977       138.3213          0.397       -85.1783       0.818718              1
      2988.0000         0.5846        2245.75       141.0215         0.3791       -84.6796       1.312325              1
      2988.5000         0.5702       2380.344       143.2925         0.3612       -84.1812       1.805649              1
      2989.0000         0.5517       2691.387       144.3076          0.344       -83.6826       2.299156              1
      2989.5000         0.5333       2776.574       144.4707         0.3274       -84.2581       1.718575              1
      2990.0000         0.4494       2845.328       147.1448         0.3109       -86.3694     -0.3978119              1
      2990.5000         0.4803       2961.266       149.5884         0.2943       -88.4806      -2.514091      0.9903002
      2991.0000         0.5103       3129.406       154.9009         0.2778       -95.5426      -9.581177      0.8569589
      2991.5000         0.5358        3207.91       161.0933         0.2642       -98.0543      -12.09796      0.8094724
      2992.0000          0.553       3242.113        161.897         0.2759      -101.2584      -15.30714      0.7489218
      2992.5000         0.5682       3284.832       155.5356         0.2875      -106.0149      -20.06873      0.6590805
      2993.0000          0.551       2952.953       151.0103         0.2992      -107.3629      -21.42181      0.6335507
      2993.5000         0.5348       2841.816       146.8179         0.3108      -106.2683      -20.33231      0.6541075
      2994.0000         0.5229       2614.098       143.3708         0.3225      -102.3511      -16.42018      0.7279211
      2994.5000          0.511       2408.918       141.4556          0.336       -98.1235      -12.19767      0.8075911
      2995.0000         0.4957       2332.148        145.843         0.3565       -94.5933      -8.672554      0.8741028
