#------------------------------------------------------------------------------
# Created by    : vladimir.rabinovich
# Created on    : 09/19/2023 17:20:34
#------------------------------------------------------------------------------
~Version Information Section
VERS.           2.0     :   CWLS log ASCII Standard - VERSION 2.0
WRAP.           NO      :   One line per depth step
~Well Information Section
#MNEM       .UNIT                                         VALUE :DESCRIPTION
#------------------------------------------------------------------------------
STRT        .FT                                             495 :START DEPTH
STOP        .FT                                            9652 :STOP DEPTH
STEP        .FT                                             0.5 :STEP      
NULL        .                                           -999.25 :NULL      
COMP        .                                      SHELL OIL CO :COMPANY   
WELL        .                                OCS 00714 ST00BP00 :WELL      
FLD         .                                FEDERAL BLOCK 0288 :FIELD     
LOC         .                                                   :LOCATION  
CNTY        .                             GALVESTON LARGE BLOCK :LOCATION  
STAT        .                                             TEXAS :STATE     
CTRY        .                                     UNITED STATES :COUNTRY   
SRVC        .                                                   :SERVICE COMPANY
DATE        .                             9/13/2023 11:19:25 AM :LOG DATE  
API         .                                    42706000490000 :API NUMBER
UWI         .                                    42706000490000 :UNIQUE WELL ID
XCOORD      .                                  1093419.85109126 :SURFACE X 
YCOORD      .                                  10468907.9519753 :SURFACE Y 
LAT         .                                         28.836806 :LATITUDE  
LON         .                                        -94.708909 :LONGITUDE 
ELEV        .FT                                              83 :ELEVATION VALUE
ELEV_TYPE   .                                                KB :ELEVATION REFERENCE TYPE
~Curve Information Section
#MNEM       .UNIT                                      API CODE :CURVE DESCRIPTION
#------------------------------------------------------------------------------
DEPT        .FT                                                 :DEPTH     
ASN         .OHMM                                               :          
ASN_1       .OHMM                                               :          
CALI        .IN                                                 :          
CALI_1      .IN                                                 :          
DRHO        .G/C3                                               :          
DT          .US/F                                               :          
ILD         .OHMM                                               :          
LAT         .OHMM                                               :          
LN          .OHMM                                               :          
RHOB        .G/C3                                               :          
SP          .MV                                                 :          
SP_1        .MV                                                 :          
SP_NORM     .MV                                                 :SP Normalized
VSH_SP      .V/V                                                :Volume of Shale from SP
~A        DEPTH            ASN          ASN_1           CALI         CALI_1           DRHO             DT            ILD            LAT             LN           RHOB             SP           SP_1        SP_NORM         VSH_SP
# ...
      9261.0000         1.0291        -999.25        -999.25         7.3061        -999.25       103.1417          0.777        -999.25        -999.25        -999.25        -999.25        -36.213      -2.386047      0.9862126
      9261.5000         1.0088        -999.25        -999.25         7.2492        -999.25       104.0306         0.7794        -999.25        -999.25        -999.25        -999.25        -36.509      -2.671741      0.9760092
      9262.0000         0.9933        -999.25        -999.25         7.1747        -999.25       101.6598         0.7841        -999.25        -999.25        -999.25        -999.25       -36.7463      -2.898739      0.9679022
      9262.5000         1.0115        -999.25        -999.25         7.1678        -999.25        95.4305         0.7888        -999.25        -999.25        -999.25        -999.25       -36.7973      -2.939434      0.9664488
      9263.0000         1.0377        -999.25        -999.25         7.2421        -999.25         97.978         0.8031        -999.25        -999.25        -999.25        -999.25       -36.8564      -2.988228      0.9647061
      9263.5000         1.0621        -999.25        -999.25         7.3754        -999.25       102.6689         0.8184        -999.25        -999.25        -999.25        -999.25       -36.9374      -3.058926      0.9621812
      9264.0000         1.0762        -999.25        -999.25         7.4547        -999.25        98.8018         0.8337        -999.25        -999.25        -999.25        -999.25       -37.2103      -3.321522      0.9528028
      9264.5000         1.0785        -999.25        -999.25         7.3119        -999.25       103.1631         0.8391        -999.25        -999.25        -999.25        -999.25        -37.982      -4.082916      0.9256101
      9265.0000          1.086        -999.25        -999.25         7.2258        -999.25       104.8779         0.8445        -999.25        -999.25        -999.25        -999.25       -37.4738      -3.564415       0.944128
      9265.5000         1.1099        -999.25        -999.25         7.4528        -999.25        98.1085         0.8496        -999.25        -999.25        -999.25        -999.25       -37.8497      -3.930012       0.931071
      9266.0000         1.0856        -999.25        -999.25         7.2943        -999.25       101.3583         0.8501        -999.25        -999.25        -999.25        -999.25       -37.8976      -3.967606      0.9297284
      9266.5000         1.0554        -999.25        -999.25         7.1642        -999.25       102.9651         0.8506        -999.25        -999.25        -999.25        -999.25       -36.8057      -2.865402      0.9690928
      9267.0000         1.0698        -999.25        -999.25         7.2828        -999.25        99.1123         0.8511        -999.25        -999.25        -999.25        -999.25       -36.6702      -2.719597      0.9743001
      9267.5000         1.0894        -999.25        -999.25         7.3949        -999.25        98.6383         0.8483        -999.25        -999.25        -999.25        -999.25       -36.8845      -2.923592      0.9670146
      9268.0000         1.0849        -999.25        -999.25         7.3511        -999.25       101.0206         0.8453        -999.25        -999.25        -999.25        -999.25       -37.7772      -3.805988      0.9355004
      9268.5000         1.1023        -999.25        -999.25         7.4676        -999.25       106.4825         0.8422        -999.25        -999.25        -999.25        -999.25       -38.5212      -4.539684       0.909297
      9269.0000         1.1088        -999.25        -999.25         7.4836        -999.25       107.5712         0.8381        -999.25        -999.25        -999.25        -999.25         -38.77      -4.778183      0.9007792
      9269.5000         1.0832        -999.25        -999.25         7.3242        -999.25        107.277         0.8338        -999.25        -999.25        -999.25        -999.25       -38.4739      -4.471779      0.9117222
      9270.0000         1.0518        -999.25        -999.25         7.2442        -999.25       107.4922         0.8294        -999.25        -999.25        -999.25        -999.25       -38.0749      -4.062477      0.9263401
      9270.5000         1.0256        -999.25        -999.25         7.2862        -999.25       103.4742         0.8213        -999.25        -999.25        -999.25        -999.25       -37.6488      -3.626072       0.941926
      9271.0000          1.002        -999.25        -999.25         7.3542        -999.25       104.8059         0.8123        -999.25        -999.25        -999.25        -999.25       -37.1389      -3.105865      0.9605048
      9271.5000         0.9837        -999.25        -999.25         7.3419        -999.25       105.2482         0.8044        -999.25        -999.25        -999.25        -999.25       -36.6447       -2.60136      0.9785228
      9272.0000         0.9847        -999.25        -999.25         7.3193        -999.25       101.5023         0.8018        -999.25        -999.25        -999.25        -999.25       -36.2783      -2.224659      0.9919764
      9272.5000         0.9917        -999.25        -999.25         7.2981        -999.25       101.5686         0.7992        -999.25        -999.25        -999.25        -999.25        -36.312      -2.248055      0.9911409
      9273.0000         0.9894        -999.25        -999.25         7.3963        -999.25       101.5563         0.8054        -999.25        -999.25        -999.25        -999.25        -36.688       -2.61375      0.9780803
      9273.5000         1.0687        -999.25        -999.25         7.4461        -999.25        99.7255         0.8138        -999.25        -999.25        -999.25        -999.25       -36.8492      -2.764648      0.9726911
      9274.0000         1.1015        -999.25        -999.25         7.4793        -999.25       100.9915         0.8217        -999.25        -999.25        -999.25        -999.25       -36.9918      -2.896942      0.9679664
      9274.5000         1.0919        -999.25        -999.25         7.4737        -999.25       102.3372         0.8292        -999.25        -999.25        -999.25        -999.25       -37.0042       -2.89904      0.9678914
      9275.0000          1.077        -999.25        -999.25         7.4405        -999.25       104.0093         0.8367        -999.25        -999.25        -999.25        -999.25       -37.0165      -2.901031      0.9678203
      9275.5000         1.0476        -999.25        -999.25         7.3111        -999.25       105.0726         0.8374        -999.25        -999.25        -999.25        -999.25       -36.8347      -2.708931       0.974681
      9276.0000          1.027        -999.25        -999.25          7.219        -999.25       101.7139         0.8379        -999.25        -999.25        -999.25        -999.25       -36.6467      -2.510628      0.9817633
      9276.5000         1.0156        -999.25        -999.25         7.1808        -999.25        98.2683         0.8378        -999.25        -999.25        -999.25        -999.25       -36.5822      -2.435822       0.984435
      9277.0000         1.0174        -999.25        -999.25         7.2296        -999.25        98.3787         0.8358        -999.25        -999.25        -999.25        -999.25       -36.5945       -2.43782      0.9843636
      9277.5000         1.0254        -999.25        -999.25         7.2976        -999.25        101.671         0.8338        -999.25        -999.25        -999.25        -999.25       -36.7454      -2.578415      0.9793423
      9278.0000         1.0385        -999.25        -999.25          7.331        -999.25       100.6111         0.8321        -999.25        -999.25        -999.25        -999.25       -37.0583      -2.881012      0.9685353
      9278.5000         1.0469        -999.25        -999.25         7.3282        -999.25       100.9531         0.8314        -999.25        -999.25        -999.25        -999.25       -37.1794       -2.99181      0.9645782
