#------------------------------------------------------------------------------
# Created by    : vladimir.rabinovich
# Created on    : 09/19/2023 17:22:29
#------------------------------------------------------------------------------
~Version Information Section
VERS.           2.0     :   CWLS log ASCII Standard - VERSION 2.0
WRAP.           NO      :   One line per depth step
~Well Information Section
#MNEM       .UNIT                                         VALUE :DESCRIPTION
#------------------------------------------------------------------------------
STRT        .FT                                             272 :START DEPTH
STOP        .FT                                            9222 :STOP DEPTH
STEP        .FT                                             0.5 :STEP      
NULL        .                                           -999.25 :NULL      
COMP        .                   MCMORAN OFFSHORE EXPLORATION CO :COMPANY   
WELL        .                               OCS G03108 ST00BP00 :WELL      
FLD         .                       MATAGORDA ISLAND BLOCK 0700 :FIELD     
LOC         .                                                   :LOCATION  
CNTY        .                      MATAGORDA ISLAND LARGE BLOCK :LOCATION  
STAT        .                                             TEXAS :STATE     
CTRY        .                                     UNITED STATES :COUNTRY   
SRVC        .                                                   :SERVICE COMPANY
DATE        .                             9/13/2023 11:12:09 AM :LOG DATE  
API         .                                    42703400850000 :API NUMBER
UWI         .                                    42703400850000 :UNIQUE WELL ID
XCOORD      .                                  483045.974763742 :SURFACE X 
YCOORD      .                                  10146137.6323278 :SURFACE Y 
LAT         .                                         27.912878 :LATITUDE  
LON         .                                       -96.5835889 :LONGITUDE 
ELEV        .FT                                              85 :ELEVATION VALUE
ELEV_TYPE   .                                                KB :ELEVATION REFERENCE TYPE
~Curve Information Section
#MNEM       .UNIT                                      API CODE :CURVE DESCRIPTION
#------------------------------------------------------------------------------
DEPT        .FT                                                 :DEPTH     
CILD        .MMHO                                               :          
DT          .US/F                                               :          
GR          .GAPI                                               :          
GR_NORM     .GAPI                                               :GammaRay Normalized
ILD         .OHMM                                               :          
ILM         .OHMM                                               :          
SFL         .OHMM                                               :          
SP          .MV                                                 :          
SP_NORM     .MV                                                 :SP Normalized
VSH_GR      .V/V                                                :Volume of Shale from GR
VSH_SP      .V/V                                                :Volume of Shale from SP
~A        DEPTH           CILD             DT             GR        GR_NORM            ILD            ILM            SFL             SP        SP_NORM         VSH_GR         VSH_SP
# ...
       879.5000       1673.957       182.5937        34.5137       65.41721         0.6179         0.6398         0.5923        -999.25        -999.25       0.689728        -999.25
       880.0000       1693.174       183.0117        35.4962        66.7999         0.6112         0.6335         0.5879        -999.25        -999.25      0.7191469        -999.25
       880.5000        1716.66       182.9348        36.2402       67.85056         0.6035         0.6292          0.584        -999.25        -999.25      0.7415013        -999.25
       881.0000       1741.795       183.8835        35.9257       67.42763         0.5955         0.6198         0.5754        -999.25        -999.25      0.7325027        -999.25
       881.5000       1765.404       185.7842        34.9035       66.01947         0.5867         0.6116         0.5643        -999.25        -999.25      0.7025419        -999.25
       882.0000       1782.951       187.8469        34.5726       65.57371         0.5823         0.6028          0.553        -999.25        -999.25      0.6930576        -999.25
       882.5000       1784.951       190.5574        34.8915       66.03256         0.5805         0.5963         0.5422        -999.25        -999.25      0.7028205        -999.25
       883.0000       1778.002       192.9514        34.9262       66.09576         0.5806         0.5911         0.5364        -999.25        -999.25      0.7041652        -999.25
       883.5000       1769.475       195.3457        31.1478       60.85056          0.581         0.5871         0.5397        -999.25        -999.25      0.5925651        -999.25
       884.0000       1759.488       197.0896        26.4926       54.38474         0.5824         0.5865          0.555        -999.25        -999.25      0.4549944        -999.25
       884.5000       1749.525       197.9868        23.4904       50.22013         0.5847         0.5872          0.585        -999.25        -999.25      0.3663858        -999.25
       885.0000       1739.484       198.7383        22.3887        48.7013         0.5879         0.5865         0.6115        -999.25        -999.25      0.3340702        -999.25
       885.5000       1729.133       199.2983         23.268       49.94031         0.5844         0.5873         0.6305        -999.25        -999.25      0.3604321        -999.25
       886.0000       1727.227       197.9861         25.278       52.75342         0.5804         0.5886          0.617        -999.25        -999.25      0.4202855        -999.25
       886.5000        1743.74        195.636        28.6522       57.46571          0.577         0.5894         0.5963        -999.25        -999.25      0.5205469        -999.25
       887.0000       1763.594        192.905        31.9458       62.06578          0.575         0.5896         0.5624        -999.25        -999.25      0.6184208        -999.25
       887.5000        1777.42       187.5078        34.3288       65.39816         0.5738         0.5891         0.5308        -999.25        -999.25      0.6893225        -999.25
       888.0000       1778.387       179.6814        36.1644       67.96848         0.5733         0.5932         0.5005        -999.25        -999.25      0.7440101        -999.25
       888.5000       1768.629       172.8687        37.6813       70.09513         0.5747          0.604         0.4868        -999.25        -999.25      0.7892581        -999.25
       889.0000       1742.791        166.814        37.1403       69.35686         0.5785         0.6164         0.4957        -999.25        -999.25      0.7735503        -999.25
       889.5000       1709.912       161.7495        31.8295       61.97834         0.5859         0.6317         0.5372        -999.25        -999.25      0.6165605        -999.25
       890.0000       1673.387       158.9478        23.6667       50.62943         0.5969         0.6512         0.6542        -999.25        -999.25      0.3750941        -999.25
       890.5000       1636.346       158.9148        18.1727       42.99588         0.6079          0.671         0.7505        -999.25        -999.25      0.2126782        -999.25
       891.0000       1581.102        159.406        15.6967       39.56381         0.6187         0.6893         0.8049        -999.25        -999.25      0.1396555        -999.25
       891.5000       1549.428       159.5134        14.7879       38.31352          0.631         0.7075         0.8579        -999.25        -999.25      0.1130536        -999.25
       892.0000       1555.051       157.3704        16.3896       40.55821         0.6382         0.7225           0.89        -999.25        -999.25       0.160813        -999.25
       892.5000       1580.557       155.5317         21.369       47.50517         0.6321          0.722         0.9113        -999.25        -999.25      0.3086205        -999.25
       893.0000       1612.125       154.8948        27.8044       56.47909         0.6227         0.7085         0.8822        -999.25        -999.25      0.4995551        -999.25
       893.5000       1645.977       157.2612        31.2299       61.26278         0.6097         0.6879         0.7215        -999.25        -999.25      0.6013356        -999.25
       894.0000       1682.055       161.9412        33.4094       64.31186         0.5945         0.6618         0.6255        -999.25        -999.25      0.6662098        -999.25
       894.5000       1724.465        174.429        34.2946        65.5591         0.5814         0.6373         0.5809        -999.25        -999.25      0.6927468        -999.25
       895.0000        1770.91       182.1213        34.2689       65.53821         0.5692         0.6168         0.5612        -999.25        -999.25      0.6923023        -999.25
       895.5000       1815.191       185.4541        34.8132       66.31084          0.561         0.5984         0.5496        -999.25        -999.25      0.7087414        -999.25
       896.0000       1858.078        186.782        35.1907       66.85128         0.5529         0.5828         0.5433        -999.25        -999.25        0.72024        -999.25
       896.5000       1892.248        187.936        33.7649       64.88125         0.5429         0.5695         0.5435        -999.25        -999.25      0.6783245        -999.25
       897.0000        1918.41       190.6587        32.2893       62.84189         0.5324         0.5573         0.5566        -999.25        -999.25      0.6349339        -999.25
       897.5000       1946.578       193.3257        31.1456       61.26461         0.5212         0.5458         0.5722        -999.25        -999.25      0.6013746        -999.25
       898.0000       1970.871        194.093        31.7172       62.07525         0.5131         0.5356         0.5662        -999.25        -999.25      0.6186223        -999.25
       898.5000       1992.672       193.7637        36.8554       69.24327         0.5076         0.5292         0.5378        -999.25        -999.25      0.7711334        -999.25
       899.0000       2015.164        192.835        41.4659       75.67666         0.5038         0.5245         0.5192        -999.25        -999.25       0.908014        -999.25
       899.5000       2033.645       191.2437        44.3651       79.72765         0.5015         0.5218          0.503        -999.25        -999.25      0.9942054        -999.25
       900.0000       2042.867       188.8499        44.8287       80.38795         0.5008         0.5207         0.4924        -999.25        -999.25              1        -999.25
       900.5000       2040.523       186.6482        43.8324       79.01586         0.5008           0.52         0.4902        -999.25        -999.25      0.9790609        -999.25
       901.0000        2012.17       185.4402        42.8357       77.64321         0.5007         0.5193         0.4945        -999.25        -999.25      0.9498556        -999.25
       901.5000       1981.834       184.6431        42.0576       76.57487         0.5043         0.5213         0.4998        -999.25        -999.25       0.927125        -999.25
