#------------------------------------------------------------------------------
# Created by    : vladimir.rabinovich
# Created on    : 09/19/2023 17:22:40
#------------------------------------------------------------------------------
~Version Information Section
VERS.           2.0     :   CWLS log ASCII Standard - VERSION 2.0
WRAP.           NO      :   One line per depth step
~Well Information Section
#MNEM       .UNIT                                         VALUE :DESCRIPTION
#------------------------------------------------------------------------------
STRT        .FT                                            3744 :START DEPTH
STOP        .FT                                            9989 :STOP DEPTH
STEP        .FT                                             0.5 :STEP      
NULL        .                                           -999.25 :NULL      
COMP        .                          SEAGULL ENERGY E & P INC :COMPANY   
WELL        .                               OCS G07243 ST00BP00 :WELL      
FLD         .                                           WILDCAT :FIELD     
LOC         .                                                   :LOCATION  
CNTY        .                             GALVESTON LARGE BLOCK :LOCATION  
STAT        .                                             TEXAS :STATE     
CTRY        .                                     UNITED STATES :COUNTRY   
SRVC        .                                                   :SERVICE COMPANY
DATE        .                             9/13/2023 11:19:34 AM :LOG DATE  
API         .                                    42706403030000 :API NUMBER
UWI         .                                    42706403030000 :UNIQUE WELL ID
XCOORD      .                                   1005609.3052046 :SURFACE X 
YCOORD      .                                  10500547.7567395 :SURFACE Y 
LAT         .                                          28.92005 :LATITUDE  
LON         .                                        -94.984771 :LONGITUDE 
ELEV        .FT                                              96 :ELEVATION VALUE
ELEV_TYPE   .                                                KB :ELEVATION REFERENCE TYPE
~Curve Information Section
#MNEM       .UNIT                                      API CODE :CURVE DESCRIPTION
#------------------------------------------------------------------------------
DEPT        .FT                                                 :DEPTH     
DCAL        .IN                                                 :          
DPHI        .%                                                  :          
GR          .GAPI                                               :          
GR_NORM     .GAPI                                               :GammaRay Normalized
ILD         .OHMM                                               :          
ILM         .OHMM                                               :          
NPHI        .%                                                  :          
SFL         .OHMM                                               :          
SP          .MV                                                 :          
SP_NORM     .MV                                                 :SP Normalized
VSH_GR      .V/V                                                :Volume of Shale from GR
VSH_SP      .V/V                                                :Volume of Shale from SP
~A        DEPTH           DCAL           DPHI             GR        GR_NORM            ILD            ILM           NPHI            SFL             SP        SP_NORM         VSH_GR         VSH_SP
# ...
      4236.0000         1.4762        23.1886          25.39        36.5032         0.3833         0.4412        31.1914         0.5906       -83.0391      -47.30414      0.0745361      0.2188941
      4236.5000         1.3747        29.3572         26.096        37.5285         0.3778         0.4041        31.9838          0.515       -83.5067      -47.89927     0.09635114      0.2086333
      4237.0000         1.3583        31.6128        26.1272       37.56908         0.3767         0.3876        32.8531         0.4615       -83.3539      -47.70479     0.09721439      0.2119863
      4237.5000         1.3442        28.0069        26.3885       37.94544         0.3745         0.3869        33.0425         0.4836       -82.5573      -46.69094      0.1052221      0.2294666
      4238.0000         1.3792        23.8741        27.4586       39.50208         0.3721         0.3913        32.7889         0.5537       -81.1479      -44.89717       0.138342      0.2603937
      4238.5000         1.4565        22.9147        31.7917        45.8204         0.3709         0.4059        33.4224         0.5537       -79.6597      -43.00309      0.2727745      0.2930502
      4239.0000         1.5967        24.9752        42.4957       61.43579         0.3714         0.4245        38.8268         0.5215       -78.2136       -41.1626      0.6050168      0.3247828
      4239.5000         1.7369        29.3572        45.8454       66.31906         0.3731         0.4415        40.6174         0.4514       -76.7556      -39.30696      0.7089162      0.3567765
      4240.0000         1.7541        33.6111        46.9494       67.92518         0.3772          0.445        41.6277         0.4034       -75.6349      -37.88062      0.7430889      0.3813686
      4240.5000         1.7786        33.2457        44.7043       64.64393         0.3729         0.4377        40.7949         0.3677       -75.0122      -37.08809      0.6732751      0.3950329
      4241.0000         1.8372        32.4033        39.7033       57.34102         0.3551         0.4203        40.3212         0.3654       -74.9171      -36.96705       0.517894      0.3971198
      4241.5000         1.8369         30.897        35.8672       51.73804         0.3306         0.3954         41.611          0.375       -75.0707      -37.16254      0.3986816      0.3937492
      4242.0000         1.7939        29.3604        31.9495       46.01597         0.3063         0.3678        40.0863         0.3785       -75.2515      -37.39265      0.2769356      0.3897818
      4242.5000          1.787        29.8297        28.0213       40.27859         0.2892         0.3377        36.1119         0.3634       -75.3701       -37.5436      0.1548636      0.3871793
      4243.0000         1.7953        30.3839        26.1656       37.56561         0.2755         0.3107        35.6449         0.3473       -75.6477       -37.8969     0.09714062      0.3810879
      4243.5000         1.8084        31.3508        25.9985       37.31681         0.2663         0.2925        35.9518         0.3373       -75.9895      -38.33193     0.09184711      0.3735874
      4244.0000         1.8301        33.9495         25.828       37.06303         0.2596         0.2803        36.0922         0.3294       -76.3313      -38.76694     0.08644745      0.3660872
      4244.5000         1.8538        34.6941        25.3693       36.38869         0.2546         0.2688         36.108          0.322       -76.8647      -39.44582      0.0720998      0.3543825
      4245.0000          1.923        33.4455        25.5705       36.67735         0.2506         0.2618        36.1646         0.3148       -77.3889      -40.11298     0.07824139      0.3428797
      4245.5000         2.0086        33.2413        26.0815       37.41809         0.2526         0.2622        36.8444         0.3075        -77.759      -40.58402     0.09400202      0.3347583
      4246.0000         2.1201        36.2202        27.6453       39.69519         0.2554         0.2668        38.0521         0.3001       -78.1748      -41.11321      0.1424509      0.3256343
      4246.5000         2.1788        36.7663        28.9963       41.66174         0.2622         0.2803        38.3706         0.3095       -78.5227        -41.556      0.1842923      0.3180001
      4247.0000         2.2187        33.2521        28.8065       41.37981         0.2701         0.2987        39.6755          0.336       -78.7437      -41.83727      0.1782937      0.3131505
      4247.5000         2.2135        31.1757        28.4676       40.88029         0.2747         0.3182        41.1914         0.3577       -79.1818      -42.39485      0.1676658       0.303537
      4248.0000         2.1133         32.819        28.4449       40.84221          0.279         0.3461        41.3618         0.3804       -79.4888      -42.78558      0.1668555      0.2968003
      4248.5000         1.9856        34.3309        29.0987       41.79134         0.2824         0.3642        38.9016         0.3896       -79.7012      -43.05591      0.1870499      0.2921395
      4249.0000         1.8602         33.459        30.7834       44.24486         0.2829         0.3638        38.0563         0.3892       -79.7139      -43.07207      0.2392523      0.2918609
      4249.5000         1.8072        32.8599        31.7079       45.58903         0.2814         0.3489        38.3658         0.3824       -79.6986       -43.0526      0.2678517      0.2921966
      4250.0000         1.7718        33.2985        32.0626       46.10168         0.2781         0.3345        38.3157         0.3756       -79.7542      -43.12337      0.2787592      0.2909764
      4250.5000          1.744        31.7175        31.1594       44.77869         0.2733         0.3179        37.3849         0.3717       -79.9333       -43.3513      0.2506104      0.2870465
      4251.0000         1.7436        32.4197        29.6396       42.55589         0.2686         0.3065        36.4783         0.3757       -80.1125      -43.57938      0.2033168      0.2831141
      4251.5000         1.7205        34.2624        29.1691       41.86432         0.2643         0.3016        36.1851          0.379       -80.2917      -43.80745      0.1886025      0.2791818
      4252.0000         1.6998        34.2711        29.1289       41.80071         0.2602         0.3019        36.2124         0.3767        -80.319       -43.8422      0.1872491      0.2785828
      4252.5000          1.734        31.9073        28.4203       40.76168         0.2621         0.3035        36.9694         0.3695       -80.3939      -43.93752      0.1651422      0.2769393
      4253.0000         1.7788        31.5786        28.4496       40.79948         0.2666         0.3063        38.2703         0.3607       -80.5333      -44.11494      0.1659464      0.2738803
      4253.5000         1.8221         31.608        28.6689       41.11455          0.271         0.3109        38.7499         0.3543       -80.7245      -44.35829      0.1726499      0.2696846
      4254.0000         1.8548        31.6374        29.2545       41.96416         0.2741         0.3183        38.9014         0.3514       -80.7144      -44.34544      0.1907267      0.2699063
      4254.5000         1.8632        31.6014        29.8145        42.7764         0.2761         0.3243        40.3936         0.3574       -80.4196      -43.97023      0.2080085      0.2763753
      4255.0000         1.8557        31.2505        29.9403       42.95502         0.2775         0.3297        42.2332         0.3665       -80.1764      -43.66071      0.2118089       0.281712
      4255.5000         1.8435        30.0782        29.9714       42.99545         0.2788         0.3265         40.994         0.3758       -80.1337      -43.60636      0.2126691       0.282649
      4256.0000         1.8205        30.7203        30.0057       43.04054         0.2783         0.3235        38.7376         0.3813       -80.2361      -43.73669      0.2136286      0.2804019
