#------------------------------------------------------------------------------
# Created by    : vladimir.rabinovich
# Created on    : 09/19/2023 17:22:45
#------------------------------------------------------------------------------
~Version Information Section
VERS.           2.0     :   CWLS log ASCII Standard - VERSION 2.0
WRAP.           NO      :   One line per depth step
~Well Information Section
#MNEM       .UNIT                                         VALUE :DESCRIPTION
#------------------------------------------------------------------------------
STRT        .FT                                             270 :START DEPTH
STOP        .FT                                            9392 :STOP DEPTH
STEP        .FT                                             0.5 :STEP      
NULL        .                                           -999.25 :NULL      
COMP        .                                     TALOS ERT LLC :COMPANY   
WELL        .                               OCS G12363 ST00BP00 :WELL      
FLD         .                                 BRAZOS BLOCK 0453 :FIELD     
LOC         .                                                   :LOCATION  
CNTY        .                                BRAZOS LARGE BLOCK :LOCATION  
STAT        .                                             TEXAS :STATE     
CTRY        .                                     UNITED STATES :COUNTRY   
SRVC        .                                                   :SERVICE COMPANY
DATE        .                             9/13/2023 11:19:08 AM :LOG DATE  
API         .                                    42704401340000 :API NUMBER
UWI         .                                    42704401340000 :UNIQUE WELL ID
XCOORD      .                                  788791.944469438 :SURFACE X 
YCOORD      .                                  10354739.7167093 :SURFACE Y 
LAT         .                                         28.507622 :LATITUDE  
LON         .                                        -95.652007 :LONGITUDE 
ELEV        .FT                                             100 :ELEVATION VALUE
ELEV_TYPE   .                                                KB :ELEVATION REFERENCE TYPE
~Curve Information Section
#MNEM       .UNIT                                      API CODE :CURVE DESCRIPTION
#------------------------------------------------------------------------------
DEPT        .FT                                                 :DEPTH     
DPHI        .%                                                  :          
DT          .US/F                                               :          
GR          .GAPI                                               :          
GR_NORM     .GAPI                                               :GammaRay Normalized
ILD         .OHMM                                               :          
ILM         .OHMM                                               :          
LL          .OHMM                                               :          
NPHI        .%                                                  :          
SP          .MV                                                 :          
SP_NORM     .MV                                                 :SP Normalized
VSH_GR      .V/V                                                :Volume of Shale from GR
VSH_SP      .V/V                                                :Volume of Shale from SP
~A        DEPTH           DPHI             DT             GR        GR_NORM            ILD            ILM             LL           NPHI             SP        SP_NORM         VSH_GR         VSH_SP
# ...
      9351.5000        -999.25       106.7124        60.1362       72.98566         0.8901         0.9309         0.9945        -999.25       -39.6798        -0.5494      0.8507587              1
      9352.0000        -999.25       107.4036        59.5064        72.1937          0.885         0.9426          0.988        -999.25       -39.7894         -0.659      0.8339084              1
      9352.5000        -999.25       107.2006        58.6443       71.10961         0.8764         0.9346         0.9842        -999.25       -39.9561        -0.8257      0.8108428              1
      9353.0000        -999.25       106.6533        58.5912       71.04285         0.8722          0.918         0.9937        -999.25       -40.0398        -0.9094      0.8094224              1
      9353.5000        -999.25       105.7306        58.1959       70.54577         0.8776         0.8993         1.0168        -999.25       -40.0302        -0.8998      0.7988461              1
      9354.0000        -999.25       105.2446          57.54       69.72099         0.8944         0.8936         1.0196        -999.25       -39.9625        -0.8321      0.7812976              1
      9354.5000        -999.25       106.2018        57.5688        69.7572          0.901         0.9093         1.0019        -999.25       -39.8361        -0.7057      0.7820681              1
      9355.0000        -999.25       107.0138        58.0059       70.30684         0.8964         0.9251         0.9964        -999.25       -39.7051        -0.5747      0.7937625              1
      9355.5000        -999.25       107.5798        58.5759       71.02361         0.8843         0.9304         0.9953        -999.25       -39.7054         -0.575      0.8090131              1
      9356.0000        -999.25       107.7369        59.6965       72.43274         0.8742         0.9152         1.0105        -999.25       -39.7615        -0.6311      0.8389944              1
      9356.5000        -999.25       107.5748        61.0524       74.13776         0.8714         0.8963         1.0436        -999.25       -39.8109        -0.6805      0.8752714              1
      9357.0000        -999.25       107.1848        59.9024       72.69165          0.872         0.8883         1.0679        -999.25       -39.7308        -0.6004      0.8445032              1
      9357.5000        -999.25       106.6859        58.0169       70.32068         0.8782         0.8875         1.0668        -999.25       -39.6175        -0.4871       0.794057              1
      9358.0000        -999.25       106.0886        56.2932       68.15317         0.8861          0.891         1.0554        -999.25       -39.5499        -0.4195      0.7479398              1
      9358.5000        -999.25       105.7325        56.0468       67.84331         0.8946            0.9         1.0409        -999.25       -39.4784         -0.348       0.741347              1
      9359.0000        -999.25        106.374        56.8007       68.79131         0.9017          0.911          1.026        -999.25       -39.3536        -0.2232      0.7615173              1
      9359.5000        -999.25       107.0925        57.8673       70.13255         0.9032         0.9314         1.0215        -999.25       -39.2189        -0.0885      0.7900543              1
      9360.0000        -999.25       107.2775        58.9695       71.51855         0.9042          0.953         1.0406        -999.25       -39.0998         0.0306      0.8195437              1
      9360.5000        -999.25       106.6693        59.5187       72.20916         0.9042         0.9486         1.0644        -999.25       -38.9664          0.164      0.8342375              1
      9361.0000        -999.25       105.5079        58.7353       71.22404          0.902         0.9326         1.0459        -999.25       -38.8723         0.2581      0.8132775              1
      9361.5000        -999.25       104.9247        57.3058       69.42649         0.8975         0.9183          1.021        -999.25       -38.9111         0.2193      0.7750317              1
      9362.0000        -999.25       106.1575        55.8151       67.55196         0.8915         0.9045         1.0007        -999.25       -39.0624          0.068       0.735148              1
      9362.5000        -999.25       106.8804        55.3038       66.90899         0.8814         0.9062         0.9931        -999.25       -39.2822        -0.1518      0.7214679              1
      9363.0000        -999.25       106.8514         55.999        67.7832         0.8729         0.9083         0.9944        -999.25       -39.4603        -0.3299      0.7400681              1
      9363.5000        -999.25       105.6851         56.474       68.38051         0.8672         0.9214         1.0042        -999.25       -39.5101        -0.3797      0.7527768              1
      9364.0000        -999.25       103.1875        56.7646       68.74593         0.8688         0.9361         1.0225        -999.25       -39.4878        -0.3574      0.7605516              1
      9364.5000        -999.25        -999.25        57.9997       70.29905         0.8763         0.9589         1.0513        -999.25       -39.3103        -0.1799      0.7935968              1
      9365.0000        -999.25        -999.25        59.6302       72.34937         0.8921         0.9706         1.0835        -999.25        -39.103         0.0274      0.8372205              1
      9365.5000        -999.25        -999.25        60.7079       73.70456         0.9063         0.9719         1.0847        -999.25       -39.0452         0.0852      0.8660545              1
      9366.0000        -999.25        -999.25        59.4022       72.06267         0.9156         0.9584         1.0712        -999.25       -39.0724          0.058      0.8311206              1
      9366.5000        -999.25        -999.25        58.9413       71.48309         0.9184         0.9516         1.0586        -999.25       -39.1238         0.0066      0.8187891              1
      9367.0000        -999.25        -999.25        59.9502       72.75177         0.9178         0.9525          1.048        -999.25       -39.1433        -0.0129      0.8457823              1
      9367.5000        -999.25        -999.25        60.6478       73.62899         0.9138         0.9615         1.0381        -999.25       -39.0912         0.0392      0.8644466              1
      9368.0000        -999.25        -999.25        59.6989       72.43576         0.9115         0.9844         1.0292        -999.25       -38.9012         0.2292      0.8390588              1
      9368.5000        -999.25        -999.25        58.7586       71.25335          0.913         0.9951         1.0257        -999.25       -38.3538         0.7766      0.8139011              1
      9369.0000        -999.25        -999.25        58.0414       70.35149         0.9161         0.9971         1.0287        -999.25       -38.3766         0.7538      0.7947127              1
      9369.5000        -999.25        -999.25        57.3879       69.52972         0.9222         0.9983         1.0478        -999.25       -38.4764          0.654       0.777228              1
      9370.0000        -999.25        -999.25        56.6585       68.61251          0.931         0.9944         1.0562        -999.25       -38.5331         0.5973       0.757713              1
      9370.5000        -999.25        -999.25        56.5065       68.42137         0.9378         0.9787         1.0579        -999.25       -38.4969         0.6335      0.7536462              1
      9371.0000        -999.25        -999.25        58.5735       71.02059         0.9366         0.9679         1.0606        -999.25       -38.3461         0.7843      0.8089488              1
      9371.5000        -999.25        -999.25        61.1725       74.28878         0.9293         0.9573         1.0563        -999.25       -38.0381         1.0923      0.8784847              1
