#------------------------------------------------------------------------------
# Created by    : vladimir.rabinovich
# Created on    : 09/19/2023 17:22:54
#------------------------------------------------------------------------------
~Version Information Section
VERS.           2.0     :   CWLS log ASCII Standard - VERSION 2.0
WRAP.           NO      :   One line per depth step
~Well Information Section
#MNEM       .UNIT                                         VALUE :DESCRIPTION
#------------------------------------------------------------------------------
STRT        .FT                                             606 :START DEPTH
STOP        .FT                                           12703 :STOP DEPTH
STEP        .FT                                             0.5 :STEP      
NULL        .                                           -999.25 :NULL      
COMP        .                                       PURE OIL CO :COMPANY   
WELL        .                                OCS 00099 ST00BP00 :WELL      
FLD         .                                           WILDCAT :FIELD     
LOC         .                                                   :LOCATION  
CNTY        .                             GALVESTON LARGE BLOCK :LOCATION  
STAT        .                                             TEXAS :STATE     
CTRY        .                                     UNITED STATES :COUNTRY   
SRVC        .                                                   :SERVICE COMPANY
DATE        .                             9/13/2023 11:19:42 AM :LOG DATE  
API         .                                    42706000130000 :API NUMBER
UWI         .                                    42706000130000 :UNIQUE WELL ID
XCOORD      .                                  1105531.03723184 :SURFACE X 
YCOORD      .                                  10576678.2721464 :SURFACE Y 
LAT         .                                         29.133654 :LATITUDE  
LON         .                                        -94.675857 :LONGITUDE 
ELEV        .FT                                              66 :ELEVATION VALUE
ELEV_TYPE   .                                                KB :ELEVATION REFERENCE TYPE
~Curve Information Section
#MNEM       .UNIT                                      API CODE :CURVE DESCRIPTION
#------------------------------------------------------------------------------
DEPT        .FT                                                 :DEPTH     
LAT         .OHMM                                               :          
LN          .OHMM                                               :          
SN          .OHMM                                               :          
SP          .MV                                                 :          
SP_NORM     .MV                                                 :SP Normalized
VSH_SP      .V/V                                                :Volume of Shale from SP
~A        DEPTH            LAT             LN             SN             SP        SP_NORM         VSH_SP
# ...
      3000.0000         0.5091         0.5391          0.628         -67.65      -1.807373      0.9816506
      3000.5000         0.5478         0.5228         0.6157       -66.9891      -1.148689      0.9966207
      3001.0000         0.5865         0.5073         0.6034       -66.3285     -0.4903107              1
      3001.5000         0.6252         0.5075         0.5911       -65.6678      0.1681671              1
      3002.0000         0.6639         0.5077         0.5761        -65.007      0.8267441              1
      3002.5000         0.7026         0.5079         0.5591       -64.3463       1.485229              1
      3003.0000          0.734         0.5081         0.5422       -63.7033       2.126007              1
      3003.5000         0.7427         0.5083         0.5252       -63.1221       2.704987              1
      3004.0000         0.7515         0.5085         0.5082        -62.541       3.283867              1
      3004.5000         0.7042         0.5146         0.4913       -62.0138       3.808846              1
      3005.0000         0.6545         0.5225         0.4743       -64.6945       1.125923              1
      3005.5000         0.6048         0.5305         0.4821       -67.1903      -1.372093      0.9915434
      3006.0000         0.5552         0.5384         0.4978       -69.5923      -3.776314       0.936902
      3006.5000         0.5056         0.5464         0.5134        -71.993       -6.17923      0.8822902
      3007.0000         0.4677         0.5543         0.5291       -74.3938      -8.582253      0.8276761
      3007.5000          0.451         0.5623         0.5448       -76.7152      -10.90588      0.7748665
      3008.0000         0.4368         0.5645         0.5605       -77.8389      -12.03179      0.7492775
      3008.5000         0.4476         0.5589         0.5756       -75.2255      -9.420616      0.8086224
      3009.0000         0.4583         0.5532         0.5887       -72.8235      -7.020844      0.8631626
      3009.5000         0.4691         0.5476         0.6017       -70.8257      -5.025261      0.9085168
      3010.0000         0.4798          0.542         0.6147        -69.252      -3.453781      0.9442322
      3010.5000         0.4906         0.5364         0.6278        -71.561      -5.764999      0.8917046
      3011.0000         0.5013         0.5317         0.6408       -73.9014       -8.10762      0.8384632
      3011.5000         0.5084         0.5319         0.6539       -76.4342      -10.64264      0.7808491
      3012.0000         0.5146          0.532         0.6579        -78.967      -13.17767      0.7232349
      3012.5000         0.5208         0.5322         0.6512       -78.7689      -12.98178      0.7276868
      3013.0000         0.5269         0.5323         0.6444        -76.827      -11.04211      0.7717703
      3013.5000         0.4597         0.5325         0.6377       -74.8851      -9.102425       0.815854
      3014.0000         0.3383         0.5326          0.631       -72.9432      -7.162743      0.8599377
      3014.5000         0.2042         0.5362         0.6242       -71.4476      -5.669365       0.893878
      3015.0000              0         0.5563         0.6169        -71.424      -5.647987      0.8943639
      3015.5000              0         0.5529         0.6175       -71.4004      -5.626602        0.89485
      3016.0000              0         0.5495         0.6181       -71.3768      -5.605225      0.8953358
      3016.5000              0         0.5466         0.6187       -71.3533      -5.583946      0.8958194
      3017.0000              0         0.5464         0.6193       -71.3297      -5.562561      0.8963054
      3017.5000              0         0.5462         0.6199       -69.9969      -4.231987      0.9265457
      3018.0000              0          0.546         0.6205       -68.6642      -2.901505       0.956784
      3018.5000              0         0.5459         0.6211       -67.3314      -1.570923      0.9870245
      3019.0000              0         0.5468         0.6217       -66.0555     -0.2972412              1
      3019.5000              0         0.5477         0.6222       -64.8397      0.9163361              1
      3020.0000              0         0.5486         0.6228        -63.624       2.129814              1
      3020.5000              0         0.5495         0.6234       -63.5142       2.237389              1
      3021.0000              0         0.5504          0.624       -63.6792       2.070168              1
      3021.5000              0         0.5513         0.6253       -63.8442       1.902946              1
      3022.0000              0         0.5559         0.6285       -64.0255       1.719429              1
      3022.5000              0         0.5619         0.6317       -64.2703       1.472404              1
      3023.0000              0          0.568         0.6349       -64.5151       1.225388              1
      3023.5000              0          0.574         0.6381       -64.6414       1.096863              1
      3024.0000              0         0.5806         0.6413       -64.3369       1.399147              1
      3024.5000              0          0.593         0.6446       -64.0323       1.701523              1
      3025.0000              0         0.6053         0.6478       -63.7279       2.003704              1
      3025.5000              0         0.6177          0.651       -63.4234       2.305984              1
      3026.0000              0         0.6298         0.6588       -63.1959       2.531265              1
      3026.5000              0         0.6368         0.6676       -63.3552       2.369743              1
      3027.0000              0         0.6438         0.6764       -63.5145       2.208225              1
      3027.5000              0         0.6508         0.6852       -63.9672       1.753304              1
      3028.0000         0.0451         0.6578          0.694       -64.9194      0.7988815              1
      3028.5000         0.0946         0.6648         0.7026       -65.8716     -0.1555328              1
      3029.0000         0.1442         0.6718         0.7107       -66.8239      -1.110054      0.9974988
      3029.5000         0.1913         0.6772         0.7188       -67.7872      -2.075577      0.9755551
      3030.0000         0.2349         0.6826         0.7269       -68.7645      -3.055099      0.9532932
      3030.5000         0.2786          0.688          0.735       -69.7418      -4.034615      0.9310315
      3031.0000         0.3176         0.6934         0.7431       -70.7185      -5.013535      0.9087833
      3031.5000         0.3299         0.6988         0.7425        -71.649      -5.946259       0.887585
      3032.0000         0.3422         0.7042         0.7414       -72.4843      -6.783783      0.8685504
      3032.5000         0.3546          0.706         0.7403       -73.3199      -7.621605       0.849509
      3033.0000         0.3669         0.7047         0.7392       -74.1558      -8.459724      0.8304608
      3033.5000         0.3793         0.7034         0.7381       -74.9584      -9.264542      0.8121695
      3034.0000         0.3907         0.7022         0.7371       -75.6361      -9.944466      0.7967167
      3034.5000         0.4014         0.7009          0.736       -76.3137      -10.62428      0.7812663
      3035.0000          0.412         0.6996         0.7349       -76.9332        -11.246      0.7671363
      3035.5000         0.4227         0.6984         0.7316       -77.4799      -11.79492      0.7546608
      3036.0000         0.4333         0.6952         0.7264       -77.3319      -11.64915      0.7579739
      3036.5000         0.4439         0.6902         0.7211       -76.9573      -11.27676      0.7664372
      3037.0000         0.4546         0.6852         0.7158        -76.231      -10.55269      0.7828934
      3037.5000         0.4652         0.6803         0.7106       -75.5049      -9.828804      0.7993454
