#------------------------------------------------------------------------------
# Created by    : vladimir.rabinovich
# Created on    : 09/19/2023 17:21:46
#------------------------------------------------------------------------------
~Version Information Section
VERS.           2.0     :   CWLS log ASCII Standard - VERSION 2.0
WRAP.           NO      :   One line per depth step
~Well Information Section
#MNEM       .UNIT                                         VALUE :DESCRIPTION
#------------------------------------------------------------------------------
STRT        .FT                                            2869 :START DEPTH
STOP        .FT                                           10002 :STOP DEPTH
STEP        .FT                                             0.5 :STEP      
NULL        .                                           -999.25 :NULL      
COMP        .                          SEAGULL ENERGY E & P INC :COMPANY   
WELL        .                               OCS G06145 ST00BP00 :WELL      
FLD         .                                           WILDCAT :FIELD     
LOC         .                                                   :LOCATION  
CNTY        .                           HIGH ISLAND LARGE BLOCK :LOCATION  
STAT        .                                             TEXAS :STATE     
CTRY        .                                     UNITED STATES :COUNTRY   
SRVC        .                                                   :SERVICE COMPANY
DATE        .                             9/13/2023 11:19:59 AM :LOG DATE  
API         .                                    42708402850000 :API NUMBER
UWI         .                                    42708402850000 :UNIQUE WELL ID
XCOORD      .                                  1277324.30822617 :SURFACE X 
YCOORD      .                                   10672684.104362 :SURFACE Y 
LAT         .                                         29.403374 :LATITUDE  
LON         .                                        -94.140646 :LONGITUDE 
ELEV        .FT                                              88 :ELEVATION VALUE
ELEV_TYPE   .                                                KB :ELEVATION REFERENCE TYPE
~Curve Information Section
#MNEM       .UNIT                                      API CODE :CURVE DESCRIPTION
#------------------------------------------------------------------------------
DEPT        .FT                                                 :DEPTH     
CALI        .IN                                                 :          
DPHI        .%                                                  :          
DRHO        .G/C3                                               :          
GR          .GAPI                                               :          
GR_NORM     .GAPI                                               :GammaRay Normalized
ILD         .OHMM                                               :          
ILM         .OHMM                                               :          
NPHI        .%                                                  :          
SFL         .OHMM                                               :          
SP          .MV                                                 :          
SP_NORM     .MV                                                 :SP Normalized
VSH_GR      .V/V                                                :Volume of Shale from GR
VSH_SP      .V/V                                                :Volume of Shale from SP
~A        DEPTH           CALI           DPHI           DRHO             GR        GR_NORM            ILD            ILM           NPHI            SFL             SP        SP_NORM         VSH_GR         VSH_SP
# ...
      5795.0000        11.0487        21.1058         0.0041         84.722       87.89311          0.446         0.4779          41.17         0.5921       -25.9899      0.7202191              1              1
      5795.5000        11.0928        21.3008         0.0036         85.307       88.53852         0.4402         0.4733        41.1248         0.5945       -25.5068       1.115112              1              1
      5796.0000         11.137        22.0432         0.0027        84.8488       88.02482         0.4314         0.4643        40.5485         0.5614       -26.3438      0.4228637              1              1
      5796.5000        11.1557        23.0837         0.0013        81.1411       83.90054         0.4191         0.4548        39.6548         0.5287       -29.8943      -2.504031              1      0.9642282
      5797.0000        11.1267        24.1579        -0.0009        74.5831       76.60928         0.4052         0.4434        38.3341         0.5147       -34.6398      -6.415045      0.9278571      0.9083565
      5797.5000        11.1631        24.8679        -0.0009        69.6915       71.16958         0.3919         0.4322        36.6127         0.5481       -38.7099      -9.769844      0.8121187      0.8604308
      5798.0000        11.2089        24.6718         0.0003        68.9576       70.34954         0.3811         0.4225        35.0605         0.6266       -40.5495      -11.28776      0.7946711      0.8387462
      5798.5000        11.1932        23.7047         0.0021        71.0536       72.67383         0.3733         0.4176        36.7924          0.678       -40.3256      -11.10633       0.844124      0.8413382
      5799.0000        11.0735        22.9428         0.0043        76.4314       78.64456         0.3722         0.4152        39.4713         0.6708       -37.7375      -8.977905      0.9711609      0.8717442
      5799.5000        11.0362        22.5767         0.0065        80.0239       82.63165         0.3759          0.415        41.1807         0.6334       -34.9244      -6.664191              1      0.9047973
      5800.0000        11.1106        22.4366          0.009        81.3628       84.11472         0.3817         0.4173        42.0059         0.6015       -32.6802      -4.818978              1      0.9311575
      5800.5000        11.2428        22.4381          0.011        82.0968       84.92566         0.3888         0.4208        42.2643         0.5771       -30.6477      -3.148109              1       0.955027
      5801.0000        11.2926        22.6586         0.0114        82.9235       85.83962         0.3957         0.4239         42.292         0.5586        -28.886      -1.700251              1      0.9757107
      5801.5000        11.3277        23.0829         0.0097        84.4237       87.50191         0.4027         0.4264        42.2842         0.5416       -27.5178     -0.5764524              1       0.991765
      5802.0000        11.3338        23.6725         0.0059        85.8666       89.10054         0.4094          0.428         42.543         0.5209       -26.6493      0.1358281              1              1
      5802.5000        11.3412        24.1092         0.0025        87.0718       90.43506         0.4161         0.4282        43.6753         0.4968       -26.1795      0.5197685              1              1
      5803.0000        11.3439        24.5916        -0.0002        88.0233       91.48769          0.421         0.4281        45.3548         0.4782       -25.9434      0.7112501              1              1
      5803.5000         11.311         24.989        -0.0017        88.4241       91.92842         0.4255         0.4275        46.8246         0.4742       -25.8523      0.7833196              1              1
      5804.0000        11.1797        24.8954        -0.0015        88.6575       92.18316         0.4292         0.4322        47.5917         0.4867       -25.5551       1.025119              1              1
      5804.5000        11.0484        24.2785         0.0001        88.8062       92.34378         0.4327         0.4393        45.9226         0.5141       -24.6192       1.792907              1              1
      5805.0000        10.9691        23.2215         0.0029        88.7129       92.23552         0.4383         0.4452        44.1143         0.5427       -24.1509       2.175611              1              1
      5805.5000        10.9955        22.6352         0.0059        88.3914        91.8737         0.4437         0.4502        43.4213         0.5658       -24.1673       2.159151              1              1
      5806.0000        11.0336         22.405          0.009        87.6025       90.99255          0.448         0.4537        42.8472         0.5765       -24.3195       2.030856              1              1
      5806.5000         11.033        22.2714         0.0117        87.1823       90.52105         0.4527         0.4572        42.5818         0.5784       -24.6006       1.796408              1              1
      5807.0000        11.0441        22.1779         0.0138        86.7396       90.02457         0.4576         0.4609        42.7005         0.5775       -25.1264       1.360443              1              1
      5807.5000        11.0808        22.1117         0.0147        83.2454       86.13754         0.4604          0.464        42.6932         0.5743       -26.1582       0.507771              1              1
      5808.0000        11.1389        22.0568         0.0148        79.4895       81.95972          0.462         0.4655        42.5318         0.5859       -27.2245     -0.3733141              1      0.9946669
      5808.5000        11.2013        22.0176         0.0147        77.4669       79.70779         0.4591          0.467        42.2437         0.6043       -27.8233     -0.8693955      0.9937829      0.9875801
      5809.0000        11.2132        21.9713         0.0141        77.4177       79.64852         0.4552         0.4686        41.4145         0.6087       -27.8215     -0.8708689      0.9925217       0.987559
      5809.5000        11.1805        21.9907         0.0133        78.2341       80.55103         0.4501         0.4698        40.0001         0.5919       -27.5692     -0.6660452              1      0.9904851
      5810.0000        11.1431        22.4836         0.0129        79.0107       81.40933         0.4453         0.4705        38.7956         0.5652       -27.7509     -0.8186349              1      0.9883052
      5810.5000         11.125        23.2867         0.0128        79.7118       82.18373         0.4405           0.47        38.0262         0.5569       -28.5409      -1.472177              1      0.9789689
      5811.0000        11.1267         23.692         0.0141        80.2736       82.80335         0.4365         0.4694        38.0345         0.5577       -29.5775      -2.328801              1      0.9667314
      5811.5000        11.1763        23.3024         0.0158        81.4622       84.11942         0.4326         0.4684        37.7198         0.5527       -30.6823      -3.241591              1      0.9536915
      5812.0000        11.3053        22.4986         0.0173        82.5096       85.27861         0.4255         0.4666         35.441         0.5454       -31.8378      -4.196132              1      0.9400553
      5812.5000        11.4024        21.6424         0.0183        81.7609       84.44213         0.4176         0.4591        33.5263         0.5524       -33.1862      -5.309533              1      0.9241495
      5813.0000         11.289        21.0993         0.0176        79.5637       81.99619         0.4092         0.4501        32.8677          0.586       -33.6402       -5.68637              1      0.9187661
      5813.5000        11.0957        21.2667         0.0159        76.6948       78.80393         0.4019         0.4424        32.8854         0.6138        -35.241      -7.007631      0.9745517       0.899891
