#------------------------------------------------------------------------------
# Created by    : vladimir.rabinovich
# Created on    : 09/19/2023 17:19:48
#------------------------------------------------------------------------------
~Version Information Section
VERS.           2.0     :   CWLS log ASCII Standard - VERSION 2.0
WRAP.           NO      :   One line per depth step
~Well Information Section
#MNEM       .UNIT                                         VALUE :DESCRIPTION
#------------------------------------------------------------------------------
STRT        .FT                                            3926 :START DEPTH
STOP        .FT                                            8446 :STOP DEPTH
STEP        .FT                                             0.5 :STEP      
NULL        .                                           -999.25 :NULL      
COMP        .                             WALTER OIL & GAS CORP :COMPANY   
WELL        .                               OCS G06101 ST00BP00 :WELL      
FLD         .                                           WILDCAT :FIELD     
LOC         .                                                   :LOCATION  
CNTY        .                             GALVESTON LARGE BLOCK :LOCATION  
STAT        .                                             TEXAS :STATE     
CTRY        .                                     UNITED STATES :COUNTRY   
SRVC        .                                                   :SERVICE COMPANY
DATE        .                             9/13/2023 11:19:36 AM :LOG DATE  
API         .                                    42706402050000 :API NUMBER
UWI         .                                    42706402050000 :UNIQUE WELL ID
XCOORD      .                                  1036351.71170487 :SURFACE X 
YCOORD      .                                  10440832.2127806 :SURFACE Y 
LAT         .                                         28.757227 :LATITUDE  
LON         .                                        -94.885733 :LONGITUDE 
ELEV        .FT                                              88 :ELEVATION VALUE
ELEV_TYPE   .                                                KB :ELEVATION REFERENCE TYPE
~Curve Information Section
#MNEM       .UNIT                                      API CODE :CURVE DESCRIPTION
#------------------------------------------------------------------------------
DEPT        .FT                                                 :DEPTH     
ASFL        .OHMM                                               :          
CALI        .IN                                                 :          
CILD        .MMHO                                               :          
GR          .GAPI                                               :          
GR_1        .GAPI                                               :          
GR_NORM     .GAPI                                               :GammaRay Normalized
ILD         .OHMM                                               :          
ILM         .OHMM                                               :          
NPHI        .%                                                  :          
RFOC        .OHMM                                               :          
RHOB        .G/C3                                               :          
SP          .MV                                                 :          
SP_NORM     .MV                                                 :SP Normalized
VSH_GR      .V/V                                                :Volume of Shale from GR
VSH_SP      .V/V                                                :Volume of Shale from SP
~A        DEPTH           ASFL           CALI           CILD             GR           GR_1        GR_NORM            ILD            ILM           NPHI           RFOC           RHOB             SP        SP_NORM         VSH_GR         VSH_SP
# ...
      7241.0000         0.9361        10.3397       1386.045        75.9774           76.6       77.30836         0.7401         0.7648        34.0527          0.939         2.4086       -49.9082      -1.371181       0.942731      0.9804117
      7241.5000         0.9392        10.4051       1368.143        75.6656        76.7766       76.89961         0.7511         0.7707        33.5189         0.9412         2.4115       -49.5364     -0.9978561      0.9340343      0.9857449
      7242.0000         0.9424        10.4438       1350.266        75.3542        76.9225       76.49139          0.761         0.7815        33.1418         0.9372         2.4129       -49.3043      -0.764225      0.9253488      0.9890825
      7242.5000         0.9451        10.4651       1335.779        75.0244        76.5919       76.05903         0.7663         0.7905         33.096         0.9332          2.414       -49.4113     -0.8696976      0.9161496      0.9875758
      7243.0000         0.9469        10.4528       1330.063        74.6029        74.8236       75.50629         0.7716         0.7956        33.4242         0.9312         2.4148       -49.7344      -1.191273      0.9043893      0.9829818
      7243.5000         0.9487        10.4313       1324.346        74.1808        73.2367       74.95279         0.7743         0.7993        34.1136         0.9295         2.4173       -49.8072      -1.266232      0.8926125       0.981911
      7244.0000         0.9505        10.3634       1318.635        73.7594        73.8585       74.40019         0.7743          0.803        34.7255          0.927         2.4193        -49.233     -0.6963158      0.8808551      0.9900526
      7244.5000         0.9523         10.287       1316.453        74.0692         74.968        74.8073         0.7734         0.8059        34.6613         0.9246          2.417       -48.9991     -0.4667015      0.8895169      0.9933329
      7245.0000         0.9541        10.2433       1322.668        74.5217        75.8879        75.4017         0.7697         0.8079        34.2286          0.928         2.4143       -49.5882      -1.060085      0.9021639      0.9848559
      7245.5000         0.9559        10.2063       1328.881        74.9742        76.9232        75.9961         0.7661         0.8084         33.626         0.9315         2.4145        -50.611       -2.08717      0.9148107      0.9701833
      7246.0000         0.9546        10.1911       1335.096        75.4268        78.1168       76.59064         0.7617         0.8022        33.4497          0.935         2.4164       -51.2847      -2.765156      0.9274606      0.9604978
      7246.5000         0.9523        10.1903       1341.303        75.8848        78.8506       77.19226         0.7573         0.7954        34.0917          0.938          2.414       -51.1118      -2.596542      0.9402609      0.9629065
      7247.0000         0.9499        10.1956       1347.516        76.3665        76.6233       77.82498         0.7522          0.787        34.8548         0.9404         2.4083       -50.4855      -1.974529       0.953723      0.9717925
      7247.5000         0.9475        10.2124        1353.73         76.646        75.2833       78.19233          0.747         0.7793        35.3963         0.9428         2.4009       -50.1537      -1.647015      0.9615389      0.9764712
      7248.0000         0.9452        10.2062       1358.674         76.067        75.6093       77.43288         0.7414         0.7741        35.4937         0.9452         2.3942       -50.0086      -1.506195      0.9453803      0.9784829
      7248.5000         0.9428        10.1789       1361.873         75.488        76.2826       76.67344         0.7343         0.7692        35.4559         0.9459           2.39       -50.2083      -1.710186      0.9292221      0.9755688
      7249.0000         0.9404        10.1565       1365.072        74.9092        76.7911       75.91426         0.7274         0.7682        35.1116          0.946         2.3855       -50.0965      -1.602669      0.9130694      0.9771047
      7249.5000         0.9404        10.1362       1368.271        74.3302        76.6158       75.15481         0.7219         0.7672        34.7146         0.9505           2.38       -49.6528      -1.163258      0.8969108       0.983382
      7250.0000         0.9436        10.1174       1371.469        73.3738        75.5453       73.90004         0.7167         0.7668        34.2654          0.959         2.3778       -49.4018     -0.9165382      0.8702136      0.9869066
      7250.5000         0.9433         10.104       1374.666        72.4081        74.2062       72.63304         0.7142         0.7671        33.8284          0.965          2.379       -50.1793      -1.698322      0.8432562      0.9757382
      7251.0000         0.9418        10.0906       1377.867        71.2762        72.7354       71.14793         0.7135         0.7674         33.614          0.971         2.3824       -51.4456       -2.96891       0.811658       0.957587
      7251.5000         0.9403        10.0701       1381.064        71.5651        71.3209        71.5276         0.7128         0.7668        33.4556         0.9748         2.3821       -51.6526      -3.180195      0.8197361      0.9545686
      7252.0000         0.9359        10.0463       1384.262        72.5321        70.1287       72.79727         0.7117         0.7658        33.7437         0.9766         2.3777       -50.3926      -1.924484      0.8467504      0.9725074
      7252.5000         0.9312        10.0228       1387.463        73.7457        71.7113       74.39063         0.7104         0.7654        34.4022         0.9784         2.3732        -49.036     -0.5721664      0.8806516      0.9918262
      7253.0000         0.9265         9.9995       1390.557        74.9594         75.426        75.9841         0.7094         0.7652        35.0578         0.9789          2.369       -48.4173     0.04224777      0.9145553              1
      7253.5000         0.9218         9.9664       1393.447        76.1506        78.5133       77.54805         0.7092         0.7634        35.6803         0.9721          2.365       -48.4901    -0.03483963      0.9478309      0.9995023
      7254.0000         0.9197         9.9214       1396.336        77.0903         80.478        78.7819          0.709         0.7613        36.2381         0.9653         2.3652       -48.9186     -0.4676208      0.9740829      0.9933197
      7254.5000         0.9191         9.9006       1399.227          78.03        80.1587       80.01575         0.7081         0.7593        36.7144         0.9585         2.3674       -49.3569     -0.9102097              1       0.986997
      7255.0000         0.9186         9.8799       1402.115        78.9393        78.8698        81.2097         0.7065         0.7574        36.8892         0.9518         2.3709       -49.1992      -0.756794              1      0.9891887
      7255.5000         0.9181         9.8583       1405.004        79.2759        77.6738       81.65199         0.7124         0.7556        36.1442          0.945         2.3718       -49.1157     -0.6775818              1      0.9903203
      7256.0000         0.9187         9.8859       1407.893        78.4713        76.6936       80.59644          0.715         0.7548        34.8285         0.9382         2.3717       -49.0201     -0.5862656              1      0.9916248
      7256.5000         0.9192          9.883       1410.781        77.6669        76.3552       79.54116         0.7137          0.754        33.7114         0.9317         2.3708       -48.8766     -0.4470482      0.9902375      0.9936136
      7257.0000         0.9197         9.8772       1413.674        77.2709        77.2872        79.0219         0.7102         0.7536        33.6632         0.9279         2.3702       -48.5967     -0.1714363      0.9791893      0.9975509
      7257.5000         0.9203         9.8804       1416.479        77.2008        78.4054       78.93039         0.7073         0.7539        34.4872         0.9242         2.3697       -48.5024     -0.0814209      0.9772424      0.9988368
