#------------------------------------------------------------------------------
# Created by    : vladimir.rabinovich
# Created on    : 09/19/2023 17:20:24
#------------------------------------------------------------------------------
~Version Information Section
VERS.           2.0     :   CWLS log ASCII Standard - VERSION 2.0
WRAP.           NO      :   One line per depth step
~Well Information Section
#MNEM       .UNIT                                         VALUE :DESCRIPTION
#------------------------------------------------------------------------------
STRT        .FT                                            3071 :START DEPTH
STOP        .FT                                           14991 :STOP DEPTH
STEP        .FT                                             0.5 :STEP      
NULL        .                                           -999.25 :NULL      
COMP        .                                        TEXACO USA :COMPANY   
WELL        .                                     ST TR 00012-L :WELL      
FLD         .                                           WILDCAT :FIELD     
LOC         .                                                   :LOCATION  
CNTY        .                           HIGH ISLAND LARGE BLOCK :LOCATION  
STAT        .                                             TEXAS :STATE     
CTRY        .                                     UNITED STATES :COUNTRY   
SRVC        .                                                   :SERVICE COMPANY
DATE        .                             9/13/2023 11:19:15 AM :LOG DATE  
API         .                                    42708000680000 :API NUMBER
UWI         .                                    42708000680000 :UNIQUE WELL ID
XCOORD      .                                  1354682.00685938 :SURFACE X 
YCOORD      .                                  10733491.7088446 :SURFACE Y 
LAT         .                                        29.5724948 :LATITUDE  
LON         .                                       -93.8991324 :LONGITUDE 
ELEV        .FT                                              44 :ELEVATION VALUE
ELEV_TYPE   .                                                KB :ELEVATION REFERENCE TYPE
~Curve Information Section
#MNEM       .UNIT                                      API CODE :CURVE DESCRIPTION
#------------------------------------------------------------------------------
DEPT        .FT                                                 :DEPTH     
ASN         .OHMM                                               :          
CILD        .MMHO                                               :          
ILD         .OHMM                                               :          
SP          .MV                                                 :          
SP_NORM     .MV                                                 :SP Normalized
VSH_SP      .V/V                                                :Volume of Shale from SP
~A        DEPTH            ASN           CILD            ILD             SP        SP_NORM         VSH_SP
# ...
      3869.0000         0.5447       2962.316         0.1862      -105.8878      -48.29914     0.03471141
      3869.5000         0.5503       2937.293         0.1849      -106.8257      -49.24012     0.01550783
      3870.0000         0.5595       2912.285         0.1836      -107.7629       -50.1804              0
      3870.5000         0.5687       2768.609         0.1823      -108.3506      -50.77117              0
      3871.0000         0.5778       2631.637         0.1811      -108.8453      -51.26895              0
      3871.5000          0.587       2514.637         0.1798      -109.3401      -51.76683              0
      3872.0000         0.5962         2329.5         0.1787      -109.8352        -52.265              0
      3872.5000         0.6041       2402.488         0.1779        -110.33      -52.76288              0
      3873.0000         0.5909       2512.363          0.177       -110.027      -52.46296              0
      3873.5000         0.5775       2625.008         0.1761      -109.6353      -52.07434              0
      3874.0000         0.5637       2774.246         0.1752      -109.2438      -51.68591              0
      3874.5000           0.55       2859.164         0.1743      -108.8519      -51.29709              0
      3875.0000         0.5362       2885.398         0.1734      -108.4601      -50.90837              0
      3875.5000         0.5224       2911.629         0.1726      -108.0682      -50.51954              0
      3876.0000         0.5086       2937.852         0.1717      -107.6768      -50.13123              0
      3876.5000         0.4936       2964.082         0.1708       -107.057       -49.5145     0.00990817
      3877.0000         0.4785       2989.613         0.1699      -106.3381      -48.79867      0.0245169
      3877.5000         0.4634       3014.992          0.169      -105.6191      -48.08276     0.03912743
      3878.0000         0.4482       3040.371         0.1681      -104.9003      -47.36703     0.05373406
      3878.5000         0.4337        3065.75         0.1681      -104.1813      -46.65111     0.06834474
      3879.0000         0.4249       3107.141         0.1735      -103.4624      -45.93529     0.08295332
      3879.5000         0.4241        3186.16          0.179      -102.7434      -45.21936       0.097564
      3880.0000         0.4371        3275.07         0.1844      -102.2512      -44.73024      0.1075461
      3880.5000         0.4501       3357.059         0.1898      -102.5121      -44.99422      0.1021588
      3881.0000          0.463       3433.012         0.1953      -102.7731       -45.2583     0.09676945
      3881.5000          0.476       3508.918         0.2007      -103.0341      -45.52238     0.09138006
      3882.0000         0.4916        3584.82         0.2062       -103.295      -45.78635     0.08599293
      3882.5000         0.5099       3660.727         0.2248      -103.5559      -46.05033     0.08060557
      3883.0000         0.5282        3736.68         0.2553      -102.7919      -45.28941     0.09613457
      3883.5000         0.5465       3767.883         0.2858      -101.9392      -44.43978      0.1134739
      3884.0000         0.5648       3455.563         0.3162      -101.0867      -43.59036       0.130809
      3884.5000         0.5831       3295.246         0.3467      -100.2334      -42.74014      0.1481605
      3885.0000         0.6014       3102.441         0.3771       -99.3807      -41.89051      0.1654997
      3885.5000         0.6165       1972.281         0.4076       -97.4427      -39.95559      0.2049879
      3886.0000         0.6305       1974.855         0.4381       -94.1888      -36.70477      0.2713313
      3886.5000         0.6446       1734.951         0.4712       -90.9375      -33.45655      0.3376215
      3887.0000         0.6587        1537.82         0.5065       -87.2284      -29.75052      0.4132546
      3887.5000         0.6776       1495.814         0.5419       -83.2655       -25.7907      0.4940673
      3888.0000         0.7012        1453.83         0.5772        -80.269      -22.79728      0.5551577
      3888.5000         0.7248       1411.824         0.6126       -77.7751      -20.30645      0.6059908
      3889.0000         0.7468       1369.842          0.648       -75.2812      -17.81563      0.6568239
      3889.5000         0.7597       1327.834         0.6119       -72.7986      -15.33611      0.7074264
      3890.0000         0.7727       1285.826         0.5748       -70.5348      -13.07538      0.7535636
      3890.5000         0.7857       1469.012         0.5376       -74.8397      -17.38336      0.6656457
      3891.0000         0.7986       1543.779         0.5004       -85.1909      -27.73764      0.4543338
      3891.5000         0.8054       1658.602         0.4701       -88.4324      -30.98222      0.3881179
      3892.0000         0.7968       1889.629         0.4518       -91.6738      -34.22669      0.3219042
      3892.5000         0.7882       2002.799         0.4335       -94.1951      -36.75107      0.2703863
      3893.0000         0.7756       2109.746         0.4151       -96.2947      -38.85375      0.2274745
      3893.5000          0.749       2207.707         0.3968       -98.3955      -40.95763      0.1845382
      3894.0000         0.7224       2291.621         0.3785        -100.27       -42.8352      0.1462204
      3894.5000          0.696       2365.203         0.3602      -101.8572      -44.42548      0.1137656
      3895.0000         0.6778       2585.945         0.3419      -103.4443      -46.01566     0.08131316
      3895.5000         0.6595       2747.051         0.3236      -105.0283      -47.60273     0.04892381
      3896.0000         0.6413       2908.156         0.3053      -106.3506      -48.92812     0.02187519
      3896.5000          0.623       3069.363          0.287      -107.6733      -50.25389              0
      3897.0000          0.606       3230.469         0.2686      -108.7493      -51.33297              0
      3897.5000         0.5892       3391.574         0.2503      -109.7263      -52.31305              0
      3898.0000         0.5724        3552.68          0.232      -110.6859      -53.27572              0
      3898.5000         0.5574       3713.785         0.2153      -109.9521        -52.545              0
      3899.0000         0.5576       3874.891         0.2209      -108.8638      -51.45978              0
      3899.5000         0.5577       3937.668         0.2266       -107.233      -49.83206    0.003427389
      3900.0000         0.5579        3970.75         0.2322      -105.6024      -48.20453     0.03664219
      3900.5000         0.5625       3927.012         0.2379      -104.1708      -46.77601     0.06579574
      3901.0000         0.5688       3876.918         0.2435      -104.7896      -47.39788      0.0531044
      3901.5000          0.575        3813.82         0.2491      -105.4083      -48.01966       0.040415
      3902.0000         0.5813       3737.223         0.2548      -106.0271      -48.64154     0.02772366
      3902.5000         0.5876       3660.629         0.2604       -106.646      -49.26352     0.01503014
      3903.0000          0.594       3532.801         0.2661      -106.2405       -48.8611     0.02324287
      3903.5000         0.5951       3393.355         0.2714      -105.5791      -48.20277     0.03667808
      3904.0000         0.5871       3366.059         0.2721      -104.9176      -47.54435     0.05011524
      3904.5000         0.5791       3445.027         0.2727      -104.2562      -46.88603     0.06355037
      3905.0000          0.578       3524.047         0.2734      -103.5948      -46.22771     0.07698558
      3905.5000         0.5779       3583.535          0.274      -102.9333      -45.56928     0.09042288
      3906.0000         0.5779       3640.105         0.2747      -102.3429      -44.98196      0.1024089
      3906.5000         0.5776       3766.797         0.2753      -101.7551      -44.39723      0.1143422
