#------------------------------------------------------------------------------
# Created by    : vladimir.rabinovich
# Created on    : 09/19/2023 17:22:17
#------------------------------------------------------------------------------
~Version Information Section
VERS.           2.0     :   CWLS log ASCII Standard - VERSION 2.0
WRAP.           NO      :   One line per depth step
~Well Information Section
#MNEM       .UNIT                                         VALUE :DESCRIPTION
#------------------------------------------------------------------------------
STRT        .FT                                            2222 :START DEPTH
STOP        .FT                                            8603 :STOP DEPTH
STEP        .FT                                             0.5 :STEP      
NULL        .                                           -999.25 :NULL      
COMP        .                                    HRUBETZ OIL CO :COMPANY   
WELL        .                                     ST TR 00028-L :WELL      
FLD         .                                           WILDCAT :FIELD     
LOC         .                                                   :LOCATION  
CNTY        .                           HIGH ISLAND LARGE BLOCK :LOCATION  
STAT        .                                             TEXAS :STATE     
CTRY        .                                     UNITED STATES :COUNTRY   
SRVC        .                                                   :SERVICE COMPANY
DATE        .                             9/13/2023 11:19:15 AM :LOG DATE  
API         .                                    42708303040000 :API NUMBER
UWI         .                                    42708303040000 :UNIQUE WELL ID
XCOORD      .                                  1211101.11829014 :SURFACE X 
YCOORD      .                                  10709910.5532953 :SURFACE Y 
LAT         .                                         29.503814 :LATITUDE  
LON         .                                       -94.3499952 :LONGITUDE 
ELEV        .FT                                              60 :ELEVATION VALUE
ELEV_TYPE   .                                                KB :ELEVATION REFERENCE TYPE
~Curve Information Section
#MNEM       .UNIT                                      API CODE :CURVE DESCRIPTION
#------------------------------------------------------------------------------
DEPT        .FT                                                 :DEPTH     
CALI        .IN                                                 :          
GR          .GAPI                                               :          
GR_NORM     .GAPI                                               :GammaRay Normalized
ILD         .OHMM                                               :          
ILM         .OHMM                                               :          
RHOB        .G/C3                                               :          
SFL         .OHMM                                               :          
SP          .MV                                                 :          
SP_NORM     .MV                                                 :SP Normalized
VSH_GR      .V/V                                                :Volume of Shale from GR
VSH_SP      .V/V                                                :Volume of Shale from SP
~A        DEPTH           CALI             GR        GR_NORM            ILD            ILM           RHOB            SFL             SP        SP_NORM         VSH_GR         VSH_SP
# ...
      5192.0000        15.3257        67.3341       81.21764         0.3984         0.4011         2.1687         0.8826       -80.9583       1.905502              1              1
      5192.5000        15.6216         71.434       86.66988         0.4133         0.4127          2.182         0.9027       -78.4357        4.43129              1              1
      5193.0000        15.6553        73.3671       89.24077         0.4287         0.4247         2.1882         0.9098       -77.5044       5.365776              1              1
      5193.5000        15.6375        74.6685        90.9716         0.4446         0.4371         2.1943         0.9164       -77.2062       5.667168              1              1
      5194.0000        15.6398        74.6378       90.93104         0.4612         0.4585         2.1961         0.9231       -77.1997       5.676857              1              1
      5194.5000        15.6421         74.563       90.83183         0.4812         0.4833         2.1939         0.9217       -77.1932       5.686546              1              1
      5195.0000        15.6444        73.9978       90.08047         0.5065         0.5096         2.1916         0.9181       -78.4926       4.390335              1              1
      5195.5000        15.6488        72.1619       87.63939         0.5331         0.5372         2.1911         0.9226         -80.36       2.526123              1              1
      5196.0000        15.6791        67.8235       81.87049         0.5611         0.5693         2.1989         0.9439       -83.1073     -0.2179871              1              1
      5196.5000        15.7095        62.2297       74.43217         0.5937         0.6045         2.2207         1.0326       -85.8583      -2.965797      0.8815356      0.9734352
      5197.0000        15.7398        56.6996       67.07858         0.6285         0.6419         2.2541         1.1606       -86.2418      -3.346107      0.7250761      0.9682959
      5197.5000        15.7701        54.4239       64.05264          0.662         0.6753         2.2785         1.3507       -84.5369      -1.638023      0.6606944      0.9913781
      5198.0000        15.8004        56.7118       67.09531         0.6848         0.7081         2.3006         1.4382       -82.7219      0.1801682      0.7254322              1
      5198.5000        15.8413         59.401       70.67164         0.7084         0.7397         2.2953         1.2632        -80.672       2.233261      0.8015242              1
      5199.0000        15.8901        62.0927       74.25127         0.7207         0.7489         2.2913         1.1288       -78.6201       4.288345      0.8776865              1
      5199.5000        15.9389        62.2294       74.43331          0.721         0.7582         2.2873         1.1237       -77.0492       5.862434      0.8815598              1
      5200.0000        15.9876        60.0715       71.56402         0.7213         0.7675         2.2916         1.1332       -78.0237       4.891129       0.820511              1
      5200.5000        16.0797        55.9067       66.02599         0.6789         0.7569         2.2981         1.1819       -81.0206       1.897415      0.7026805              1
      5201.0000        16.1949        51.5952       60.29286         0.6326         0.7392         2.3046         1.2327       -85.7445      -2.823296      0.5806991      0.9753609
      5201.5000        16.3137        47.4696       54.80694         0.5909         0.7142         2.3104         1.3518       -92.4174      -9.493004      0.4639775      0.8852297
      5202.0000        16.4497         42.052       47.60294         0.5539          0.682         2.3163         1.5478      -105.1097      -22.18212      0.3107008      0.7137551
      5202.5000        16.6958        37.9142        42.1008         0.5273         0.6513         2.2659         1.6631      -114.6603      -31.72953       0.193634       0.584736
      5203.0000        16.9723        37.5276       41.58697          0.524         0.6263         2.1727         1.5099      -120.7056      -37.77164      0.1827014       0.503086
      5203.5000        17.1969        40.6866       45.78802         0.5485         0.6073         2.0795         1.3553      -120.8982      -37.96105      0.2720855      0.5005263
      5204.0000        17.4477        51.4141       60.05357          0.574          0.597         2.0117         1.2628      -117.9343      -34.99397      0.5756078      0.5406221
      5204.5000         16.444        57.0568       67.55742         0.6005          0.593         2.0541         1.1797      -109.9695      -27.02597      0.7352642      0.6482977
      5205.0000         15.603        62.5992       74.92787          0.604          0.596          2.101         1.1519      -104.6252      -21.67848      0.8920824       0.720561
      5205.5000        15.3601        65.3472       78.58238         0.6076          0.599         2.1438         1.1336      -100.4373       -17.4874      0.9698379      0.7771974
      5206.0000        15.3393        67.2734       81.14408         0.6092         0.6018         2.1818         1.1369       -96.7815      -13.82841              1      0.8266432
      5206.5000        15.3185        67.4698       81.40551         0.6056         0.6038         2.2197         1.1619        -94.605      -11.64872              1      0.8560984
      5207.0000         15.284        66.0225       79.48116         0.6019         0.6059         2.2325         1.2087       -96.3301      -13.37063      0.9889609      0.8328294
      5207.5000        15.2338        64.9716       78.08395         0.5964         0.6079         2.2453         1.2575       -97.7523      -14.78963       0.959233      0.8136536
      5208.0000        15.1835        65.2028       78.39164         0.5889         0.6068         2.2414         1.2869       -98.8903      -15.92445      0.9657795      0.7983183
      5208.5000         15.184        66.3442       79.90973         0.5675         0.5989          2.229         1.2437       -98.7654      -15.79636      0.9980794      0.8000491
      5209.0000        15.2012        67.4845       81.42633          0.551         0.5912         2.2157         1.1903       -96.7357      -13.76347              1      0.8275206
      5209.5000        15.2184        67.7396       81.76582         0.5525         0.5691         2.2019         1.1375       -94.7059      -11.73048              1      0.8549935
      5210.0000        15.3399        66.9591       80.72817         0.5733         0.5706         2.1884         1.0865       -90.8501       -7.87149              1       0.907142
      5210.5000        15.5057        66.1785       79.69039         0.5948         0.5946         2.1792         1.0331       -86.9778      -3.996002      0.9934126      0.9595135
      5211.0000         15.576        64.0258       76.82803         0.6069          0.624         2.1978         0.9827        -83.979     -0.9940109      0.9325113              1
      5211.5000        15.5719        61.5568       73.54504         0.6138         0.6551         2.2167         0.9939       -82.1511      0.8370743      0.8626603              1
      5212.0000        15.4694        59.1245       70.31084         0.6152         0.6772         2.2883         1.0416       -81.1899        1.80146      0.7938477              1
      5212.5000        15.1968        60.3113       71.88929         0.6028         0.6874         2.3267         1.1849       -80.8027       2.191856      0.8274317              1
      5213.0000        14.9244        64.5249       77.49274         0.5907         0.6825          2.325         1.2855       -80.4154       2.582344       0.946654              1
      5213.5000         14.668        69.7468       84.43702         0.5778         0.6603         2.2742         1.1795       -80.0287       2.972229              1              1
      5214.0000        14.4265        74.7533       91.09485         0.5644         0.6373         2.2131         1.0542       -79.5148       3.489319              1              1
