#------------------------------------------------------------------------------
# Created by    : vladimir.rabinovich
# Created on    : 09/19/2023 17:20:36
#------------------------------------------------------------------------------
~Version Information Section
VERS.           2.0     :   CWLS log ASCII Standard - VERSION 2.0
WRAP.           NO      :   One line per depth step
~Well Information Section
#MNEM       .UNIT                                         VALUE :DESCRIPTION
#------------------------------------------------------------------------------
STRT        .FT                                             498 :START DEPTH
STOP        .FT                                            9565 :STOP DEPTH
STEP        .FT                                             0.5 :STEP      
NULL        .                                           -999.25 :NULL      
COMP        .                       BLUE DOLPHIN EXPLORATION CO :COMPANY   
WELL        .                                OCS 00714 ST00BP00 :WELL      
FLD         .                              GALVESTON BLOCK 0288 :FIELD     
LOC         .                                                   :LOCATION  
CNTY        .                             GALVESTON LARGE BLOCK :LOCATION  
STAT        .                                             TEXAS :STATE     
CTRY        .                                     UNITED STATES :COUNTRY   
SRVC        .                                                   :SERVICE COMPANY
DATE        .                             9/13/2023 11:19:25 AM :LOG DATE  
API         .                                    42706000390000 :API NUMBER
UWI         .                                    42706000390000 :UNIQUE WELL ID
XCOORD      .                                  1097340.72850425 :SURFACE X 
YCOORD      .                                  10481267.2561277 :SURFACE Y 
LAT         .                                        28.8709496 :LATITUDE  
LON         .                                       -94.6972159 :LONGITUDE 
ELEV        .FT                                              85 :ELEVATION VALUE
ELEV_TYPE   .                                                KB :ELEVATION REFERENCE TYPE
~Curve Information Section
#MNEM       .UNIT                                      API CODE :CURVE DESCRIPTION
#------------------------------------------------------------------------------
DEPT        .FT                                                 :DEPTH     
ASN         .OHMM                                               :          
CALI        .IN                                                 :          
DT          .US/F                                               :          
ILD         .OHMM                                               :          
SP          .MV                                                 :          
SP_1        .MV                                                 :          
SP_NORM     .MV                                                 :SP Normalized
VSH_SP      .V/V                                                :Volume of Shale from SP
~A        DEPTH            ASN           CALI             DT            ILD             SP           SP_1        SP_NORM         VSH_SP
       498.0000         2.2437        -999.25        -999.25        -999.25        -999.25       -53.7782      -4.997711      0.8001526
       498.5000         2.3618        -999.25        -999.25        -999.25        -999.25       -54.2258      -5.445313      0.7703125
       499.0000         2.5048        -999.25        -999.25        -999.25        -999.25       -54.4927      -5.712212      0.7525192
       499.5000         2.6411        -999.25        -999.25        -999.25        -999.25       -54.3181      -5.537613      0.7641591
       500.0000         2.7192        -999.25        -999.25        -999.25        -999.25       -53.8072      -5.026714       0.798219
       500.5000         2.7749        -999.25        -999.25        -999.25        -999.25       -53.0016      -4.221111      0.8519259
       501.0000         2.8249        -999.25        -999.25        -999.25        -999.25       -52.4149      -3.634415       0.891039
       501.5000         2.8745        -999.25        -999.25        -999.25        -999.25        -51.897      -3.116512      0.9255658
       502.0000         2.9066        -999.25        -999.25        -999.25        -999.25       -51.2339      -2.453411      0.9697726
       502.5000         2.9386        -999.25        -999.25        -999.25        -999.25       -50.0423      -1.261814              1
       503.0000         2.9707        -999.25        -999.25        -999.25        -999.25       -49.5351      -0.754612              1
       503.5000         2.9948        -999.25        -999.25        -999.25        -999.25       -49.0428     -0.2623138              1
       504.0000           3.01        -999.25        -999.25        -999.25        -999.25       -49.4453      -0.664814              1
       504.5000         3.0252        -999.25        -999.25        -999.25        -999.25       -49.8478      -1.067314              1
       505.0000         3.0404        -999.25        -999.25        -999.25        -999.25       -50.1204      -1.339912              1
       505.5000         3.0502        -999.25        -999.25        -999.25        -999.25       -49.7238     -0.9433136              1
       506.0000         3.0579        -999.25        -999.25        -999.25        -999.25       -49.3074     -0.5269127              1
       506.5000         3.0656        -999.25        -999.25        -999.25        -999.25       -48.9067     -0.1262131              1
       507.0000         3.0733        -999.25        -999.25        -999.25        -999.25       -48.6424      0.1380882              1
       507.5000         3.0822        -999.25        -999.25        -999.25        -999.25       -48.4352      0.3452873              1
       508.0000         3.0919        -999.25        -999.25        -999.25        -999.25       -48.3259       0.454586              1
       508.5000         3.1023        -999.25        -999.25        -999.25        -999.25       -48.4368       0.343689              1
       509.0000         3.1278        -999.25        -999.25        -999.25        -999.25       -48.3386      0.4418869              1
       509.5000         3.1534        -999.25        -999.25        -999.25        -999.25       -47.8441      0.9363861              1
       510.0000         3.1789        -999.25        -999.25        -999.25        -999.25       -47.3725       1.407986              1
       510.5000         3.2045        -999.25        -999.25        -999.25        -999.25       -47.0826       1.697887              1
       511.0000         3.2353        -999.25        -999.25        -999.25        -999.25       -46.7928       1.987686              1
       511.5000          3.278        -999.25        -999.25        -999.25        -999.25       -47.2388       1.541687              1
       512.0000         3.3277        -999.25        -999.25        -999.25        -999.25       -48.1602      0.6202888              1
       512.5000         3.3802        -999.25        -999.25        -999.25        -999.25        -48.849    -0.06851196              1
       513.0000          3.431        -999.25        -999.25        -999.25        -999.25       -49.2673     -0.4868126              1
       513.5000          3.471        -999.25        -999.25        -999.25        -999.25       -49.5681     -0.7876129              1
       514.0000         3.5053        -999.25        -999.25        -999.25        -999.25       -49.7593     -0.9788132              1
       514.5000         3.5294        -999.25        -999.25        -999.25        -999.25       -49.4059      -0.625412              1
       515.0000         3.5146        -999.25        -999.25        -999.25        -999.25       -49.0059     -0.2254143              1
       515.5000         3.4432        -999.25        -999.25        -999.25        -999.25       -48.5381      0.2423859              1
       516.0000         3.2711        -999.25        -999.25        -999.25        -999.25       -48.3602      0.4202881              1
       516.5000         3.0581        -999.25        -999.25        -999.25        -999.25       -48.8986     -0.1181145              1
       517.0000         2.9522        -999.25        -999.25        -999.25        -999.25       -50.8654      -2.084911      0.9943392
       517.5000         2.9073        -999.25        -999.25        -999.25        -999.25       -53.9089      -5.128414      0.7914391
       518.0000          2.853        -999.25        -999.25        -999.25        -999.25       -56.5005      -7.720013      0.6186658
       518.5000         2.7871        -999.25        -999.25        -999.25        -999.25       -57.4429      -8.662415       0.555839
       519.0000         2.7211        -999.25        -999.25        -999.25        -999.25       -58.0085      -9.228012      0.5181325
       519.5000          2.663        -999.25        -999.25        -999.25        -999.25        -58.305      -9.524513      0.4983658
       520.0000         2.6077        -999.25        -999.25        -999.25        -999.25        -58.572      -9.791512      0.4805659
       520.5000         2.5707        -999.25        -999.25        -999.25        -999.25       -58.7875      -10.00701      0.4661992
       521.0000         2.5471        -999.25        -999.25        -999.25        -999.25       -58.9904      -10.20991      0.4526726
       521.5000         2.5409        -999.25        -999.25        -999.25        -999.25       -59.3365      -10.55601      0.4295993
       522.0000           2.55        -999.25        -999.25        -999.25        -999.25       -59.7546      -10.97411      0.4017258
       522.5000         2.5669        -999.25        -999.25        -999.25        -999.25       -60.3649      -11.58441      0.3610392
       523.0000         2.5837        -999.25        -999.25        -999.25        -999.25       -61.6881      -12.90761      0.2728259
       523.5000         2.5815        -999.25        -999.25        -999.25        -999.25       -62.6328      -13.85231      0.2098457
       524.0000         2.5715        -999.25        -999.25        -999.25        -999.25       -63.7777      -14.99721      0.1335192
       524.5000         2.5615        -999.25        -999.25        -999.25        -999.25       -63.7739      -14.99341      0.1337725
       525.0000         2.5515        -999.25        -999.25        -999.25        -999.25       -62.2669      -13.48641      0.2342392
       525.5000         2.5548        -999.25        -999.25        -999.25        -999.25       -61.0164      -12.23591      0.3176059
       526.0000         2.5788        -999.25        -999.25        -999.25        -999.25       -60.3232      -11.54271      0.3638191
       526.5000         2.6428        -999.25        -999.25        -999.25        -999.25       -59.6565      -10.87601      0.4082657
       527.0000         2.6673        -999.25        -999.25        -999.25        -999.25       -59.1461      -10.36561      0.4422925
