#------------------------------------------------------------------------------
# Created by    : vladimir.rabinovich
# Created on    : 09/19/2023 17:20:49
#------------------------------------------------------------------------------
~Version Information Section
VERS.           2.0     :   CWLS log ASCII Standard - VERSION 2.0
WRAP.           NO      :   One line per depth step
~Well Information Section
#MNEM       .UNIT                                         VALUE :DESCRIPTION
#------------------------------------------------------------------------------
STRT        .FT                                             507 :START DEPTH
STOP        .FT                                            6530 :STOP DEPTH
STEP        .FT                                             0.5 :STEP      
NULL        .                                           -999.25 :NULL      
COMP        .                                      SHELL OIL CO :COMPANY   
WELL        .                                ST TR 00692-L SE/4 :WELL      
FLD         .                                           WILDCAT :FIELD     
LOC         .                                                   :LOCATION  
CNTY        .                      MATAGORDA ISLAND LARGE BLOCK :LOCATION  
STAT        .                                             TEXAS :STATE     
CTRY        .                                     UNITED STATES :COUNTRY   
SRVC        .                                                   :SERVICE COMPANY
DATE        .                             9/13/2023 11:12:05 AM :LOG DATE  
API         .                                    42703000180000 :API NUMBER
UWI         .                                    42703000180000 :UNIQUE WELL ID
XCOORD      .                                  399042.886430441 :SURFACE X 
YCOORD      .                                  10159669.4462586 :SURFACE Y 
LAT         .                                        27.9430215 :LATITUDE  
LON         .                                       -96.8445442 :LONGITUDE 
ELEV        .FT                                              84 :ELEVATION VALUE
ELEV_TYPE   .                                                DF :ELEVATION REFERENCE TYPE
~Curve Information Section
#MNEM       .UNIT                                      API CODE :CURVE DESCRIPTION
#------------------------------------------------------------------------------
DEPT        .FT                                                 :DEPTH     
ASN         .OHMM                                               :          
CILD        .MMHO                                               :          
ILD         .OHMM                                               :          
SP          .MV                                                 :          
SP_NORM     .MV                                                 :SP Normalized
VSH_SP      .V/V                                                :Volume of Shale from SP
~A        DEPTH            ASN           CILD            ILD             SP        SP_NORM         VSH_SP
# ...
      4117.0000         0.9524       1404.191         0.7168       -48.2573       -10.5215      0.8996091
      4117.5000         0.9824       1287.963         0.7359       -48.7614       -11.0255      0.8904455
      4118.0000         1.0033       1147.211          0.755       -49.1763       -11.4404      0.8829018
      4118.5000         1.0217       1116.295          0.774       -49.4484       -11.7125      0.8779545
      4119.0000         1.0322       1058.082         0.7931       -49.1582       -11.4223      0.8832309
      4119.5000         1.0426       1020.851         0.8121       -48.8838       -11.1479        0.88822
      4120.0000         1.0531        1005.74         0.8312       -48.6443       -10.9084      0.8925745
      4120.5000         1.0635       1020.405         0.8503       -49.1565       -11.4207        0.88326
      4121.0000          1.074         1034.5         0.8693       -50.0371       -12.3013      0.8672491
      4121.5000         1.0844       1048.484         0.8884       -51.4327       -13.6968      0.8418764
      4122.0000         1.1101       1046.105         0.9074       -52.5421       -14.8062      0.8217055
      4122.5000         1.1404       1039.473         0.9246       -53.3799       -15.6441      0.8064709
      4123.0000         1.1708       1033.342         0.9394       -54.2178       -16.4819      0.7912382
      4123.5000         1.1909       1027.496         0.9541       -54.8181       -17.0822      0.7803236
      4124.0000          1.173        1021.65         0.9619       -55.2788       -17.5429      0.7719473
      4124.5000         1.1196       1017.928         0.9621       -55.7393       -18.0034      0.7635745
      4125.0000         1.0594       1034.066         0.9525       -55.1363       -17.4004      0.7745382
      4125.5000         1.0515       1061.254         0.9207       -54.2562       -16.5203        0.79054
      4126.0000         1.0437       1099.896         0.8889       -53.5676       -15.8317        0.80306
      4126.5000         1.0392       1147.459         0.8623       -53.3006       -15.5647      0.8079146
      4127.0000         1.0366       1163.994         0.8377       -53.0335       -15.2976      0.8127709
      4127.5000         1.0319       1172.961         0.8131       -52.7665       -15.0306      0.8176255
      4128.0000         1.0215       1159.424         0.7884       -52.5809        -14.845          0.821
      4128.5000         0.9926       1145.885         0.7638       -52.4531       -14.7172      0.8233236
      4129.0000          0.968       1142.033         0.7392       -52.3252       -14.5893      0.8256491
      4129.5000         0.9459       1213.055         0.7137       -52.1973       -14.4614      0.8279746
      4130.0000         0.9254       1355.045         0.6866       -51.4495       -13.7136      0.8415709
      4130.5000         0.9102       1390.469         0.6812       -50.5806       -12.8447      0.8573691
      4131.0000         0.8979       1415.426         0.6813        -48.163       -10.4271      0.9013255
      4131.5000         0.8868       1426.189         0.6815       -46.2566        -8.5207      0.9359873
      4132.0000         0.8819       1402.023         0.6816       -46.1138        -8.3779      0.9385836
      4132.5000         0.8799       1378.453         0.6859       -45.9708        -8.2349      0.9411836
      4133.0000         0.8778       1355.975         0.7023       -45.8279         -8.092      0.9437818
      4133.5000         0.8757       1333.494         0.7188       -45.5775        -7.8416      0.9483346
      4134.0000         0.8867       1311.682         0.7352       -45.3032        -7.5673      0.9533218
      4134.5000         0.8987       1296.064         0.7517       -45.0678        -7.3319      0.9576018
      4135.0000         0.9107       1280.457          0.776        -45.067        -7.3312      0.9576145
      4135.5000         0.9228       1266.654         0.8011        -45.066        -7.3302      0.9576327
      4136.0000         0.9348       1260.076         0.8261       -45.1635        -7.4277        0.95586
      4136.5000         0.9469       1256.043         0.8512       -45.2786        -7.5427      0.9537691
      4137.0000         0.9669       1253.369         0.8763       -45.5329        -7.7971      0.9491436
      4137.5000         1.0104       1244.166         0.9019       -45.9547        -8.2188      0.9414763
      4138.0000         1.0472        1179.91         0.9282       -46.3763        -8.6404      0.9338109
      4138.5000          1.084       1112.232         0.9546        -47.702        -9.9661      0.9097072
      4139.0000         1.1207       1044.607          0.981       -49.1304       -11.3946      0.8837345
      4139.5000         1.1624       976.9307          1.011       -49.9547       -12.2188      0.8687491
      4140.0000         1.2145       909.2549         1.0428       -50.7795       -13.0436      0.8537527
      4140.5000         1.2402       875.3672         1.0746       -51.6119        -13.876      0.8386182
      4141.0000          1.265       913.5156         1.1064       -52.4677       -14.7318      0.8230582
      4141.5000         1.2898       937.2588         1.1382       -53.3242       -15.5883      0.8074855
      4142.0000          1.302       922.1357         1.1699       -54.2408       -16.5049        0.79082
      4142.5000         1.3135       874.0547         1.2017       -55.1586       -17.4227      0.7741327
      4143.0000          1.325       839.7207         1.2334       -56.0764       -18.3405      0.7574455
      4143.5000         1.3364       805.3623         1.2297       -56.9874       -19.2515      0.7408819
      4144.0000         1.3497        770.707         1.2002       -55.9692       -18.2333      0.7593946
      4144.5000         1.3652       734.5898         1.1706       -54.3467       -16.6108      0.7888945
      4145.0000         1.3807       703.8984         1.0707       -52.7243       -14.9884      0.8183927
      4145.5000         1.4035        931.252         0.9838       -51.1353       -13.3994      0.8472837
      4146.0000         1.4294       1082.457          0.943        -49.581       -11.8451      0.8755437
      4146.5000         1.4818       1160.588         0.9022       -48.2734       -10.5375      0.8993182
      4147.0000         1.1743       1244.514         0.8614       -47.3159          -9.58      0.9167272
      4147.5000         1.1289       1308.375         0.8206       -46.7609         -9.025      0.9268182
      4148.0000         1.0438       1335.574         0.7798       -46.2056        -8.4697      0.9369146
      4148.5000         1.0384       1351.459         0.7587       -45.6506        -7.9147      0.9470055
      4149.0000         1.0345       1361.621         0.7415       -45.2354        -7.4995      0.9545546
      4149.5000         1.0308       1370.357         0.7243       -44.8481        -7.1122      0.9615964
      4150.0000         1.0272       1373.809         0.7071       -47.3004        -9.5645      0.9170091
      4150.5000         1.0163       1382.338         0.6899       -49.0846       -11.3487      0.8845691
      4151.0000          0.995       1396.736         0.6727       -49.9182       -12.1824      0.8694109
      4151.5000         0.9671       1422.102         0.6536       -49.8097       -12.0738      0.8713855
      4152.0000         0.9391       1470.877         0.6325       -49.1965       -11.4606      0.8825346
      4152.5000         0.9072       1578.707         0.6114       -48.5662       -10.8303      0.8939945
      4153.0000         0.8736       1614.205         0.6074       -47.9365       -10.2006      0.9054437
      4153.5000         0.8471       1651.164         0.6097       -47.4782        -9.7423      0.9137763
      4154.0000          0.831       1688.422         0.6121       -47.3143        -9.5784      0.9167564
      4154.5000         0.8223       1714.828         0.6145       -47.7227        -9.9868      0.9093309
