#------------------------------------------------------------------------------
# Created by    : vladimir.rabinovich
# Created on    : 09/19/2023 17:22:42
#------------------------------------------------------------------------------
~Version Information Section
VERS.           2.0     :   CWLS log ASCII Standard - VERSION 2.0
WRAP.           NO      :   One line per depth step
~Well Information Section
#MNEM       .UNIT                                         VALUE :DESCRIPTION
#------------------------------------------------------------------------------
STRT        .FT                                              96 :START DEPTH
STOP        .FT                                            7107 :STOP DEPTH
STEP        .FT                                             0.5 :STEP      
NULL        .                                           -999.25 :NULL      
COMP        .                                  XTO OFFSHORE INC :COMPANY   
WELL        .                               OCS G23162 ST00BP00 :WELL      
FLD         .                                 BRAZOS BLOCK 0398 :FIELD     
LOC         .                                                   :LOCATION  
CNTY        .                                BRAZOS LARGE BLOCK :LOCATION  
STAT        .                                             TEXAS :STATE     
CTRY        .                                     UNITED STATES :COUNTRY   
SRVC        .                                                   :SERVICE COMPANY
DATE        .                             9/13/2023 11:18:28 AM :LOG DATE  
API         .                                    42704403370000 :API NUMBER
UWI         .                                    42704403370000 :UNIQUE WELL ID
XCOORD      .                                  864551.184430364 :SURFACE X 
YCOORD      .                                  10381025.1526549 :SURFACE Y 
LAT         .                                        28.5842785 :LATITUDE  
LON         .                                       -95.4179199 :LONGITUDE 
ELEV        .FT                                             100 :ELEVATION VALUE
ELEV_TYPE   .                                                KB :ELEVATION REFERENCE TYPE
~Curve Information Section
#MNEM       .UNIT                                      API CODE :CURVE DESCRIPTION
#------------------------------------------------------------------------------
DEPT        .FT                                                 :DEPTH     
DCAL        .IN                                                 :          
DPHI        .FRAC                                               :          
DT          .US/F                                               :          
GR          .GAPI                                               :          
GR_NORM     .GAPI                                               :GammaRay Normalized
HT01        .OHMM                                               :          
HT02        .OHMM                                               :          
HT03        .OHMM                                               :          
HT06        .OHMM                                               :          
HT09        .OHMM                                               :          
HT12        .OHMM                                               :          
NPHI        .FRAC                                               :          
RWA         .OHMM                                               :          
SP          .MV                                                 :          
TENS        .LB                                                 :          
VSH_GR      .V/V                                                :Volume of Shale from GR
~A        DEPTH           DCAL           DPHI             DT             GR        GR_NORM           HT01           HT02           HT03           HT06           HT09           HT12           NPHI            RWA             SP           TENS         VSH_GR
# ...
      6160.0000         0.5541         0.1721       105.1922        66.4069       57.36676         1.2971          1.126         1.0265         1.0062         0.9981         0.9925         0.2512         0.0359        -999.25       3939.325      0.5184416
      6160.5000         0.5625         0.1371        90.0219        61.4282       51.83275         1.3456         1.1677         1.0672         1.0409         1.0316         1.0261         0.2252         0.0178        -999.25       3825.427      0.4006968
      6161.0000         0.6298         0.1382        84.5219        61.6206       52.04441         1.3015         1.1424         1.0565         1.0259         1.0156         1.0104         0.2038         0.0384        -999.25       3737.935      0.4052002
      6161.5000         0.6512         0.1898        90.7531         66.022       56.93275         1.1843         1.0606         0.9979         0.9657         0.9552         0.9505         0.2143         0.0577        -999.25       3713.437      0.5092074
      6162.0000         0.4325         0.2196        80.3406        72.2755       63.87896         1.0439         0.9559         0.9147         0.8837         0.8736         0.8697         0.2699          0.055        -999.25       3751.297      0.6569991
      6162.5000         0.4868         0.2215           69.4        76.8453       68.95439         0.9299         0.8683         0.8415         0.8125         0.8031         0.7998         0.3264         0.0535        -999.25       3810.155      0.7649871
      6163.0000         0.5203         0.2319        76.4812        75.3782       67.32216         0.8672         0.8222         0.8031         0.7752         0.7663         0.7635         0.3459         0.0603        -999.25       3841.971      0.7302587
      6163.5000         0.5249         0.2461        90.7328        73.2375       64.94149         0.8633          0.828         0.8121         0.7835         0.7743         0.7718         0.3556          0.068        -999.25       3816.836      0.6796062
      6164.0000         0.4964         0.2388       103.0813        73.8389       65.60759         0.9042          0.876         0.8616         0.8305         0.8205         0.8181         0.3541         0.0594        -999.25       3743.025      0.6937785
      6164.5000         0.4452         0.2012        89.7703        77.3023        69.4537          0.969         0.9486         0.9364         0.9018         0.8906         0.8882         0.3401         0.0352        -999.25       3663.487      0.7756106
      6165.0000         0.4483         0.1695        67.0938        78.1441       70.38692          1.026         1.0163         1.0095         0.9721         0.9598         0.9576         0.3273          0.033        -999.25       3650.761      0.7954663
      6165.5000         0.5959         0.1819        71.7016        80.7417       73.27102         1.0412         1.0439         1.0463          1.009         0.9969          0.995         0.3276         0.0526        -999.25       3748.752      0.8568302
      6166.0000         0.8346         0.2171        86.6297        84.7583       77.73178         1.0182          1.032         1.0438         1.0101         0.9993          0.998         0.3509         0.0718        -999.25       3928.826        0.95174
      6166.5000         0.9038         0.2337        87.6453        85.1672       78.18401         0.9816         1.0036         1.0232         0.9939          0.985         0.9844         0.3848         0.0738        -999.25        4100.31      0.9613618
      6167.0000          0.905         0.2292        87.4094        89.8092       83.33965         0.9467         0.9745         0.9998         0.9747         0.9678         0.9678          0.408         0.0657        -999.25       4185.256              1
      6167.5000         0.8941         0.2239        96.5531        95.2449       89.37721         0.9301         0.9627         0.9923         0.9712         0.9659         0.9666         0.4101         0.0632        -999.25       4180.166              1
      6168.0000         0.8815         0.2308       101.2469        98.2273       92.68887         0.9264         0.9633          0.996         0.9786         0.9751         0.9763         0.4204         0.0751        -999.25       4120.035              1
      6168.5000         0.8745         0.2381       110.5047       102.3883       97.31007         0.9333         0.9741         1.0085         0.9946         0.9928         0.9946         0.4203          0.076        -999.25       4049.724              1
      6169.0000         0.9272         0.2285       110.6531        97.8184       92.23029         0.9402         0.9842         1.0185          1.008         1.0079         1.0101         0.4062         0.0632        -999.25       3977.185              1
      6169.5000          0.955         0.2146       109.6547        84.0849       76.96873          0.941         0.9868         1.0198         1.0125         1.0139         1.0165         0.3963         0.0586        -999.25       3898.601      0.9355049
      6170.0000         0.9733         0.2117       109.6625        79.8758       72.28985         0.9397         0.9866         1.0179         1.0136         1.0163         1.0193          0.386         0.0631        -999.25       3832.108      0.8359542
      6170.5000         0.9531         0.2115       108.6141        84.4457       77.36539         0.9525         1.0017         1.0322         1.0303         1.0343         1.0375         0.3803         0.0616        -999.25       3796.793      0.9439444
      6171.0000         0.6902         0.1769         107.95        81.7759       74.39683         0.9924          1.047         1.0778         1.0783         1.0834         1.0868         0.3638         0.0306        -999.25       3799.656      0.8807836
      6171.5000         0.8172         0.1157       103.9672        73.7426       65.46882         1.0593         1.1232         1.1562         1.1588          1.165         1.1687         0.3242         0.0107        -999.25       3828.926      0.6908259
      6172.0000         0.9335         0.1008       102.6344        73.1413       64.79858         1.1281         1.2029         1.2399         1.2446         1.2519         1.2558         0.2839         0.0228        -999.25        3857.56      0.6765656
      6172.5000         0.9939         0.1536        91.4797        80.5733       73.05424         1.1454         1.2254         1.2669         1.2738         1.2816         1.2854         0.2754         0.0621        -999.25       3863.287       0.852218
      6173.0000         0.9593         0.2173        75.3687        86.5141       79.65302         1.0961         1.1723         1.2169         1.2256         1.2334         1.2368         0.3286         0.0918        -999.25       3842.925      0.9926175
      6173.5000         0.8449         0.2436        66.7109        86.2415       79.34802         1.0234         1.0927         1.1388          1.149         1.1566         1.1596         0.3881         0.0908        -999.25       3790.112      0.9861282
      6174.0000         0.9991         0.2404        73.9125        90.8835       84.50367         0.9694         1.0344         1.0811         1.0931         1.1004         1.1032         0.4181         0.0808        -999.25       3722.027              1
      6174.5000         1.1942         0.2325        98.8469        97.1931       91.51222         0.9532         1.0189         1.0662         1.0806         1.0882         1.0909         0.4076         0.0773        -999.25       3677.168              1
      6175.0000         1.2872         0.2188       113.5141        97.9146       92.31177         0.9655         1.0359         1.0843         1.1019         1.1099         1.1126         0.3946         0.0636        -999.25       3674.941              1
      6175.5000         0.6459         0.1917       114.4203        94.8841       88.94243         0.9838         1.0596          1.109         1.1302         1.1389         1.1417          0.405         0.0445        -999.25       3715.982              1
