#------------------------------------------------------------------------------
# Created by    : vladimir.rabinovich
# Created on    : 09/19/2023 17:22:26
#------------------------------------------------------------------------------
~Version Information Section
VERS.           2.0     :   CWLS log ASCII Standard - VERSION 2.0
WRAP.           NO      :   One line per depth step
~Well Information Section
#MNEM       .UNIT                                         VALUE :DESCRIPTION
#------------------------------------------------------------------------------
STRT        .FT                                            3450 :START DEPTH
STOP        .FT                                            9344 :STOP DEPTH
STEP        .FT                                             0.5 :STEP      
NULL        .                                           -999.25 :NULL      
COMP        .                                  W&T OFFSHORE INC :COMPANY   
WELL        .                               OCS G04565 ST00BP00 :WELL      
FLD         .                              GALVESTON BLOCK 0303 :FIELD     
LOC         .                                                   :LOCATION  
CNTY        .                             GALVESTON LARGE BLOCK :LOCATION  
STAT        .                                             TEXAS :STATE     
CTRY        .                                     UNITED STATES :COUNTRY   
SRVC        .                                                   :SERVICE COMPANY
DATE        .                             9/13/2023 11:19:39 AM :LOG DATE  
API         .                                    42706403900000 :API NUMBER
UWI         .                                    42706403900000 :UNIQUE WELL ID
XCOORD      .                                  983096.827540607 :SURFACE X 
YCOORD      .                                  10485968.3003259 :SURFACE Y 
LAT         .                                        28.8789082 :LATITUDE  
LON         .                                       -95.0543314 :LONGITUDE 
ELEV        .FT                                              90 :ELEVATION VALUE
ELEV_TYPE   .                                                KB :ELEVATION REFERENCE TYPE
~Curve Information Section
#MNEM       .UNIT                                      API CODE :CURVE DESCRIPTION
#------------------------------------------------------------------------------
DEPT        .FT                                                 :DEPTH     
CDER        .MMHO                                               :          
DCAL        .IN                                                 :          
DPHI        .DEC                                                :          
DRHO        .G/CC                                               :          
DTLN        .US/F                                               :          
GR          .GAPI                                               :          
GR_NORM     .GAPI                                               :GammaRay Normalized
IDER        .OHMM                                               :          
IMER        .OHMM                                               :          
NPOR        .DEC                                                :          
RWA         .OHMM                                               :          
SFLA        .OHMM                                               :          
SP          .MV                                                 :          
SP_NORM     .MV                                                 :SP Normalized
TENS        .LB                                                 :          
VSH_GR      .V/V                                                :Volume of Shale from GR
VSH_SP      .V/V                                                :Volume of Shale from SP
~A        DEPTH           CDER           DCAL           DPHI           DRHO           DTLN             GR        GR_NORM           IDER           IMER           NPOR            RWA           SFLA             SP        SP_NORM           TENS         VSH_GR         VSH_SP
# ...
      5850.0000        1757.16          1.003          0.231         -0.001        107.601             60       64.03883          0.569          0.582          0.394          0.081          0.787         -20.08      -20.12889        -999.25      0.6604006      0.7124444
      5850.5000       1645.278           1.02          0.225         -0.002        105.579         54.577       57.64515          0.608          0.618          0.382          0.082          0.895        -22.101      -22.14789        -999.25      0.5243649      0.6836016
      5851.0000        1572.08          1.315          0.222         -0.002        103.887         52.412       55.09185          0.636          0.652          0.378          0.078          0.994        -24.481      -24.52589        -999.25      0.4700393      0.6496302
      5851.5000         1516.3          1.611          0.218         -0.003        106.632         53.075       55.87205           0.66          0.679          0.358          0.072          1.054        -26.761      -26.80389        -999.25      0.4866394      0.6170874
      5852.0000       1496.558          1.903          0.212         -0.004        112.249          54.87       57.98659          0.668          0.695          0.337          0.065          1.027        -28.461      -28.50188        -999.25      0.5316295      0.5928302
      5852.5000       1509.206          1.966           0.21         -0.007        117.433         57.526       61.11604          0.663          0.688          0.326          0.061          0.928          -28.4      -28.43888        -999.25      0.5982136      0.5937303
      5853.0000       1544.879          1.819          0.217         -0.009        121.768         63.306       67.92789          0.647          0.664          0.341          0.068          0.807        -23.158      -23.19488        -999.25      0.7431467      0.6686445
      5853.5000       1624.168          1.764           0.23         -0.012        122.241         72.222       78.43633          0.616          0.609          0.408          0.082          0.719        -16.297      -16.33188        -999.25      0.9667303      0.7666874
      5854.0000       1737.922          1.783          0.242         -0.014        117.244         83.203       91.37886          0.575          0.576          0.447          0.099          0.677        -11.378      -11.41088        -999.25              1      0.8369874
      5854.5000       1736.111          1.763          0.251         -0.015        108.808         85.144        93.6655          0.576          0.576           0.46          0.105          0.664         -8.337      -8.367876        -999.25              1      0.8804589
      5855.0000       1597.955          1.688          0.249         -0.016        104.845         79.275       86.74611          0.626          0.604          0.467          0.107          0.695         -8.208      -8.236875        -999.25              1      0.8823304
      5855.5000       1409.046          1.541          0.235         -0.018        102.564         68.369       73.88934           0.71          0.666          0.392          0.094          0.752         -9.757      -9.783873        -999.25       0.869986      0.8602304
      5856.0000       1261.193          1.352          0.214         -0.018        101.783         59.017       62.86436          0.793          0.744          0.326          0.076          0.857          -12.6      -12.62487        -999.25      0.6354119      0.8196447
      5856.5000       1182.592          1.714          0.197         -0.016         102.88         55.555       58.78222          0.846          0.831          0.271          0.061          0.953          -15.4      -15.42287        -999.25      0.5485578      0.7796733
      5857.0000       1209.482          2.342          0.187         -0.014        104.042         54.419       57.44184          0.827          0.847          0.271          0.059          1.014            -17      -17.02087        -999.25      0.5200392      0.7568448
      5857.5000       1297.859          2.763          0.179         -0.012        105.321         54.647       57.70928          0.771          0.803          0.296          0.061           1.03          -16.6      -16.61887        -999.25      0.5257294      0.7625876
      5858.0000       1338.509          2.769          0.172          -0.01        107.559         56.748       60.18453          0.747          0.768          0.324          0.063          1.004          -14.6      -14.61686        -999.25      0.5783943      0.7911876
      5858.5000       1335.827          2.587          0.168         -0.009        111.343         59.935       63.93989          0.749          0.761          0.357          0.066          0.958        -11.521      -11.53586        -999.25      0.6582955       0.835202
      5859.0000       1319.609          2.399          0.171         -0.011        115.451         64.736       69.59776          0.758          0.761          0.373          0.068          0.904         -9.123       -9.13586        -999.25      0.7786757      0.8694877
      5859.5000       1321.528          2.168          0.181         -0.014        118.484         69.408       75.10355          0.757          0.759          0.373          0.073          0.849          -7.45      -7.460859        -999.25      0.8958203      0.8934163
      5860.0000       1348.982          1.824          0.195         -0.017        118.168         73.217       79.59211          0.741          0.749          0.367          0.082          0.815         -6.786      -6.794857        -999.25      0.9913215      0.9029306
      5860.5000       1410.835          1.481          0.212         -0.019        114.669         76.101       82.99031          0.709          0.731          0.378          0.091          0.801         -6.924      -6.930855        -999.25              1      0.9009878
      5861.0000       1456.876          1.204          0.224         -0.021        111.644          76.15       83.04675          0.686          0.705          0.412            0.1          0.796         -7.839      -7.843854        -999.25              1      0.8879449
      5861.5000       1479.509          0.997          0.227         -0.021        110.816           75.5       82.27926          0.676          0.694          0.417          0.098          0.798         -9.279      -9.281853        -999.25              1      0.8674021
      5862.0000        1499.25          0.927          0.221         -0.023        112.331         74.725        81.3644          0.667          0.695          0.394          0.091          0.795        -11.381      -11.38185        -999.25              1      0.8374022
      5862.5000       1519.988          0.966          0.217         -0.024        115.426         73.975       80.47903          0.658          0.694          0.368          0.083          0.788        -14.119      -14.11794        -999.25              1      0.7983151
      5863.0000       1561.768          1.054          0.219         -0.025        118.068         73.525       79.94729           0.64          0.686          0.372          0.079          0.766        -16.159      -16.15611        -999.25      0.9988785      0.7691985
      5863.5000       1617.599          1.169          0.223         -0.023        119.661         74.375       80.94791          0.618          0.659          0.406          0.086          0.731         -17.16      -17.15527        -999.25              1      0.7549248
      5864.0000       1687.764          1.287          0.233         -0.021        118.459         75.999       82.86089          0.592          0.622          0.443          0.098            0.7        -16.281      -16.27443        -999.25              1      0.7675081
      5864.5000       1729.206          1.378          0.242          -0.02        111.288         77.726       84.89527          0.578          0.605           0.48           0.11           0.68         -15.26      -15.25159        -999.25              1      0.7821201
