#------------------------------------------------------------------------------
# Created by    : vladimir.rabinovich
# Created on    : 09/19/2023 17:21:03
#------------------------------------------------------------------------------
~Version Information Section
VERS.           2.0     :   CWLS log ASCII Standard - VERSION 2.0
WRAP.           NO      :   One line per depth step
~Well Information Section
#MNEM       .UNIT                                         VALUE :DESCRIPTION
#------------------------------------------------------------------------------
STRT        .FT                                          2542.5 :START DEPTH
STOP        .FT                                            8214 :STOP DEPTH
STEP        .FT                                             0.5 :STEP      
NULL        .                                           -999.25 :NULL      
COMP        .                          SEAGULL ENERGY E & P INC :COMPANY   
WELL        .                               OCS G12505 ST00BP00 :WELL      
FLD         .                              GALVESTON BLOCK 0357 :FIELD     
LOC         .                                                   :LOCATION  
CNTY        .                             GALVESTON LARGE BLOCK :LOCATION  
STAT        .                                             TEXAS :STATE     
CTRY        .                                     UNITED STATES :COUNTRY   
SRVC        .                                                   :SERVICE COMPANY
DATE        .                             9/13/2023 11:19:54 AM :LOG DATE  
API         .                                    42706403610000 :API NUMBER
UWI         .                                    42706403610000 :UNIQUE WELL ID
XCOORD      .                                  1003713.76055251 :SURFACE X 
YCOORD      .                                  10412171.7759297 :SURFACE Y 
LAT         .                                          28.67696 :LATITUDE  
LON         .                                        -94.986081 :LONGITUDE 
ELEV        .FT                                              96 :ELEVATION VALUE
ELEV_TYPE   .                                                KB :ELEVATION REFERENCE TYPE
~Curve Information Section
#MNEM       .UNIT                                      API CODE :CURVE DESCRIPTION
#------------------------------------------------------------------------------
DEPT        .FT                                                 :DEPTH     
AT10        .OHMM                                               :          
AT20        .OHMM                                               :          
AT30        .OHMM                                               :          
AT60        .OHMM                                               :          
AT90        .OHMM                                               :          
DCAL        .IN                                                 :          
DPSS        .V/V                                                :          
DTLF        .US/FT                                              :          
DTLN        .US/FT                                              :          
GR          .GAPI                                               :          
GR_NORM     .GAPI                                               :GammaRay Normalized
NPSS        .V/V                                                :Neutron Porosity Sandstone
SP          .MV                                                 :          
SP_NORM     .MV                                                 :SP Normalized
TENS        .LB                                                 :          
VSH_GR      .V/V                                                :Volume of Shale from GR
VSH_SP      .V/V                                                :Volume of Shale from SP
~A        DEPTH           AT10           AT20           AT30           AT60           AT90           DCAL           DPSS           DTLF           DTLN             GR        GR_NORM           NPSS             SP        SP_NORM           TENS         VSH_GR         VSH_SP
# ...
      4567.5000            0.7          0.745         0.7517         0.7584         0.7652           0.36         0.2715       130.7843       131.3725          103.6       88.23288         0.4992            -10      -4.603317       2619.667              1      0.9342383
      4568.0000            0.7          0.745         0.7517         0.7584         0.7652           0.32         0.2703       130.3922       130.9804          102.4       86.79326         0.4992           -9.4      -4.000828       2622.083              1      0.9428453
      4568.5000            0.7         0.7517         0.7584         0.7652          0.772           0.36         0.2667       130.3922       130.9804          101.6       85.83364         0.4872           -9.2       -3.79834       2624.493              1       0.945738
      4569.0000         0.7063         0.7584         0.7652          0.772         0.7789           0.36         0.2667       130.3922       130.9804             99       82.71403         0.4629           -8.8      -3.395853       2626.899              1      0.9514878
      4569.5000         0.7189          0.772         0.7789         0.7859         0.7929           0.32         0.2678       130.1961       130.7843           96.8       80.07441         0.4616           -8.2      -2.793364         2629.3              1      0.9600948
      4570.0000         0.7319          0.772         0.7789         0.7859         0.7929           0.32         0.2666       130.1961       130.7843           95.6       78.63478         0.4751           -8.2      -2.790876       2631.696      0.9709528      0.9601303
      4570.5000         0.7384          0.772         0.7789         0.7859         0.7929           0.32         0.2665       130.1961       130.7843           96.2       79.35516         0.4944           -8.4      -2.988387       2630.204      0.9862801      0.9573088
      4571.0000         0.7254         0.7652          0.772         0.7789         0.7859           0.32         0.2676       130.1961       130.7843           96.8       80.07555         0.5016           -8.8        -3.3859       2626.122              1        0.95163
      4571.5000         0.7063         0.7517         0.7584         0.7652          0.772           0.36         0.2711       130.9804       131.5686           97.4       80.79592         0.4944             -9      -3.583411       2622.041              1      0.9488084
      4572.0000            0.7         0.7319         0.7384          0.745         0.7517           0.36         0.2745       131.9608        132.549           97.6        81.0363          0.492           -9.4      -3.980923       2617.959              1      0.9431297
      4572.5000         0.6933         0.7254         0.7319         0.7384          0.745           0.36         0.2815       132.7451       133.5294           98.6       82.23669         0.4896           -9.8      -4.378435       2613.878              1      0.9374509
      4573.0000         0.6801         0.7189         0.7254         0.7319         0.7384           0.36         0.2826       133.3333       133.9216            100       83.91707         0.4836          -10.2      -4.775947       2609.796              1      0.9317722
      4573.5000         0.6801         0.7189         0.7254         0.7319         0.7384           0.36         0.2814       132.9412       133.5294          102.2       86.55745          0.459          -10.2      -4.773458       2605.714              1      0.9318078
      4574.0000         0.6801         0.7189         0.7254         0.7319         0.7384            0.4         0.2756       131.7647       132.3529          102.8       87.27782          0.443          -10.2       -4.77097       2601.633              1      0.9318433
      4574.5000         0.6933         0.7319         0.7384          0.745         0.7517            0.4         0.2674       130.3922       130.7843          100.4       84.39821         0.4392          -10.2      -4.768482       2597.551              1      0.9318788
      4575.0000         0.7189         0.7652          0.772         0.7789         0.7859            0.4         0.2627       128.4314       129.0196           96.8       80.07859         0.4281          -10.4      -4.965994       2593.469              1      0.9290572
      4575.5000         0.7652            0.8         0.8079         0.8159         0.8239            0.4          0.258       125.2941       125.8824           94.6       77.43897         0.4122          -10.8      -5.363506       2589.388        0.94551      0.9233785
      4576.0000         0.8079         0.8402         0.8485         0.8569         0.8653            0.4         0.2557       123.1373       123.7255           93.2       75.75935         0.4025          -11.2      -5.761018       2585.306      0.9097735      0.9176998
      4576.5000         0.8402         0.8825         0.8912            0.9         0.9073           0.36         0.2521       122.7451       123.3333           91.2       73.35973         0.3988          -11.4      -5.958529       2581.225      0.8587176      0.9148781
      4577.0000         0.8239         0.8569         0.8653         0.8739         0.8825           0.36         0.2521       124.3137        124.902           89.6       71.44011         0.4144          -10.8      -5.356042       2577.143      0.8178747      0.9234851
      4577.5000         0.7789         0.8239          0.832         0.8402         0.8485            0.4         0.2544       126.6667       127.2549           91.2       73.36049         0.4489          -10.4      -4.953553       2573.061      0.8587338       0.929235
      4578.0000         0.7384         0.7859         0.7929            0.8         0.8079            0.4         0.2578       129.0196       129.6078           94.4       77.20087         0.4824           -9.6      -4.151066       2568.979      0.9404441       0.940699
      4578.5000         0.7189         0.7789         0.7859         0.7929            0.8            0.4         0.2613       130.3922       130.9804           97.4       80.80125         0.4884           -9.6      -4.148578       2564.898              1      0.9407346
      4579.0000         0.7319         0.7859         0.7929            0.8         0.8079           0.44         0.2613       130.1961       130.7843           97.6       81.04163         0.4688           -9.6       -4.14609       2560.816              1      0.9407701
      4579.5000          0.745         0.7859         0.7929            0.8         0.8079           0.44         0.2601       129.6078       130.1961           98.6       82.24202         0.4426           -9.8      -4.343601       2556.735              1      0.9379486
      4580.0000          0.745         0.7929            0.8         0.8079         0.8159           0.44         0.2577       129.2157       129.8039           99.8        83.6824         0.4288          -10.2      -4.741112       2552.653              1      0.9322698
      4580.5000         0.7452         0.7931         0.8002         0.8081         0.8161           0.48         0.2565       129.2157       129.8039           99.8       83.68278          0.435          -10.6      -5.138625       2551.021              1      0.9265911
      4581.0000         0.7455         0.7935         0.8006         0.8085         0.8165           0.48         0.2565       129.4118            130           99.2       82.96315         0.4612            -11      -5.536136       2551.021              1      0.9209123
      4581.5000         0.7459         0.7938          0.801         0.8089         0.8169           0.52         0.2576       129.2157       129.8039           98.4       82.00354         0.4675            -11      -5.533648       2551.021              1      0.9209479
      4582.0000         0.7462         0.7942         0.8014         0.8093         0.8173           0.48           0.26       129.4118            130           99.8       83.68392         0.4688            -11       -5.53116       2551.021              1      0.9209834
