#------------------------------------------------------------------------------
# Created by    : vladimir.rabinovich
# Created on    : 09/19/2023 17:20:25
#------------------------------------------------------------------------------
~Version Information Section
VERS.           2.0     :   CWLS log ASCII Standard - VERSION 2.0
WRAP.           NO      :   One line per depth step
~Well Information Section
#MNEM       .UNIT                                         VALUE :DESCRIPTION
#------------------------------------------------------------------------------
STRT        .FT                                            2998 :START DEPTH
STOP        .FT                                           12526 :STOP DEPTH
STEP        .FT                                             0.5 :STEP      
NULL        .                                           -999.25 :NULL      
COMP        .                                 CALIFORNIA CO THE :COMPANY   
WELL        .                               OCS G01117 ST00BP00 :WELL      
FLD         .                                       HIGH ISLAND :FIELD     
LOC         .                                                   :LOCATION  
CNTY        .                           HIGH ISLAND LARGE BLOCK :LOCATION  
STAT        .                                             TEXAS :STATE     
CTRY        .                                     UNITED STATES :COUNTRY   
SRVC        .                                                   :SERVICE COMPANY
DATE        .                             9/13/2023 11:19:15 AM :LOG DATE  
API         .                                    42708000660000 :API NUMBER
UWI         .                                    42708000660000 :UNIQUE WELL ID
XCOORD      .                                  1214371.69372255 :SURFACE X 
YCOORD      .                                  10618355.5582238 :SURFACE Y 
LAT         .                                         29.252113 :LATITUDE  
LON         .                                        -94.336419 :LONGITUDE 
ELEV        .FT                                              77 :ELEVATION VALUE
ELEV_TYPE   .                                                KB :ELEVATION REFERENCE TYPE
~Curve Information Section
#MNEM       .UNIT                                      API CODE :CURVE DESCRIPTION
#------------------------------------------------------------------------------
DEPT        .FT                                                 :DEPTH     
ASN         .OHMM                                               :          
CILD        .OHMM                                               :          
ILD         .OHMM                                               :          
SP          .MV                                                 :          
SP_NORM     .MV                                                 :SP Normalized
VSH_SP      .V/V                                                :Volume of Shale from SP
~A        DEPTH            ASN           CILD            ILD             SP        SP_NORM         VSH_SP
# ...
      3644.0000         0.8904       2006.893         0.5622       -67.1172      -15.84381      0.7566589
      3644.5000         0.8891       2000.711         0.5614       -67.6686      -16.39135      0.7476828
      3645.0000         0.8879       1994.533         0.5607         -68.02      -16.73888      0.7419856
      3645.5000         0.8867       1988.352         0.5599       -68.3717      -17.08672      0.7362834
      3646.0000         0.8854       1982.174         0.5591       -68.7231      -17.43425       0.730586
      3646.5000         0.8821       1975.992         0.5583        -68.255      -16.96229      0.7383231
      3647.0000         0.8786       1969.814         0.5565       -67.1085      -15.81193      0.7571815
      3647.5000          0.875       1963.633         0.5548       -65.9619      -14.66146      0.7760416
      3648.0000         0.8715       1957.453          0.553       -64.8154       -13.5111      0.7948999
      3648.5000         0.8679       1951.273         0.5512       -63.6689      -12.36074      0.8137584
      3649.0000         0.8643       1944.057         0.5494       -62.5223      -11.21028      0.8326184
      3649.5000         0.8578       1930.387         0.5477       -61.3758      -10.05992      0.8514768
      3650.0000         0.8458       1916.717         0.5459       -60.2292      -8.909451      0.8703369
      3650.5000         0.8338       1903.045          0.545       -58.8979      -7.574287      0.8922248
      3651.0000         0.8217       1915.287         0.5505       -57.5554      -6.227924      0.9142963
      3651.5000         0.8097       1932.941         0.5559        -56.213      -4.881664      0.9363661
      3652.0000         0.7978       1950.598         0.5613       -54.8705      -3.535297      0.9584377
      3652.5000         0.7859       1968.254         0.5667        -53.528      -2.188934      0.9805093
      3653.0000          0.774        1985.92         0.5721       -52.6531      -1.310173      0.9949152
      3653.5000         0.7621       1991.008         0.5769       -51.7838     -0.4370079              1
      3654.0000         0.7502       1994.631         0.5771       -50.9152      0.4354553              1
      3654.5000         0.7421       1996.643         0.5773        -50.275       1.079517              1
      3655.0000         0.7349       1995.459         0.5772       -49.8487       1.509678              1
      3655.5000         0.7276       1994.277         0.5757       -49.4227       1.939545              1
      3656.0000         0.7203       1993.094         0.5742       -49.3705       1.995609              1
      3656.5000          0.715       1991.912         0.5727       -49.3646       2.005367              1
      3657.0000         0.7259       1990.729         0.5712       -50.6317      0.7421341              1
      3657.5000         0.7369       1951.449         0.5852       -52.4739      -1.096203      0.9984229
      3658.0000         0.7478       1909.883         0.6113        -54.316      -2.934444      0.9682878
      3658.5000         0.7734       1849.313         0.6374       -56.8765      -5.491077      0.9263758
      3659.0000         0.8477       1730.504         0.6635       -59.8854      -8.496113      0.8771129
      3659.5000          1.049       1633.404         0.6896       -62.8969      -11.50375      0.8278074
      3660.0000         1.1726       1563.367         0.7157       -65.8282      -14.43119      0.7798166
      3660.5000         1.2597       1505.836         0.7341        -67.557      -16.15612      0.7515389
      3661.0000         1.3105       1475.367         0.7455       -69.2858      -17.88106      0.7232614
      3661.5000         1.3463       1487.926         0.7569       -71.0157       -19.6071      0.6949655
      3662.0000         1.3127       1534.504         0.7435       -69.5828      -18.17034       0.718519
      3662.5000         1.2331       1584.174         0.7202       -67.3008      -15.88447      0.7559924
      3663.0000         1.1728       1636.154         0.6969       -65.0187      -13.59851       0.793467
      3663.5000         1.1071       1688.137         0.6736       -62.7368      -11.31275      0.8309386
      3664.0000         1.0389       1740.141         0.6503       -60.6321      -9.204182      0.8655052
      3664.5000         0.9785       1792.123         0.6318       -58.8516      -7.419819      0.8947571
      3665.0000         0.9181       1840.137         0.6211       -57.0712      -5.635559      0.9240072
      3665.5000         0.8814       1870.605         0.6104       -55.2906      -3.851093      0.9532608
      3666.0000          0.846       1901.098         0.5997       -53.5101       -2.06673      0.9825126
      3666.5000         0.8139       1931.566         0.5891       -52.0623     -0.6150703              1
      3667.0000         0.7989       1962.035         0.5784       -50.8812      0.5698967              1
      3667.5000         0.7838         1986.9         0.5717       -49.6996        1.75536              1
      3668.0000         0.7713       1993.242         0.5674       -49.0709       2.387924              1
      3668.5000         0.7663       1997.957         0.5632       -49.0649       2.397785              1
      3669.0000         0.7613        1998.42         0.5589       -48.8306       2.635948              1
      3669.5000         0.7563       1998.883         0.5546       -48.3377       3.132713              1
      3670.0000         0.7513       1999.277         0.5503       -47.8448       3.629475              1
      3670.5000         0.7429       1999.025          0.546       -47.3519        4.12624              1
      3671.0000         0.7342       1998.775         0.5418       -46.8591       4.622902              1
      3671.5000         0.7255       1998.525         0.5375       -47.0445       4.441364              1
      3672.0000         0.7168       1998.273          0.538         -47.66       3.829727              1
      3672.5000         0.7081       1998.023         0.5391       -48.8309       2.662693              1
      3673.0000         0.6994       1997.773         0.5403       -50.1105       1.386955              1
      3673.5000         0.7075       1995.861         0.5414       -51.3907      0.1106148              1
      3674.0000         0.7349       1982.508         0.5426        -52.671      -1.165821      0.9972816
      3674.5000         0.7623       1969.146         0.5437       -53.9506      -2.441555       0.976368
      3675.0000         0.7987       1948.992         0.5449       -55.2309      -3.717995      0.9554427
      3675.5000         0.8387       1920.178          0.546       -56.5111      -4.994331      0.9345192
      3676.0000         0.8711       1891.363         0.5507       -57.7914      -6.270767       0.913594
      3676.5000         0.8876         1874.9         0.5568       -59.1855      -7.661007      0.8908032
      3677.0000         0.9042       1860.738         0.5629       -60.5977       -9.06934      0.8677157
      3677.5000         0.9207       1846.586          0.569       -62.0085      -10.47628      0.8446512
      3678.0000          0.933       1832.422         0.5751       -63.4194      -11.88331      0.8215851
      3678.5000         0.9444       1818.271         0.5812       -64.8314      -13.29145      0.7985008
      3679.0000         0.9557       1803.342         0.5873       -66.2423      -14.69849      0.7754346
      3679.5000          0.967       1788.047         0.5934       -66.0143      -14.46662      0.7792357
      3680.0000         0.9726        1772.74         0.5995       -65.5128      -13.96127      0.7875202
      3680.5000          0.975       1757.443         0.6056       -64.1575       -12.6021      0.8098016
      3681.0000          0.957       1742.148         0.6117       -62.3018      -10.74253      0.8402863
      3681.5000         0.9389       1727.932         0.6178       -60.4461      -8.882969       0.870771
