#------------------------------------------------------------------------------
# Created by    : vladimir.rabinovich
# Created on    : 09/19/2023 17:22:38
#------------------------------------------------------------------------------
~Version Information Section
VERS.           2.0     :   CWLS log ASCII Standard - VERSION 2.0
WRAP.           NO      :   One line per depth step
~Well Information Section
#MNEM       .UNIT                                         VALUE :DESCRIPTION
#------------------------------------------------------------------------------
STRT        .FT                                             597 :START DEPTH
STOP        .FT                                            8696 :STOP DEPTH
STEP        .FT                                             0.5 :STEP      
NULL        .                                           -999.25 :NULL      
COMP        .                MURPHY EXPLORATION & PRODUCTION CO :COMPANY   
WELL        .                               OCS G13308 ST00BP00 :WELL      
FLD         .                                           WILDCAT :FIELD     
LOC         .                                                   :LOCATION  
CNTY        .                             GALVESTON LARGE BLOCK :LOCATION  
STAT        .                                             TEXAS :STATE     
CTRY        .                                     UNITED STATES :COUNTRY   
SRVC        .                                                   :SERVICE COMPANY
DATE        .                             9/13/2023 11:19:54 AM :LOG DATE  
API         .                                    42706403460000 :API NUMBER
UWI         .                                    42706403460000 :UNIQUE WELL ID
XCOORD      .                                  1110706.35492259 :SURFACE X 
YCOORD      .                                  10520329.8149831 :SURFACE Y 
LAT         .                                         28.978895 :LATITUDE  
LON         .                                        -94.657168 :LONGITUDE 
ELEV        .FT                                              71 :ELEVATION VALUE
ELEV_TYPE   .                                                KB :ELEVATION REFERENCE TYPE
~Curve Information Section
#MNEM       .UNIT                                      API CODE :CURVE DESCRIPTION
#------------------------------------------------------------------------------
DEPT        .FT                                                 :DEPTH     
DCAL        .IN                                                 :          
DPHI        .%                                                  :          
DRHO        .G/C3                                               :          
DTLN        .US/F                                               :          
GR          .GAPI                                               :          
GR_1        .GAPI                                               :          
GR_NORM     .GAPI                                               :GammaRay Normalized
ILD         .OHMM                                               :          
ILM         .OHMM                                               :          
NPHI        .%                                                  :          
SFL         .OHMM                                               :          
SP          .MV                                                 :          
VSH_GR      .V/V                                                :Volume of Shale from GR
~A        DEPTH           DCAL           DPHI           DRHO           DTLN             GR           GR_1        GR_NORM            ILD            ILM           NPHI            SFL             SP         VSH_GR
# ...
      6544.0000         0.9941        20.2567         0.0097        -999.25        -999.25        55.4177       63.07558         0.9293         0.9215        33.0397         0.9251       -52.3347       0.639906
      6544.5000         1.0363        20.6117         0.0107        -999.25        -999.25        54.8955        62.3651         0.9327         0.9299        33.5903         0.9472       -51.9553      0.6247895
      6545.0000         1.0635        21.0041         0.0119        -999.25        -999.25        54.9093       62.38388          0.932         0.9443        33.4076         0.9524       -52.8723      0.6251889
      6545.5000         1.0751         21.514         0.0148        -999.25        -999.25        55.2206       62.80742         0.9274         0.9588        33.3387          0.958       -54.3935      0.6342004
      6546.0000         1.0793        22.1932         0.0184        -999.25        -999.25        55.2225          62.81         0.9148         0.9804        33.6672         0.9734       -55.1707      0.6342553
      6546.5000         1.1101        22.7402         0.0225        -999.25        -999.25        54.3036        61.5598         0.8987          0.997        34.5958         0.9976       -55.0711      0.6076553
      6547.0000         1.2335        23.0865         0.0277        -999.25        -999.25        53.4913       60.45463         0.8831         0.9883        35.7729         0.9842       -55.1461       0.584141
      6547.5000          1.139        23.4164         0.0338        -999.25        -999.25          53.37        60.2896         0.8676         0.9614        36.8586         0.9529       -55.5027      0.5806297
      6548.0000         1.1389        22.9521         0.0379        -999.25        -999.25        56.7967       64.95177         0.8499         0.9304        37.6292         0.9141       -56.0594       0.679825
      6548.5000         1.1346        22.8993         0.0365        -999.25        -999.25        58.1885       66.84538         0.8329         0.9058         37.567         0.8814       -56.2082      0.7201145
      6549.0000          1.094        22.8431          0.034        -999.25        -999.25        58.5114        67.2847         0.8171         0.8813        36.5756         0.8586       -56.1962      0.7294617
      6549.5000         0.8999        22.1048         0.0309        -999.25        -999.25        57.6417       66.10143         0.8037         0.8725        35.3536         0.8694        -57.277      0.7042858
      6550.0000         0.7043        21.5764         0.0273        -999.25        -999.25        55.7916       63.58429         0.7904         0.8764         34.139         0.9075        -58.595      0.6507295
      6550.5000         0.5469        21.4442         0.0184        -999.25        -999.25        54.0733       61.24647         0.7778         0.8746        32.9244          0.944       -59.6826      0.6009887
      6551.0000         0.3598        21.1621         0.0109        -999.25        -999.25        55.7792       63.56742         0.7661         0.8663        32.1479         0.9171       -60.4567      0.6503707
      6551.5000         0.2565         20.578         0.0051        -999.25        -999.25        58.5956       67.39925         0.7571         0.8456        31.7074         0.8567       -60.4014       0.731899
      6552.0000         0.2037         19.943         0.0008        -999.25        -999.25        58.9811       67.92374         0.7497          0.823        31.9188         0.8431       -59.4941      0.7430582
      6552.5000         0.1694        19.6454        -0.0024        -999.25        -999.25        59.1924       68.21123         0.7452         0.8087        32.4714           0.86       -58.8031      0.7491751
      6553.0000         0.1653        19.5651        -0.0057        -999.25        -999.25        60.0029       69.31396         0.7432         0.7986        32.9996          0.888        -58.519      0.7726374
      6553.5000          0.161        19.6019        -0.0072        -999.25        -999.25        61.2062       70.95109         0.7434         0.7919        33.4287          0.885       -58.5281        0.80747
      6554.0000         0.1587         19.782        -0.0057        -999.25        -999.25        62.7238       73.01585         0.7466         0.7866        33.9495         0.8559       -58.8425      0.8514012
      6554.5000         0.1637         20.071        -0.0023        -999.25        -999.25        61.4181        71.2394         0.7533         0.7834        34.5845         0.8444       -59.0023      0.8136042
      6555.0000           0.19        20.4859         0.0012        -999.25        -999.25        58.5211        67.2979         0.7683         0.7868        35.1693         0.8611       -57.8411      0.7297425
      6555.5000         0.5519        20.8416         0.0043        -999.25        -999.25        55.7521       63.53055         0.7934         0.7965        35.7122            0.9       -57.2086      0.6495861
      6556.0000         0.9505        20.9634         0.0071        -999.25        -999.25        52.5127        59.1232         0.8251         0.8162        36.2701         0.9278       -56.3483      0.5558128
      6556.5000         1.0055        20.9158         0.0095        -999.25        -999.25         49.123       54.51137         0.8592          0.854        36.5829         0.9333       -54.6503      0.4576887
      6557.0000          0.943        20.7646         0.0118        -999.25        -999.25        46.9527       51.55857         0.8914         0.9136        36.0245         0.9277       -54.2029      0.3948633
      6557.5000         0.8905        20.4088         0.0123        -999.25        -999.25         47.321       52.05967         0.9227         1.0063        34.6901         0.9297       -54.0187      0.4055248
      6558.0000         0.8964        19.4757         0.0108        -999.25        -999.25        49.0725       54.44265         0.9428            1.1        32.6174         1.0283       -53.3256      0.4562267
      6558.5000         0.8512        17.4854         0.0106        -999.25        -999.25        49.9036        55.5734         0.9423         1.1941        29.8618         1.1457       -52.8403      0.4802852
      6559.0000         0.6573        14.9604         0.0125        -999.25        -999.25        50.3448       56.17368         0.9373         1.2212        28.6202         1.2933       -53.7148      0.4930569
      6559.5000         0.4285        13.8035         0.0135        -999.25        -999.25        52.1629       58.64728          0.922         1.1909        27.9864         1.3308       -54.6614      0.5456868
      6560.0000         0.2934        13.7383         0.0117        -999.25        -999.25        57.3115       65.65218         0.8885         1.1284          28.77         1.1943       -55.2964      0.6947273
      6560.5000         0.2631        14.8526         0.0089        -999.25        -999.25        61.3496       71.14619         0.8347         1.0305         30.371         1.0825       -56.8409      0.8116211
      6561.0000         0.2979        17.2188         0.0063        -999.25        -999.25        61.2087        70.9545         0.7567         0.9249        32.1756         1.0648       -58.2735      0.8075425
      6561.5000         0.3213        19.8966         0.0039        -999.25        -999.25        56.1488       64.07027         0.6999         0.8272        33.8589         1.0362       -58.9279      0.6610697
      6562.0000         0.3306        22.5863         0.0001        -999.25        -999.25        49.6896       55.28225         0.6479         0.7295         35.397         0.9088       -59.3414      0.4740904
      6562.5000         0.3284         25.276        -0.0064        -999.25        -999.25         46.561       51.02565         0.6156         0.6449        36.7269         0.7438       -61.7728      0.3835245
