#------------------------------------------------------------------------------
# Created by    : vladimir.rabinovich
# Created on    : 09/19/2023 17:22:33
#------------------------------------------------------------------------------
~Version Information Section
VERS.           2.0     :   CWLS log ASCII Standard - VERSION 2.0
WRAP.           NO      :   One line per depth step
~Well Information Section
#MNEM       .UNIT                                         VALUE :DESCRIPTION
#------------------------------------------------------------------------------
STRT        .FT                                            2877 :START DEPTH
STOP        .FT                                            8775 :STOP DEPTH
STEP        .FT                                             0.5 :STEP      
NULL        .                                           -999.25 :NULL      
COMP        .                                       APACHE CORP :COMPANY   
WELL        .                                  HIGH ISLAND 10-L :WELL      
FLD         .                                           WILDCAT :FIELD     
LOC         .                                                   :LOCATION  
CNTY        .                           HIGH ISLAND LARGE BLOCK :LOCATION  
STAT        .                                             TEXAS :STATE     
CTRY        .                                     UNITED STATES :COUNTRY   
SRVC        .                                                   :SERVICE COMPANY
DATE        .                             9/13/2023 11:19:15 AM :LOG DATE  
API         .                                    42708303590000 :API NUMBER
UWI         .                                    42708303590000 :UNIQUE WELL ID
XCOORD      .                                  1323081.96300683 :SURFACE X 
YCOORD      .                                  10736101.4448574 :SURFACE Y 
LAT         .                                        29.5789626 :LATITUDE  
LON         .                                       -93.9986282 :LONGITUDE 
ELEV        .FT                                             100 :ELEVATION VALUE
ELEV_TYPE   .                                                KB :ELEVATION REFERENCE TYPE
~Curve Information Section
#MNEM       .UNIT                                      API CODE :CURVE DESCRIPTION
#------------------------------------------------------------------------------
DEPT        .FT                                                 :DEPTH     
CNCSS       .%                                                  :          
DCAL        .IN                                                 :          
GRR         .GAPI                                               :          
ILD         .OHMM                                               :          
ILM         .OHMM                                               :          
PORZSS      .%                                                  :          
RFOC        .OHMM                                               :          
SP          .MV                                                 :          
SP_NORM     .MV                                                 :SP Normalized
TENR        .LB                                                 :          
VSH_SP      .V/V                                                :Volume of Shale from SP
ZCOR        .G/CM3                                              :          
~A        DEPTH          CNCSS           DCAL            GRR            ILD            ILM         PORZSS           RFOC             SP        SP_NORM           TENR         VSH_SP           ZCOR
# ...
      8350.5000        26.5809           0.15        66.1474         1.0565         1.1688        23.4667         2.4046       -23.0042      -28.39617       1280.131       0.602954          -0.03
      8351.0000         25.983         0.0799        62.2398         0.9815         1.0808        27.6018         2.9173       -27.8091      -33.20966       1280.392      0.5331934        -0.0361
      8351.5000        25.8652         0.0799        61.3323         0.9119         0.9994          30.72         2.6117       -30.8115      -36.22064       1270.665       0.489556        -0.0302
      8352.0000        25.8673         0.0799         67.787         0.8479         0.9286          30.12         1.8927        -32.014      -37.43172       1270.931      0.4720041        -0.0123
      8352.5000        26.6476         0.0798        72.8952         0.7992          0.891        26.9469         1.5603       -33.0157        -38.442       1271.196      0.4573623        -0.0064
      8353.0000        27.5468         0.0798        75.5825          0.788         0.8748        27.0681         1.5318        -36.011      -41.44588       1281.433      0.4138277        -0.0125
      8353.5000        27.7275         0.0797         74.097          0.777         0.8706        28.8637         1.9101       -40.3883      -45.83176       1271.725      0.3502643        -0.0266
      8354.0000        27.1309         0.0697        65.2129         0.7627         0.8509          32.04           2.37       -44.8544      -50.30645        1271.99      0.2854138        -0.0326
      8354.5000        26.5349         0.0697        58.5918         0.7452         0.8317          34.32         2.6821       -49.5146      -54.97523       1272.254      0.2177503        -0.0407
      8355.0000         26.656         0.0697        54.7037         0.7147         0.7837          35.34         2.7188       -53.3981      -58.86731       1272.518      0.1613433        -0.0408
      8355.5000        27.7319         0.0696        51.7146         0.6824          0.738          35.52         2.4578        -56.699      -62.17679       1292.677      0.1133798        -0.0369
      8356.0000        28.8665         0.0696        50.5182         0.6517          0.695           35.1         1.9365        -58.835      -64.32137       1322.758     0.08229894         -0.033
      8356.5000         29.523         0.0696        50.5154         0.6224         0.6546          34.32         1.5238       -60.6038      -66.09875       1352.809     0.05653979         -0.035
      8357.0000           30.9         0.0894        51.4067         0.5838         0.6195          33.42         1.2966       -61.4096      -66.91313       1362.965     0.04473722        -0.0371
      8357.5000          32.82         0.0894        52.5948         0.5527         0.5838          32.46         1.1876       -62.4176      -67.92972       1343.328     0.03000409        -0.0372
      8358.0000          33.12         0.0893        53.1865         0.5233         0.5502          31.44         1.1874        -62.822       -68.3427       1313.787     0.02401888        -0.0373
      8358.5000          32.88         0.0793          53.48         0.4977         0.5162          31.44         1.2318       -62.8234      -68.35268       1304.112     0.02387425        -0.0393
      8359.0000          32.58         0.0793        53.4758          0.467         0.5023          31.26          1.198       -62.2195      -67.75736       1304.359       0.032502        -0.0394
      8359.5000          32.28         0.0793        54.0661         0.4606         0.5046          31.02         1.0237       -60.6056      -66.15204       1294.698     0.05576756        -0.0256
      8360.0000          31.68         0.0792        55.5472         0.4734         0.5281          30.24         0.8372       -57.2816      -62.83662        1265.24       0.103817        -0.0099
      8360.5000          31.08         0.0792        57.9208         0.4887         0.5527        29.0495         0.7782       -52.2401      -57.80371       1265.641      0.1767579          0.004
      8361.0000          30.24         0.0792        60.3025         0.5046         0.5759         28.396         0.9818       -48.9458      -54.51799       1266.131       0.224377        -0.0081
      8361.5000        29.4059         0.0792        60.1511         0.5186            0.6        29.4653         1.4077       -49.1491      -54.72987        1256.72      0.2213062         -0.022
      8362.0000        28.6337         0.0792        58.6634         0.5329         0.6278           31.5         1.8747       -51.4961      -57.08545       1267.111      0.1871674         -0.032
      8362.5000        27.7426         0.0792        57.6238         0.5502         0.6481          34.08         2.0461       -53.8476      -59.44553       1267.601      0.1529633        -0.0321
      8363.0000        28.0396         0.0792        57.6238         0.5578          0.625          35.04         2.0554       -55.8133      -61.41982       1268.091      0.1243505        -0.0322
      8363.5000        29.2871         0.0792        57.4752         0.5354         0.5919          35.34         2.0368       -57.7827      -63.39779       1278.483     0.09568416        -0.0323
      8364.0000          30.42         0.0891        57.6238         0.5069         0.5603          35.34         1.9908       -58.9736      -64.59727       1288.874     0.07830036        -0.0344
      8364.5000        29.7624         0.0891        57.3267         0.4799         0.5305           35.1         1.9009       -60.1667      -65.79896       1299.265     0.06088467        -0.0305
      8365.0000        28.6337         0.0891        55.9901         0.4544         0.5023          34.56         1.7492       -61.1924      -66.83324       1289.854     0.04589501        -0.0247
      8365.5000        27.5644         0.0891         54.505         0.4283         0.4713           33.9         1.5298       -61.6108      -67.26022       1280.492     0.03970691        -0.0189
      8366.0000        26.9703         0.0891        54.0594         0.4148         0.4462          33.18         1.3503        -62.228        -67.886       1280.982     0.03063766         -0.019
      8366.5000        26.9703         0.0891        54.6535         0.4092         0.4342          32.46         1.1975       -62.6445      -68.31108       1271.571     0.02447709         -0.027
      8367.0000        27.9208         0.0891         55.099         0.4074         0.4302          31.92         1.0817       -62.6616      -68.33676       1272.062     0.02410491         -0.033
      8367.5000         29.703         0.0891        55.6931         0.4074         0.4322           32.1         0.9864       -62.4796      -68.16335       1282.453     0.02661818        -0.0331
      8368.0000          31.02         0.0891        55.5446         0.4092         0.4462          32.22         0.9083       -62.2979      -67.99023       1292.844     0.02912715        -0.0312
      8368.5000           31.2         0.0792         55.099         0.4111         0.4606          32.64         0.8879       -62.3154      -68.01631       1293.334     0.02874911        -0.0294
      8369.0000           31.2         0.0693        54.6535         0.4148         0.4756          32.88         0.9596       -62.3327      -68.04219       1293.824     0.02837405        -0.0314
      8369.5000          31.56         0.0594         54.505         0.4186         0.4799           32.7         1.1121       -62.3501      -68.06818       1284.413     0.02799745        -0.0315
      8370.0000          32.04         0.0594        54.2079         0.4225         0.4756           32.4         1.2368       -62.5672      -68.29385       1284.903     0.02472676        -0.0257
      8370.5000        32.1606         0.0889        52.7228         0.4282         0.4691        31.5604         1.3073       -62.9703      -68.70554        1295.05     0.01876035        -0.0119
