#------------------------------------------------------------------------------
# Created by    : vladimir.rabinovich
# Created on    : 09/19/2023 17:20:57
#------------------------------------------------------------------------------
~Version Information Section
VERS.           2.0     :   CWLS log ASCII Standard - VERSION 2.0
WRAP.           NO      :   One line per depth step
~Well Information Section
#MNEM       .UNIT                                         VALUE :DESCRIPTION
#------------------------------------------------------------------------------
STRT        .FT                                             727 :START DEPTH
STOP        .FT                                            8206 :STOP DEPTH
STEP        .FT                                             0.5 :STEP      
NULL        .                                           -999.25 :NULL      
COMP        .                              PHOENIX RESOURCES CO :COMPANY   
WELL        .                                          BLK 335L :WELL      
FLD         .                                 BRAZOS BLOCK 0309 :FIELD     
LOC         .                                                   :LOCATION  
CNTY        .                                BRAZOS LARGE BLOCK :LOCATION  
STAT        .                                             TEXAS :STATE     
CTRY        .                                     UNITED STATES :COUNTRY   
SRVC        .                                                   :SERVICE COMPANY
DATE        .                             9/13/2023 11:18:52 AM :LOG DATE  
API         .                                    42704300210000 :API NUMBER
UWI         .                                    42704300210000 :UNIQUE WELL ID
XCOORD      .                                  898426.347293712 :SURFACE X 
YCOORD      .                                  10460523.5569112 :SURFACE Y 
LAT         .                                        28.8046676 :LATITUDE  
LON         .                                       -95.3172337 :LONGITUDE 
ELEV        .FT                                              70 :ELEVATION VALUE
ELEV_TYPE   .                                                DF :ELEVATION REFERENCE TYPE
~Curve Information Section
#MNEM       .UNIT                                      API CODE :CURVE DESCRIPTION
#------------------------------------------------------------------------------
DEPT        .FT                                                 :DEPTH     
ASN         .OHMM                                               :          
CALI        .IN                                                 :          
DT          .US/F                                               :          
ILD         .OHMM                                               :          
SP          .MV                                                 :          
SP_NORM     .MV                                                 :SP Normalized
VSH_SP      .V/V                                                :Volume of Shale from SP
~A        DEPTH            ASN           CALI             DT            ILD             SP        SP_NORM         VSH_SP
# ...
      3206.0000         1.0725        15.4763       127.3945         0.4745      -103.3739      -16.01537      0.1755667
      3206.5000         1.0733        15.4713       127.4663         0.4758      -103.8657       -16.5334       0.145094
      3207.0000         1.0745        15.4688       127.8745         0.4771      -104.3807      -17.07464      0.1132566
      3207.5000         1.0757        15.4663       126.4663         0.4784      -104.8895      -17.60968     0.08178352
      3208.0000         1.0769        15.4638       127.2521         0.4815      -105.2361      -17.98251     0.05985215
      3208.5000         1.0782        15.4649       127.6206         0.4962       -105.106      -17.87865      0.0659615
      3209.0000         1.0794        15.4664       126.5719         0.5109      -104.7979      -17.59679     0.08254153
      3209.5000         1.0571        15.4612       126.1649         0.5256      -104.5159      -17.34103     0.09758624
      3210.0000         1.0362        15.4592       130.3032         0.5403      -104.4995      -17.35087     0.09700775
      3210.5000         1.0222        15.4593       132.3774         0.5353      -104.9462      -17.82381     0.06918783
      3211.0000         1.0101         15.459       132.0132         0.5291      -104.5511      -17.45495     0.09088539
      3211.5000          1.006        15.4589       131.9795         0.5228      -103.8129      -16.74298      0.1327658
      3212.0000         1.0018        15.4601       129.6936         0.5128      -103.3093      -16.26563      0.1608456
      3212.5000         0.9988        15.4682       124.8947         0.5006      -103.2689      -16.25146       0.161679
      3213.0000         0.9985        15.4625       126.1061         0.4883      -103.5789       -16.5877         0.1419
      3213.5000         0.9982        15.4533        146.021         0.4832      -103.5887      -16.62373      0.1397804
      3214.0000         1.0068        15.4453       150.8916         0.4932      -102.3683      -15.42957      0.2100251
      3214.5000         1.0314        15.4427       155.5576         0.5031       -102.949      -16.03651      0.1743227
      3215.0000         1.0559        15.4461        150.136         0.5131        -103.79      -16.90376      0.1233085
      3215.5000         1.0645        15.4477       135.3176          0.523      -104.0089       -17.1489      0.1088885
      3216.0000         1.0706        15.4484       132.7957          0.533      -103.6454      -16.81163      0.1287276
      3216.5000         1.0746        15.4539       116.6938         0.5501      -103.5369      -16.72937      0.1335665
      3217.0000          1.076        15.4736       114.4033         0.5676      -103.5126      -16.73131      0.1334525
      3217.5000         1.0728        15.4828       128.9751          0.585      -103.4829      -16.72784      0.1336562
      3218.0000         1.0551        15.4448       128.1941         0.6025       -103.307      -16.57818      0.1424601
      3218.5000         1.0364        15.4307        127.226         0.6003      -102.5619      -15.85931      0.1847462
      3219.0000         1.0062        15.4477        128.731         0.5752      -102.3917      -15.71535      0.1932144
      3219.5000         0.9759        15.4693       128.7993         0.5237      -103.3517      -16.70159      0.1352005
      3220.0000          0.949        15.4759       130.5435         0.4722      -104.4149      -17.79104     0.07111538
      3220.5000          0.934        15.4571       134.2151         0.4207      -103.8611      -17.26347      0.1021486
      3221.0000         0.9191        15.4415       144.6582         0.3848      -103.4056      -16.83421      0.1273992
      3221.5000         0.9041        15.4583       143.2559         0.4098      -103.5104      -16.96525      0.1196913
      3222.0000         0.8969        15.4653       131.8987         0.4904      -102.5074      -15.98849      0.1771478
      3222.5000          0.903        15.4684       129.7903         0.5711      -101.8295      -15.33682       0.215481
      3223.0000         0.9553          15.47       134.1831         0.6717      -101.6582      -15.19176      0.2240138
      3223.5000         1.0338        15.4648            156         0.7931      -100.3926       -13.9524      0.2969176
      3224.0000         1.1124        15.1563        142.468         0.9146       -98.7524      -12.33844      0.3918565
      3224.5000          1.191        14.5701       127.5035          1.036       -97.8756      -11.48788      0.4418896
      3225.0000         1.2695        14.2391       115.1974         1.1458       -96.7375      -10.37601      0.5072932
      3225.5000          1.348        14.3481       109.0109         1.2393       -95.4204      -9.085159      0.5832259
      3226.0000         1.4266        14.6961       106.8306         1.3328       -94.0731      -7.764091      0.6609358
      3226.5000         1.5052        14.9448       116.2008         1.4096       -91.9489       -5.66613      0.7843453
      3227.0000         1.5837        14.8856       126.1135         1.4555       -92.3274      -6.070869      0.7605371
      3227.5000         1.6623        14.6095       124.0311         1.2774       -93.5803      -7.350006      0.6852937
      3228.0000         1.7409        14.4964       122.9438         1.1615       -95.3636      -9.159546      0.5788503
      3228.5000         1.8194        14.7104       115.7747         1.0457       -97.0543      -10.87648      0.4778541
      3229.0000         1.7434        15.1948       112.4001         0.9432       -98.9908      -12.83922      0.3623989
      3229.5000         1.6444        15.4697        120.046         0.8477      -101.3657      -15.24036      0.2211555
      3230.0000         1.5454        15.4671       139.4009         0.7744      -103.8691         -17.77     0.07235314
      3230.5000         1.4464        15.4684       143.4736          0.744      -105.2866      -19.21373              0
      3231.0000         1.3475        15.4739       140.9089         0.7176      -104.6317      -18.58508     0.02440733
      3231.5000         1.2485        15.4714       139.7952         0.7038      -104.4637      -18.44331     0.03274626
      3232.0000         1.1495        15.4689       141.9626         0.6899      -105.0609      -19.06675              0
      3232.5000         1.0609        15.4663       150.6406          0.676      -105.4537      -19.48579              0
      3233.0000         1.0083        15.4638       156.7388         0.6622      -105.4838      -19.54213              0
      3233.5000         0.9741        15.4613       159.1333         0.6445      -105.3074      -19.39197              0
      3234.0000         0.9591        15.4587       151.6125         0.6243      -105.0615       -19.1723              0
      3234.5000         0.9409        15.4562        140.625         0.6041      -105.4484      -19.58544              0
      3235.0000         0.9161        15.4537       135.2334         0.5838      -105.7032      -19.86648              0
      3235.5000         0.8913        15.4512       163.1357         0.5636      -104.4508      -18.64031     0.02115811
      3236.0000         0.8678        15.4486        165.658         0.5434      -103.6746      -17.89035     0.06527351
      3236.5000         0.8452        15.4461       158.2029         0.5231      -102.8737      -17.11569      0.1108416
      3237.0000         0.8227        15.4577       158.0122         0.5085      -101.8135      -16.08173      0.1716627
      3237.5000         0.8002        15.4679       140.4414         0.5001      -100.7019      -14.99637      0.2355077
      3238.0000         0.7783        15.4725       133.3059         0.4917       -99.3218      -13.64251      0.3151465
      3238.5000         0.7566         15.453       136.3367         0.4833       -97.3569      -11.70385      0.4291853
      3239.0000         0.7348        15.4215       134.5547         0.4749       -94.5078      -8.880981      0.5952364
