#------------------------------------------------------------------------------
# Created by    : vladimir.rabinovich
# Created on    : 09/19/2023 17:20:10
#------------------------------------------------------------------------------
~Version Information Section
VERS.           2.0     :   CWLS log ASCII Standard - VERSION 2.0
WRAP.           NO      :   One line per depth step
~Well Information Section
#MNEM       .UNIT                                         VALUE :DESCRIPTION
#------------------------------------------------------------------------------
STRT        .FT                                             409 :START DEPTH
STOP        .FT                                           13135 :STOP DEPTH
STEP        .FT                                             0.5 :STEP      
NULL        .                                           -999.25 :NULL      
COMP        .                         ATLANTIC RICHFIELD CO THE :COMPANY   
WELL        .                               OCS G04547 ST00BP00 :WELL      
FLD         .                                           WILDCAT :FIELD     
LOC         .                                                   :LOCATION  
CNTY        .                      MATAGORDA ISLAND LARGE BLOCK :LOCATION  
STAT        .                                             TEXAS :STATE     
CTRY        .                                     UNITED STATES :COUNTRY   
SRVC        .                                                   :SERVICE COMPANY
DATE        .                             9/13/2023 11:12:03 AM :LOG DATE  
API         .                                    42703401300000 :API NUMBER
UWI         .                                    42703401300000 :UNIQUE WELL ID
XCOORD      .                                  517134.995430583 :SURFACE X 
YCOORD      .                                  10172294.5320476 :SURFACE Y 
LAT         .                                         27.987424 :LATITUDE  
LON         .                                        -96.480505 :LONGITUDE 
ELEV        .FT                                              99 :ELEVATION VALUE
ELEV_TYPE   .                                                KB :ELEVATION REFERENCE TYPE
~Curve Information Section
#MNEM       .UNIT                                      API CODE :CURVE DESCRIPTION
#------------------------------------------------------------------------------
DEPT        .FT                                                 :DEPTH     
ASFL        .OHMM                                               :          
CILD        .MMHO                                               :          
GR          .GAPI                                               :          
GR_NORM     .GAPI                                               :GammaRay Normalized
ILD         .OHMM                                               :          
SP          .MV                                                 :          
SP_NORM     .MV                                                 :SP Normalized
VSH_GR      .V/V                                                :Volume of Shale from GR
VSH_SP      .V/V                                                :Volume of Shale from SP
~A        DEPTH           ASFL           CILD             GR        GR_NORM            ILD             SP        SP_NORM         VSH_GR         VSH_SP
       409.0000         0.0035        17.8013        19.6403       28.82805              0        -999.25        -999.25              0        -999.25
       409.5000         0.0581       148.1245        19.9818       29.19135         0.0047        -999.25        -999.25              0        -999.25
       410.0000         0.1553       537.1553        21.4138       30.71475         0.0154        -999.25        -999.25              0        -999.25
       410.5000         0.1833        640.582         22.928        32.3256         0.1114        -999.25        -999.25              0        -999.25
       411.0000         0.2505       868.2354        24.4734       33.96964         0.2197        -999.25        -999.25     0.02063069        -999.25
       411.5000         0.4376       1058.605         24.997       34.52666         0.3476        -999.25        -999.25     0.03248223        -999.25
       412.0000         0.5724       1188.152        25.4061       34.96188         0.4912        -999.25        -999.25     0.04174204        -999.25
       412.5000         0.7845       1129.313        25.2196       34.76347          0.692        -999.25        -999.25     0.03752071        -999.25
       413.0000         0.8794       970.5156        24.5221       34.02145          0.817        -999.25        -999.25     0.02173306        -999.25
       413.5000         0.9274        953.792        23.4636       32.89539         0.8853        -999.25        -999.25              0        -999.25
       414.0000         0.9577       962.1768        23.0236        32.4273         0.9424        -999.25        -999.25              0        -999.25
       414.5000         0.9741        966.876         24.009       33.47621         0.9879        -999.25        -999.25     0.01013216        -999.25
       415.0000         0.9916       966.3135        24.9621       34.49965         1.0337        -999.25        -999.25     0.03190735        -999.25
       415.5000         0.9791        965.752        24.9567       34.50342         1.0469        -999.25        -999.25     0.03198761        -999.25
       416.0000         0.9665       959.8125        24.1694       33.67538         1.0523        -999.25        -999.25     0.01436972        -999.25
       416.5000         0.9535       953.3779        23.5695       33.04669         1.0567        -999.25        -999.25   0.0009933634        -999.25
       417.0000         0.9367       943.9307        23.1046       32.56163         1.0611        -999.25        -999.25              0        -999.25
       417.5000         0.9218       933.5449          22.79       32.23645          1.063        -999.25        -999.25              0        -999.25
       418.0000         0.9149       925.6465        22.7321       32.18437         1.0637        -999.25        -999.25              0        -999.25
       418.5000         0.9119       926.3926        22.7167       32.17749         1.0644        -999.25        -999.25              0        -999.25
       419.0000         0.9132       927.1924        22.7013       32.17062         1.0648        -999.25        -999.25              0        -999.25
       419.5000         0.9144       927.9912        22.4823       31.94715         1.0643        -999.25        -999.25              0        -999.25
       420.0000         0.9143        928.791        22.1502       31.60336         1.0639        -999.25        -999.25              0        -999.25
       420.5000         0.9142       929.5898         21.777       31.21585         1.0634        -999.25        -999.25              0        -999.25
       421.0000         0.9112       930.3877        22.3228       31.80599         1.0649        -999.25        -999.25              0        -999.25
       421.5000         0.9076       929.9443        22.9705       32.50455         1.0703        -999.25        -999.25              0        -999.25
       422.0000         0.9039       928.9277        23.6182       33.20309         1.0758        -999.25        -999.25    0.004321159        -999.25
       422.5000         0.9006       927.9111        24.3012        33.9392         1.0812        -999.25        -999.25     0.01998301        -999.25
       423.0000         0.8975       919.2197        23.9836       33.61084         1.0877        -999.25        -999.25     0.01299667        -999.25
       423.5000         0.8944       908.6025        23.5391       33.14747         1.0962        -999.25        -999.25     0.00313771        -999.25
       424.0000         0.8918       894.6572        23.0741        32.6623         1.1047        -999.25        -999.25              0        -999.25
       424.5000         0.9049       878.6416        22.8435       32.42649         1.1132        -999.25        -999.25              0        -999.25
       425.0000         0.9237       866.2432        23.0195       32.62324         1.1217        -999.25        -999.25              0        -999.25
       425.5000         0.9395       859.4316        23.4194       33.05817         1.1311        -999.25        -999.25    0.001237747        -999.25
       426.0000          0.954       852.6191        23.9464       33.62831         1.1405        -999.25        -999.25      0.0133684        -999.25
       426.5000          0.967       844.7607         24.471       34.19592         1.1499        -999.25        -999.25       0.025445        -999.25
       427.0000          0.977       835.6406         24.765       34.51818         1.1594        -999.25        -999.25      0.0323018        -999.25
       427.5000         0.9836       826.7354        24.8305       34.59737         1.1688        -999.25        -999.25     0.03398668        -999.25
       428.0000         0.9898       820.1836        24.6144       34.37699         1.1759        -999.25        -999.25     0.02929769        -999.25
       428.5000         0.9938       813.6318        25.2908       35.10608         1.1825        -999.25        -999.25     0.04481019        -999.25
       429.0000         1.0015       808.9951        27.1763       37.12144         1.1892        -999.25        -999.25     0.08769023        -999.25
       429.5000         1.0148       805.0527         29.731       39.84871         1.1959        -999.25        -999.25      0.1457173        -999.25
       430.0000         1.0459       806.2227        32.7542       43.07439         1.2025        -999.25        -999.25      0.2143487        -999.25
       430.5000         1.0715       808.7354        35.2612       45.75092         1.2111        -999.25        -999.25      0.2712961        -999.25
       431.0000         1.0883       814.5879        39.5182       50.28915         1.2197        -999.25        -999.25      0.3678543        -999.25
       431.5000         1.0956       820.8496        40.4554       51.29568         1.2284        -999.25        -999.25      0.3892697        -999.25
       432.0000         1.0933       831.5244        41.2834       52.18604         1.2308        -999.25        -999.25      0.4082137        -999.25
       432.5000         1.0883       844.7305        42.1732       53.14215         1.2271        -999.25        -999.25      0.4285564        -999.25
       433.0000         1.0832       862.8086        43.0638        54.0991         1.2227        -999.25        -999.25      0.4489171        -999.25
       433.5000          1.077       881.2041        43.7603       54.84957         1.2093        -999.25        -999.25      0.4648845        -999.25
       434.0000         1.0679       900.0195        44.1425       55.26567         1.1959        -999.25        -999.25      0.4737377        -999.25
       434.5000         1.0588       921.2119        44.1906       55.32635          1.177        -999.25        -999.25      0.4750288        -999.25
       435.0000         1.0437       946.6045        44.1741        55.3183         1.1553        -999.25        -999.25      0.4748575        -999.25
