#------------------------------------------------------------------------------
# Created by    : vladimir.rabinovich
# Created on    : 09/19/2023 17:20:37
#------------------------------------------------------------------------------
~Version Information Section
VERS.           2.0     :   CWLS log ASCII Standard - VERSION 2.0
WRAP.           NO      :   One line per depth step
~Well Information Section
#MNEM       .UNIT                                         VALUE :DESCRIPTION
#------------------------------------------------------------------------------
STRT        .FT                                             582 :START DEPTH
STOP        .FT                                            8015 :STOP DEPTH
STEP        .FT                                             0.5 :STEP      
NULL        .                                           -999.25 :NULL      
COMP        .                                CONTINENTAL OIL CO :COMPANY   
WELL        .                                OCS 00719 ST00BP00 :WELL      
FLD         .                                           WILDCAT :FIELD     
LOC         .                                                   :LOCATION  
CNTY        .                             GALVESTON LARGE BLOCK :LOCATION  
STAT        .                                             TEXAS :STATE     
CTRY        .                                     UNITED STATES :COUNTRY   
SRVC        .                                                   :SERVICE COMPANY
DATE        .                             9/13/2023 11:19:25 AM :LOG DATE  
API         .                                    42706000350000 :API NUMBER
UWI         .                                    42706000350000 :UNIQUE WELL ID
XCOORD      .                                  1010979.62119212 :SURFACE X 
YCOORD      .                                  10432235.4027546 :SURFACE Y 
LAT         .                                          28.73246 :LATITUDE  
LON         .                                        -94.964458 :LONGITUDE 
ELEV        .FT                                              63 :ELEVATION VALUE
ELEV_TYPE   .                                                KB :ELEVATION REFERENCE TYPE
~Curve Information Section
#MNEM       .UNIT                                      API CODE :CURVE DESCRIPTION
#------------------------------------------------------------------------------
DEPT        .FT                                                 :DEPTH     
ASN         .OHMM                                               :          
DT          .US/F                                               :          
LN          .OHMM                                               :          
SP          .MV                                                 :          
SP_NORM     .MV                                                 :SP Normalized
VSH_SP      .V/V                                                :Volume of Shale from SP
~A        DEPTH            ASN             DT             LN             SP        SP_NORM         VSH_SP
# ...
      1570.0000         0.8769        -999.25         1.0214       -53.3699       -1.18313              1
      1570.5000         0.8649        -999.25         1.0204       -53.6274      -1.574081              1
      1571.0000         0.9065        -999.25         1.0194        -53.885      -1.965175              1
      1571.5000         0.9357        -999.25         1.0183       -53.7127      -1.708122              1
      1572.0000         0.9648        -999.25         1.0173       -53.4728      -1.349144              1
      1572.5000         0.9882        -999.25         1.0163       -53.2379      -0.997705              1
      1573.0000         1.0094        -999.25         1.0152       -53.4203      -1.275422              1
      1573.5000          1.012        -999.25         1.0108       -53.6459      -1.618274              1
      1574.0000         1.0086        -999.25         1.0064       -53.8715      -1.961126              1
      1574.5000         1.0095        -999.25         1.0021       -53.9977      -2.154114      0.9881451
      1575.0000         1.0273        -999.25         0.9977       -53.9066      -2.019485      0.9985011
      1575.5000         1.0451        -999.25         1.0037       -53.9584      -2.100298      0.9922848
      1576.0000         1.0629        -999.25         1.0208       -53.9317      -2.062765       0.995172
      1576.5000         1.0787        -999.25         1.0379       -53.6968       -1.71132              1
      1577.0000         1.0944        -999.25         1.0551       -53.3917      -1.254045              1
      1577.5000         1.1102        -999.25         1.0722       -52.9796     -0.6354365              1
      1578.0000         1.1213        -999.25         1.0975       -52.5674    -0.01668478              1
      1578.5000         1.1205        -999.25          1.128       -52.4131      0.2132328              1
      1579.0000         1.1322        -999.25         1.1586       -52.3236      0.3454572              1
      1579.5000         1.1439        -999.25         1.1891       -52.2341      0.4776759              1
      1580.0000         1.1522        -999.25         1.2196       -52.4946     0.08221036              1
      1580.5000         1.1599        -999.25         1.2501       -53.0175     -0.7088875              1
      1581.0000         1.1675        -999.25         1.2785       -53.5403      -1.499819              1
      1581.5000         1.1752        -999.25         1.3057        -53.291      -1.126674              1
      1582.0000         1.1768        -999.25         1.3328       -52.8286     -0.4322342              1
      1582.5000         1.1727        -999.25           1.36       -52.3662      0.2622116              1
      1583.0000         1.1699        -999.25         1.3861       -52.1334      0.6104813              1
      1583.5000         1.1671        -999.25         1.4032       -51.9642      0.8628695              1
      1584.0000         1.1643        -999.25         1.4203       -52.1072      0.6445467              1
      1584.5000         1.1614        -999.25         1.4275       -52.5419    -0.01356178              1
      1585.0000         1.1586        -999.25         1.4064       -52.8639      -0.501757              1
      1585.5000         1.1553        -999.25         1.3853       -52.9304     -0.6047357              1
      1586.0000         1.1502        -999.25         1.3642       -53.0892     -0.8468749              1
      1586.5000         1.1451        -999.25         1.3431       -53.4299      -1.363263              1
      1587.0000         1.1352        -999.25         1.3229       -53.6804      -1.743655              1
      1587.5000         1.1232        -999.25         1.3041       -53.8827      -2.051383      0.9960475
      1588.0000         1.1112        -999.25         1.2852       -53.6926      -1.767483              1
      1588.5000         1.0918        -999.25         1.2664       -53.3841      -1.305082              1
      1589.0000         1.0638        -999.25         1.2476       -53.1586     -0.9678093              1
      1589.5000         1.0351        -999.25         1.2287       -52.9363     -0.6353675              1
      1590.0000         1.0054        -999.25         1.2144        -52.941     -0.6451736              1
      1590.5000         0.9682        -999.25         1.2029       -53.3801      -1.309919              1
      1591.0000         0.9549        -999.25         1.1914       -54.0394      -2.306652      0.9764113
      1591.5000         0.9451        -999.25         1.1798       -55.0944      -3.899989       0.853847
      1592.0000         0.9409        -999.25         1.1683       -55.5337      -4.565033      0.8026898
      1592.5000         0.9384        -999.25         1.1578       -55.5316      -4.564585      0.8027242
      1593.0000         0.9273        -999.25         1.1533       -55.5295      -4.564136      0.8027588
      1593.5000         0.9049        -999.25         1.1489       -55.5273      -4.563538      0.8028048
      1594.0000         0.8944        -999.25         1.1444       -55.5349      -4.577715      0.8017142
      1594.5000          0.884        -999.25         1.1399       -55.6719      -4.786985      0.7856165
      1595.0000         0.8795        -999.25         1.1355       -55.8089      -4.996255      0.7695188
      1595.5000          0.882        -999.25         1.1224       -55.6829      -4.809001       0.783923
      1596.0000         0.8833        -999.25         1.1073       -55.3346      -4.286592      0.8241084
      1596.5000          0.881        -999.25         1.0923       -54.9865       -3.76448      0.8642707
      1597.0000         0.8787        -999.25         1.0772       -54.6326      -3.233621      0.9051061
      1597.5000         0.8764        -999.25         1.0526       -54.2743      -2.696136      0.9464511
      1598.0000          0.874        -999.25         1.0271       -53.9161      -2.158796       0.987785
      1598.5000         0.8717        -999.25         1.0016       -53.5729      -1.644075              1
      1599.0000          0.867        -999.25         0.9754       -53.3307      -1.281628              1
      1599.5000          0.862        -999.25         0.9402       -53.4124      -1.407526              1
      1600.0000          0.857        -999.25         0.9051       -57.8873      -8.157012      0.5263837
      1600.5000         0.8584        -999.25         0.9096       -58.5165      -9.108372      0.4532022
      1601.0000         0.8623        -999.25         0.9179       -59.0049      -9.847449      0.3963501
      1601.5000         0.8662        -999.25         0.9262       -59.3298      -10.34001      0.3584608
      1602.0000         0.8696        -999.25         0.9344       -59.6235      -10.78554      0.3241891
      1602.5000         0.8715        -999.25         0.9427       -59.8372      -11.11045      0.2991962
      1603.0000         0.8679        -999.25          0.951       -58.4778      -9.063609      0.4566455
      1603.5000         0.8642        -999.25         0.9658       -57.6407      -7.804239      0.5535201
      1604.0000         0.8605        -999.25         0.9819       -57.1183      -7.019341      0.6138968
      1604.5000         0.8569        -999.25          0.998       -56.7323      -6.440084       0.658455
      1605.0000         0.8532        -999.25         1.0141       -56.3666      -5.891442      0.7006583
      1605.5000         0.8486        -999.25          1.023       -55.9216      -5.223234      0.7520589
      1606.0000         0.8434        -999.25         1.0177       -55.4765      -4.554876       0.803471
      1606.5000         0.8382        -999.25         1.0123       -55.2318      -4.188663      0.8316413
      1607.0000          0.833        -999.25         1.0043       -55.0528      -3.921499      0.8521924
      1607.5000          0.844        -999.25         0.9913       -54.8484      -3.616048      0.8756886
