#------------------------------------------------------------------------------
# Created by    : vladimir.rabinovich
# Created on    : 09/19/2023 17:20:30
#------------------------------------------------------------------------------
~Version Information Section
VERS.           2.0     :   CWLS log ASCII Standard - VERSION 2.0
WRAP.           NO      :   One line per depth step
~Well Information Section
#MNEM       .UNIT                                         VALUE :DESCRIPTION
#------------------------------------------------------------------------------
STRT        .FT                                             609 :START DEPTH
STOP        .FT                                           12866 :STOP DEPTH
STEP        .FT                                             0.5 :STEP      
NULL        .                                           -999.25 :NULL      
COMP        .                                        SUN OIL CO :COMPANY   
WELL        .                               OCS G01769 ST00BP00 :WELL      
FLD         .                                           WILDCAT :FIELD     
LOC         .                                                   :LOCATION  
CNTY        .                             GALVESTON LARGE BLOCK :LOCATION  
STAT        .                                             TEXAS :STATE     
CTRY        .                                     UNITED STATES :COUNTRY   
SRVC        .                                                   :SERVICE COMPANY
DATE        .                             9/13/2023 11:19:24 AM :LOG DATE  
API         .                                    42706001410000 :API NUMBER
UWI         .                                    42706001410000 :UNIQUE WELL ID
XCOORD      .                                  1110717.91749569 :SURFACE X 
YCOORD      .                                  10538856.4752018 :SURFACE Y 
LAT         .                                         29.029845 :LATITUDE  
LON         .                                        -94.657945 :LONGITUDE 
ELEV        .FT                                              65 :ELEVATION VALUE
ELEV_TYPE   .                                                KB :ELEVATION REFERENCE TYPE
~Curve Information Section
#MNEM       .UNIT                                      API CODE :CURVE DESCRIPTION
#------------------------------------------------------------------------------
DEPT        .FT                                                 :DEPTH     
ASN         .OHMM                                               :          
CALI        .IN                                                 :          
CILD        .MMHO                                               :          
DT          .US/F                                               :          
ILD         .OHMM                                               :          
SP          .MV                                                 :          
SP_NORM     .MV                                                 :SP Normalized
VSH_SP      .V/V                                                :Volume of Shale from SP
~A        DEPTH            ASN           CALI           CILD             DT            ILD             SP        SP_NORM         VSH_SP
# ...
      8780.5000         0.7364        10.0364       1845.688       120.2554          0.506       -64.5011    -0.05665588      0.9990557
      8781.0000         0.7424        10.0973        1830.32       119.8845           0.51       -64.6295     -0.1850586      0.9969157
      8781.5000         0.7479        10.1339       1830.139       119.6698         0.5141       -64.7578     -0.3133545      0.9947774
      8782.0000         0.7535        10.1366       1829.957       119.4979         0.5181       -64.8861      -0.441658       0.992639
      8782.5000          0.759        10.1067       1829.777       119.5779         0.5222       -65.0145     -0.5700607       0.990499
      8783.0000         0.7646        10.0066       1827.844       119.1198         0.5263       -65.1056     -0.6611557      0.9889807
      8783.5000         0.7743         9.8364       1824.342       118.9849          0.535       -65.1837     -0.7392578      0.9876791
      8784.0000         0.7844         9.7857        1820.84       118.8022         0.5454       -65.2617     -0.8172607       0.986379
      8784.5000         0.7944         9.8479       1817.336       117.9753         0.5557       -65.3397      -0.895256      0.9850791
      8785.0000         0.8045         9.9134       1813.834       117.9006         0.5661       -65.4177      -0.973259       0.983779
      8785.5000         0.8245         9.9372       1794.047       117.9899         0.5804       -65.4957      -1.051254      0.9824791
      8786.0000         0.8448         9.9214       1769.475       118.0685         0.6025       -65.5551      -1.110657      0.9814891
      8786.5000         0.8642         9.9103       1728.592       118.0778         0.6246       -65.5874       -1.14296      0.9809507
      8787.0000          0.879         9.9224        1671.18       116.3278         0.6468       -65.6196      -1.175156      0.9804141
      8787.5000         0.8939         9.9179       1520.756       115.3677         0.6689       -65.6519      -1.207458      0.9798757
      8788.0000         0.9129          9.912       1467.111       114.5396         0.6881       -65.6841      -1.239655      0.9793391
      8788.5000         0.9383         9.8101       1435.031       113.4374         0.6997       -65.7163      -1.271858      0.9788024
      8789.0000          0.999         9.7026       1404.418       112.3711         0.7112       -65.7485      -1.304054      0.9782658
      8789.5000         0.9966         9.6492       1374.197       110.7889         0.7227       -65.7808      -1.336357      0.9777274
      8790.0000         0.9804         9.6059       1345.539       108.5527         0.7342        -65.813      -1.368561      0.9771907
      8790.5000         0.9677         9.6286        1332.41       106.5139         0.7457       -65.8452      -1.400757      0.9766541
      8791.0000         0.9551         9.6373       1344.098       105.9185         0.7573       -65.8071      -1.362656      0.9772891
      8791.5000         0.9424          9.642       1355.809       109.2092          0.758       -65.7581       -1.31366      0.9781057
      8792.0000         0.9382         9.6466       1367.496       111.5245         0.7529        -65.709      -1.264557       0.978924
      8792.5000         0.9418         9.6423       1379.209       112.5933         0.7477       -65.8895      -1.445061      0.9759157
      8793.0000         0.9454         9.6348       1393.098       113.2424         0.7426       -66.1073      -1.662857      0.9722857
      8793.5000         0.9484         9.6336       1407.498       113.7478         0.7375       -66.3248      -1.880356      0.9686607
      8794.0000           0.95         9.6406       1405.029       113.0203         0.7324       -66.5427      -2.098259       0.965029
      8794.5000         0.9516         9.6338        1397.01       112.1737         0.7272       -66.7605      -2.316055      0.9613991
      8795.0000         0.9532         9.6341        1388.99        111.548         0.7221       -66.9784      -2.533958      0.9577674
      8795.5000          0.954           9.69        1387.01       111.0179         0.7153       -67.1115      -2.667061       0.955549
      8796.0000         0.9463         9.7439       1402.584       111.1351         0.7069       -67.1913      -2.746857       0.954219
      8796.5000         0.9387         9.7793       1418.184       111.6134         0.6986       -67.2625      -2.818054      0.9530324
      8797.0000         0.9311         9.8218        1433.76       111.6781         0.6902       -67.1378      -2.693359      0.9551107
      8797.5000         0.9234         9.6712       1453.688       111.6472         0.6819       -67.0131      -2.568657       0.957189
      8798.0000         0.9158         9.6537       1474.129       111.5645         0.6735       -66.8885      -2.444054      0.9592658
      8798.5000         0.9081         9.6779       1493.311       111.8455          0.668       -66.7639      -2.319458      0.9613424
      8799.0000         0.9005         9.7112       1503.568       112.9512         0.6736       -66.6393      -2.194855      0.9634191
      8799.5000         0.9061         9.7841       1513.838       114.3038         0.6792       -66.5146       -2.07016      0.9654973
      8800.0000         0.9161          9.828       1524.105       115.4713         0.6849       -66.3845      -1.940056      0.9676657
      8800.5000         0.9261         9.7169       1505.891       116.4493         0.6905       -66.2507      -1.806259      0.9698957
      8801.0000         0.9346         9.6486       1484.936       114.7506         0.6961       -66.1169      -1.672455      0.9721258
      8801.5000         0.9414         9.5933       1463.957       113.4226         0.7017        -65.983      -1.538559      0.9743574
      8802.0000         0.9483         9.5385       1443.002       111.5739         0.7061       -65.9255      -1.481056      0.9753157
      8802.5000         0.9552         9.5254       1422.023       110.6439         0.7098       -66.0503      -1.605858      0.9732357
      8803.0000          0.962         9.5426       1401.068       110.2836         0.7134       -66.1749      -1.730453      0.9711591
      8803.5000         0.9689         9.5788        1382.73       110.1041         0.7171       -66.2997      -1.855255      0.9690791
      8804.0000         0.9758         9.6702       1365.199       110.0616         0.7207       -66.4244      -1.979958      0.9670007
      8804.5000         0.9812         9.7727       1347.666        110.085         0.7243       -66.4855      -2.041054      0.9659824
      8805.0000         0.9822         9.7613       1341.248       110.2181          0.728       -66.5243      -2.079857      0.9653357
      8805.5000         0.9831         9.6705        1338.59       110.5354         0.7316       -66.5631       -2.11866       0.964689
      8806.0000         0.9841         9.5928        1335.93       110.3953         0.7297       -66.6021      -2.157654      0.9640391
      8806.5000         0.9851         9.5365       1336.248        110.009         0.7259       -66.6409      -2.196457      0.9633924
      8807.0000          0.986         9.5123       1343.693       110.0939         0.7222       -66.6866      -2.242157      0.9626307
      8807.5000         0.9686         9.5096        1351.15       110.5748         0.7185       -66.7719      -2.327454      0.9612091
      8808.0000         0.9513         9.5329       1358.596       110.6958         0.7148       -66.8572      -2.412758      0.9597874
      8808.5000         0.9336         9.6335        1375.15       110.8359         0.7111       -66.9421      -2.497658      0.9583724
      8809.0000         0.9158         9.7271       1398.086       112.2699         0.6955       -66.9032      -2.458755      0.9590207
      8809.5000         0.8989         9.7845       1435.666       112.9784         0.6794       -66.8265      -2.382057      0.9602991
