#------------------------------------------------------------------------------
# Created by    : vladimir.rabinovich
# Created on    : 09/19/2023 17:21:44
#------------------------------------------------------------------------------
~Version Information Section
VERS.           2.0     :   CWLS log ASCII Standard - VERSION 2.0
WRAP.           NO      :   One line per depth step
~Well Information Section
#MNEM       .UNIT                                         VALUE :DESCRIPTION
#------------------------------------------------------------------------------
STRT        .FT                                            3434 :START DEPTH
STOP        .FT                                            9802 :STOP DEPTH
STEP        .FT                                             0.5 :STEP      
NULL        .                                           -999.25 :NULL      
COMP        .                                  UMC PETROLEUM CO :COMPANY   
WELL        .                               OCS G11352 ST00BP00 :WELL      
FLD         .                            HIGH ISLAND BLOCK 0093 :FIELD     
LOC         .                                                   :LOCATION  
CNTY        .                           HIGH ISLAND LARGE BLOCK :LOCATION  
STAT        .                                             TEXAS :STATE     
CTRY        .                                     UNITED STATES :COUNTRY   
SRVC        .                                                   :SERVICE COMPANY
DATE        .                             9/13/2023 11:19:57 AM :LOG DATE  
API         .                                    42708403880000 :API NUMBER
UWI         .                                    42708403880000 :UNIQUE WELL ID
XCOORD      .                                  1243413.75648782 :SURFACE X 
YCOORD      .                                  10663707.7269925 :SURFACE Y 
LAT         .                                         29.377731 :LATITUDE  
LON         .                                        -94.246854 :LONGITUDE 
ELEV        .FT                                              85 :ELEVATION VALUE
ELEV_TYPE   .                                                KB :ELEVATION REFERENCE TYPE
~Curve Information Section
#MNEM       .UNIT                                      API CODE :CURVE DESCRIPTION
#------------------------------------------------------------------------------
DEPT        .FT                                                 :DEPTH     
CALI        .IN                                                 :          
CALI_1      .IN                                                 :          
DPHI        .%                                                  :          
DRHO        .G/C3                                               :          
DT          .US/F                                               :          
GR          .GAPI                                               :          
GR_1        .GAPI                                               :          
GR_NORM     .GAPI                                               :GammaRay Normalized
ILD         .OHMM                                               :          
ILM         .OHMM                                               :          
NPHI        .%                                                  :          
RFOC        .OHMM                                               :          
SP          .MV                                                 :          
SP_NORM     .MV                                                 :SP Normalized
VSH_GR      .V/V                                                :Volume of Shale from GR
VSH_SP      .V/V                                                :Volume of Shale from SP
~A        DEPTH           CALI         CALI_1           DPHI           DRHO             DT             GR           GR_1        GR_NORM            ILD            ILM           NPHI           RFOC             SP        SP_NORM         VSH_GR         VSH_SP
# ...
      9322.0000          9.647        -999.25        19.1598         -0.012       121.1338        -999.25        69.7991       70.54457         0.4584         0.5459         35.664          1.358        -38.989      -2.988998      0.7988207      0.9560441
      9322.5000         9.6458        -999.25        18.9382        -0.0153       120.2424        -999.25        70.9779       72.37457          0.457         0.5464        35.6927         1.3532       -38.7839      -2.783901      0.8377569      0.9590603
      9323.0000         9.6431        -999.25        19.0128        -0.0119       120.9453        -999.25          72.08       74.08474         0.4621         0.5488        35.9951         1.3121       -38.6249      -2.624901      0.8741434      0.9613985
      9323.5000         9.6362        -999.25        19.3803        -0.0076       121.5801        -999.25        72.8357       75.25366         0.4682         0.5512         36.191         1.2681       -38.6333      -2.633301      0.8990141       0.961275
      9324.0000         9.6362        -999.25        19.4867        -0.0012       121.8827        -999.25        73.5504       76.35851         0.4759         0.5517        36.1477         1.2451       -38.7902      -2.790199      0.9225214      0.9589677
      9324.5000         9.6348        -999.25         18.847        -0.0074       121.9972        -999.25        74.1566       77.29385         0.4846         0.5528        36.1539         1.2458       -39.1541      -3.154099      0.9424223      0.9536162
      9325.0000         9.6233        -999.25        18.3287        -0.0177       122.0085        -999.25        73.6287       76.45712         0.4921         0.5547        36.6048         1.2438       -39.6796        -3.6796      0.9246196      0.9458882
      9325.5000          9.612        -999.25        18.1705        -0.0275       121.9886        -999.25        70.4816       71.52792         0.4964          0.557        36.9875         1.2294       -40.2926      -4.292599       0.819743      0.9368736
      9326.0000         9.6009        -999.25        18.4792        -0.0354       121.9697        -999.25        66.8481       65.83871         0.4998         0.5611        36.6168         1.2044       -40.6779      -4.677898      0.6986959      0.9312074
      9326.5000          9.598        -999.25        19.1317        -0.0287       122.0521        -999.25        65.3292       63.45357         0.5021         0.5638        36.0131         1.1829       -40.8526        -4.8526      0.6479483      0.9286382
      9327.0000         9.6049        -999.25        19.3852        -0.0141       122.1068        -999.25        65.9124       64.35295         0.5021         0.5625        35.3337         1.1932       -40.7876      -4.787601       0.667084      0.9295941
      9327.5000         9.6107        -999.25        19.1133        -0.0048       122.0508        -999.25        68.4613       68.32375         0.5021         0.5561        34.6265         1.2014       -40.4552        -4.4552       0.751569      0.9344823
      9328.0000         9.6139        -999.25        18.7714        -0.0048       121.7236        -999.25        71.1021       72.43813         0.5021         0.5488        35.1524         1.2011       -39.9777      -3.977699      0.8391091      0.9415044
      9328.5000         9.6171        -999.25         18.451        -0.0125       121.7924        -999.25         73.703       76.49018          0.502         0.5424         35.894         1.1871       -39.9991        -3.9991       0.925323      0.9411897
      9329.0000         9.6203        -999.25        18.5759        -0.0212       122.3822        -999.25         76.103        80.2283          0.501         0.5388        36.5688         1.1558       -40.3193      -4.319302              1      0.9364809
      9329.5000         9.6153        -999.25        19.1639        -0.0218       123.0039        -999.25        76.6292       81.03864          0.499         0.5365        37.1546         1.1173        -40.556         -4.556              1          0.933
      9330.0000         9.6068        -999.25        19.8013        -0.0148       123.4072        -999.25        74.7032        78.0174         0.4969         0.5384        36.9381         1.0964       -40.5324      -4.532398      0.9578169      0.9333471
      9330.5000          9.594        -999.25        20.3901        -0.0041       123.9103        -999.25        72.7178       74.90334         0.4956         0.5449        36.3913         1.1049       -40.3947      -4.394699      0.8915603      0.9353721
      9331.0000          9.585        -999.25        20.7474         0.0035       123.8903        -999.25        71.0648       72.30865         0.4945         0.5466        35.8438         1.1199       -40.1848      -4.184799      0.8363544      0.9384589
      9331.5000         9.5772        -999.25        20.3024          0.011       123.3254        -999.25        72.0651       73.85977         0.4949          0.544        35.5437         1.1371       -40.3139        -4.3139      0.8693569      0.9365603
      9332.0000           9.56        -999.25        19.8508         0.0096       122.9628        -999.25        73.6981       76.39946         0.4952          0.541        35.7704         1.1419       -40.5526      -4.552601      0.9233928        0.93305
      9332.5000         9.5637        -999.25        19.3957         -0.002       122.9521        -999.25        72.6606        74.7665         0.4951         0.5387        36.2715         1.1162       -40.7808        -4.7808       0.888649      0.9296941
      9333.0000         9.5678        -999.25        19.5002        -0.0162       123.0919        -999.25        71.6469       73.17073          0.495          0.539        36.8206         1.0728       -40.7967        -4.7967      0.8546964      0.9294603
      9333.5000          9.572        -999.25        19.9257        -0.0238       123.4546        -999.25        72.1345       73.92075         0.4949         0.5395        37.3816         1.0269       -40.2492      -4.249199      0.8706542      0.9375118
      9334.0000         9.5761        -999.25        20.2129        -0.0101       123.7509        -999.25        73.0156       75.28561         0.4948         0.5418        37.2816         1.0031       -39.6833        -3.6833      0.8996937      0.9458338
      9334.5000         9.5803        -999.25        20.2768         0.0035       123.7483        -999.25        73.6782       76.30904         0.4948         0.5428        36.9741         0.9942       -39.1522      -3.152199       0.921469      0.9536442
      9335.0000         9.5845        -999.25        20.3167         0.0111       123.5009        -999.25        72.1605       73.92577         0.4948         0.5423        36.7022         0.9907       -39.0039      -3.003899      0.8707612       0.955825
      9335.5000         9.5886        -999.25         20.423         0.0152       123.1394        -999.25        71.4657       72.82829         0.4951         0.5413        36.5969         0.9837       -39.2583      -3.258301      0.8474103      0.9520838
      9336.0000         9.5928        -999.25        20.6395         0.0166       122.8698        -999.25        71.9224       73.53003         0.4955         0.5409        36.8048         0.9719       -39.5546        -3.5546       0.862341      0.9477265
      9336.5000         9.5984        -999.25        20.8406         0.0175       123.0829        -999.25        72.7178       74.76096         0.4964          0.541          37.44         0.9497       -39.8143      -3.814301       0.888531      0.9439073
      9337.0000         9.6047        -999.25        20.8162         0.0183       123.4283        -999.25        73.5007       75.97238          0.499         0.5421        38.0819         0.9184       -39.7448      -3.744801       0.914306      0.9449294
      9337.5000         9.6111        -999.25        20.8814         0.0174        123.811        -999.25        74.2739       77.16865         0.5037         0.5461        37.9104          0.892       -39.4059      -3.405899      0.9397585      0.9499133
