#------------------------------------------------------------------------------
# Created by    : vladimir.rabinovich
# Created on    : 09/19/2023 17:22:10
#------------------------------------------------------------------------------
~Version Information Section
VERS.           2.0     :   CWLS log ASCII Standard - VERSION 2.0
WRAP.           NO      :   One line per depth step
~Well Information Section
#MNEM       .UNIT                                         VALUE :DESCRIPTION
#------------------------------------------------------------------------------
STRT        .FT                                            1000 :START DEPTH
STOP        .FT                                            7796 :STOP DEPTH
STEP        .FT                                             0.5 :STEP      
NULL        .                                           -999.25 :NULL      
COMP        .                                SHELL OFFSHORE INC :COMPANY   
WELL        .                               OCS G06060 ST00BP00 :WELL      
FLD         .                                           WILDCAT :FIELD     
LOC         .                                                   :LOCATION  
CNTY        .                                BRAZOS LARGE BLOCK :LOCATION  
STAT        .                                             TEXAS :STATE     
CTRY        .                                     UNITED STATES :COUNTRY   
SRVC        .                                                   :SERVICE COMPANY
DATE        .                             9/13/2023 11:19:08 AM :LOG DATE  
API         .                                    42704401260000 :API NUMBER
UWI         .                                    42704401260000 :UNIQUE WELL ID
XCOORD      .                                   881020.58603234 :SURFACE X 
YCOORD      .                                   10392321.681828 :SURFACE Y 
LAT         .                                         28.616238 :LATITUDE  
LON         .                                        -95.367327 :LONGITUDE 
ELEV        .FT                                              90 :ELEVATION VALUE
ELEV_TYPE   .                                                KB :ELEVATION REFERENCE TYPE
~Curve Information Section
#MNEM       .UNIT                                      API CODE :CURVE DESCRIPTION
#------------------------------------------------------------------------------
DEPT        .FT                                                 :DEPTH     
CALI        .IN                                                 :          
CILD        .MMHO                                               :          
DPHI        .%                                                  :          
DT          .US/F                                               :          
GR          .GAPI                                               :          
GR_NORM     .GAPI                                               :GammaRay Normalized
ILD         .OHMM                                               :          
ILM         .OHMM                                               :          
SFL         .OHMM                                               :          
SP          .MV                                                 :          
SP_NORM     .MV                                                 :SP Normalized
VSH_GR      .V/V                                                :Volume of Shale from GR
VSH_SP      .V/V                                                :Volume of Shale from SP
~A        DEPTH           CALI           CILD           DPHI             DT             GR        GR_NORM            ILD            ILM            SFL             SP        SP_NORM         VSH_GR         VSH_SP
# ...
      2349.0000        -999.25        1209.49        -999.25       145.7383        62.3994       72.80364         0.8119         0.8202         0.9298      -104.1508      -1.260628       0.846886      0.9933172
      2349.5000        -999.25       1205.256        -999.25       146.3123        60.4899       70.88983         0.8159          0.825         0.9732      -104.6471      -1.756927      0.8061666      0.9805916
      2350.0000        -999.25       1210.693        -999.25       147.3794        58.1569       68.55251         0.8167         0.8272         1.0113       -105.095      -2.204826      0.7564365       0.969107
      2350.5000        -999.25       1227.166        -999.25       148.7261        60.0675        70.4588         0.8091         0.8238         0.9597      -104.9991      -2.108925      0.7969958       0.971566
      2351.0000        -999.25       1254.404        -999.25       149.8853        63.2184       73.60538         0.7937         0.8135         0.9041      -104.4833      -1.593124      0.8639444      0.9847917
      2351.5000        -999.25       1297.816        -999.25       151.0635        65.1075       75.49017         0.7724         0.7923          0.856      -104.1254      -1.235222      0.9040462      0.9939687
      2352.0000        -999.25       1346.697        -999.25       152.3115         67.386       77.76436         0.7457         0.7701         0.8186      -104.0437      -1.153526      0.9524332      0.9960634
      2352.5000        -999.25       1394.541        -999.25       153.4197        71.0992       81.47324         0.7222         0.7493         0.7901      -104.0427      -1.152527              1       0.996089
      2353.0000        -999.25       1429.043        -999.25       154.5427        73.1622       83.53194         0.7044         0.7295         0.7709      -103.9014      -1.011223              1      0.9997122
      2353.5000        -999.25       1458.539        -999.25       155.5334        73.0295       83.39492           0.69         0.7187         0.7651       -103.641      -0.750824              1              1
      2354.0000        -999.25       1476.736        -999.25       156.0251        70.3938       80.75491         0.6776          0.712         0.7649      -103.3937     -0.5035248              1              1
      2354.5000        -999.25       1486.547        -999.25       155.4937        69.4847       79.84149         0.6698         0.7072          0.779      -103.1908     -0.3006287      0.9966275              1
      2355.0000        -999.25       1492.939        -999.25       154.5312         70.333       80.68548          0.667         0.7036         0.7939      -102.9843    -0.09412384              1              1
      2355.5000        -999.25       1496.875        -999.25       153.5225        72.7245       83.07266         0.6675         0.7006         0.8086      -102.8691     0.02107239              1              1
      2356.0000        -999.25       1497.811        -999.25       152.4829        72.5334       82.87725         0.6687         0.6979         0.8125      -103.2245     -0.3343277              1              1
      2356.5000        -999.25       1496.314        -999.25        153.761        71.0311       81.37063         0.6699         0.6952         0.8003      -103.3295     -0.4393234              1              1
      2357.0000        -999.25       1493.652        -999.25       155.1455        70.0695       80.40472         0.6711         0.6925         0.7807      -102.9567    -0.06652832              1              1
      2357.5000        -999.25       1490.102        -999.25       156.2471        70.6929        81.0238          0.673         0.6898         0.7797        -102.87     0.02017212              1              1
      2358.0000        -999.25       1486.361        -999.25       157.2244        71.2012       81.52779         0.6761         0.6891          0.781       -103.092      -0.201828              1              1
      2358.5000        -999.25       1482.266        -999.25       157.9287        69.4717       79.79398         0.6781         0.6886         0.7845      -103.2074     -0.3172226      0.9956165              1
      2359.0000        -999.25       1480.803        -999.25        158.447         68.439       78.75697         0.6787         0.6892         0.7887      -103.2268     -0.3366241      0.9735525              1
      2359.5000        -999.25        1482.15        -999.25       158.2478        68.3085       78.62215         0.6803         0.6909          0.791      -103.1444     -0.2542267       0.970684              1
      2360.0000        -999.25       1482.684        -999.25       157.0815        69.4117       79.72103         0.6822         0.6923         0.7942       -103.109     -0.2188263      0.9940645              1
      2360.5000        -999.25       1483.072        -999.25       155.7295        70.2356       80.54062         0.6828         0.6928         0.8013      -103.0255     -0.1353226              1              1
      2361.0000        -999.25       1483.361        -999.25       154.9902        70.5769        80.8776           0.68         0.6927         0.7963      -102.7471       0.143074              1              1
      2361.5000        -999.25       1482.664        -999.25       154.6084        70.8632       81.15958         0.6757         0.6896         0.7922      -102.3698       0.510025              1              1
      2362.0000        -999.25       1485.059        -999.25       154.7964        71.1975       81.48958         0.6696         0.6865         0.7885      -102.0428      0.8237076              1              1
      2362.5000        -999.25       1491.369        -999.25        155.333        72.5999       82.88766          0.663         0.6816         0.7915      -101.8601      0.9930954              1              1
      2363.0000        -999.25       1503.096        -999.25       155.9712        74.7112       84.99464         0.6556         0.6758         0.8019        -101.71       1.129883              1              1
      2363.5000        -999.25       1514.369        -999.25       156.8909        76.1626       86.44173         0.6514         0.6677         0.8011      -101.7614        1.06517              1              1
      2364.0000        -999.25       1521.951        -999.25       157.8833        77.1699       87.44472         0.6496         0.6672         0.7852      -102.1433      0.6699524              1              1
      2364.5000        -999.25       1521.256        -999.25       158.6045        76.2762        86.5467           0.65         0.6695         0.7641      -102.7687     0.03124237              1              1
      2365.0000        -999.25       1520.191        -999.25       158.8367        73.8634       84.12959         0.6537         0.6731         0.7575      -103.1785     -0.3918686              1              1
      2365.5000        -999.25       1515.053        -999.25       158.3865        71.4689       81.73078         0.6589         0.6773         0.7582      -103.2188     -0.4454956              1              1
      2366.0000        -999.25       1509.916        -999.25       156.7366        69.2648       79.52236         0.6645         0.6817          0.773      -103.1509     -0.3909073      0.9898375              1
      2366.5000        -999.25       1502.031        -999.25         153.79        67.8391       78.09235         0.6693         0.6857         0.7961      -102.9604     -0.2137222      0.9594118              1
      2367.0000        -999.25       1492.205        -999.25       151.0781        66.6741       76.92303         0.6732         0.6896          0.825       -102.589       0.144371      0.9345326              1
      2367.5000        -999.25       1481.811        -999.25       149.6494        67.6666       77.91122         0.6755          0.693         0.8552      -101.8953      0.8247528      0.9555579              1
