#------------------------------------------------------------------------------
# Created by    : vladimir.rabinovich
# Created on    : 09/19/2023 17:20:38
#------------------------------------------------------------------------------
~Version Information Section
VERS.           2.0     :   CWLS log ASCII Standard - VERSION 2.0
WRAP.           NO      :   One line per depth step
~Well Information Section
#MNEM       .UNIT                                         VALUE :DESCRIPTION
#------------------------------------------------------------------------------
STRT        .FT                                             540 :START DEPTH
STOP        .FT                                            8409 :STOP DEPTH
STEP        .FT                                             0.5 :STEP      
NULL        .                                           -999.25 :NULL      
COMP        .                                      SHELL OIL CO :COMPANY   
WELL        .                                OCS 00706 ST00BP00 :WELL      
FLD         .                                           WILDCAT :FIELD     
LOC         .                                                   :LOCATION  
CNTY        .                             GALVESTON LARGE BLOCK :LOCATION  
STAT        .                                             TEXAS :STATE     
CTRY        .                                     UNITED STATES :COUNTRY   
SRVC        .                                                   :SERVICE COMPANY
DATE        .                             9/13/2023 11:19:25 AM :LOG DATE  
API         .                                    42706000280000 :API NUMBER
UWI         .                                    42706000280000 :UNIQUE WELL ID
XCOORD      .                                  1100625.96198943 :SURFACE X 
YCOORD      .                                  10499283.7203345 :SURFACE Y 
LAT         .                                         28.920625 :LATITUDE  
LON         .                                        -94.687754 :LONGITUDE 
ELEV        .FT                                              78 :ELEVATION VALUE
ELEV_TYPE   .                                                KB :ELEVATION REFERENCE TYPE
~Curve Information Section
#MNEM       .UNIT                                      API CODE :CURVE DESCRIPTION
#------------------------------------------------------------------------------
DEPT        .FT                                                 :DEPTH     
ASN         .OHMM                                               :          
DT          .US/F                                               :          
ILD         .OHMM                                               :          
LAT         .OHMM                                               :          
LN          .OHMM                                               :          
SP          .MV                                                 :          
SP_NORM     .MV                                                 :SP Normalized
VSH_SP      .V/V                                                :Volume of Shale from SP
~A        DEPTH            ASN             DT            ILD            LAT             LN             SP        SP_NORM         VSH_SP
# ...
      4198.0000         0.7525       133.7947         0.7747        -999.25        -999.25       -42.1521     -0.2061691              1
      4198.5000         0.7823       134.0076         0.7938        -999.25        -999.25       -43.6599      -1.617004      0.9895423
      4199.0000         0.8505       133.9793          0.813        -999.25        -999.25       -45.6647      -3.524834      0.9572062
      4199.5000         0.9089       134.2979         0.8321        -999.25        -999.25       -48.0212      -5.784367       0.918909
      4200.0000         0.9356       134.3657         0.8513        -999.25        -999.25        -50.497      -8.163204      0.8785897
      4200.5000         0.9392        134.649         0.8704        -999.25        -999.25       -51.5494      -9.118633      0.8623961
      4201.0000          0.936       133.9464         0.8896        -999.25        -999.25       -52.6017      -10.07397      0.8462039
      4201.5000         0.9328       130.6773         0.9087        -999.25        -999.25       -53.7189       -11.0942      0.8289118
      4202.0000         0.9433       129.0169         0.9265        -999.25        -999.25       -52.8003      -10.07863      0.8461249
      4202.5000         0.9622       127.6847         0.9347        -999.25        -999.25       -51.8817      -9.063065      0.8633379
      4203.0000         0.9829        126.398          0.943        -999.25        -999.25       -51.2745      -8.358898      0.8752729
      4203.5000         0.9911       124.5596         0.9513        -999.25        -999.25       -50.7924      -7.779831      0.8850876
      4204.0000          0.998       123.8231         0.9595        -999.25        -999.25        -50.446      -7.336464      0.8926023
      4204.5000          1.005       126.3992         0.9678        -999.25        -999.25       -51.0291      -7.822594      0.8843628
      4205.0000         1.0128       129.8887         0.9761        -999.25        -999.25       -51.5419       -8.23843      0.8773147
      4205.5000         1.0207       129.0418         0.9844        -999.25        -999.25       -52.0167      -8.616264      0.8709108
      4206.0000         1.0286       129.6038         0.9767        -999.25        -999.25       -52.2453      -8.747894      0.8686798
      4206.5000         1.0361       129.3983         0.9689        -999.25        -999.25       -52.4737       -8.87933       0.866452
      4207.0000         1.0431        129.037         0.9611        -999.25        -999.25       -53.4677      -9.776363      0.8512481
      4207.5000         1.0397        128.745         0.9533        -999.25        -999.25       -53.6552      -9.866894      0.8497137
      4208.0000           1.03       125.5231         0.9456        -999.25        -999.25       -52.9667      -9.081429      0.8630266
      4208.5000         1.0192       121.7345         0.9378        -999.25        -999.25        -53.035      -9.052757      0.8635126
      4209.0000         1.0083        120.695         0.9308        -999.25        -999.25       -54.1777      -10.09849      0.8457883
      4209.5000         0.9975       120.2011         0.9256        -999.25        -999.25       -54.7627      -10.58652      0.8375165
      4210.0000          0.988       119.0796         0.9203        -999.25        -999.25       -55.3493      -11.07616      0.8292177
      4210.5000         0.9861       118.0327         0.9163        -999.25        -999.25        -56.856      -12.48589      0.8053239
      4211.0000         0.9842       119.1073         0.9209        -999.25        -999.25       -58.7199      -14.25282      0.7753759
      4211.5000         0.9866       120.3551         0.9256        -999.25        -999.25       -60.3431      -15.77906      0.7495075
      4212.0000         0.9892       118.5915         0.9302        -999.25        -999.25       -61.7022      -17.04119      0.7281154
      4212.5000         0.9919       118.9609         0.9348        -999.25        -999.25       -62.2159      -17.45792      0.7210522
      4213.0000         0.9945       121.2663         0.9395        -999.25        -999.25        -57.687      -12.83205      0.7994567
      4213.5000         0.9972       122.1812         0.9441        -999.25        -999.25       -55.4303      -10.47839      0.8393493
      4214.0000         0.9883       121.5451         0.9487        -999.25        -999.25       -54.6515      -9.602619      0.8541929
      4214.5000         0.9793       121.6328         0.9494        -999.25        -999.25       -53.6629      -8.517052      0.8725923
      4215.0000         0.9716       123.0924         0.9489        -999.25        -999.25       -52.6744      -7.431587        0.89099
      4215.5000         0.9643       122.3202         0.9485        -999.25        -999.25        -51.535      -6.195217      0.9119455
      4216.0000         0.9571       120.3931          0.948        -999.25        -999.25       -50.3389      -4.902153      0.9338618
      4216.5000         0.9504       119.2826         0.9475        -999.25        -999.25       -49.6489      -4.115185      0.9472002
      4217.0000         0.9459       119.8232         0.9521        -999.25        -999.25       -49.0492      -3.418514      0.9590082
      4217.5000         0.9532        122.944         0.9569        -999.25        -999.25       -48.3768      -2.649151      0.9720483
      4218.0000         0.9646       123.6348         0.9616        -999.25        -999.25       -48.5438      -2.719181      0.9708613
      4218.5000          0.976       123.9275         0.9664        -999.25        -999.25        -49.438      -3.516415      0.9573489
      4219.0000         0.9909       125.7684         0.9711        -999.25        -999.25       -50.2518       -4.23325      0.9451991
      4219.5000         1.0072       126.1796         0.9759        -999.25        -999.25       -51.0651      -4.949581       0.933058
      4220.0000         1.0217       125.7747         0.9738        -999.25        -999.25       -51.0971      -4.884613      0.9341591
      4220.5000         1.0233        124.626         0.9673        -999.25        -999.25       -50.9289       -4.61945      0.9386534
      4221.0000         1.0102       124.2066         0.9607        -999.25        -999.25       -50.7607      -4.435234      0.9417757
      4221.5000          0.992       123.3004         0.9542        -999.25        -999.25       -50.5926      -4.291019        0.94422
      4222.0000         0.9738       121.7248         0.9477        -999.25        -999.25       -50.4244      -4.146702      0.9466661
      4222.5000         0.9556       121.2372         0.9412        -999.25        -999.25       -50.0954      -3.841587      0.9518375
      4223.0000          0.936       121.9917         0.9347        -999.25        -999.25       -49.5107      -3.280769      0.9613429
      4223.5000         0.9159       121.6569         0.9213        -999.25        -999.25       -48.9261      -2.720055      0.9708465
      4224.0000         0.8992        120.387         0.9059        -999.25        -999.25       -48.8126      -2.630436      0.9723655
      4224.5000         0.8891       121.0195         0.8906        -999.25        -999.25        -48.699      -2.540722      0.9738861
      4225.0000         0.8789       123.4723         0.8752        -999.25        -999.25       -48.5853      -2.450905      0.9754084
      4225.5000         0.8688       126.5837         0.8598        -999.25        -999.25       -48.4717      -2.361187       0.976929
      4226.0000         0.8625       126.9447         0.8472        -999.25        -999.25       -48.3582      -2.271572      0.9784479
      4226.5000         0.8585         127.55         0.8409        -999.25        -999.25       -48.2391      -2.176357      0.9800618
      4227.0000         0.8629       128.4013         0.8346        -999.25        -999.25       -48.0925      -2.053638      0.9821417
