#------------------------------------------------------------------------------
# Created by    : vladimir.rabinovich
# Created on    : 09/19/2023 17:22:56
#------------------------------------------------------------------------------
~Version Information Section
VERS.           2.0     :   CWLS log ASCII Standard - VERSION 2.0
WRAP.           NO      :   One line per depth step
~Well Information Section
#MNEM       .UNIT                                         VALUE :DESCRIPTION
#------------------------------------------------------------------------------
STRT        .FT                                             671 :START DEPTH
STOP        .FT                                           10000 :STOP DEPTH
STEP        .FT                                             0.5 :STEP      
NULL        .                                           -999.25 :NULL      
COMP        .                                    MOBIL OIL CORP :COMPANY   
WELL        .                                     ST TR 00565-L :WELL      
FLD         .                                           WILDCAT :FIELD     
LOC         .                                                   :LOCATION  
CNTY        .                      MATAGORDA ISLAND LARGE BLOCK :LOCATION  
STAT        .                                             TEXAS :STATE     
CTRY        .                                     UNITED STATES :COUNTRY   
SRVC        .                                                   :SERVICE COMPANY
DATE        .                             9/13/2023 11:12:05 AM :LOG DATE  
API         .                                    42703000150000 :API NUMBER
UWI         .                                    42703000150000 :UNIQUE WELL ID
XCOORD      .                                  584511.465629887 :SURFACE X 
YCOORD      .                                  10263641.5286434 :SURFACE Y 
LAT         .                                         28.243485 :LATITUDE  
LON         .                                       -96.2796592 :LONGITUDE 
ELEV        .FT                                              11 :ELEVATION VALUE
ELEV_TYPE   .                                                KB :ELEVATION REFERENCE TYPE
~Curve Information Section
#MNEM       .UNIT                                      API CODE :CURVE DESCRIPTION
#------------------------------------------------------------------------------
DEPT        .FT                                                 :DEPTH     
SP          .MV                                                 :          
SP_NORM     .MV                                                 :SP Normalized
VSH_SP      .V/V                                                :Volume of Shale from SP
~A        DEPTH             SP        SP_NORM         VSH_SP
# ...
      4961.0000        26.8759       -15.6778       0.405313
      4961.5000        27.9382       -16.7386      0.3591913
      4962.0000        28.5036       -17.3026      0.3346695
      4962.5000        28.4043       -17.2018      0.3390522
      4963.0000        28.2101       -17.0061      0.3475609
      4963.5000        28.0129       -16.8075      0.3561956
      4964.0000        27.7791       -16.5722      0.3664261
      4964.5000        28.0016       -16.7932      0.3568174
      4965.0000        28.2899       -17.0801      0.3443435
      4965.5000        28.5597       -17.3484      0.3326783
      4966.0000        28.8057       -17.5929      0.3220479
      4966.5000        29.0515       -17.8373      0.3114218
      4967.0000        29.1687        -17.953      0.3063913
      4967.5000        29.2832        -18.066      0.3014783
      4968.0000         29.331       -18.1124      0.2994609
      4968.5000        29.3691        -18.149      0.2978696
      4969.0000        29.1833       -17.9617       0.306013
      4969.5000        28.7809       -17.5579      0.3235696
      4970.0000        27.6219       -16.3974      0.3740261
      4970.5000          26.64        -15.414      0.4167826
      4971.0000        25.7746       -14.5472      0.4544696
      4971.5000         25.208       -13.9791      0.4791695
      4972.0000        24.6803       -13.4499      0.5021783
      4972.5000        24.3863       -13.1545      0.5150217
      4973.0000        24.0923        -12.859      0.5278696
      4973.5000        23.7984       -12.5636      0.5407131
      4974.0000        23.5041       -12.2679      0.5535696
      4974.5000        23.3222       -12.0845      0.5615435
      4975.0000        23.2508       -12.0116      0.5647131
      4975.5000        22.8355       -11.5949      0.5828304
      4976.0000        22.1289       -10.8868      0.6136174
      4976.5000        21.4224       -10.1788         0.6444
      4977.0000        20.6023        -9.3573      0.6801174
      4977.5000        19.7821        -8.5356      0.7158435
      4978.0000        18.8955        -7.6475      0.7544565
      4978.5000        17.0746        -5.8252      0.8336869
      4979.0000        16.0273        -4.7764      0.8792869
      4979.5000         15.322        -4.0696      0.9100174
      4980.0000        14.9549        -3.7011      0.9260391
      4980.5000        14.5875        -3.3322      0.9420782
      4981.0000        14.3102        -3.0534         0.9542
      4981.5000        14.0381        -2.7799      0.9660913
      4982.0000        13.9319        -2.6722      0.9707739
      4982.5000        13.8865        -2.6253      0.9728131
      4983.0000        13.8548        -2.5922      0.9742522
      4983.5000        13.8234        -2.5593      0.9756826
      4984.0000         13.691        -2.4254      0.9815043
      4984.5000        13.4279        -2.1609      0.9930043
      4985.0000        13.1771        -1.9086              1
      4985.5000        12.9677        -1.6977              1
      4986.0000        12.7584        -1.4869              1
      4986.5000        12.6383        -1.3654              1
      4987.0000        12.5366        -1.2622              1
      4987.5000        12.4348        -1.1589              1
      4988.0000        12.2773             -1              1
      4988.5000        12.1121        -0.8333              1
      4989.0000        11.9389        -0.6586              1
      4989.5000        11.7624        -0.4807              1
      4990.0000        11.6122         -0.329              1
      4990.5000        11.5207         -0.236              1
      4991.0000        11.4725        -0.1864              1
      4991.5000        11.5074        -0.2198              1
      4992.0000        11.6639        -0.3748              1
      4992.5000        11.9006        -0.6101              1
      4993.0000        12.3872        -1.0952              1
      4993.5000        12.8459        -1.5524              1
      4994.0000        13.1499         -1.855              1
      4994.5000        13.4546        -2.1582      0.9931217
      4995.0000        13.8148        -2.5169      0.9775261
      4995.5000        14.1746        -2.8753      0.9619435
      4996.0000        14.5583        -3.2575      0.9453261
      4996.5000        14.9486        -3.6463      0.9284217
      4997.0000        15.1521        -3.8484      0.9196348
      4997.5000        15.2037        -3.8985      0.9174565
      4998.0000        14.7576        -3.4509      0.9369174
      4998.5000        14.4316        -3.1235      0.9511521
      4999.0000        14.1398        -2.8302      0.9639043
      4999.5000         13.848        -2.5369      0.9766565
      5000.0000        13.6143        -2.3018      0.9868783
      5000.5000           13.4         -2.086      0.9962609
      5001.0000        13.1857        -1.8702              1
      5001.5000        12.9918        -1.6749              1
      5002.0000        12.8309        -1.5125              1
      5002.5000        12.6699          -1.35              1
      5003.0000        12.5094        -1.1881              1
      5003.5000        12.3629        -1.0401              1
      5004.0000        12.2166        -0.8923              1
      5004.5000          12.07        -0.7443              1
      5005.0000        11.9467        -0.6195              1
      5005.5000         11.827        -0.4983              1
      5006.0000        11.7271         -0.397              1
      5006.5000        11.6629        -0.3313              1
      5007.0000        11.7767        -0.4436              1
      5007.5000        12.7474        -1.4129              1
      5008.0000        13.6786        -2.3426      0.9851043
      5008.5000         14.409        -3.0715      0.9534131
      5009.0000        14.8614        -3.5225      0.9338043
      5009.5000        15.3135        -3.9731      0.9142131
      5010.0000        15.7973        -4.4554      0.8932435
      5010.5000        16.2833          -4.94      0.8721739
      5011.0000        16.9227        -5.5779      0.8444391
      5011.5000        17.9631        -6.6168      0.7992696
      5012.0000        18.6909        -7.3432       0.767687
      5012.5000        17.5414        -6.1922      0.8177304
      5013.0000        16.0285        -4.6778      0.8835739
      5013.5000        15.2141         -3.862      0.9190435
      5014.0000        14.5502        -3.1966      0.9479739
      5014.5000        13.9779        -2.6228      0.9729217
      5015.0000        13.3956        -2.0391         0.9983
      5015.5000        12.8008        -1.4428              1
      5016.0000        12.3866        -1.0271              1
      5016.5000        12.0793        -0.7184              1
      5017.0000        11.9173        -0.5549              1
      5017.5000        11.7948        -0.4309              1
      5018.0000         11.795        -0.4297              1
      5018.5000        11.7952        -0.4284              1
      5019.0000        11.7954        -0.4271              1
      5019.5000        11.7795        -0.4098              1
      5020.0000        11.7625        -0.3913              1
      5020.5000        11.7456        -0.3729              1
      5021.0000        11.6705        -0.2964              1
      5021.5000        11.5179        -0.1423              1
      5022.0000        11.3641          0.013              1
      5022.5000         11.208         0.1705              1
      5023.0000        11.0539         0.3261              1
      5023.5000        11.0411         0.3404              1
      5024.0000        11.0284         0.3545              1
      5024.5000        11.0156         0.3688              1
      5025.0000        11.1505         0.2354              1
      5025.5000         11.299         0.0883              1
      5026.0000        11.4692        -0.0804              1
      5026.5000        11.9125        -0.5222              1
