#------------------------------------------------------------------------------
# Created by    : vladimir.rabinovich
# Created on    : 09/19/2023 17:20:02
#------------------------------------------------------------------------------
~Version Information Section
VERS.           2.0     :   CWLS log ASCII Standard - VERSION 2.0
WRAP.           NO      :   One line per depth step
~Well Information Section
#MNEM       .UNIT                                         VALUE :DESCRIPTION
#------------------------------------------------------------------------------
STRT        .FT                                             994 :START DEPTH
STOP        .FT                                           14137 :STOP DEPTH
STEP        .FT                                             0.5 :STEP      
NULL        .                                           -999.25 :NULL      
COMP        .                                   MARATHON OIL CO :COMPANY   
WELL        .                                     ST TR 00841-L :WELL      
FLD         .                                           WILDCAT :FIELD     
LOC         .                                                   :LOCATION  
CNTY        .                        MUSTANG ISLAND LARGE BLOCK :LOCATION  
STAT        .                                             TEXAS :STATE     
CTRY        .                                     UNITED STATES :COUNTRY   
SRVC        .                                                   :SERVICE COMPANY
DATE        .                             9/13/2023 11:18:55 AM :LOG DATE  
API         .                                    42702301400000 :API NUMBER
UWI         .                                    42702301400000 :UNIQUE WELL ID
XCOORD      .                                  272565.632686387 :SURFACE X 
YCOORD      .                                  9953986.84876921 :SURFACE Y 
LAT         .                                         27.367086 :LATITUDE  
LON         .                                       -97.2136853 :LONGITUDE 
ELEV        .FT                                              88 :ELEVATION VALUE
ELEV_TYPE   .                                                KB :ELEVATION REFERENCE TYPE
~Curve Information Section
#MNEM       .UNIT                                      API CODE :CURVE DESCRIPTION
#------------------------------------------------------------------------------
DEPT        .FT                                                 :DEPTH     
ASFL        .OHMM                                               :          
CILD        .MMHO                                               :          
GR          .GAPI                                               :          
GR_NORM     .GAPI                                               :GammaRay Normalized
ILD         .OHMM                                               :          
SP          .MV                                                 :          
SP_NORM     .MV                                                 :SP Normalized
VSH_GR      .V/V                                                :Volume of Shale from GR
VSH_SP      .V/V                                                :Volume of Shale from SP
~A        DEPTH           ASFL           CILD             GR        GR_NORM            ILD             SP        SP_NORM         VSH_GR         VSH_SP
# ...
     13237.0000         0.6699       2334.195        91.4227       86.36058         0.3642       -43.4468      0.3011017              1              1
     13237.5000         0.6789       2313.984        91.1699        85.8745         0.3703       -43.5019      0.2303391              1              1
     13238.0000         0.6868       2295.418        90.2106       84.07672         0.3764       -43.5569      0.1596756              1              1
     13238.5000         0.6842       2310.648         89.194       82.17255         0.3826        -43.612     0.08891296              1              1
     13239.0000         0.6622       2370.684        87.9805       79.90278         0.3887       -43.6671     0.01815033      0.9979315              1
     13239.5000         0.6475       2430.617         86.767       77.63303         0.3948       -43.5578      0.1117859       0.949639              1
     13240.0000         0.6328       2478.008        85.5535       75.36329         0.4009       -43.2781       0.375824      0.9013466              1
     13240.5000         0.6181       2510.066         86.144       76.44289         0.4071       -42.9977       0.640564      0.9243167              1
     13241.0000         0.6034       2542.121         87.051        78.1101         0.4142        -42.586       1.036602      0.9597893              1
     13241.5000         0.6037       2574.281        86.9974       77.99384         0.4258       -42.1063       1.500637      0.9573158              1
     13242.0000          0.618       2605.988        86.6025       77.24392         0.4374       -41.6417       1.949574        0.94136              1
     13242.5000         0.6324       2628.289        86.2063       76.49158         0.4491        -42.368       1.207611      0.9253529              1
     13243.0000         0.6467       2580.055        86.4019       76.83799         0.4606       -43.0707      0.4892464      0.9327232              1
     13243.5000         0.6693       2425.938        86.2723       76.58065         0.4723       -43.5204     0.02388382      0.9272479              1
     13244.0000          0.698       2305.273        85.6108       75.33576         0.4839       -43.9702     -0.4415779      0.9007609              1
     13244.5000         0.7267       2217.863        84.8745       73.95197         0.5037       -44.4199     -0.9069405      0.8713186              1
     13245.0000         0.7461       2131.148        84.1382       72.56821         0.5262       -44.8697      -1.372406      0.8418769      0.9890469
     13245.5000         0.7653       2071.809        83.4019       71.18447         0.5488       -45.3163      -1.834667      0.8124356       0.975451
     13246.0000         0.7845       2012.574        82.3092       69.13899         0.5713       -45.4525       -1.98653      0.7689148      0.9709844
     13246.5000          0.802       1953.338        80.9463       66.59186         0.6004       -45.5889      -2.138596      0.7147204      0.9665119
     13247.0000         0.8184       1890.516        79.6057       64.08614         0.6266        -45.725      -2.290356      0.6614073      0.9620484
     13247.5000         0.8348       1825.006        78.4047       61.83961         0.5912       -45.8611       -2.44212      0.6136087      0.9575847
     13248.0000         0.8529       1760.791        77.2036       59.59288         0.5557       -45.9043       -2.50098      0.5658059      0.9558535
     13248.5000         0.8897       1703.844        76.0051       57.35099         0.5226       -45.9313      -2.543644      0.5181063      0.9545987
     13249.0000         0.9324       1646.896        75.1704       55.78454         0.5045       -45.9584      -2.586407      0.4847775       0.953341
     13249.5000          0.948        1605.58        74.4652       54.45852         0.4864       -45.8614       -2.50507      0.4565643      0.9557332
     13250.0000         0.9453       1591.941        74.8115       55.08471         0.4683       -45.7029      -2.362232      0.4698874      0.9599344
     13250.5000         0.9014       1629.973        75.7733       56.85367         0.4502       -45.5447      -2.219696      0.5075249      0.9641266
     13251.0000         0.8581       1686.422        76.7377       58.62744          0.432       -45.3861      -2.076759      0.5452646      0.9683306
     13251.5000         0.8045       1813.061        77.6995       60.39639         0.4204       -45.2279      -1.934223      0.5829019      0.9725229
     13252.0000         0.7136       1939.697        78.6862       62.21157         0.4107       -45.0969      -1.818886      0.6215227      0.9759151
     13252.5000         0.6599       2225.629        79.7651       64.19791         0.4009       -44.9993      -1.736946      0.6637854      0.9783251
     13253.0000         0.6501       2309.457        80.8441       66.18446         0.3911       -44.9952      -1.748512      0.7060522      0.9779849
     13253.5000          0.657       2377.453         81.923       68.17081         0.3838       -45.1077      -1.876675       0.748315      0.9742154
     13254.0000         0.6647       2410.109         83.002       70.15736         0.3863       -45.2204      -2.005039      0.7905822        0.97044
     13254.5000         0.6732       2442.664        84.1531       72.27778         0.3887       -45.3328      -2.133102      0.8356974      0.9666734
     13255.0000         0.6816       2437.289        85.4115        74.5974         0.3912       -45.3198      -2.135765      0.8850511      0.9665952
     13255.5000         0.6901       2408.066        86.6672       76.91201         0.3937       -45.1699      -2.001526      0.9342981      0.9705434
     13256.0000         0.6986       2378.898        87.9257       79.23179         0.3962       -45.0201      -1.867386      0.9836551      0.9744887
     13256.5000          0.692       2349.676        89.0364       81.27721         0.3986       -44.8622      -1.725151              1       0.978672
     13257.0000         0.6829       2321.055        88.6757       80.59077         0.4011       -44.5931      -1.471714              1      0.9861261
     13257.5000         0.6737       2306.344        87.0012       77.46513         0.4036       -44.3234      -1.217674      0.9460665      0.9935978
     13258.0000         0.6671        2291.66        85.5061       74.67256         0.4058       -44.0536     -0.9635391      0.8866503              1
     13258.5000         0.6655       2276.949        85.9796       75.53492         0.4073       -43.5989     -0.5245018      0.9049983              1
     13259.0000         0.6639       2279.289        86.9838       77.38261         0.4087       -43.1055    -0.04676437      0.9443108              1
     13259.5000         0.6622       2310.949         87.948       79.15601         0.4102       -42.6122      0.4308701      0.9820428              1
     13260.0000         0.6606       2341.664        88.8724       80.85551         0.4116       -43.1367     -0.1092911              1              1
     13260.5000         0.6627       2369.738        89.7969       82.55521          0.413       -43.9565     -0.9447556              1              1
     13261.0000         0.6717        2382.68        89.6549       82.27484         0.4145       -44.7762      -1.780117              1      0.9770554
     13261.5000         0.6806       2363.168        89.1328       81.28873         0.4159       -45.3855      -2.405083              1       0.958674
     13262.0000         0.6896       2343.652        88.5436       80.17811         0.4174       -45.9062      -2.941444              1      0.9428987
     13262.5000         0.6975        2324.09        87.7113        78.6161         0.4188       -46.4271      -3.478008      0.9705554      0.9271174
     13263.0000          0.702       2304.578        86.8766       77.04962         0.4203       -46.7341      -3.800671       0.937226      0.9176273
