#------------------------------------------------------------------------------
# Created by    : vladimir.rabinovich
# Created on    : 09/19/2023 17:22:54
#------------------------------------------------------------------------------
~Version Information Section
VERS.           2.0     :   CWLS log ASCII Standard - VERSION 2.0
WRAP.           NO      :   One line per depth step
~Well Information Section
#MNEM       .UNIT                                         VALUE :DESCRIPTION
#------------------------------------------------------------------------------
STRT        .FT                                             410 :START DEPTH
STOP        .FT                                            7624 :STOP DEPTH
STEP        .FT                                             0.5 :STEP      
NULL        .                                           -999.25 :NULL      
COMP        .                                      SHELL OIL CO :COMPANY   
WELL        .                                     ST TR 00249-L :WELL      
FLD         .                                           WILDCAT :FIELD     
LOC         .                                                   :LOCATION  
CNTY        .                             GALVESTON LARGE BLOCK :LOCATION  
STAT        .                                             TEXAS :STATE     
CTRY        .                                     UNITED STATES :COUNTRY   
SRVC        .                                                   :SERVICE COMPANY
DATE        .                             9/13/2023 11:19:42 AM :LOG DATE  
API         .                                    42706000200000 :API NUMBER
UWI         .                                    42706000200000 :UNIQUE WELL ID
XCOORD      .                                  981084.037319939 :SURFACE X 
YCOORD      .                                  10535303.7769946 :SURFACE Y 
LAT         .                                         29.014458 :LATITUDE  
LON         .                                       -95.0633058 :LONGITUDE 
ELEV        .FT                                              11 :ELEVATION VALUE
ELEV_TYPE   .                                                KB :ELEVATION REFERENCE TYPE
~Curve Information Section
#MNEM       .UNIT                                      API CODE :CURVE DESCRIPTION
#------------------------------------------------------------------------------
DEPT        .FT                                                 :DEPTH     
LAT         .OHMM                                               :          
SN          .OHMM                                               :          
SP          .MV                                                 :          
SP_NORM     .MV                                                 :SP Normalized
VSH_SP      .V/V                                                :Volume of Shale from SP
~A        DEPTH            LAT             SN             SP        SP_NORM         VSH_SP
# ...
      3270.0000         0.9233          0.826       -89.0392       1.204704              1
      3270.5000         0.9257          0.834       -88.6864       1.557503              1
      3271.0000         0.9281          0.842       -88.3336       1.910301              1
      3271.5000         0.9257         0.8464       -87.9806       2.263306              1
      3272.0000          0.923         0.8464       -87.6279       2.616005              1
      3272.5000         0.9204         0.8464       -87.3762       2.867706              1
      3273.0000         0.9178         0.8463       -87.1403       3.103607              1
      3273.5000         0.9151         0.8463       -86.9044         3.3395              1
      3274.0000         0.9147         0.8463       -86.6685       3.575401              1
      3274.5000          0.924         0.8405       -86.4326       3.811302              1
      3275.0000         0.9334          0.828       -86.1965       4.047401              1
      3275.5000         0.9218         0.8156       -86.2524       3.991501              1
      3276.0000         0.9098         0.8031       -86.3409       3.903008              1
      3276.5000         0.8979         0.7907       -86.4293       3.814606              1
      3277.0000         0.8859         0.7782       -86.5177       3.726204              1
      3277.5000          0.874         0.7659       -86.6061       3.637802              1
      3278.0000         0.8618         0.7538       -86.6946       3.549301              1
      3278.5000         0.8495         0.7417       -87.2191       3.024803              1
      3279.0000         0.8372         0.7296       -87.8997       2.344208              1
      3279.5000         0.8249         0.7175       -88.5801       1.663803              1
      3280.0000         0.8126         0.7054       -89.2605      0.9834061              1
      3280.5000         0.8003         0.7037       -89.9409      0.3030014              1
      3281.0000          0.793         0.7126       -90.6213     -0.3773956              1
      3281.5000         0.8001         0.7216       -91.3018      -1.057899      0.9990953
      3282.0000         0.8071         0.7305       -91.8226      -1.578697      0.9909579
      3282.5000         0.8141         0.7395       -92.0836      -1.839699      0.9868797
      3283.0000         0.8212         0.7484       -92.3446      -2.100693      0.9828017
      3283.5000         0.8282         0.7574       -92.5616      -2.317696       0.979411
      3284.0000         0.8368         0.7667       -92.6034       -2.36171      0.9787233
      3284.5000         0.8472         0.7765       -92.6451      -2.406029      0.9780308
      3285.0000         0.8577         0.7862       -92.6862      -2.449745      0.9773477
      3285.5000         0.8681          0.796        -92.684      -2.450165      0.9773412
      3286.0000         0.8785         0.8057       -92.6819      -2.450684      0.9773331
      3286.5000         0.8714         0.8155       -92.6798       -2.45121      0.9773248
      3287.0000         0.8616         0.8253        -92.681      -2.455025      0.9772652
      3287.5000         0.8554          0.835        -92.757      -2.533653      0.9760367
      3288.0000         0.8508         0.8448       -92.6156      -2.394867      0.9782052
      3288.5000         0.8462         0.8545       -91.8337      -1.615585      0.9903815
      3289.0000         0.8416         0.8613        -91.052     -0.8365097              1
      3289.5000          0.837         0.8655       -90.2708    -0.05792236              1
      3290.0000         0.8341         0.8696       -90.4738     -0.2635498              1
      3290.5000         0.8314         0.8737       -91.1506     -0.9429626              1
      3291.0000         0.8286         0.8778       -91.8273      -1.622292      0.9902767
      3291.5000         0.8259          0.882       -92.5042      -2.301811      0.9796592
      3292.0000         0.8232         0.8861       -93.1808      -2.981026      0.9690465
      3292.5000         0.8259         0.8902       -93.8577      -3.660545       0.958429
      3293.0000         0.8403         0.8932       -93.3892      -3.194664      0.9657084
      3293.5000         0.8546         0.8888       -91.8278      -1.635887      0.9900643
      3294.0000          0.869         0.8844       -89.8273      0.3619919              1
      3294.5000         0.8833           0.88       -87.6569       2.529778              1
      3295.0000         0.8988         0.8756       -86.2715       3.912552              1
      3295.5000         0.9154         0.8712       -85.5682       4.613235              1
      3296.0000          0.932         0.8668       -84.9392       5.239609              1
      3296.5000         0.9486         0.8623       -84.8856       5.290596              1
      3297.0000         0.9652          0.857       -85.8329       4.340668              1
      3297.5000         0.9807         0.8463       -86.7798       3.391151              1
      3298.0000         0.9865         0.8356       -87.7272       2.441132              1
      3298.5000         0.9924         0.8249       -90.3384     -0.1726913              1
      3299.0000         0.9983         0.8142       -92.9915      -2.828407      0.9714311
      3299.5000         1.0042         0.8035       -95.3684      -5.207932      0.9342511
      3300.0000         0.9952         0.7928       -96.5756      -6.417747      0.9153477
      3300.5000         0.9721         0.7821       -97.7834      -7.628174      0.8964348
      3301.0000         0.9489         0.7715       -98.9912      -8.838593       0.877522
      3301.5000         0.9258         0.7608       -99.9497      -9.799706      0.8625046
      3302.0000         0.9027         0.7582       -99.4449      -9.297531      0.8703511
      3302.5000         0.8772         0.7557       -98.9403      -8.795547      0.8781946
      3303.0000         0.8475         0.7533       -98.1609      -8.018768      0.8903317
      3303.5000         0.8178         0.7508      -103.6715      -13.53199      0.8041877
      3304.0000         0.7881         0.7484      -111.4685      -21.33161      0.6823186
      3304.5000         0.7584         0.7468      -114.4233      -24.28903      0.6361089
      3305.0000         0.7353         0.7482      -117.3783      -27.24665      0.5898961
      3305.5000         0.7217         0.7497      -118.6356      -28.50657      0.5702099
      3306.0000         0.7081         0.7512      -117.3445      -27.21809      0.5903424
      3306.5000         0.6946         0.7527       -114.199      -24.07521      0.6394498
      3307.0000          0.681         0.7548        -111.05      -20.92883       0.688612
      3307.5000         0.6713         0.7572      -109.3541      -19.23556      0.7150694
      3308.0000         0.6736         0.7596      -109.9564      -19.84047      0.7056177
      3308.5000          0.676          0.762      -110.5587      -20.44539      0.6961658
      3309.0000         0.6783         0.7644      -109.7676      -19.65691      0.7084857
      3309.5000         0.6806         0.7668      -108.0287      -17.92063      0.7356151
      3310.0000         0.6829         0.7693      -106.2908      -16.18536      0.7627288
      3310.5000         0.6857         0.7717      -104.1694      -14.06657      0.7958348
      3311.0000         0.6899         0.7741      -101.9467      -11.84649      0.8305236
      3311.5000         0.6941         0.7773      -102.1243      -12.02671      0.8277076
      3312.0000         0.6983         0.7804      -102.9545      -12.85953      0.8146949
      3312.5000         0.7025         0.7836      -103.6492      -13.55685      0.8037992
      3313.0000         0.7085         0.7867        -103.97      -13.88027      0.7987458
      3313.5000         0.7182         0.7899      -103.1588      -13.07169      0.8113798
