#------------------------------------------------------------------------------
# Created by    : vladimir.rabinovich
# Created on    : 09/19/2023 17:20:31
#------------------------------------------------------------------------------
~Version Information Section
VERS.           2.0     :   CWLS log ASCII Standard - VERSION 2.0
WRAP.           NO      :   One line per depth step
~Well Information Section
#MNEM       .UNIT                                         VALUE :DESCRIPTION
#------------------------------------------------------------------------------
STRT        .FT                                            2377 :START DEPTH
STOP        .FT                                            9500 :STOP DEPTH
STEP        .FT                                             0.5 :STEP      
NULL        .                                           -999.25 :NULL      
COMP        .                                     SKELLY OIL CO :COMPANY   
WELL        .                                     ST TR 00146-L :WELL      
FLD         .                                           WILDCAT :FIELD     
LOC         .                                                   :LOCATION  
CNTY        .                             GALVESTON LARGE BLOCK :LOCATION  
STAT        .                                             TEXAS :STATE     
CTRY        .                                     UNITED STATES :COUNTRY   
SRVC        .                                                   :SERVICE COMPANY
DATE        .                             9/13/2023 11:19:24 AM :LOG DATE  
API         .                                    42706001330000 :API NUMBER
UWI         .                                    42706001330000 :UNIQUE WELL ID
XCOORD      .                                  1116482.89093459 :SURFACE X 
YCOORD      .                                  10631825.2810539 :SURFACE Y 
LAT         .                                         29.285733 :LATITUDE  
LON         .                                       -94.6439746 :LONGITUDE 
ELEV        .FT                                              61 :ELEVATION VALUE
ELEV_TYPE   .                                                KB :ELEVATION REFERENCE TYPE
~Curve Information Section
#MNEM       .UNIT                                      API CODE :CURVE DESCRIPTION
#------------------------------------------------------------------------------
DEPT        .FT                                                 :DEPTH     
ASN         .OHMM                                               :          
CALI        .IN                                                 :          
CILD        .MMHO                                               :          
DT          .US/F                                               :          
ILD         .OHMM                                               :          
SP          .MV                                                 :          
SP_NORM     .MV                                                 :SP Normalized
VSH_SP      .V/V                                                :Volume of Shale from SP
~A        DEPTH            ASN           CALI           CILD             DT            ILD             SP        SP_NORM         VSH_SP
# ...
      3793.0000         0.9981        10.8496       2034.359        122.001         0.4196      -104.7841      -47.46788      0.3265524
      3793.5000         0.9365        11.0198       2010.344       127.8878         0.4199      -103.7253      -46.42747      0.3416308
      3794.0000         0.8819        11.1553       1987.016        130.916         0.4288      -102.1703      -44.89087      0.3639005
      3794.5000          0.835        11.2343        1993.27       131.5784         0.4442       -99.4279      -42.16685      0.4033789
      3795.0000         0.8009        11.2688       1963.834       130.0784         0.4802       -92.1104      -34.86774      0.5091632
      3795.5000         0.8088        11.3288        1668.42        127.396         0.5317       -80.5604      -23.33613      0.6762879
      3796.0000         0.8249         11.733       1255.918       124.4976         0.6262        -72.913      -15.70712      0.7868533
      3796.5000         0.8413        12.4265       1150.457       121.5204         0.7206       -68.7805      -11.59301       0.846478
      3797.0000         0.8778        12.9872        1116.09       121.6425         0.8482       -65.7355      -8.566399      0.8903421
      3797.5000         0.9052        13.4002       1126.055       121.7119         0.8471       -62.8143      -5.663593      0.9324117
      3798.0000         0.9281        13.1652       1147.521       123.3491         0.8385        -60.268      -3.135681      0.9690481
      3798.5000         0.9456        12.7586       1188.346       124.7903         0.8286       -58.7693      -1.655369      0.9905019
      3799.0000         0.9581        12.4341       1249.023       126.2963         0.8106       -58.5072      -1.411659      0.9940339
      3799.5000         0.9607         12.269       1272.227       129.0586         0.7926       -58.4281      -1.350952      0.9949138
      3800.0000           0.96        12.4992       1291.445       131.1895         0.7648       -58.9893      -1.930542      0.9865139
      3800.5000         0.9592        12.6821        1316.16       131.6389         0.7366       -59.8318      -2.791428      0.9740373
      3801.0000         0.9585        12.5975       1376.477       128.9487         0.7083        -62.778       -5.75602      0.9310722
      3801.5000         0.9562        11.9327       1425.902       124.1355         0.6665       -74.1105      -17.10691      0.7665666
      3802.0000         0.9471         11.052       1492.414       119.1075         0.6242       -78.9092        -21.924      0.6967536
      3802.5000         0.9446        10.7958       1523.135       115.8757         0.6109       -78.5648      -21.59799      0.7014784
      3803.0000         0.9438        10.8343       1542.959       115.0887         0.5976       -76.9192      -19.97078      0.7250612
      3803.5000         0.9457         10.957         1533.5       114.3279         0.5856       -75.2429      -18.31287      0.7490889
      3804.0000         0.9483        11.0734       1524.039       113.6161         0.5945       -75.4386      -18.52696      0.7459861
      3804.5000         0.9543        11.1428       1506.063       113.1708         0.6034       -76.2629      -19.36965      0.7337732
      3805.0000         0.9651        11.1357       1486.732       113.6289         0.6123       -76.6779      -19.80304      0.7274922
      3805.5000         0.9766        11.0003         1470.9       114.3788         0.6212       -76.6111      -19.75463      0.7281938
      3806.0000         0.9905        10.9229       1473.313       113.2931         0.6216       -76.5442      -19.70612      0.7288969
      3806.5000         1.0045        10.8875       1475.725       110.4995         0.6179       -76.8292      -20.00951      0.7244999
      3807.0000         1.0191        10.9015        1481.85       105.5001         0.6112       -77.1895       -20.3882      0.7190116
      3807.5000         1.0105        10.9332       1490.709       103.2084         0.6011       -77.6666      -20.88369      0.7118305
      3808.0000         1.0019        10.9506       1494.217       101.9039         0.6048       -78.5386      -21.77407      0.6989264
      3808.5000         1.0013         10.955       1497.494       104.2999         0.6104       -79.3917      -22.64557      0.6862961
      3809.0000         1.0053        10.8607       1497.844       105.4777         0.6178       -80.1123      -23.38456      0.6755862
      3809.5000          1.011        10.8154       1495.801        107.038         0.6458       -78.8335      -22.12415      0.6938528
      3810.0000         1.0147         10.774       1471.609       108.2944         0.6737       -77.5554      -20.86444      0.7121096
      3810.5000         1.0087        10.7511        1398.08       108.0104         0.7017       -74.8329      -18.16033      0.7512996
      3811.0000          0.998        10.7805       1335.316       106.9282         0.7239       -71.1604      -14.50622      0.8042577
      3811.5000         0.9887        10.8828       1297.328       108.5222         0.7436       -67.2205      -10.58471      0.8610913
      3812.0000          0.984         11.058       1254.844       117.2351         0.7634        -63.113      -6.495598      0.9203537
      3812.5000         0.9794        11.2647       1222.113       120.0999         0.7746       -60.0543      -3.455288      0.9644161
      3813.0000         0.9759        11.5151       1176.594       120.9425         0.7778        -58.173      -1.592377      0.9914148
      3813.5000         0.9722        11.7327       1152.607       122.6614         0.7775        -56.363       0.199234              1
      3814.0000         0.9683        11.8182       1152.502       123.4291          0.751       -54.5906       1.953243              1
      3814.5000         0.9636        11.8188       1159.859       124.8474         0.7221       -53.2974        3.22805              1
      3815.0000         0.9585        11.8294       1193.602       124.0844          0.693       -52.3168       4.190262              1
      3815.5000         0.9513        11.9322       1271.104       123.4893         0.6638       -51.7582       4.730473              1
      3816.0000         0.9414        12.2868       1565.418       122.0035         0.5928       -51.9203       4.549984              1
      3816.5000         0.9256        12.3055        1637.35       118.5983         0.5465       -52.0825       4.369392              1
      3817.0000         0.9048        11.7207        2021.51       118.1544         0.5003       -52.8343       3.599201              1
      3817.5000         0.8782         11.496       2110.047       120.5056         0.4588       -54.2681       2.147011              1
      3818.0000         0.7379        11.3625       2182.453       126.6046         0.4191        -56.678     -0.2812767              1
      3818.5000         0.6881         11.148       2348.793       131.9048         0.3885        -60.108      -3.729668      0.9604396
      3819.0000          0.667        10.8693       2577.922       135.1052         0.3668        -63.983      -7.623058      0.9040136
      3819.5000         0.6479         10.728       2669.082       135.5994         0.3533       -70.1205      -13.77895      0.8147979
      3820.0000          0.657        10.6165       2671.711       133.3364         0.3584       -80.7654      -24.44224      0.6602573
      3820.5000         0.6679        10.5337        2506.84       131.2568         0.3636       -84.8729      -28.56813       0.600462
      3821.0000         0.6789        10.5179       2367.176        128.467         0.3728       -88.5228      -32.23641      0.5472984
      3821.5000         0.6948        10.5424       2233.152       125.5486         0.3907       -88.8236      -32.55561      0.5426723
      3822.0000         0.7124        10.5795       2146.336       123.4353         0.4109       -88.5736        -32.324       0.546029
