#------------------------------------------------------------------------------
# Created by    : vladimir.rabinovich
# Created on    : 09/19/2023 17:22:54
#------------------------------------------------------------------------------
~Version Information Section
VERS.           2.0     :   CWLS log ASCII Standard - VERSION 2.0
WRAP.           NO      :   One line per depth step
~Well Information Section
#MNEM       .UNIT                                         VALUE :DESCRIPTION
#------------------------------------------------------------------------------
STRT        .FT                                            1705 :START DEPTH
STOP        .FT                                           10298 :STOP DEPTH
STEP        .FT                                             0.5 :STEP      
NULL        .                                           -999.25 :NULL      
COMP        .                            STANOLIND OIL & GAS CO :COMPANY   
WELL        .                                       ST TR 00219 :WELL      
FLD         .                                           WILDCAT :FIELD     
LOC         .                                                   :LOCATION  
CNTY        .                             GALVESTON LARGE BLOCK :LOCATION  
STAT        .                                             TEXAS :STATE     
CTRY        .                                     UNITED STATES :COUNTRY   
SRVC        .                                                   :SERVICE COMPANY
DATE        .                             9/13/2023 11:19:42 AM :LOG DATE  
API         .                                    42706000170000 :API NUMBER
UWI         .                                    42706000170000 :UNIQUE WELL ID
XCOORD      .                                  1024804.26554262 :SURFACE X 
YCOORD      .                                  10549089.4715911 :SURFACE Y 
LAT         .                                        29.0543948 :LATITUDE  
LON         .                                       -94.9272588 :LONGITUDE 
ELEV        .FT                                              60 :ELEVATION VALUE
ELEV_TYPE   .                                                GL :ELEVATION REFERENCE TYPE
~Curve Information Section
#MNEM       .UNIT                                      API CODE :CURVE DESCRIPTION
#------------------------------------------------------------------------------
DEPT        .FT                                                 :DEPTH     
LAT         .OHMM                                               :          
LN          .OHMM                                               :          
SN          .OHMM                                               :          
SP          .MV                                                 :          
SP_NORM     .MV                                                 :SP Normalized
VSH_SP      .V/V                                                :Volume of Shale from SP
~A        DEPTH            LAT             LN             SN             SP        SP_NORM         VSH_SP
# ...
      5125.0000         1.7159         0.8446         1.0326       -66.6499     0.01002502              1
      5125.5000            1.6         0.8497         0.9642       -64.8242        1.83886              1
      5126.0000         1.4405         0.8549         0.9226       -62.9986       3.667606              1
      5126.5000         1.3218         0.8546         0.8898       -62.1855       4.483841              1
      5127.0000         1.2031         0.8256         0.8571       -61.6376       5.034885              1
      5127.5000         1.1548         0.7966          0.828       -62.1473        4.52832              1
      5128.0000         1.1132         0.7676         0.8183       -62.6565       4.022263              1
      5128.5000         1.0716         0.7386         0.8086       -63.1656         3.5163              1
      5129.0000         1.1133         0.7096         0.7989       -63.6708       3.014244              1
      5129.5000         1.1595         0.6889         0.7892       -64.1554       2.532776              1
      5130.0000         1.1834         0.6743         0.7799       -64.6406        2.05072              1
      5130.5000         1.2073         0.6597         0.7709       -64.7365       1.957954              1
      5131.0000         1.2285         0.6451         0.7618        -64.735       1.962601              1
      5131.5000          1.245         0.6305         0.7528       -64.7335       1.967239              1
      5132.0000         1.2174         0.6159         0.7437       -64.9242       1.779678              1
      5132.5000         1.1576         0.6013         0.7347       -65.1149       1.592117              1
      5133.0000          1.098         0.6066         0.7256       -65.3054       1.404762              1
      5133.5000         1.0382         0.6119         0.6953       -67.5713     -0.8580017              1
      5134.0000         0.9814         0.6173         0.5797       -77.1685      -10.45206      0.9039538
      5134.5000         0.9256         0.6226         0.5608       -85.2877      -18.56812       0.811726
      5135.0000         0.8696         0.6279         0.5656       -94.5839      -27.86118      0.7061229
      5135.5000         0.8138         0.6269         0.5704      -107.1185      -40.39264        0.56372
      5136.0000         0.8002         0.6218         0.5712      -121.2406       -54.5116      0.4032772
      5136.5000         0.7887         0.6166         0.5711      -129.6699      -62.93777      0.3075254
      5137.0000         0.7772         0.6115         0.5426      -119.5803      -52.84502      0.4222156
      5137.5000          0.764         0.6067         0.4869      -117.5505      -50.81208      0.4453173
      5138.0000         0.7502          0.603         0.4721      -122.0161      -55.27454      0.3946075
      5138.5000         0.7364         0.5994         0.4573      -126.4862       -59.7415      0.3438466
      5139.0000         0.7443         0.5957         0.4479      -131.0293      -64.28146      0.2922561
      5139.5000          0.768          0.592         0.4563      -134.7378      -67.98682      0.2501498
      5140.0000         0.7916         0.5884         0.4646      -137.1985      -70.44439      0.2222228
      5140.5000         0.8153         0.5844         0.5043      -135.3535      -68.59624      0.2432245
      5141.0000         0.8468         0.5735         0.5613       -93.1973      -26.43691      0.7223078
      5141.5000         0.9057         0.5626         0.6166        -82.186      -15.42246       0.847472
      5142.0000         0.9647         0.5516         0.6717        -72.151      -5.384331      0.9615417
      5142.5000         1.0236         0.5658         0.6667        -65.724       1.045815              1
      5143.0000         1.0777         0.5932         0.6512       -61.8788        4.89415              1
      5143.5000         1.1265         0.6195         0.6625       -61.0788       5.697292              1
      5144.0000         1.1753         0.6424         0.7053       -62.1148       4.664429              1
      5144.5000         1.1457         0.6652         0.7483       -63.7911       2.991272              1
      5145.0000          1.109         0.6881         0.7934       -64.7478       2.037712              1
      5145.5000         1.0719          0.711         0.8385       -62.8321       3.956551              1
      5146.0000         1.0315         0.7191         0.8361       -63.0841       3.707695              1
      5146.5000         0.9911         0.7108         0.7808       -64.7866       2.008331              1
      5147.0000         0.9507         0.7025         0.7275        -66.009      0.7890701              1
      5147.5000          0.918         0.6942         0.6959       -65.3141       1.487106              1
      5148.0000          0.944         0.6776         0.6643        -64.619       2.185349              1
      5148.5000         0.9685         0.6599          0.645       -63.9246       2.882889              1
      5149.0000         0.9829         0.6422         0.6561       -63.3289       3.481731              1
      5149.5000         0.9974         0.6246         0.6671       -63.1284       3.685368              1
      5150.0000         1.0118         0.6092         0.6782        -62.928       3.888908              1
      5150.5000         1.0151         0.5995         0.6893       -66.5724      0.2476425              1
      5151.0000         1.0099         0.5898         0.6966       -73.1454      -6.322212      0.9508839
      5151.5000         1.0047         0.5801         0.7023       -70.3994      -3.573074      0.9821241
      5152.0000         0.9994         0.5704          0.708       -68.3696      -1.540131              1
      5152.5000         0.9859         0.5538         0.7137        -66.764     0.06860352              1
      5153.0000         0.9594         0.5343         0.6849       -65.7902       1.045547              1
      5153.5000         0.9329         0.5149         0.6529       -67.3684     -0.5295181              1
      5154.0000         0.9063         0.4954         0.6209       -70.6503      -3.808273      0.9794514
      5154.5000         0.8876          0.483         0.6123       -75.0292      -8.184029       0.929727
      5155.0000         0.8711         0.4712         0.6055       -79.6407       -12.7924      0.8773592
      5155.5000         0.8545         0.4594         0.6111       -83.4951      -16.64365      0.8335949
      5156.0000          0.838         0.4476         0.6213       -87.1396      -20.28502      0.7922157
      5156.5000         0.8348          0.447         0.6314       -91.6646      -24.80687       0.740831
      5157.0000         0.8348         0.4561         0.6416       -85.3882      -18.52734      0.8121893
      5157.5000         0.8347         0.4652         0.6518       -81.1552      -14.29119      0.8603274
      5158.0000          0.828         0.4742         0.6434      -115.0736      -48.20646      0.4749266
      5158.5000         0.8214         0.4825         0.6285      -136.8406      -69.97032        0.22761
      5159.0000         0.7415         0.4902         0.5921      -145.7991      -78.92568      0.1258445
      5159.5000         0.6829         0.4978         0.5486      -148.4104      -81.53384      0.0962064
      5160.0000         0.6322         0.5054         0.5414      -150.0686       -83.1889     0.07739882
      5160.5000         0.5812         0.5111          0.563      -150.6072      -83.72435     0.07131421
      5161.0000         0.5299         0.5163         0.5846      -150.8247      -83.93873     0.06887808
      5161.5000         0.4857         0.5214         0.6062      -151.0078      -84.11868     0.06683324
      5162.0000         0.4673          0.511         0.6147      -151.1685      -84.27625     0.06504267
      5162.5000         0.4489            0.5         0.5595      -150.0332       -83.1378     0.07797952
