#------------------------------------------------------------------------------
# Created by    : vladimir.rabinovich
# Created on    : 09/19/2023 17:21:40
#------------------------------------------------------------------------------
~Version Information Section
VERS.           2.0     :   CWLS log ASCII Standard - VERSION 2.0
WRAP.           NO      :   One line per depth step
~Well Information Section
#MNEM       .UNIT                                         VALUE :DESCRIPTION
#------------------------------------------------------------------------------
STRT        .FT                                             957 :START DEPTH
STOP        .FT                                           10053 :STOP DEPTH
STEP        .FT                                             0.5 :STEP      
NULL        .                                           -999.25 :NULL      
COMP        .                                    EXXON CO U S A :COMPANY   
WELL        .                               OCS G03237 ST00BP00 :WELL      
FLD         .                                           WILDCAT :FIELD     
LOC         .                                                   :LOCATION  
CNTY        .                           HIGH ISLAND LARGE BLOCK :LOCATION  
STAT        .                                             TEXAS :STATE     
CTRY        .                                     UNITED STATES :COUNTRY   
SRVC        .                                                   :SERVICE COMPANY
DATE        .                             9/13/2023 11:20:04 AM :LOG DATE  
API         .                                    42708400420000 :API NUMBER
UWI         .                                    42708400420000 :UNIQUE WELL ID
XCOORD      .                                  1163347.66403634 :SURFACE X 
YCOORD      .                                  10583934.5995257 :SURFACE Y 
LAT         .                                         29.155753 :LATITUDE  
LON         .                                        -94.495054 :LONGITUDE 
ELEV        .FT                                              94 :ELEVATION VALUE
ELEV_TYPE   .                                                KB :ELEVATION REFERENCE TYPE
~Curve Information Section
#MNEM       .UNIT                                      API CODE :CURVE DESCRIPTION
#------------------------------------------------------------------------------
DEPT        .FT                                                 :DEPTH     
CALI        .IN                                                 :          
DRHO        .G/C3                                               :          
DT          .US/F                                               :          
GR          .GAPI                                               :          
GR_1        .GAPI                                               :          
GR_NORM     .GAPI                                               :GammaRay Normalized
ILD         .OHMM                                               :          
NPHI        .%                                                  :          
RHOB        .G/C3                                               :          
SFL         .OHMM                                               :          
SP          .MV                                                 :          
SP_NORM     .MV                                                 :SP Normalized
VSH_GR      .V/V                                                :Volume of Shale from GR
VSH_SP      .V/V                                                :Volume of Shale from SP
~A        DEPTH           CALI           DRHO             DT             GR           GR_1        GR_NORM            ILD           NPHI           RHOB            SFL             SP        SP_NORM         VSH_GR         VSH_SP
# ...
      7041.0000         15.731         0.0005       125.0173        84.2838        -999.25       79.85766         0.7788        43.5002         2.2802         0.7348        -45.192      -3.181026      0.9969714      0.9683909
      7041.5000        15.7597        -0.0005       123.3507         83.827        -999.25       79.23443         0.7896        42.7894         2.2878         0.7183       -45.0251      -3.018429      0.9837112      0.9707474
      7042.0000        15.6459          0.009        122.848        82.5493        -999.25       77.49267         0.7936        42.8295         2.2982         0.7515       -44.9637       -2.96133      0.9466525      0.9715749
      7042.5000        15.3498         0.0187       123.2932        82.1401        -999.25       76.93429         0.7943        43.6068         2.3046         0.7838       -45.6949      -3.696835      0.9347721      0.9609154
      7043.0000        15.1378         0.0189       125.0663        83.3986        -999.25       78.64828         0.7981        44.3299         2.3119         0.7939       -46.5349      -4.541138      0.9712399      0.9486791
      7043.5000        15.1423         0.0189       126.5872        85.6246        -999.25       81.68057         0.7998        44.9498         2.3211         0.7706       -46.5107       -4.52124              1      0.9489675
      7044.0000        15.1448         0.0184       127.7578        87.6328        -999.25       84.41609         0.8005        45.4027         2.3273         0.7561       -47.1632      -5.178043              1      0.9394487
      7044.5000         15.148          0.018       128.5459        87.6459        -999.25       84.43313         0.8013        45.7824         2.3169         0.7652       -47.9981      -6.017246              1      0.9272863
      7045.0000        15.6187         0.0293       127.2679        87.2986        -999.25        83.9591          0.802         46.087         2.3235         0.7819       -48.5449      -6.568348              1      0.9192993
      7045.5000        16.0557         0.0421       125.4703        86.5536        -999.25       82.94317         0.7967        45.2527         2.3447         0.7963       -47.4947      -5.522453              1      0.9344572
      7046.0000        16.0903         0.0417       123.6384        86.7971        -999.25       83.27415            0.8        43.9177         2.3608         0.8021       -47.4297      -5.461754              1      0.9353369
      7046.5000        16.1112         0.0254        122.775        87.8854        -999.25       84.75625          0.804        43.6432         2.3591         0.8038       -47.5739      -5.610256              1      0.9331847
      7047.0000        16.4056         0.0138       123.2932        89.3761        -999.25       86.78662         0.8082        42.7924         2.3463         0.8004       -47.0723      -5.112961              1      0.9403919
      7047.5000        16.7302         0.0161       124.1001        90.0372        -999.25       87.68662          0.806        42.9371         2.3413         0.7898       -47.0704      -5.115364              1       0.940357
      7048.0000        16.4413         0.0237       125.0062        89.7803        -999.25       87.33576         0.8013         43.393          2.342         0.7743       -46.0462      -4.095467              1      0.9551381
      7048.5000        16.2208         0.0277       126.3912        88.7521        -999.25       85.93394         0.7987        43.5366         2.3351         0.7547       -45.2329      -3.286465              1      0.9668629
      7049.0000        16.1759         0.0245       128.5205         88.559        -999.25       85.67004         0.7964        43.3962         2.3299         0.7398       -45.4587      -3.516567              1       0.963528
      7049.5000        16.2421         0.0149       128.0222        89.5271        -999.25       86.98834         0.7947        43.4234         2.3305         0.7272       -46.9208      -4.982971              1      0.9422758
      7050.0000        16.4358           0.02       123.8965        90.1586        -999.25         87.848         0.8045        43.4521         2.3437         0.7023       -44.9604      -3.026875              1       0.970625
      7050.5000         16.838         0.0226       121.9008        90.7758        -999.25       88.68818         0.8056        43.2998         2.3435          0.746       -45.5431      -3.613876              1      0.9621177
      7051.0000        16.8706         0.0173        120.575        91.3843        -999.25       89.51649         0.8042        43.0207         2.3265         0.7949       -44.8699      -2.944981              1      0.9718119
      7051.5000        16.3368         0.0075       119.6139        92.1531        -999.25       90.56324         0.8038        43.2003         2.3348         0.8406       -44.1564      -2.235783              1      0.9820901
      7052.0000        15.9626          0.023       118.8464        93.0557        -999.25       91.79229         0.8038        42.9835         2.3522         0.8664       -44.0533      -2.136986              1      0.9835219
      7052.5000        16.0983         0.0251       118.2126        93.2854        -999.25       92.10447         0.8021        43.0389         2.3525         0.8555       -44.6659      -2.753891              1      0.9745813
      7053.0000        16.4918         0.0217       117.7968        93.0408        -999.25       91.77038         0.7997        43.8028         2.3415         0.8165       -44.7758      -2.868092              1      0.9729262
      7053.5000        16.9382         0.0168        117.702        93.2615        -999.25       92.07028         0.7974        44.5408         2.3402         0.7822       -44.7572      -2.853794              1      0.9731334
      7054.0000        17.0186         0.0177       117.9756        93.1981        -999.25       91.98309         0.7948        45.2007         2.3338         0.7784       -44.6262        -2.7271              1      0.9749696
      7054.5000        16.9806         0.0195       118.0458         92.194        -999.25       90.61412         0.7911         45.863         2.3332         0.7832       -44.9518      -3.057003              1      0.9701884
      7055.0000        16.9052         0.0239       117.7626         91.965        -999.25        90.3013         0.7864        46.5341         2.3259         0.7746        -45.262      -3.371506              1      0.9656304
      7055.5000        16.8383         0.0228       117.7888         92.246        -999.25       90.68337         0.7784        47.0045         2.3234         0.7585       -44.1266      -2.240406              1      0.9820231
      7056.0000        16.8674         0.0223       118.0367        92.5469        -999.25       91.09254          0.771        47.1191         2.3286         0.7308       -43.5871      -1.705212              1      0.9897795
      7056.5000        17.0185         0.0214       118.2065        90.8123        -999.25       88.72824         0.7641        46.2008         2.3204         0.7144       -43.8989      -2.021309              1      0.9851984
      7057.0000        17.2043         0.0151       118.3972         89.568        -999.25       87.03198         0.7572        46.2175         2.3084         0.7361       -44.4455      -2.572212              1      0.9772143
      7057.5000        17.1537         0.0081       118.6461        88.9824        -999.25       86.23323         0.7512        46.4836         2.3165         0.7385       -44.5706      -2.701614              1      0.9753389
      7058.0000        17.0846         0.0114       118.9554        89.7748        -999.25       87.31214          0.746        45.5289         2.3074          0.731       -44.1626       -2.29792              1      0.9811895
      7058.5000        17.2238         0.0165       119.2688        90.2124        -999.25       87.90759         0.7409        44.3552         2.3187         0.7282       -44.1656      -2.305222              1      0.9810838
