#------------------------------------------------------------------------------
# Created by    : vladimir.rabinovich
# Created on    : 09/19/2023 17:20:36
#------------------------------------------------------------------------------
~Version Information Section
VERS.           2.0     :   CWLS log ASCII Standard - VERSION 2.0
WRAP.           NO      :   One line per depth step
~Well Information Section
#MNEM       .UNIT                                         VALUE :DESCRIPTION
#------------------------------------------------------------------------------
STRT        .FT                                             498 :START DEPTH
STOP        .FT                                            9565 :STOP DEPTH
STEP        .FT                                             0.5 :STEP      
NULL        .                                           -999.25 :NULL      
COMP        .                       BLUE DOLPHIN EXPLORATION CO :COMPANY   
WELL        .                                OCS 00714 ST00BP00 :WELL      
FLD         .                              GALVESTON BLOCK 0288 :FIELD     
LOC         .                                                   :LOCATION  
CNTY        .                             GALVESTON LARGE BLOCK :LOCATION  
STAT        .                                             TEXAS :STATE     
CTRY        .                                     UNITED STATES :COUNTRY   
SRVC        .                                                   :SERVICE COMPANY
DATE        .                             9/13/2023 11:19:25 AM :LOG DATE  
API         .                                    42706000390000 :API NUMBER
UWI         .                                    42706000390000 :UNIQUE WELL ID
XCOORD      .                                  1097340.72850425 :SURFACE X 
YCOORD      .                                  10481267.2561277 :SURFACE Y 
LAT         .                                        28.8709496 :LATITUDE  
LON         .                                       -94.6972159 :LONGITUDE 
ELEV        .FT                                              85 :ELEVATION VALUE
ELEV_TYPE   .                                                KB :ELEVATION REFERENCE TYPE
~Curve Information Section
#MNEM       .UNIT                                      API CODE :CURVE DESCRIPTION
#------------------------------------------------------------------------------
DEPT        .FT                                                 :DEPTH     
ASN         .OHMM                                               :          
CALI        .IN                                                 :          
DT          .US/F                                               :          
ILD         .OHMM                                               :          
SP          .MV                                                 :          
SP_1        .MV                                                 :          
SP_NORM     .MV                                                 :SP Normalized
VSH_SP      .V/V                                                :Volume of Shale from SP
~A        DEPTH            ASN           CALI             DT            ILD             SP           SP_1        SP_NORM         VSH_SP
# ...
      5306.5000         0.6734        10.7274        126.531         0.5829       -91.9764        -999.25      -24.88824      0.3976778
      5307.0000         0.6628        10.8209       125.4618         0.5749       -94.9529        -999.25      -27.86876      0.3192432
      5307.5000         0.6599        10.9583       124.7739         0.5668       -96.3983        -999.25      -29.31817      0.2811008
      5308.0000         0.6706        10.5602       121.4846         0.5587       -96.6964        -999.25      -29.62028      0.2731506
      5308.5000         0.6859        10.5789       118.6224         0.5507        -91.306        -999.25      -24.23389      0.4148977
      5309.0000         0.7506        10.5013       133.8589         0.5584       -85.6232        -999.25       -18.5551      0.5643395
      5309.5000         0.7683        10.4007       150.5374          0.568       -79.9403        -999.25      -12.87621      0.7137839
      5310.0000         0.7821        10.3351       132.1589         0.5846       -74.2531        -999.25      -7.193016      0.8633417
      5310.5000         0.7938        10.2306       116.9929         0.6201       -70.6962        -999.25      -3.640129      0.9568387
      5311.0000         0.8006         10.235        119.959         0.6556        -69.532        -999.25      -2.479942        0.98737
      5311.5000         0.8074        10.4103       117.2155         0.7012       -69.9448        -999.25      -2.896759      0.9764011
      5312.0000         0.8175        10.4608       118.9211         0.7478       -72.7794        -999.25      -5.735367      0.9017009
      5312.5000         0.8316         10.436       127.6819         0.7818       -78.6625        -999.25      -11.62247       0.746777
      5313.0000         0.8592        10.4046       125.8644         0.8158       -84.2666        -999.25      -17.23059       0.599195
      5313.5000         0.9321        10.3981       119.5787         0.8456       -84.9314        -999.25       -17.8994      0.5815948
      5314.0000         1.0048        10.5507       113.2886         0.8731        -82.955        -999.25      -15.92702      0.6334996
      5314.5000         1.0775        10.7686       121.7888         0.8891       -77.5872        -999.25      -10.56322      0.7746522
      5315.0000         1.1502         10.512       132.9463         0.8892       -72.2192        -999.25      -5.199234      0.9158096
      5315.5000         1.2054        10.3165       130.5261          0.887       -66.5005        -999.25      0.5154495              1
      5316.0000         1.1121        10.4529       123.0146         0.8758        -64.429        -999.25       2.582939              1
      5316.5000         1.0189        10.4801       115.2347         0.8645       -65.1798        -999.25       1.828133              1
      5317.0000         0.9256        10.3134       117.4045         0.8533       -66.6039        -999.25      0.4000244              1
      5317.5000         0.8355        10.6839       125.6005         0.8421       -67.3953        -999.25     -0.3953934              1
      5318.0000         0.8273        10.8837       126.2537         0.8313       -66.6803        -999.25      0.3155975              1
      5318.5000         0.8191        11.0126       118.8943         0.8228       -68.9257        -999.25      -1.933807              1
      5319.0000         0.8118        11.1084       116.6719         0.8143       -74.4915        -999.25      -7.503624      0.8551678
      5319.5000         0.8052        11.0091       116.8386         0.8058       -78.3217        -999.25      -11.33784      0.7542675
      5320.0000         0.8067        10.9262       115.5736         0.7973       -79.9403        -999.25      -12.96045      0.7115671
      5320.5000         0.8201        11.0443       121.9409         0.7888        -81.495        -999.25      -14.51916      0.6705485
      5321.0000           0.84        10.9995       121.2072         0.7804       -85.2092        -999.25      -18.23737      0.5727009
      5321.5000         0.8684        10.7809       106.7479         0.7725       -87.1519        -999.25      -20.18408      0.5214715
      5322.0000         0.8855        10.5647       102.2854         0.7694       -87.0743        -999.25       -20.1105       0.523408
      5322.5000         0.8945        10.3509        -999.25         0.7663       -84.1631        -999.25       -17.2033      0.5999131
      5323.0000         0.8982        10.3451        -999.25         0.7633       -82.0641        -999.25      -15.10831      0.6550444
      5323.5000         0.9002        10.3522        -999.25         0.7602       -80.6726        -999.25      -13.72083      0.6915572
      5324.0000         0.9004        10.3417       122.4598         0.7571       -78.9077        -999.25      -11.95994      0.7378964
      5324.5000         0.8973        10.2846       127.5354         0.7552       -76.0214        -999.25      -9.077644      0.8137462
      5325.0000         0.8926         10.395       128.0991         0.7545       -72.6017        -999.25      -5.661957      0.9036327
      5325.5000         0.8791         10.535       123.6722         0.7538        -72.235        -999.25      -5.299271      0.9131771
      5326.0000         0.8518        10.6565        124.473         0.7532         -75.45        -999.25       -8.51828      0.8284663
      5326.5000         0.8237        10.5541       132.2351         0.7525       -80.5118        -999.25       -13.5841      0.6951553
      5327.0000         0.8074        10.4626       124.6879          0.753       -84.9236        -999.25       -17.9999        0.57895
      5327.5000         0.7953        10.5359       110.7028         0.7537       -85.6108        -999.25      -18.69112      0.5607601
      5328.0000         0.7877        10.6054       106.2067         0.7544       -84.2914        -999.25      -17.37572      0.5953757
      5328.5000          0.783        10.6621       111.3246         0.7551       -80.9978        -999.25      -14.08614      0.6819436
      5329.0000         0.7862        10.6879       120.7106         0.7559       -77.3329        -999.25      -10.42525      0.7782829
      5329.5000         0.7876         10.602       121.3168         0.7563       -75.1506        -999.25      -8.246956      0.8356064
      5330.0000         0.7838        10.4748        121.479         0.7557       -74.8503        -999.25      -7.950676      0.8434033
      5330.5000         0.7741        10.3802       117.2703         0.7551       -76.8177        -999.25      -9.922089       0.791524
      5331.0000         0.7645        10.3291       107.7679         0.7545        -83.072        -999.25      -16.18039      0.6268318
      5331.5000         0.7554        10.3283       108.7433         0.7538       -92.2059        -999.25      -25.31831      0.3863604
      5332.0000         0.7826        10.3903        115.964         0.7526       -94.0057        -999.25      -27.12212      0.3388917
      5332.5000         0.8151        10.4308       129.1348         0.7485       -87.6885        -999.25      -20.80893      0.5050282
      5333.0000         0.8475        10.4306       123.8334         0.7443       -79.5894        -999.25      -12.71384      0.7180569
      5333.5000           0.88        10.5093       117.8743         0.7402       -76.5703        -999.25      -9.698746      0.7974014
      5334.0000         0.9125         10.465       121.5293          0.736       -78.9415        -999.25      -12.07396      0.7348958
      5334.5000         0.9449        10.4317       119.4333         0.7313       -86.1857        -999.25      -19.32217      0.5441533
      5335.0000         0.7432        10.7599       115.9662         0.7225       -91.8774        -999.25      -25.01788      0.3942662
      5335.5000         0.7233        10.7414       118.3171         0.7138       -94.3792        -999.25       -27.5237      0.3283238
