#------------------------------------------------------------------------------
# Created by    : vladimir.rabinovich
# Created on    : 09/19/2023 17:19:20
#------------------------------------------------------------------------------
~Version Information Section
VERS.           2.0     :   CWLS log ASCII Standard - VERSION 2.0
WRAP.           NO      :   One line per depth step
~Well Information Section
#MNEM       .UNIT                                         VALUE :DESCRIPTION
#------------------------------------------------------------------------------
STRT        .FT                                            4783 :START DEPTH
STOP        .FT                                            9473 :STOP DEPTH
STEP        .FT                                             0.5 :STEP      
NULL        .                                           -999.25 :NULL      
COMP        .                                   FOREST OIL CORP :COMPANY   
WELL        .                               OCS G20658 ST00BP00 :WELL      
FLD         .                            HIGH ISLAND BLOCK 0052 :FIELD     
LOC         .                                                   :LOCATION  
CNTY        .                           HIGH ISLAND LARGE BLOCK :LOCATION  
STAT        .                                             TEXAS :STATE     
CTRY        .                                     UNITED STATES :COUNTRY   
SRVC        .                                                   :SERVICE COMPANY
DATE        .                             9/13/2023 11:19:51 AM :LOG DATE  
API         .                                    42708405710000 :API NUMBER
UWI         .                                    42708405710000 :UNIQUE WELL ID
XCOORD      .                                  1254974.65209524 :SURFACE X 
YCOORD      .                                  10682885.5467737 :SURFACE Y 
LAT         .                                         29.430813 :LATITUDE  
LON         .                                        -94.211177 :LONGITUDE 
ELEV        .FT                                             108 :ELEVATION VALUE
ELEV_TYPE   .                                                KB :ELEVATION REFERENCE TYPE
~Curve Information Section
#MNEM       .UNIT                                      API CODE :CURVE DESCRIPTION
#------------------------------------------------------------------------------
DEPT        .FT                                                 :DEPTH     
A28H_COND   .MMHO                                               :          
A28H_UNC    .OHMM                                               :          
AHT10       .OHMM                                               :          
AHT20       .OHMM                                               :          
AHT30       .OHMM                                               :          
AHT60       .OHMM                                               :          
AHT90       .OHMM                                               :          
DCAL        .IN                                                 :          
DPHZ        .V/V                                                :          
DRHO        .G/CC                                               :          
DTCO        .US/F                                               :          
DTSM        .US/F                                               :          
GR          .GAPI                                               :          
GR_ARC_FIL  .GAPI                                               :          
GR_NORM     .GAPI                                               :GammaRay Normalized
GR1         .GAPI                                               :          
GRM1        .GAPI                                               :          
NPOR        .V/V                                                :          
P28H_UNC    .OHMM                                               :          
ROP5        .F/HR                                               :          
ROP5_RM     .F/HR                                               :          
SP          .MV                                                 :          
TENS        .LB                                                 :          
VSH_GR      .V/V                                                :Volume of Shale from GR
~A        DEPTH      A28H_COND       A28H_UNC          AHT10          AHT20          AHT30          AHT60          AHT90           DCAL           DPHZ           DRHO           DTCO           DTSM             GR     GR_ARC_FIL        GR_NORM            GR1           GRM1           NPOR       P28H_UNC           ROP5        ROP5_RM             SP           TENS         VSH_GR
# ...
      9161.0000        -999.25        -999.25         0.4589         0.4558         0.4532         0.4509         0.4485         2.3624         0.2478         -0.006          134.4          378.6        72.9098        -999.25       76.16624           52.4         79.933         0.4343        -999.25         34.151        -999.25         1.2044           3278      0.9184307
      9161.5000        -999.25        -999.25           0.46         0.4577         0.4544         0.4523         0.4496          2.401         0.2448          0.002          134.4            378        70.2821        -999.25       76.16624           50.8         79.933          0.414        -999.25         34.166        -999.25         1.6944           3278      0.9184307
      9162.0000        -999.25        -999.25         0.4562         0.4544         0.4521         0.4504         0.4475         2.4241          0.243          0.011          134.2          377.6        66.9514        -999.25        76.1675             50         79.934         0.4188        -999.25         32.779        -999.25         1.8719           3278      0.9184573
      9162.5000        -999.25        -999.25         0.4542         0.4518         0.4485         0.4471         0.4445         2.4048         0.2442          0.013            134          376.8         64.116        -999.25       78.72875           48.8         81.983         0.4289        -999.25         30.755        -999.25         2.1328           3260      0.9729522
      9163.0000        -999.25        -999.25          0.457         0.4548         0.4537         0.4523         0.4497         2.4126         0.2454          0.012            134            376        63.4479        -999.25          80.01           48.4         83.008          0.442        -999.25         35.248        -999.25         2.1436           3260              1
      9163.5000        -999.25        -999.25         0.4643         0.4611         0.4587         0.4572         0.4534         2.3701          0.243          0.012          133.6            375        66.7634        -999.25          80.01           50.4         83.008         0.4503        -999.25         33.957        -999.25         2.2169           3242              1
      9164.0000        -999.25        -999.25          0.476         0.4703         0.4676         0.4664         0.4646         2.3624         0.2412          0.011          133.8            374         69.864        -999.25          80.01           55.4         83.008         0.4455        -999.25          30.73        -999.25         2.2277           3242              1
      9164.5000        -999.25        -999.25         0.4701         0.4684         0.4656         0.4643         0.4632         2.3238          0.246          0.011          133.8          373.2        72.8946        -999.25       77.44875             59         80.959         0.4366        -999.25         30.638        -999.25         2.0718           3260       0.945718
      9165.0000        -999.25        -999.25         0.4652         0.4614         0.4599         0.4595         0.4602          2.347         0.2538          0.011          133.8          372.8        71.4695        -999.25       82.57249           58.5         85.058         0.4242        -999.25         33.114        -999.25         1.9577           3278              1
      9165.5000        -999.25        -999.25         0.4614         0.4568         0.4554         0.4545         0.4548         2.3508         0.2562          0.013            134          372.6        71.4039        -999.25       74.88625           58.1         78.909         0.4366        -999.25         33.566        -999.25         1.8227           3296      0.8911967
      9166.0000        -999.25        -999.25          0.463         0.4551          0.453         0.4524         0.4516         2.3431         0.2508          0.019          133.8          372.6        70.1789        -999.25       81.29124           57.7         84.033         0.4533        -999.25         33.913        -999.25         1.8335           3296              1
      9166.5000        -999.25        -999.25         0.4606         0.4542         0.4511         0.4511         0.4493          2.347         0.2442          0.024          133.8          372.4        71.5161        -999.25       77.44875           57.6         80.959         0.4663        -999.25         33.841        -999.25         1.8027           3260       0.945718
      9167.0000        -999.25        -999.25         0.4629          0.459         0.4558         0.4566         0.4534         2.3585         0.2442          0.024          133.6          371.6        72.2926        -999.25        76.1675           61.9         79.934         0.4711        -999.25         34.528        -999.25         1.7302           3242      0.9184573
      9167.5000        -999.25        -999.25         0.4688         0.4654         0.4616         0.4615          0.458         2.3354         0.2478          0.023          133.2          370.4        73.7713        -999.25       83.85375           66.8         86.083         0.4646        -999.25         36.016        -999.25         1.7618           3242              1
      9168.0000        -999.25        -999.25         0.4719         0.4693         0.4666         0.4646         0.4604         2.3277          0.249          0.023          132.8          369.6        74.9585        -999.25       81.29124           66.4         84.033         0.4479        -999.25         35.322        -999.25         1.8351           3206              1
      9168.5000        -999.25        -999.25         0.4732         0.4697         0.4668         0.4659         0.4621         2.2929         0.2483          0.023          132.8          368.8        75.1253        -999.25       83.85375             66         86.083         0.4313        -999.25         37.004        -999.25         2.0334           3188              1
      9169.0000        -999.25        -999.25         0.4762         0.4701         0.4675         0.4684         0.4655         2.3187         0.2499          0.022          132.8          367.2        75.8759        -999.25       71.04375           65.6         75.835         0.4206        -999.25         37.688        -999.25         2.0442           3224      0.8094414
      9169.5000        -999.25        -999.25          0.479         0.4716         0.4682         0.4677         0.4659         2.3071         0.2486          0.018          132.4          365.4        74.6649        -999.25       77.44875           65.3         80.959         0.4122        -999.25         39.701        -999.25         1.9926           3242       0.945718
      9170.0000        -999.25        -999.25         0.4789         0.4728         0.4696         0.4682         0.4678         2.3071         0.2442          0.018          132.4          363.4             72        -999.25       74.88625           64.9         78.909         0.4104        -999.25         39.224        -999.25         1.8784           3242      0.8911967
      9170.5000        -999.25        -999.25         0.4804         0.4738         0.4701         0.4702         0.4693         2.3083         0.2406          0.018          132.2          361.8        68.5633        -999.25       77.44875           64.2         80.959         0.4164        -999.25         39.649        -999.25         2.2434           3242       0.945718
      9171.0000        -999.25        -999.25         0.4786         0.4731         0.4701         0.4712         0.4703         2.3199         0.2418          0.018          131.8        359.802        66.6857        -999.25       81.29124           68.9         84.033         0.4182        -999.25         38.957        -999.25         2.4209           3242              1
      9171.5000        -999.25        -999.25         0.4854          0.479         0.4752         0.4771         0.4784         2.3315         0.2442          0.018          131.4       357.4257        68.0812        -999.25       74.88625           66.8         78.909         0.4158        -999.25         40.106        -999.25         2.6401           3260      0.8911967
