#------------------------------------------------------------------------------
# Created by    : vladimir.rabinovich
# Created on    : 09/19/2023 17:21:31
#------------------------------------------------------------------------------
~Version Information Section
VERS.           2.0     :   CWLS log ASCII Standard - VERSION 2.0
WRAP.           NO      :   One line per depth step
~Well Information Section
#MNEM       .UNIT                                         VALUE :DESCRIPTION
#------------------------------------------------------------------------------
STRT        .FT                                              40 :START DEPTH
STOP        .FT                                           13401 :STOP DEPTH
STEP        .FT                                             0.5 :STEP      
NULL        .                                           -999.25 :NULL      
COMP        .                                        TEXACO USA :COMPANY   
WELL        .                               OCS G01759 ST00BP00 :WELL      
FLD         .                                           WILDCAT :FIELD     
LOC         .                                                   :LOCATION  
CNTY        .                             GALVESTON LARGE BLOCK :LOCATION  
STAT        .                                             TEXAS :STATE     
CTRY        .                                     UNITED STATES :COUNTRY   
SRVC        .                                                   :SERVICE COMPANY
DATE        .                             9/13/2023 11:19:24 AM :LOG DATE  
API         .                                    42706001440000 :API NUMBER
UWI         .                                    42706001440000 :UNIQUE WELL ID
XCOORD      .                                   1131482.4965331 :SURFACE X 
YCOORD      .                                  10562344.6824913 :SURFACE Y 
LAT         .                                         29.095227 :LATITUDE  
LON         .                                        -94.593967 :LONGITUDE 
ELEV        .FT                                              83 :ELEVATION VALUE
ELEV_TYPE   .                                                KB :ELEVATION REFERENCE TYPE
~Curve Information Section
#MNEM       .UNIT                                      API CODE :CURVE DESCRIPTION
#------------------------------------------------------------------------------
DEPT        .FT                                                 :DEPTH     
CALI        .IN                                                 :          
DT          .US/F                                               :          
GR          .GAPI                                               :          
GR_NORM     .GAPI                                               :GammaRay Normalized
RHOB        .G/C3                                               :          
SP          .MV                                                 :          
SP_NORM     .MV                                                 :SP Normalized
VSH_GR      .V/V                                                :Volume of Shale from GR
VSH_SP      .V/V                                                :Volume of Shale from SP
~A        DEPTH           CALI             DT             GR        GR_NORM           RHOB             SP        SP_NORM         VSH_GR         VSH_SP
# ...
     12521.5000         7.2233        99.9073        75.2938       77.82958         2.4791       -38.2122     0.06310654      0.9538209              1
     12522.0000         7.1783        99.7744        77.3208       80.32964         2.4796       -38.1981     0.07935715              1              1
     12522.5000         7.1594       101.0973        75.8947        78.5666         2.4872        -38.172      0.1076088      0.9695022              1
     12523.0000         7.2065       100.8065        75.3396       77.87889         2.4926       -38.0507      0.2310562        0.95487              1
     12523.5000         7.2757       100.2808        71.5824       73.23795         2.4918       -37.9291      0.3548088      0.8561267              1
     12524.0000         7.3494        99.7937        68.7615       69.75294         2.4831        -37.875      0.4110603      0.7819774              1
     12524.5000         7.3489       101.2184        69.9415       71.20732         2.4699       -37.8634      0.4248085      0.8129217              1
     12525.0000         7.2565       101.1008        72.4512        74.3033         2.4656       -37.8995      0.3908577      0.8787936              1
     12525.5000         7.2052       101.7327         70.569       71.97718         2.4619       -37.8257      0.4668121      0.8293017              1
     12526.0000         7.1649       102.1184        68.9835       70.01735         2.4547       -37.7643      0.5303574      0.7876032              1
     12526.5000         7.1319       101.3928        70.7958       72.25234         2.4458       -37.8076       0.489212      0.8351562              1
     12527.0000         7.1019         100.62        73.4213       75.49129         2.4566        -37.851      0.4479599        0.90407              1
     12527.5000         7.0682        98.9458        75.7764        78.3964         2.4604       -37.8886      0.4125137      0.9658809              1
     12528.0000         7.0291        94.1776        76.0189       78.69337         2.4575       -37.8936      0.4096603      0.9721993              1
     12528.5000         6.9997         88.954        76.2687       78.99935         2.4499       -37.8446      0.4608116      0.9787096              1
     12529.0000         6.9948        86.4536        78.7736       82.08941         2.4432       -37.7456      0.5619621              1              1
     12529.5000         7.0159        85.3196        81.7465       85.75723         2.4399       -37.7595      0.5502129              1              1
     12530.0000         7.0572        87.0931        83.1919       87.53927         2.4481       -37.8808      0.4310646              1              1
     12530.5000         7.1008        91.7742        83.2848       87.65154         2.4636       -37.9801      0.3339157              1              1
     12531.0000         7.1415        94.9772        80.8053       84.58802         2.4878       -37.8881      0.4280624              1              1
     12531.5000         7.1563         96.426        74.3044       76.55979         2.4953       -37.5972      0.7211151      0.9268041              1
     12532.0000         7.1445        95.9856        63.6288       63.37763          2.513       -37.3002       1.020264      0.6463326              1
     12532.5000         7.1562         95.486        60.4303       59.42645         2.5313       -37.0911       1.231514       0.562265              1
     12533.0000         7.1917        96.3921        61.2206       60.39972         2.5165       -37.0554       1.269363      0.5829726              1
     12533.5000         7.2271        98.0033        62.7022       62.22644         2.5034       -37.0605       1.266415      0.6218392              1
     12534.0000         7.2453         99.314        67.2968       67.89636         2.5067       -37.1303       1.198765      0.7424758              1
     12534.5000         7.2592        99.7805        72.4897       74.30494         2.5189       -37.2073       1.123917      0.8788285              1
     12535.0000         7.2672       101.1263        75.2311       77.68697         2.5339       -37.2477       1.085667      0.9507865              1
     12535.5000         7.2891       100.4309        77.2388       80.16319         2.5297       -37.1137       1.221813              1              1
     12536.0000         7.3078       101.7417        78.3608       81.54596          2.499       -36.9339       1.403767              1              1
     12536.5000         7.3226       102.4141        79.5844       83.05416         2.4824       -36.6979       1.641918              1              1
     12537.0000          7.332       102.5055        81.4038       85.29791         2.4677       -36.5158       1.826168              1              1
     12537.5000         7.3339       102.3329        83.5708       87.97082         2.4577       -36.6828       1.661316              1              1
     12538.0000         7.3352       103.4425        79.1017       82.45098         2.4467       -37.2761       1.070168              1              1
     12538.5000         7.3563       102.7036        76.6259       79.39203         2.4398       -37.8549      0.4935188      0.9870644              1
     12539.0000         7.4027       102.6212         75.777       78.34159         2.4457       -38.0814       0.269165      0.9647147              1
     12539.5000         7.4498       102.8296         77.205       80.10213         2.4568       -38.0864      0.2663193              1              1
     12540.0000         7.4607       102.1027        80.1538       83.74022          2.464       -38.0914      0.2634697              1              1
     12540.5000         7.4533       102.3589         83.093       87.36644         2.4534        -38.105       0.252018              1              1
     12541.0000         7.4441       102.8586        85.5109       90.34909         2.4439       -38.1575      0.2016678              1              1
     12541.5000         7.4372       102.4576         86.411       91.45791         2.4533       -38.2099      0.1514206              1              1
     12542.0000         7.4478       102.0664        84.8545       89.53389         2.4594       -38.2624      0.1010666              1              1
     12542.5000         7.4846       101.0391        83.0592       87.31504         2.4533       -38.3832    -0.01758194              1      0.9996483
     12543.0000          7.541       100.8695        81.2373       85.06337         2.4554       -38.4465    -0.07872772              1      0.9984254
     12543.5000         7.4687       101.8677        79.5747       83.00837         2.4634       -38.3835    -0.01358032              1      0.9997284
     12544.0000         7.3645       104.0919        77.4125       80.33657         2.4718       -38.3392     0.03287125              1              1
     12544.5000         7.3276       106.1719        76.1577       78.78503          2.466       -38.3059     0.06832123      0.9741495              1
     12545.0000         7.3209        106.307        77.0167       79.84309         2.4636       -38.1548      0.2215729      0.9966615              1
     12545.5000         7.3384       106.5195         78.457       81.61884         2.4715       -37.9297       0.448822              1              1
     12546.0000          7.347        106.882        78.2933       81.41431         2.4743       -37.6158      0.7648735              1              1
     12546.5000         7.3502       106.7031        79.3141       82.67215         2.4593       -37.3482       1.034622              1              1
     12547.0000         7.3448       106.2772        80.1635       83.71837         2.4488       -37.1964       1.188572              1              1
     12547.5000         7.3317       106.2693        82.1519       86.17078         2.4519       -37.0449       1.342224              1              1
