#------------------------------------------------------------------------------
# Created by    : vladimir.rabinovich
# Created on    : 09/19/2023 17:20:48
#------------------------------------------------------------------------------
~Version Information Section
VERS.           2.0     :   CWLS log ASCII Standard - VERSION 2.0
WRAP.           NO      :   One line per depth step
~Well Information Section
#MNEM       .UNIT                                         VALUE :DESCRIPTION
#------------------------------------------------------------------------------
STRT        .FT                                             495 :START DEPTH
STOP        .FT                                            6623 :STOP DEPTH
STEP        .FT                                             0.5 :STEP      
NULL        .                                           -999.25 :NULL      
COMP        .                                      SHELL OIL CO :COMPANY   
WELL        .                                     ST TR 00691-L :WELL      
FLD         .                                           WILDCAT :FIELD     
LOC         .                                                   :LOCATION  
CNTY        .                      MATAGORDA ISLAND LARGE BLOCK :LOCATION  
STAT        .                                             TEXAS :STATE     
CTRY        .                                     UNITED STATES :COUNTRY   
SRVC        .                                                   :SERVICE COMPANY
DATE        .                             9/13/2023 11:12:05 AM :LOG DATE  
API         .                                    42703000200000 :API NUMBER
UWI         .                                    42703000200000 :UNIQUE WELL ID
XCOORD      .                                  411465.852171861 :SURFACE X 
YCOORD      .                                  10158718.0598508 :SURFACE Y 
LAT         .                                        27.9414781 :LATITUDE  
LON         .                                       -96.8060481 :LONGITUDE 
ELEV        .FT                                              11 :ELEVATION VALUE
ELEV_TYPE   .                                                KB :ELEVATION REFERENCE TYPE
~Curve Information Section
#MNEM       .UNIT                                      API CODE :CURVE DESCRIPTION
#------------------------------------------------------------------------------
DEPT        .FT                                                 :DEPTH     
ASN         .OHMM                                               :          
CILD        .OHMM                                               :          
ILD         .OHMM                                               :          
SP          .MV                                                 :          
SP_NORM     .MV                                                 :SP Normalized
VSH_SP      .V/V                                                :Volume of Shale from SP
~A        DEPTH            ASN           CILD            ILD             SP        SP_NORM         VSH_SP
# ...
      2129.0000          0.788       1616.875         0.6266        -47.321         -2.038      0.9978889
      2129.5000          0.775       1718.748         0.6102       -46.8317        -1.5487              1
      2130.0000         0.7302       1754.859         0.5961       -46.3323        -1.0493              1
      2130.5000         0.7201         1774.5         0.5825       -45.8445        -0.5615              1
      2131.0000         0.7101       1791.646          0.569       -45.5908        -0.3078              1
      2131.5000         0.7025       1805.379         0.5554       -45.3372        -0.0542              1
      2132.0000         0.6972       1819.111         0.5422       -45.0835         0.1995              1
      2132.5000          0.692       1831.842         0.5331       -44.8298         0.4532              1
      2133.0000         0.6869       1844.463         0.5241       -44.5762         0.7068              1
      2133.5000         0.6826       1857.605          0.515       -44.5147         0.7683              1
      2134.0000         0.6784       1872.578         0.5059       -44.4544         0.8286              1
      2134.5000         0.6741       1881.863         0.4968       -44.3941         0.8889              1
      2135.0000         0.6701       1888.496         0.4912       -44.3445         0.9385              1
      2135.5000         0.6668       1894.996         0.4869       -44.3347         0.9483              1
      2136.0000         0.6634       1902.182         0.4825       -44.3249         0.9581              1
      2136.5000         0.6601       1909.871         0.4782        -44.315          0.968              1
      2137.0000         0.6568       1911.439         0.4739       -44.1669         1.1161              1
      2137.5000         0.6535       1911.748         0.4696       -43.9934         1.2896              1
      2138.0000          0.652       1912.057         0.4699       -44.0162         1.2668              1
      2138.5000          0.649       1913.857         0.4703       -44.0775         1.2055              1
      2139.0000          0.646       1917.648         0.4707       -44.2414         1.0416              1
      2139.5000          0.643       1925.799         0.4711       -44.4213         0.8617              1
      2140.0000         0.6422       1928.633         0.4715       -44.6011         0.6819              1
      2140.5000         0.6413       1921.475         0.4719       -44.7746         0.5084              1
      2141.0000         0.6405       1914.318         0.4737       -44.9365         0.3465              1
      2141.5000         0.6397       1897.973         0.4763       -44.9127         0.3703              1
      2142.0000         0.6391       1878.504         0.4789       -44.6061         0.6769              1
      2142.5000         0.6428       1863.875         0.4815       -44.2996         0.9834              1
      2143.0000         0.6464       1855.332         0.4841       -43.9932         1.2898              1
      2143.5000         0.6501       1848.033         0.4867       -43.8714         1.4116              1
      2144.0000         0.6526       1840.738         0.4893       -44.1149         1.1681              1
      2144.5000         0.6545       1836.561         0.4898       -44.5809         0.7021              1
      2145.0000         0.6564           1837         0.4896       -45.3887        -0.1057              1
      2145.5000         0.6583         1843.1         0.4894       -46.0881        -0.8051              1
      2146.0000         0.6572       1863.709         0.4891       -46.2264        -0.9434              1
      2146.5000         0.6547       1899.588         0.4889       -46.3648        -1.0818              1
      2147.0000         0.6521        1923.52         0.4886       -46.5032        -1.2202              1
      2147.5000         0.6496       1940.107          0.485       -46.5297        -1.2467              1
      2148.0000         0.6471       1964.576         0.4804       -46.4141        -1.1311              1
      2148.5000         0.6435       1999.273         0.4757       -46.2984        -1.0154              1
      2149.0000           0.64       2011.529          0.471       -46.1827        -0.8997              1
      2149.5000         0.6364       2008.627         0.4664       -46.1855        -0.9025              1
      2150.0000         0.6328       2004.943          0.463       -46.3372        -1.0542              1
      2150.5000         0.6294       2001.258         0.4611       -46.7155        -1.4325              1
      2151.0000         0.6278       1997.799         0.4593       -47.1252        -1.8422              1
      2151.5000         0.6263       1995.646         0.4575       -47.5046        -2.2216      0.9876889
      2152.0000         0.6247       1986.906         0.4557       -47.8619        -2.5789      0.9678389
      2152.5000         0.6267        1961.26         0.4563       -48.2115        -2.9285      0.9484167
      2153.0000         0.6292       1937.492         0.4596        -48.221         -2.938      0.9478889
      2153.5000         0.6358       1889.441         0.4629       -48.0764        -2.7934      0.9559222
      2154.0000         0.6442        1855.16         0.4662       -47.8545        -2.5715        0.96825
      2154.5000         0.6534       1820.891         0.4695       -47.4385        -2.1555      0.9913611
      2155.0000         0.6635       1786.609         0.4728       -47.0226        -1.7396              1
      2155.5000         0.6727       1752.342         0.4772       -46.6085        -1.3255              1
      2156.0000         0.6785       1718.061         0.4817       -46.4528        -1.1698              1
      2156.5000         0.6843       1693.305         0.4862       -46.2969        -1.0139              1
      2157.0000         0.6901       1677.729         0.4908       -46.1412        -0.8582              1
      2157.5000         0.6954       1664.709         0.4953       -45.9854        -0.7024              1
      2158.0000         0.7008       1651.684         0.4989       -45.8297        -0.5467              1
      2158.5000         0.7061       1638.664         0.5024       -45.8104        -0.5274              1
      2159.0000         0.7099        1625.27          0.506       -45.8268        -0.5438              1
      2159.5000         0.7134       1632.117         0.5096       -45.8432        -0.5602              1
      2160.0000         0.7168       1644.824         0.5132       -45.8596        -0.5766              1
      2160.5000           0.72        1662.48         0.5193        -45.876         -0.593              1
      2161.0000         0.7221       1682.605         0.5262       -45.8038        -0.5208              1
      2161.5000         0.7241       1680.486         0.5331       -45.6248        -0.3418              1
      2162.0000         0.7264       1662.996           0.54       -45.4458        -0.1628              1
      2162.5000         0.7294         1645.5         0.5468        -45.258          0.025              1
      2163.0000         0.7324       1621.406         0.5535       -45.0652         0.2178              1
      2163.5000         0.7354       1596.596         0.5601       -45.1304         0.1526              1
      2164.0000         0.7398       1573.996         0.5667       -45.3474        -0.0644              1
      2164.5000         0.7452       1555.104         0.5733       -45.5645        -0.2815              1
      2165.0000         0.7505       1536.748         0.5799       -45.7029        -0.4199              1
      2165.5000         0.7554       1523.881         0.5855        -45.833          -0.55              1
      2166.0000         0.7598       1511.016         0.5906       -45.9114        -0.6284              1
      2166.5000         0.7641       1500.717         0.5957       -45.7187        -0.4357              1
