#------------------------------------------------------------------------------
# Created by    : vladimir.rabinovich
# Created on    : 09/19/2023 17:20:04
#------------------------------------------------------------------------------
~Version Information Section
VERS.           2.0     :   CWLS log ASCII Standard - VERSION 2.0
WRAP.           NO      :   One line per depth step
~Well Information Section
#MNEM       .UNIT                                         VALUE :DESCRIPTION
#------------------------------------------------------------------------------
STRT        .FT                                             723 :START DEPTH
STOP        .FT                                            8219 :STOP DEPTH
STEP        .FT                                             0.5 :STEP      
NULL        .                                           -999.25 :NULL      
COMP        .                                    MOBIL OIL CORP :COMPANY   
WELL        .                               OCS G02338 ST00BP00 :WELL      
FLD         .                                           WILDCAT :FIELD     
LOC         .                                                   :LOCATION  
CNTY        .                             GALVESTON LARGE BLOCK :LOCATION  
STAT        .                                             TEXAS :STATE     
CTRY        .                                     UNITED STATES :COUNTRY   
SRVC        .                                                   :SERVICE COMPANY
DATE        .                             9/13/2023 11:18:53 AM :LOG DATE  
API         .                                    42706400200000 :API NUMBER
UWI         .                                    42706400200000 :UNIQUE WELL ID
XCOORD      .                                  941616.333010477 :SURFACE X 
YCOORD      .                                  10405518.1254327 :SURFACE Y 
LAT         .                                         28.655687 :LATITUDE  
LON         .                                        -95.179294 :LONGITUDE 
ELEV        .FT                                              84 :ELEVATION VALUE
ELEV_TYPE   .                                                KB :ELEVATION REFERENCE TYPE
~Curve Information Section
#MNEM       .UNIT                                      API CODE :CURVE DESCRIPTION
#------------------------------------------------------------------------------
DEPT        .FT                                                 :DEPTH     
ASFL        .OHMM                                               :          
CALI        .IN                                                 :          
CILD        .MMHO                                               :          
DPHI        .%                                                  :          
DT          .US/F                                               :          
GR          .GAPI                                               :          
GR_1        .GAPI                                               :          
GR_NORM     .GAPI                                               :GammaRay Normalized
ILD         .OHMM                                               :          
NPHI        .DEC                                                :          
SP          .MV                                                 :          
SP_NORM     .MV                                                 :SP Normalized
VSH_GR      .V/V                                                :Volume of Shale from GR
VSH_SP      .V/V                                                :Volume of Shale from SP
~A        DEPTH           ASFL           CALI           CILD           DPHI             DT             GR           GR_1        GR_NORM            ILD           NPHI             SP        SP_NORM         VSH_GR         VSH_SP
# ...
      6699.0000         0.8984        10.0557       720.0898        22.8637       114.6937        -999.25       104.4841         89.157         0.6184         0.2286        83.1312      0.6054077              1              1
      6699.5000         0.8963         10.081       718.1025        23.6669       115.0554        -999.25       104.8385        89.5114          0.617         0.2367        83.6787       1.150253              1              1
      6700.0000         0.8941        10.0538       715.9492        24.0067       114.7136        -999.25       105.0253        89.6982         0.6168         0.2401        83.8066        1.27549              1              1
      6700.5000          0.892         9.9937        712.873        24.1233       114.6152        -999.25       105.7277        90.4006         0.6165         0.2412        83.6475       1.113724              1              1
      6701.0000         0.8924         9.9772       709.7998        23.2754       113.6519        -999.25       106.3357        91.0086         0.6162         0.2328        83.1437      0.6072693              1              1
      6701.5000         0.8935         10.005       706.7236        22.4595        112.918        -999.25       106.3965        91.0694         0.6245         0.2246         82.828      0.2889099              1              1
      6702.0000         0.8947        10.0681       703.6504        23.0741       112.5863        -999.25       107.0956       91.76849         0.6362         0.2307        82.7275      0.1857452              1              1
      6702.5000         0.8958        10.1606       701.2227         23.482       112.9896        -999.25       107.2284        91.9013         0.6479         0.2348        83.3025      0.7580872              1              1
      6703.0000          0.897        10.3058       699.7695        24.9079       114.2194        -999.25       106.2625       90.93539         0.6596         0.2491        83.8521       1.305023              1              1
      6703.5000         0.8999        10.2672       699.3574        25.7013       113.8403        -999.25       105.4893        90.1622         0.6707          0.257        83.4998      0.9500656              1              1
      6704.0000          0.904        10.0996       696.0107        26.4842       113.7943        -999.25       104.7161         89.389         0.6777         0.2648        82.4415     -0.1108932              1      0.9984158
      6704.5000         0.9081         9.9402       692.9004        25.9206       113.3301        -999.25       103.9156        88.5885         0.6848         0.2592        81.3895       -1.16555              1      0.9833493
      6705.0000         0.9122         9.8241       698.6338        23.4685       112.6958        -999.25       103.1906       87.86349         0.6919         0.2347        80.3425      -2.215218              1       0.968354
      6705.5000         0.9163         9.7419       702.8203        22.8666       112.0287        -999.25         102.74        87.4129         0.6989         0.2287        79.7084      -2.851974              1      0.9592575
      6706.0000         0.9203          9.696       704.5313         22.872       111.3789        -999.25       102.9778        87.6507          0.706         0.2287        81.3513      -1.211731              1      0.9826896
      6706.5000         0.9244         9.6761       705.9941        22.8656        110.797        -999.25       103.0366        87.7095         0.7131         0.2287        83.2129      0.6472015              1              1
      6707.0000         0.9286         9.6632       707.4443        22.6384       110.5844        -999.25       102.9644        87.6373          0.719         0.2264        84.9095       2.341148              1              1
      6707.5000         0.9328         9.6356       707.7402         22.369        110.521        -999.25       103.7883        88.4612         0.7246         0.2237        85.3737       2.802689              1              1
      6708.0000          0.937          9.608       707.7275        23.0973       110.7142        -999.25       104.5808        89.2537         0.7302          0.231        84.3662       1.792526              1              1
      6708.5000         0.9412         9.5816       706.7822        24.2402       111.6515        -999.25       105.1057       89.77859         0.7357         0.2424        83.4484      0.8720703              1              1
      6709.0000         0.9455         9.5672       705.2783        24.4708       112.5978        -999.25       104.6626       89.33549         0.7413         0.2447        82.7178      0.1388016              1              1
      6709.5000         0.9497         9.5641       703.9346        23.9663       112.5751        -999.25       104.4794        89.1523         0.7469         0.2397        82.1283     -0.4533539              1      0.9935235
      6710.0000         0.9539         9.6193       702.5908        23.4468       111.7598        -999.25       104.8871          89.56         0.7454         0.2345        82.2886     -0.2957153              1      0.9957755
      6710.5000         0.9581         9.6745       698.7197        22.9101       110.8336        -999.25       104.4159        89.0888         0.7423         0.2291         82.449     -0.1379776              1      0.9980289
      6711.0000         0.9624          9.719       693.5977        22.4771       109.9468        -999.25       103.9768        88.6497         0.7392         0.2248        83.2191      0.6294632              1              1
      6711.5000         0.9661         9.7576       688.4824        22.7529       109.4414        -999.25       104.4418        89.1147          0.736         0.2275        84.3452       1.752907              1              1
      6712.0000         0.9678         9.8136       683.3672        22.9756       109.3701        -999.25       106.9764        91.6493         0.7342         0.2298        85.7087       3.113747              1              1
      6712.5000         0.9694         9.8876       677.0791        22.7864       109.7794        -999.25       108.9552        93.6281         0.7338         0.2279        86.4442       3.846581              1              1
      6713.0000         0.9711         9.9975       669.5566        22.7246       110.7826        -999.25       110.0114        94.6843         0.7334         0.2272        85.8317        3.23143              1              1
      6713.5000         0.9728        10.1142       662.9414        22.7483       111.2942        -999.25       110.0934        94.7663          0.733         0.2275        84.2439       1.640961              1              1
      6714.0000         0.9745        10.1579       657.2646        22.9318       110.8175        -999.25       110.5393        95.2122         0.7326         0.2293        82.6406     0.03500366              1              1
      6714.5000         0.9761        10.0996       651.5928        23.1046       110.2362        -999.25       110.2852        94.9581         0.7322          0.231        82.0608     -0.5474548              1      0.9921792
      6715.0000         0.9778        10.0242       644.9844        22.9079       110.1445        -999.25       109.8063       94.47919         0.7318         0.2291        81.4828      -1.128113              1      0.9838841
      6715.5000         0.9795          9.989       637.9736        23.6826       110.3365        -999.25         109.17        93.8429         0.7335         0.2368        81.3691      -1.244476              1      0.9822218
      6716.0000         0.9793        10.0001       631.1182        24.8637       110.6968        -999.25       108.3191         92.992         0.7353         0.2486        81.2557      -1.360535              1      0.9805638
      6716.5000          0.978        10.0327       625.5586        24.7687       111.1337        -999.25       106.4354        91.1083         0.7371         0.2477         81.132      -1.486893              1      0.9787587
