#------------------------------------------------------------------------------
# Created by    : vladimir.rabinovich
# Created on    : 09/19/2023 17:22:39
#------------------------------------------------------------------------------
~Version Information Section
VERS.           2.0     :   CWLS log ASCII Standard - VERSION 2.0
WRAP.           NO      :   One line per depth step
~Well Information Section
#MNEM       .UNIT                                         VALUE :DESCRIPTION
#------------------------------------------------------------------------------
STRT        .FT                                            2600 :START DEPTH
STOP        .FT                                            8208 :STOP DEPTH
STEP        .FT                                             0.5 :STEP      
NULL        .                                           -999.25 :NULL      
COMP        .                          SEAGULL ENERGY E & P INC :COMPANY   
WELL        .                               OCS G09039 ST00BP00 :WELL      
FLD         .                              GALVESTON BLOCK 0273 :FIELD     
LOC         .                                                   :LOCATION  
CNTY        .                             GALVESTON LARGE BLOCK :LOCATION  
STAT        .                                             TEXAS :STATE     
CTRY        .                                     UNITED STATES :COUNTRY   
SRVC        .                                                   :SERVICE COMPANY
DATE        .                             9/13/2023 11:19:54 AM :LOG DATE  
API         .                                    42706403220000 :API NUMBER
UWI         .                                    42706403220000 :UNIQUE WELL ID
XCOORD      .                                  1018306.80056624 :SURFACE X 
YCOORD      .                                  10490966.5196098 :SURFACE Y 
LAT         .                                         28.894284 :LATITUDE  
LON         .                                        -94.944599 :LONGITUDE 
ELEV        .FT                                             103 :ELEVATION VALUE
ELEV_TYPE   .                                                KB :ELEVATION REFERENCE TYPE
~Curve Information Section
#MNEM       .UNIT                                      API CODE :CURVE DESCRIPTION
#------------------------------------------------------------------------------
DEPT        .FT                                                 :DEPTH     
DCAL        .IN                                                 :          
DPHI        .%                                                  :          
DTL         .US/F                                               :          
GR          .GAPI                                               :          
GR_1        .GAPI                                               :          
GR_NORM     .GAPI                                               :GammaRay Normalized
ILD         .OHMM                                               :          
ILM         .OHMM                                               :          
NPHI        .%                                                  :          
SFL         .OHMM                                               :          
SP          .MV                                                 :          
SP_NORM     .MV                                                 :SP Normalized
VSH_GR      .V/V                                                :Volume of Shale from GR
VSH_SP      .V/V                                                :Volume of Shale from SP
~A        DEPTH           DCAL           DPHI            DTL             GR           GR_1        GR_NORM            ILD            ILM           NPHI            SFL             SP        SP_NORM         VSH_GR         VSH_SP
# ...
      3086.0000        -999.25        -999.25        -999.25        56.4232        -999.25       76.82468         0.5504         0.5211        -999.25         0.5365       -37.0478       2.394517      0.9324401              1
      3086.5000        -999.25        -999.25        -999.25        60.1862        -999.25       81.18002         0.5412         0.5247        -999.25         0.5213       -36.6616       2.820839              1              1
      3087.0000        -999.25        -999.25        -999.25        60.6306        -999.25       81.69437          0.548         0.5269        -999.25         0.5122       -36.2724        3.25039              1              1
      3087.5000        -999.25        -999.25        -999.25        58.3182        -999.25       79.01797          0.564         0.5362        -999.25         0.5142       -35.8807       3.682635      0.9791058              1
      3088.0000        -999.25        -999.25        -999.25        56.5704        -999.25       76.99506         0.5827         0.5506        -999.25         0.5379       -35.9375       3.631879       0.936065              1
      3088.5000        -999.25        -999.25        -999.25        57.1295        -999.25       77.64217         0.6061         0.5787        -999.25         0.6061       -36.6986       2.822647      0.9498335              1
      3089.0000        -999.25        -999.25        -999.25        58.3339        -999.25       79.03616         0.6384         0.6185        -999.25         0.7499       -37.9388       1.497461      0.9794927              1
      3089.5000        -999.25        -999.25        -999.25        57.6591        -999.25       78.25513         0.6725         0.6657        -999.25         0.9017        -39.362    -0.02480081      0.9628751       0.999504
      3090.0000        -999.25        -999.25        -999.25        55.0681        -999.25       75.25629         0.7091         0.7093        -999.25         0.9596       -40.6961      -1.451108      0.8990699      0.9709778
      3090.5000        -999.25        -999.25        -999.25          52.73        -999.25       72.55016         0.6958         0.6823        -999.25         0.8656        -41.601      -2.415206      0.8414927      0.9516959
      3091.0000        -999.25        -999.25        -999.25           51.9        -999.25       71.58952         0.6575         0.6515        -999.25         0.7304        -41.674      -2.483405      0.8210535      0.9503319
      3091.5000        -999.25        -999.25        -999.25        52.2206        -999.25       71.96058         0.6211         0.6212        -999.25          0.605       -41.0619      -1.813808      0.8289485      0.9637238
      3092.0000        -999.25        -999.25        -999.25        53.6481        -999.25       73.61278         0.5867         0.5935        -999.25         0.5798       -40.4598      -1.154978      0.8641016      0.9769005
      3092.5000        -999.25        -999.25        -999.25        56.9976        -999.25       77.48951         0.5644         0.5746        -999.25         0.5589       -39.8636      -0.502503      0.9465853      0.9899499
      3093.0000        -999.25        -999.25        -999.25        60.7877        -999.25        81.8762         0.5501         0.5563        -999.25         0.5427       -39.3339     0.07835858              1              1
      3093.5000        -999.25        -999.25        -999.25        60.5446        -999.25       81.59484          0.554          0.551        -999.25         0.5366       -38.6848      0.7878048              1              1
      3094.0000        -999.25        -999.25        -999.25         55.807        -999.25        76.1115         0.5665         0.5476        -999.25         0.5446       -37.9968       1.539142      0.9172659              1
      3094.5000        -999.25        -999.25        -999.25         50.711        -999.25       70.21335         0.5926         0.5707        -999.25         0.5637       -38.0696       1.471156      0.7917734              1
      3095.0000        -999.25        -999.25        -999.25        47.4843        -999.25       66.47874         0.6341          0.614        -999.25         0.6215       -38.2769       1.258322      0.7123137              1
      3095.5000        -999.25        -999.25        -999.25        46.8718        -999.25       65.76984         0.6799         0.6712        -999.25         0.7531       -38.8425       0.659631      0.6972306              1
      3096.0000        -999.25        -999.25        -999.25        49.1541        -999.25       68.41138         0.7238         0.7136        -999.25         0.8454       -39.7431     -0.2998323      0.7534335      0.9940034
      3096.5000        -999.25        -999.25        -999.25        49.2542        -999.25       68.52724          0.759          0.731        -999.25         0.8861        -40.763      -1.387773      0.7558988      0.9722446
      3097.0000        -999.25        -999.25        -999.25        49.0682        -999.25       68.31196          0.761         0.7193        -999.25         0.8819       -41.6593      -2.342607      0.7513183      0.9531479
      3097.5000        -999.25        -999.25        -999.25        49.4772        -999.25       68.78534         0.7267         0.6988        -999.25         0.8475       -42.0051      -2.704591      0.7613902      0.9459082
      3098.0000        -999.25        -999.25        -999.25        50.5281        -999.25       70.00166         0.6924         0.6738        -999.25          0.774        -41.723      -2.390376      0.7872694      0.9521925
      3098.5000        -999.25        -999.25        -999.25        52.4078        -999.25       72.17724         0.6696         0.6479        -999.25         0.6963       -40.6305      -1.203425      0.8335583      0.9759315
      3099.0000        -999.25        -999.25        -999.25        53.7196        -999.25       73.69552         0.6585         0.6303        -999.25          0.648       -39.4289      0.1010191      0.8658621              1
      3099.5000        -999.25        -999.25        -999.25         54.283        -999.25        74.3476         0.6589         0.6295        -999.25         0.6692        -38.054       1.592096      0.8797362              1
      3100.0000        -999.25        -999.25        -999.25        54.5183        -999.25       74.61995         0.6578         0.6372        -999.25         0.6938       -37.8692       1.801524      0.8855308              1
      3100.5000        -999.25        -999.25        -999.25        55.1651        -999.25       75.36856         0.6516           0.63        -999.25         0.7143       -37.8204       1.864494      0.9014587              1
      3101.0000        -999.25        -999.25        -999.25        56.6269        -999.25       77.06046         0.6329         0.6111        -999.25         0.6759         -37.95       1.735338      0.9374565              1
      3101.5000        -999.25        -999.25        -999.25        58.7932        -999.25       79.56776         0.5967         0.5786        -999.25         0.6027       -37.9743       1.719583      0.9908034              1
      3102.0000        -999.25        -999.25        -999.25        59.0341        -999.25       79.84657         0.5487         0.5398        -999.25         0.5362       -37.8372       1.877644      0.9967355              1
      3102.5000        -999.25        -999.25        -999.25        59.6769        -999.25       80.59055         0.5252         0.4985        -999.25         0.4958       -37.4514       2.303534              1              1
      3103.0000        -999.25        -999.25        -999.25        61.2485        -999.25       82.40953         0.5261         0.4661        -999.25         0.4812       -37.0919       2.701103              1              1
      3103.5000        -999.25        -999.25        -999.25        63.2043        -999.25       84.67319          0.525         0.4577        -999.25         0.4949       -36.7767       3.050964              1              1
