#------------------------------------------------------------------------------
# Created by    : vladimir.rabinovich
# Created on    : 09/19/2023 17:19:43
#------------------------------------------------------------------------------
~Version Information Section
VERS.           2.0     :   CWLS log ASCII Standard - VERSION 2.0
WRAP.           NO      :   One line per depth step
~Well Information Section
#MNEM       .UNIT                                         VALUE :DESCRIPTION
#------------------------------------------------------------------------------
STRT        .FT                                            1054 :START DEPTH
STOP        .FT                                           13910 :STOP DEPTH
STEP        .FT                                             0.5 :STEP      
NULL        .                                           -999.25 :NULL      
COMP        .                                            MTS LP :COMPANY   
WELL        .                                ST TR 00061-L SW/4 :WELL      
FLD         .                                           WILDCAT :FIELD     
LOC         .                                                   :LOCATION  
CNTY        .                           HIGH ISLAND LARGE BLOCK :LOCATION  
STAT        .                                             TEXAS :STATE     
CTRY        .                                     UNITED STATES :COUNTRY   
SRVC        .                                                   :SERVICE COMPANY
DATE        .                             9/13/2023 11:19:15 AM :LOG DATE  
API         .                                    42708302730000 :API NUMBER
UWI         .                                    42708302730000 :UNIQUE WELL ID
XCOORD      .                                  1164861.29381137 :SURFACE X 
YCOORD      .                                   10674042.082625 :SURFACE Y 
LAT         .                                        29.4036169 :LATITUDE  
LON         .                                       -94.4939126 :LONGITUDE 
ELEV        .FT                                              78 :ELEVATION VALUE
ELEV_TYPE   .                                                KB :ELEVATION REFERENCE TYPE
~Curve Information Section
#MNEM       .UNIT                                      API CODE :CURVE DESCRIPTION
#------------------------------------------------------------------------------
DEPT        .FT                                                 :DEPTH     
ASFL        .OHMM                                               :          
CILD        .MMHO                                               :          
ILD         .OHMM                                               :          
SP          .MV                                                 :          
SP_NORM     .MV                                                 :SP Normalized
VSH_SP      .V/V                                                :Volume of Shale from SP
~A        DEPTH           ASFL           CILD            ILD             SP        SP_NORM         VSH_SP
# ...
     13024.0000         0.5865       2313.113         0.4181       -41.3869      -1.386902      0.9943928
     13024.5000         0.5765       2344.578         0.4175       -41.2106      -1.210602      0.9969478
     13025.0000         0.5653       2382.434          0.417       -41.1281      -1.128101      0.9981434
     13025.5000         0.5546        2418.52         0.4164       -41.1982        -1.1982      0.9971275
     13026.0000         0.5548       2448.754         0.4116       -41.3545        -1.3545      0.9948623
     13026.5000          0.555       2474.367         0.4058        -41.511      -1.511002      0.9925942
     13027.0000         0.5552       2465.027            0.4       -41.7264      -1.726398      0.9894725
     13027.5000         0.5555       2445.461         0.3942       -42.0421      -2.042099      0.9848971
     13028.0000          0.557       2425.844         0.3884       -42.3571      -2.357101      0.9803318
     13028.5000         0.5588       2407.996         0.3831       -42.5809      -2.580898      0.9770885
     13029.0000         0.5605       2390.594         0.3784       -42.5491      -2.549099      0.9775493
     13029.5000         0.5623       2373.141         0.3737       -42.5172        -2.5172      0.9780116
     13030.0000          0.564       2381.523          0.369       -42.4854      -2.485401      0.9784725
     13030.5000         0.5658       2396.051         0.3643       -42.4536      -2.453602      0.9789333
     13031.0000         0.5676       2410.578         0.3595       -42.4218      -2.421799      0.9793942
     13031.5000          0.568       2425.105         0.3592       -42.4001      -2.400101      0.9797087
     13032.0000         0.5678       2439.609         0.3603       -42.4186      -2.418598      0.9794406
     13032.5000         0.5675       2459.375         0.3614        -42.437         -2.437      0.9791739
     13033.0000         0.5649       2479.383         0.3625       -42.4553      -2.455299      0.9789087
     13033.5000         0.5608       2499.441         0.3671       -42.4737      -2.473701       0.978642
     13034.0000         0.5567         2519.5         0.3727       -42.5902      -2.590199      0.9769536
     13034.5000         0.5514       2538.773         0.3784       -42.7266      -2.726601      0.9749768
     13035.0000         0.5439       2555.633          0.384       -42.8633        -2.8633      0.9729956
     13035.5000         0.5364       2551.555         0.3897       -43.0135        -3.0135      0.9708188
     13036.0000         0.5298       2495.313         0.3984       -43.1854      -3.185398      0.9683276
     13036.5000         0.5232       2432.973         0.4078       -43.3573        -3.3573      0.9658362
     13037.0000          0.538       2369.652         0.4172       -43.5295      -3.529499      0.9633406
     13037.5000         0.5545       2311.344         0.4265       -43.6464        -3.6464      0.9616464
     13038.0000         0.5703       2257.164         0.4359       -43.7424      -3.742401       0.960255
     13038.5000         0.5815       2203.281         0.4444       -43.8384      -3.838402      0.9588637
     13039.0000         0.5927       2159.824         0.4514       -43.5726      -3.572601      0.9627159
     13039.5000         0.6003        2125.41         0.4584       -43.2466      -3.246601      0.9674405
     13040.0000         0.6076       2100.484         0.4654       -42.7921      -2.792099      0.9740276
     13040.5000         0.6093       2098.859         0.4724       -42.3088        -2.3088      0.9810319
     13041.0000         0.6083       2110.316         0.4739       -41.8347      -1.834702      0.9879029
     13041.5000         0.6072       2119.348          0.474       -41.4988      -1.498798       0.992771
     13042.0000         0.6061       2121.938         0.4741        -41.163      -1.162998      0.9976377
     13042.5000         0.6051        2124.52         0.4742       -40.8271     -0.8270988              1
     13043.0000          0.604       2127.105         0.4743       -40.4913     -0.4912987              1
     13043.5000         0.6029       2129.691         0.4743       -40.4817     -0.4817009              1
     13044.0000         0.6021       2130.863         0.4744       -40.4739     -0.4738998              1
     13044.5000         0.6015       2130.555         0.4745       -40.4661     -0.4660988              1
     13045.0000          0.601       2130.242         0.4746       -40.4584     -0.4584007              1
     13045.5000         0.6004       2129.934         0.4747       -40.4708     -0.4707985              1
     13046.0000         0.5999       2129.625         0.4748       -40.5439     -0.5438995              1
     13046.5000         0.5993       2129.316         0.4749       -40.6172     -0.6171989              1
     13047.0000         0.5995       2128.688          0.475       -40.6902     -0.6902008              1
     13047.5000         0.5998       2127.816          0.475       -40.7634      -0.763401              1
     13048.0000            0.6       2135.633         0.4751       -40.8365     -0.8364983              1
     13048.5000         0.6001       2153.234         0.4752       -40.9095     -0.9095001              1
     13049.0000         0.6002       2176.195         0.4753       -40.9827     -0.9827003              1
     13049.5000         0.5988       2199.152         0.4749       -41.0559      -1.055901      0.9991899
     13050.0000         0.5955       2223.145         0.4741       -41.1263      -1.126301      0.9981695
     13050.5000         0.5895       2248.957         0.4733       -41.1679        -1.1679      0.9975666
     13051.0000         0.5835       2264.859         0.4725       -41.2095      -1.209499      0.9969638
     13051.5000         0.5775       2277.914         0.4716       -41.2511      -1.251099      0.9963609
     13052.0000         0.5734       2289.047         0.4708       -41.2927      -1.292702      0.9957579
     13052.5000         0.5706       2294.617           0.47       -41.3344        -1.3344      0.9951536
     13053.0000         0.5677       2300.172         0.4691        -41.376      -1.375999      0.9945507
     13053.5000         0.5648       2305.727         0.4683       -41.4175        -1.4175      0.9939493
     13054.0000         0.5635       2316.359          0.463       -41.4592      -1.459202      0.9933449
     13054.5000         0.5626       2330.297         0.4574       -41.5007      -1.500702      0.9927434
     13055.0000         0.5617       2346.398         0.4517       -41.5638      -1.563801       0.991829
     13055.5000         0.5605       2364.832         0.4432       -41.6437        -1.6437       0.990671
     13056.0000         0.5585       2380.539         0.4319       -41.7236      -1.723598       0.989513
     13056.5000         0.5566       2393.668         0.4206       -41.8035      -1.803501       0.988355
     13057.0000         0.5546       2405.098         0.4097       -41.8833      -1.883301      0.9871985
     13057.5000         0.5527        2416.48         0.4043       -41.9631        -1.9631       0.986042
     13058.0000         0.5517       2430.418          0.399       -42.0745      -2.074501      0.9844275
     13058.5000         0.5508       2444.355         0.3937       -42.2026      -2.202599       0.982571
     13059.0000         0.5499        2449.27         0.3912       -42.3308      -2.330799      0.9807131
     13059.5000          0.549        2453.02         0.3921        -42.459         -2.459      0.9788551
     13060.0000         0.5482       2457.344         0.3931       -42.5833      -2.583302      0.9770536
     13060.5000          0.549        2462.57          0.394       -42.6301        -2.6301      0.9763753
     13061.0000         0.5502       2467.793          0.395        -42.677      -2.676998      0.9756957
     13061.5000         0.5514       2458.219         0.3982       -42.7239        -2.7239      0.9750159
