#------------------------------------------------------------------------------
# Created by    : vladimir.rabinovich
# Created on    : 09/19/2023 17:21:24
#------------------------------------------------------------------------------
~Version Information Section
VERS.           2.0     :   CWLS log ASCII Standard - VERSION 2.0
WRAP.           NO      :   One line per depth step
~Well Information Section
#MNEM       .UNIT                                         VALUE :DESCRIPTION
#------------------------------------------------------------------------------
STRT        .FT                                            4000 :START DEPTH
STOP        .FT                                            8085 :STOP DEPTH
STEP        .FT                                             0.5 :STEP      
NULL        .                                           -999.25 :NULL      
COMP        .                             WALTER OIL & GAS CORP :COMPANY   
WELL        .                               OCS G09047 ST00BP00 :WELL      
FLD         .                              GALVESTON BLOCK 0351 :FIELD     
LOC         .                                                   :LOCATION  
CNTY        .                             GALVESTON LARGE BLOCK :LOCATION  
STAT        .                                             TEXAS :STATE     
CTRY        .                                     UNITED STATES :COUNTRY   
SRVC        .                                                   :SERVICE COMPANY
DATE        .                             9/13/2023 11:19:36 AM :LOG DATE  
API         .                                    42706402000000 :API NUMBER
UWI         .                                    42706402000000 :UNIQUE WELL ID
XCOORD      .                                  1036183.96101641 :SURFACE X 
YCOORD      .                                  10437562.0132666 :SURFACE Y 
LAT         .                                        28.7482272 :LATITUDE  
LON         .                                       -94.8860948 :LONGITUDE 
ELEV        .FT                                              80 :ELEVATION VALUE
ELEV_TYPE   .                                                KB :ELEVATION REFERENCE TYPE
~Curve Information Section
#MNEM       .UNIT                                      API CODE :CURVE DESCRIPTION
#------------------------------------------------------------------------------
DEPT        .FT                                                 :DEPTH     
CALI        .IN                                                 :          
DRHO        .G/C3                                               :          
GR          .GAPI                                               :          
GR_NORM     .GAPI                                               :GammaRay Normalized
ILD         .OHMM                                               :          
ILM         .OHMM                                               :          
NPHI        .%                                                  :          
RHOB        .G/C3                                               :          
SFL         .OHMM                                               :          
SP          .MV                                                 :          
SP_NORM     .MV                                                 :SP Normalized
VSH_GR      .V/V                                                :Volume of Shale from GR
VSH_SP      .V/V                                                :Volume of Shale from SP
~A        DEPTH           CALI           DRHO             GR        GR_NORM            ILD            ILM           NPHI           RHOB            SFL             SP        SP_NORM         VSH_GR         VSH_SP
# ...
      5102.0000         10.316         0.0528        84.8778       76.16052         0.6683         0.7826        37.8676          2.324         0.8953       -54.5765       -5.40773       0.918309      0.9227467
      5102.5000        10.3541         0.0358        78.8624       69.47675         0.7027         0.8028         35.584         2.3592         1.0605       -58.1013      -8.930347       0.776101      0.8724236
      5103.0000        10.4053         0.0295        67.2463       56.56997         0.7374         0.8103        33.5204         2.3777         1.0631       -60.2272      -11.05407      0.5014887      0.8420847
      5103.5000        10.4461         0.0272        64.7958       53.84719         0.7679         0.8033        31.7336         2.3731         1.0285       -61.9833      -12.80799      0.4435573      0.8170288
      5104.0000        10.4219         0.0283        63.7928       52.73275         0.7714         0.7963        30.4065         2.3603         1.0107        -63.178      -14.00051      0.4198457      0.7999927
      5104.5000        10.3978         0.0294        62.7024       51.52119         0.7682         0.7912        30.4751         2.3532         0.9971       -64.0374      -14.85773      0.3940679      0.7877467
      5105.0000        10.3668         0.0305        61.6713       50.37552         0.7588         0.7887        31.2293         2.3471         0.9945       -64.4366      -15.25475       0.369692       0.782075
      5105.5000        10.3105         0.0306        60.7954        49.4023         0.7475         0.7862        31.9551         2.3391         0.9918       -64.6545      -15.47047      0.3489851      0.7789933
      5106.0000        10.2526         0.0286        61.3209       49.98619         0.7405         0.7837        32.6232         2.3232         0.9931       -64.8726      -15.68638      0.3614083      0.7759088
      5106.5000        10.1846         0.0267        62.0916       50.84252         0.7349         0.7845        33.2338         2.3109         0.9964       -64.8392      -15.65081      0.3796281      0.7764171
      5107.0000        10.1202         0.0247        62.7642       51.58986         0.7295         0.7856         33.535         2.3075         1.0005       -64.7542      -15.56363      0.3955288      0.7776625
      5107.5000        10.1089         0.0228        63.3481       52.23863         0.7261         0.7866        33.1137         2.3109         1.0048       -64.7943      -15.60154      0.4093326      0.7771209
      5108.0000        10.0976         0.0229        63.4423        52.3433         0.7227         0.7877        32.1077         2.3123         0.9998       -65.0691      -15.87416      0.4115596      0.7732262
      5108.5000        10.0983         0.0239        63.5779       52.49397         0.7193         0.7847        31.6955         2.3126         0.9877       -64.6981      -15.50098      0.4147653      0.7785574
      5109.0000        10.1169         0.0249        65.1429       54.23286         0.7159         0.7816        32.8776         2.3128         0.9333       -63.8494       -14.6501      0.4517629      0.7907128
      5109.5000        10.1354         0.0259        67.1515       56.46463         0.7116         0.7785        33.9394         2.3086         0.9301       -63.2143      -14.01282      0.4992475      0.7998168
      5110.0000         10.154         0.0268        67.0377       56.33819         0.7066         0.7748        34.8395         2.3044         0.9436       -63.1949      -13.99124      0.4965572      0.8001251
      5110.5000        10.1707         0.0277         65.073       54.15519         0.7017         0.7686        35.0512         2.3022         0.9354       -63.4875      -14.28166      0.4501104      0.7959763
      5111.0000        10.1874         0.0285        63.8924       52.84341         0.6968         0.7624        34.7621          2.301         0.9106       -63.2896      -14.08158      0.4222002      0.7988346
      5111.5000        10.2041         0.0254        64.9006       53.96363         0.6919         0.7563        34.7503         2.3026         0.8981       -63.0916       -13.8814      0.4460347      0.8016943
      5112.0000        10.1736         0.0223        66.8679       56.14952          0.686         0.7485        35.3191         2.3049         0.9042       -63.1951      -13.98272       0.492543      0.8002469
      5112.5000        10.1234         0.0211        68.0907       57.50819           0.68         0.7402        35.2856         2.3063         0.9046       -63.4051      -14.19054      0.5214509       0.797278
      5113.0000        10.0733         0.0215        68.9226       58.43253         0.6742          0.732        34.2551          2.309          0.905       -63.2972      -14.08046      0.5411175      0.7988506
      5113.5000        10.0231         0.0219         69.295        58.8463         0.6684         0.7233        32.9872         2.3136          0.895       -62.3705      -13.15158      0.5499212      0.8121203
      5114.0000        10.0438         0.0181        69.5298       59.10719         0.6628         0.7147         33.661         2.3152         0.8979       -61.1508       -11.9297      0.5554722      0.8295758
      5114.5000        10.0706         0.0143        69.6155       59.20242         0.6573         0.7061        34.8881          2.315         0.9148        -61.252      -12.02872      0.5574982      0.8281612
      5115.0000        10.0972         0.0179        70.0367       59.67041         0.6519         0.7001        36.5162         2.3163         0.9005       -61.0834      -11.85794      0.5674555      0.8306009
      5115.5000        10.1386         0.0232         70.911       60.64186         0.6456         0.6958         38.532         2.3203         0.8777       -60.4727      -11.24506      0.5881247      0.8393564
      5116.0000        10.1822         0.0339        73.2292       63.21764         0.6389         0.6914        40.5387         2.3238         0.8568       -58.5784      -9.348576      0.6429284      0.8664489
      5116.5000        10.2156         0.0446        74.4446       64.56808         0.6324          0.687        40.8254         2.3228         0.8601       -56.0604      -6.828392      0.6716614      0.9024515
      5117.0000        10.2554         0.0528        75.4613       65.69775         0.6272         0.6816        40.5297         2.3168         0.8423       -53.2176      -3.983418      0.6956969       0.943094
      5117.5000         10.315         0.0603        77.9832       68.49986         0.6227         0.6763          40.04         2.3095         0.8026       -50.5197      -1.283333      0.7553161      0.9816667
      5118.0000        10.3341         0.0608        83.2291       74.32864         0.6201         0.6761         40.701         2.3062         0.7563       -49.2525    -0.01395416      0.8793327      0.9998007
      5118.5000        10.3412          0.057        86.8488       78.35052         0.6266         0.6797        41.3801         2.3061          0.753       -48.8659      0.3748283      0.9649048              1
      5119.0000        10.3473         0.0542        89.5742       81.37875         0.6332         0.6903        41.7635         2.3095         0.7682       -48.7057      0.5372086              1              1
      5119.5000        10.3422          0.053         91.484       83.50075          0.642         0.7042        41.7118         2.3132         0.7912       -48.7842      0.4608879              1              1
      5120.0000        10.3371         0.0578        91.4403       83.45219         0.6557         0.7208        40.7662         2.3169         0.8149       -49.0645      0.1827698              1              1
      5120.5000        10.3129         0.0656        87.7606       79.36363         0.6696          0.745        39.4747         2.3185         0.8597       -50.1999     -0.9504547      0.9864603      0.9864221
