#------------------------------------------------------------------------------
# Created by    : vladimir.rabinovich
# Created on    : 09/19/2023 17:22:52
#------------------------------------------------------------------------------
~Version Information Section
VERS.           2.0     :   CWLS log ASCII Standard - VERSION 2.0
WRAP.           NO      :   One line per depth step
~Well Information Section
#MNEM       .UNIT                                         VALUE :DESCRIPTION
#------------------------------------------------------------------------------
STRT        .FT                                            1126 :START DEPTH
STOP        .FT                                            9906 :STOP DEPTH
STEP        .FT                                             0.5 :STEP      
NULL        .                                           -999.25 :NULL      
COMP        .                                        EXXON CORP :COMPANY   
WELL        .                               OCS G06053 ST00BP00 :WELL      
FLD         .                                           WILDCAT :FIELD     
LOC         .                                                   :LOCATION  
CNTY        .                      MATAGORDA ISLAND LARGE BLOCK :LOCATION  
STAT        .                                             TEXAS :STATE     
CTRY        .                                     UNITED STATES :COUNTRY   
SRVC        .                                                   :SERVICE COMPANY
DATE        .                             9/13/2023 11:12:11 AM :LOG DATE  
API         .                                    42703402640000 :API NUMBER
UWI         .                                    42703402640000 :UNIQUE WELL ID
XCOORD      .                                  440255.018680432 :SURFACE X 
YCOORD      .                                  10152284.9344853 :SURFACE Y 
LAT         .                                         27.926249 :LATITUDE  
LON         .                                        -96.716438 :LONGITUDE 
ELEV        .FT                                              94 :ELEVATION VALUE
ELEV_TYPE   .                                                KB :ELEVATION REFERENCE TYPE
~Curve Information Section
#MNEM       .UNIT                                      API CODE :CURVE DESCRIPTION
#------------------------------------------------------------------------------
DEPT        .FT                                                 :DEPTH     
GR          .GAPI                                               :          
GR_NORM     .GAPI                                               :GammaRay Normalized
ILD         .OHMM                                               :          
SP          .MV                                                 :          
SP_NORM     .MV                                                 :SP Normalized
VSH_GR      .V/V                                                :Volume of Shale from GR
VSH_SP      .V/V                                                :Volume of Shale from SP
~A        DEPTH             GR        GR_NORM            ILD             SP        SP_NORM         VSH_GR         VSH_SP
# ...
      9300.0000        62.7302       79.05223         0.9402       -46.8378      -7.087864      0.9798347      0.9117701
      9300.5000        66.7965       83.11612         0.9315       -46.4636      -6.711948              1      0.9172181
      9301.0000        68.7222       85.03941         0.9252        -46.107       -6.35363              1      0.9224111
      9301.5000        69.2151       85.52991          0.934       -45.9761      -6.221016              1      0.9243331
      9302.0000        66.5718       82.88419         0.9451       -45.8452      -6.088398              1      0.9262551
      9302.5000        63.1409       79.45088         0.9592       -45.7375      -5.978985      0.9883167      0.9278408
      9303.0000        60.0881       76.39568         0.9751       -45.6796      -5.919369      0.9233122      0.9287048
      9303.5000        60.6474       76.95257         0.9892       -45.6019      -5.839951       0.935161      0.9298558
      9304.0000        62.4571       78.75986         0.9929       -45.3985      -5.634834       0.973614      0.9328285
      9304.5000        63.8826       80.18295         0.9967       -45.1951      -5.429718              1      0.9358012
      9305.0000        64.8733       81.17125         0.9997       -45.1306      -5.363503              1      0.9367608
      9305.5000        65.5099       81.80544         1.0016       -45.1002       -5.33139              1      0.9372262
      9306.0000        66.0294       82.32253         1.0036       -45.2798      -5.509274              1      0.9346482
      9306.5000        65.9413       82.23203          1.009       -45.6332      -5.860958              1      0.9295513
      9307.0000        65.3806       81.66891         1.0157       -45.8801       -6.10614              1       0.925998
      9307.5000        63.9938       80.27971         1.0215       -45.7697      -5.994022              1      0.9276229
      9308.0000        63.6036        79.8871          1.027       -45.6689      -5.891506      0.9975979      0.9291086
      9308.5000        63.3796       79.66069         1.0324       -45.5789      -5.799793      0.9927806      0.9304378
      9309.0000        63.2565       79.53518         1.0362       -45.5498      -5.768978      0.9901102      0.9308844
      9309.5000        62.7652       79.04147           1.04       -45.5208      -5.738262      0.9796058      0.9313295
      9310.0000        62.2535       78.52736         1.0439       -45.8506      -6.066345      0.9686672      0.9265747
      9310.5000        60.6885       76.95995          1.047       -46.2819      -6.495926      0.9353182      0.9203489
      9311.0000        58.6734       74.94244         1.0498       -46.7123       -6.92461      0.8923924      0.9141361
      9311.5000        56.2162       72.48283         1.0526       -47.1363      -7.346897      0.8400603       0.908016
      9312.0000        53.9523       70.21653         1.0561       -47.5067       -7.71558      0.7918411      0.9026728
      9312.5000        54.9211       71.18292         1.0596       -47.6915      -7.898666      0.8124026      0.9000193
      9313.0000        56.7042       72.96361         1.0601       -47.8763      -8.081749      0.8502895      0.8973659
      9313.5000        58.2446        74.5016         1.0575        -48.079       -8.28273      0.8830128      0.8944532
      9314.0000        59.0515       75.30609         1.0548       -48.2875      -8.489513      0.9001296      0.8914563
      9314.5000         59.439       75.69119         1.0494       -48.2458      -8.446102      0.9083232      0.8920855
      9315.0000        59.1397       75.38948         1.0441       -48.0356      -8.234184      0.9019039      0.8951567
      9315.5000        58.4221       74.66947         1.0471       -47.7941      -7.990971      0.8865845      0.8986816
      9316.0000         57.144       73.38896         1.0521        -47.491      -7.686153      0.8593396      0.9030992
      9316.5000        55.8803       72.12285         1.0523       -47.1891      -7.382534       0.832401      0.9074995
      9317.0000        55.6339       71.87405         1.0502       -47.0414       -7.23312      0.8271074      0.9096649
      9317.5000        56.9579       73.19564          1.042       -46.8937      -7.083706      0.8552264      0.9118304
      9318.0000        59.0527       75.28802         1.0285       -46.8862       -7.07449      0.8997452      0.9119639
      9318.5000        59.6193       75.85222         1.0141       -46.8815      -7.068073      0.9117493      0.9120569
      9319.0000        60.8673       77.09781         0.9985       -47.0337      -7.218555      0.9382513       0.909876
      9319.5000        62.8002       79.02831         0.9905       -47.2255      -7.408638      0.9793257      0.9071212
      9320.0000        63.5093         79.735         0.9873       -47.4752      -7.656624      0.9943617      0.9035272
      9320.5000        63.5186       79.74189         0.9845       -47.7461      -7.925812      0.9945083      0.8996259
      9321.0000        63.6893       79.91018         0.9828       -47.8442      -8.022194      0.9980889      0.8982291
      9321.5000        64.0034       80.22188         0.9811       -47.8395      -8.015778              1       0.898322
      9322.0000        63.9989       80.21497         0.9751        -47.802      -7.976559              1      0.8988904
      9322.5000        61.2031       77.41676         0.9681        -47.724      -7.896843      0.9450374      0.9000458
      9323.0000        57.6556       73.86685         0.9539       -47.6414      -7.812527      0.8695075      0.9012677
      9323.5000        57.5233       73.73214         0.9368        -47.501      -7.670414      0.8666413      0.9033273
      9324.0000        57.6973       73.90373         0.9232       -47.3605      -7.528198      0.8702922      0.9053884
      9324.5000         59.275       75.47902         0.9176       -47.1227      -7.288681      0.9038089      0.9088597
      9325.0000        59.3451       75.54671         0.9101       -46.7933      -6.957565      0.9052492      0.9136585
      9325.5000        58.3364       74.53561         0.9023       -46.4636      -6.626148      0.8837363      0.9184616
      9326.0000        58.8208       75.01759         0.9041         -46.59      -6.750832      0.8939914      0.9166546
      9326.5000        61.5607       77.75509         0.9095       -46.8056      -6.964718      0.9522359      0.9135548
      9327.0000         64.407       80.59898          0.919       -47.0416      -7.199001              1      0.9101594
      9327.5000        63.5879       79.77747         0.9345        -47.303      -7.458687      0.9952652      0.9063959
      9328.0000        62.4692       78.65636         0.9505       -47.4534      -7.607368       0.971412       0.904241
      9328.5000        62.3276       78.51236          0.968       -47.4775      -7.629753      0.9683481      0.9039166
      9329.0000        62.4069       78.58925         0.9859       -47.5347      -7.685234       0.969984      0.9031125
      9329.5000        61.6235       77.80344         1.0029       -47.3401      -7.488922      0.9532646      0.9059576
      9330.0000        60.3732       76.55074         1.0065       -47.1318      -7.278908      0.9266114      0.9090014
      9330.5000        59.7679       75.94302         0.9986        -46.913      -7.058388      0.9136813      0.9121973
      9331.0000        59.6932       75.86591          0.988       -46.6765      -6.820171      0.9120407      0.9156497
      9331.5000        59.7382       75.90851         0.9768         -46.44      -6.581955       0.912947      0.9191021
      9332.0000        59.7875        75.9554         0.9656        -46.311      -6.451241      0.9139447      0.9209965
      9332.5000        59.7582       75.92369         0.9542       -46.2441      -6.382626        0.91327      0.9219909
      9333.0000        58.5502       74.71329         0.9431       -46.1771      -6.313911      0.8875167      0.9229868
