#------------------------------------------------------------------------------
# Created by    : vladimir.rabinovich
# Created on    : 09/19/2023 17:20:01
#------------------------------------------------------------------------------
~Version Information Section
VERS.           2.0     :   CWLS log ASCII Standard - VERSION 2.0
WRAP.           NO      :   One line per depth step
~Well Information Section
#MNEM       .UNIT                                         VALUE :DESCRIPTION
#------------------------------------------------------------------------------
STRT        .FT                                            3530 :START DEPTH
STOP        .FT                                           11780 :STOP DEPTH
STEP        .FT                                             0.5 :STEP      
NULL        .                                           -999.25 :NULL      
COMP        .                                        TEXACO INC :COMPANY   
WELL        .                                     ST TR 00820-L :WELL      
FLD         .                                           WILDCAT :FIELD     
LOC         .                                                   :LOCATION  
CNTY        .                        MUSTANG ISLAND LARGE BLOCK :LOCATION  
STAT        .                                             TEXAS :STATE     
CTRY        .                                     UNITED STATES :COUNTRY   
SRVC        .                                                   :SERVICE COMPANY
DATE        .                             9/13/2023 11:18:55 AM :LOG DATE  
API         .                                    42702302010000 :API NUMBER
UWI         .                                    42702302010000 :UNIQUE WELL ID
XCOORD      .                                  295719.314319733 :SURFACE X 
YCOORD      .                                  9994218.17259751 :SURFACE Y 
LAT         .                                        27.4796405 :LATITUDE  
LON         .                                       -97.1466422 :LONGITUDE 
ELEV        .FT                                              78 :ELEVATION VALUE
ELEV_TYPE   .                                                KB :ELEVATION REFERENCE TYPE
~Curve Information Section
#MNEM       .UNIT                                      API CODE :CURVE DESCRIPTION
#------------------------------------------------------------------------------
DEPT        .FT                                                 :DEPTH     
ASFL        .OHMM                                               :          
CILD        .MMHO                                               :          
GR          .GAPI                                               :          
GR_NORM     .GAPI                                               :GammaRay Normalized
ILD         .OHMM                                               :          
SP          .MV                                                 :          
SP_NORM     .MV                                                 :SP Normalized
VSH_GR      .V/V                                                :Volume of Shale from GR
VSH_SP      .V/V                                                :Volume of Shale from SP
~A        DEPTH           ASFL           CILD             GR        GR_NORM            ILD             SP        SP_NORM         VSH_GR         VSH_SP
# ...
      9545.5000         0.5403       2333.723        57.3999        79.6286         0.4043       -37.4474        1.14909      0.9920979              1
      9546.0000         0.5397       2377.926         58.433       81.12383         0.4045       -37.4994       1.097088              1              1
      9546.5000         0.5383       2417.641        59.3686       82.47771         0.4047       -37.5514        1.04509              1              1
      9547.0000         0.5368       2438.719        60.2622       83.77074         0.4049       -37.6033      0.9931908              1              1
      9547.5000         0.5353       2459.797        61.1793       85.09782         0.4051       -37.6553      0.9411888              1              1
      9548.0000         0.5338       2480.898        61.9149        86.1618         0.4053       -37.6309      0.9655876              1              1
      9548.5000         0.5331       2497.793        62.7296       87.34045         0.4055       -37.6006      0.9958878              1              1
      9549.0000         0.5338        2496.59        63.6565       88.68172         0.4042       -37.5703       1.026188              1              1
      9549.5000         0.5345       2495.383        64.1033       89.32707         0.3989         -37.54       1.056488              1              1
      9550.0000         0.5352       2492.102        62.6443       87.20988         0.3937       -37.5098       1.086689              1              1
      9550.5000         0.5358       2487.574         61.183       85.08935         0.3884       -37.4315       1.164989              1              1
      9551.0000         0.5329       2483.051         59.655       82.87213         0.3831       -37.3533       1.243191              1              1
      9551.5000         0.5299       2510.684        54.5993       75.54134         0.3778       -37.2751       1.321388       0.905135              1
      9552.0000          0.527       2542.785        56.2557       77.94008         0.3726       -37.1968       1.399689      0.9561719              1
      9552.5000          0.524       2574.941        58.0504       80.53925         0.3673        -37.118       1.478489              1              1
      9553.0000         0.5187       2607.043        59.8475       83.14195          0.362       -37.0289       1.567589              1              1
      9553.5000         0.5123       2639.195        61.6422       85.74115         0.3571       -36.9396       1.656887              1              1
      9554.0000         0.5086       2671.301        62.6592       87.21304         0.3594       -37.1004        1.49609              1              1
      9554.5000           0.51       2700.914        63.2158       88.01755         0.3618       -37.2917        1.30479              1              1
      9555.0000         0.5114       2721.406        63.5386       88.48316         0.3641       -37.4833        1.11319              1              1
      9555.5000         0.5127       2741.922        63.2122       88.00772         0.3665       -37.7833      0.8131905              1              1
      9556.0000         0.5067       2762.414        62.9684       87.65202         0.3688        -38.169      0.4274902              1              1
      9556.5000         0.5005       2783.371        62.7246       87.29632         0.3712       -38.5541     0.04238892              1              1
      9557.0000         0.4912       2804.301        62.4808       86.94061         0.3735       -38.9398     -0.3433113              1              1
      9557.5000         0.4819       2825.258         61.968       86.19497         0.3797       -39.3292     -0.7327118              1              1
      9558.0000         0.4832       2817.523        61.3546       85.30352          0.402       -39.7192      -1.122711              1      0.9963908
      9558.5000         0.4957       2701.207        60.2424       83.68903         0.4244       -39.9717       -1.37521              1      0.9889644
      9559.0000         0.5346       2573.184        58.3984       81.01374         0.4467       -40.0942      -1.497711              1      0.9853615
      9559.5000         0.5834        2445.16        56.5544       78.33847          0.469       -40.2167      -1.620213      0.9646483      0.9817585
      9560.0000          0.646       2317.133         54.861        75.8815          0.494       -40.7209      -2.124413      0.9123724       0.966929
      9560.5000         0.7197       2189.109        53.3897       73.74648         0.5255        -41.517      -2.920509      0.8669463      0.9435144
      9561.0000         0.7584       1825.137        51.9185        71.6116          0.557       -42.3119      -3.715412      0.8215233       0.920135
      9561.5000         0.7971       1459.406        50.4448       69.47308         0.5886       -43.2327      -4.636211       0.776023      0.8930526
      9562.0000         0.8479       1432.863        48.5983        66.7942         0.6034        -44.288      -5.691509      0.7190255      0.8620144
      9562.5000         0.8333       1487.412        46.6605       63.98296         0.6055       -44.2824      -5.685909      0.6592118      0.8621792
      9563.0000         0.7583       1547.131        45.7816       62.70665         0.6076       -43.9368      -5.340309      0.6320564      0.8723438
      9563.5000         0.6878       1616.119        48.7291       66.97688         0.6096       -43.5906       -4.99411      0.7229123      0.8825262
      9564.0000         0.6451       1685.012        50.7039       69.83713         0.6094        -43.245       -4.64851      0.7837687      0.8926909
      9564.5000         0.6248       1728.873        52.2271       72.04279         0.6093       -42.7501       -4.15361      0.8306977      0.9072468
      9565.0000         0.6045       1768.734        53.7526       74.25177         0.6091       -42.2125      -3.616013      0.8776972      0.9230585
      9565.5000         0.6105       1766.832        55.0622       76.14779         0.6089       -42.3625       -3.76601      0.9180381      0.9186468
      9566.0000         0.6463       1740.436        53.9056       74.46895         0.6088        -43.677      -5.080509      0.8823181       0.879985
      9566.5000         0.6835       1713.992        52.7134       72.73849         0.6086       -45.9234      -7.326912      0.8454999      0.8139144
      9567.0000         0.7208       1687.598        51.5235       71.01136         0.6085       -48.4067      -9.810211      0.8087524      0.7408761
      9567.5000         0.7581       1654.957        48.7933       67.05151         0.6053       -50.9642      -12.36771      0.7245001      0.6656556
      9568.0000         0.7897       1658.127        45.9495       62.92697         0.5973       -53.3735      -14.77701       0.636744      0.5947938
      9568.5000         0.8193       1690.279        43.4513        59.3034         0.5893       -55.7186      -17.12211      0.5596468      0.5258203
      9569.0000         0.8242       1722.385        41.2346       56.08788         0.5812       -57.1208      -18.52431      0.4912316      0.4845791
      9569.5000         0.8192       1806.693        39.0128       52.86497         0.5732       -58.3847      -19.78821       0.422659      0.4474055
      9570.0000         0.8038       1891.393        38.0587       51.47965         0.5652       -58.8624      -20.26591      0.3931841      0.4333556
      9570.5000         0.7908       1961.162        37.4243       50.55776         0.5553       -59.1092      -20.51271      0.3735693      0.4260967
      9571.0000         0.7778        2013.66        37.6878        50.9374         0.5451       -59.3428      -20.74631      0.3816468      0.4192261
      9571.5000         0.7649        2042.52        37.9514       51.31719         0.5349       -59.2114      -20.61491      0.3897275      0.4230909
