#------------------------------------------------------------------------------
# Created by    : vladimir.rabinovich
# Created on    : 09/19/2023 17:20:02
#------------------------------------------------------------------------------
~Version Information Section
VERS.           2.0     :   CWLS log ASCII Standard - VERSION 2.0
WRAP.           NO      :   One line per depth step
~Well Information Section
#MNEM       .UNIT                                         VALUE :DESCRIPTION
#------------------------------------------------------------------------------
STRT        .FT                                             994 :START DEPTH
STOP        .FT                                           14137 :STOP DEPTH
STEP        .FT                                             0.5 :STEP      
NULL        .                                           -999.25 :NULL      
COMP        .                                   MARATHON OIL CO :COMPANY   
WELL        .                                     ST TR 00841-L :WELL      
FLD         .                                           WILDCAT :FIELD     
LOC         .                                                   :LOCATION  
CNTY        .                        MUSTANG ISLAND LARGE BLOCK :LOCATION  
STAT        .                                             TEXAS :STATE     
CTRY        .                                     UNITED STATES :COUNTRY   
SRVC        .                                                   :SERVICE COMPANY
DATE        .                             9/13/2023 11:18:55 AM :LOG DATE  
API         .                                    42702301400000 :API NUMBER
UWI         .                                    42702301400000 :UNIQUE WELL ID
XCOORD      .                                  272565.632686387 :SURFACE X 
YCOORD      .                                  9953986.84876921 :SURFACE Y 
LAT         .                                         27.367086 :LATITUDE  
LON         .                                       -97.2136853 :LONGITUDE 
ELEV        .FT                                              88 :ELEVATION VALUE
ELEV_TYPE   .                                                KB :ELEVATION REFERENCE TYPE
~Curve Information Section
#MNEM       .UNIT                                      API CODE :CURVE DESCRIPTION
#------------------------------------------------------------------------------
DEPT        .FT                                                 :DEPTH     
ASFL        .OHMM                                               :          
CILD        .MMHO                                               :          
GR          .GAPI                                               :          
GR_NORM     .GAPI                                               :GammaRay Normalized
ILD         .OHMM                                               :          
SP          .MV                                                 :          
SP_NORM     .MV                                                 :SP Normalized
VSH_GR      .V/V                                                :Volume of Shale from GR
VSH_SP      .V/V                                                :Volume of Shale from SP
~A        DEPTH           ASFL           CILD             GR        GR_NORM            ILD             SP        SP_NORM         VSH_GR         VSH_SP
# ...
      7115.5000          1.054       962.5742        56.8431       64.62009           1.17        -43.782      -1.280411      0.6727678      0.9964505
      7116.0000         1.0335       982.2783        55.8794       62.82797          1.138       -43.6546      -1.151634      0.6346377      0.9980806
      7116.5000         1.0587       1004.498         54.933       61.06797         1.1006       -44.2241      -1.719757      0.5971909      0.9908891
      7117.0000          1.084       993.3379         53.988       59.31056         1.1338       -44.7943      -2.288586      0.5597992      0.9836888
      7117.5000         1.1092       963.8945        53.0429         57.553          1.167       -45.3638      -2.856712      0.5224042      0.9764973
      7118.0000         1.1411       934.4004        52.6363       56.79519         1.2956       -45.9333      -3.424839      0.5062807      0.9693058
      7118.5000          1.173        888.166          53.85       59.04565         1.2583       -46.6559      -4.146061      0.5541629      0.9601765
      7119.0000          1.205        832.541        55.0637       61.29615          1.221        -47.637       -5.12579      0.6020458      0.9477748
      7119.5000         1.2372       855.7334        55.8104       62.67959          1.188       -48.4018      -5.889214      0.6314807      0.9381112
      7120.0000         1.2537       904.2588        56.5441       64.03889          1.157       -47.8509      -5.336941       0.660402       0.945102
      7120.5000         1.2341       944.4141        57.2778       65.39818         1.1298        -46.973      -4.457668      0.6893229      0.9562321
      7121.0000         1.2146       946.6934        58.0145       66.76304         1.1364       -45.8339      -3.317192      0.7183625      0.9706684
      7121.5000         1.1862        931.623        59.0044       68.59802          1.143       -44.5145      -1.996418      0.7574047      0.9873871
      7122.0000         1.1399       947.9014        59.9943         70.433         1.1485       -42.9103     -0.3908463      0.7964468              1
      7122.5000         1.0694       981.9795         60.866        72.0485         1.1439       -41.5735      0.9473267      0.8308191              1
      7123.0000         1.0506       1024.078         61.729       73.64787         1.1335       -40.7043       1.817905      0.8648484              1
      7123.5000         1.0573        1064.73        62.7972        75.6282           1.11       -41.5884      0.9351768      0.9069829              1
      7124.0000         1.0814       1089.865        63.7037       77.30833         1.0865        -42.536    -0.01104736      0.9427304              1
      7124.5000         1.1031       1087.984        64.4056       78.60857         1.0626       -43.4836     -0.9572754      0.9703952              1
      7125.0000          1.064        1073.91        64.8054       79.34795         1.0386       -44.4312        -1.9035      0.9861267      0.9885633
      7125.5000         1.0277       1059.836        65.0872       79.86823         1.0146       -44.8876      -2.358524      0.9971963      0.9828035
      7126.0000         0.9557       1060.596        64.4362       78.65671         0.9906       -44.7943      -2.263851      0.9714193      0.9840019
      7126.5000         0.9568        1095.77        63.7883       77.45088         1.0068       -44.4069      -1.875076      0.9457635      0.9889231
      7127.0000         0.9858       1129.947        63.1765       76.31213         1.0367       -44.0202      -1.487003      0.9215346      0.9938354
      7127.5000         1.0169       1057.756        62.4204       74.90546         1.0665       -43.9661       -1.43153      0.8916054      0.9945376
      7128.0000         1.0655       998.3701        63.3854       76.69418         1.0964       -44.3945      -1.858555      0.9296633      0.9891322
      7128.5000         1.1141       950.3428        63.4476       76.80677         1.1262       -44.8235      -2.286182      0.9320589      0.9837192
      7129.0000         1.1605       874.8145        61.1843       72.60178         1.1561       -45.5043      -2.965607      0.8425912      0.9751189
      7129.5000         1.2029        832.666        58.3864       67.40428         1.2028       -46.1871      -3.647034       0.732006      0.9664932
      7130.0000         1.2417       811.8906        56.9084       64.65733         1.2838       -46.7896      -4.248158      0.6735601      0.9588841
      7130.5000         1.2618       816.1377        56.4925       63.88224          1.349       -47.2559      -4.713085       0.657069      0.9529989
      7131.0000         1.2783       829.1787        56.5279       63.94509         1.3727       -47.7222      -5.178009      0.6584062      0.9471138
      7131.5000         1.2896        842.207        56.8773       64.59087         1.3432        -48.316      -5.770439      0.6721463      0.9396147
      7132.0000         1.2687       859.1709        57.3406       65.44817         1.3137       -49.0136      -6.466663      0.6903865      0.9308017
      7132.5000         1.2442       879.3486        58.2546       67.14219         1.2923       -49.7106      -7.162289      0.7264296      0.9219964
      7133.0000         1.2196       899.5508        59.1673       68.83384         1.2782       -49.3332      -6.783512      0.7624221       0.926791
      7133.5000         1.1945       919.7275        59.9943       70.36636         1.2641       -48.8662       -6.31514       0.795029      0.9327198
      7134.0000         1.1694       939.9053        60.5476       71.39072         1.2499       -48.3993      -5.846867      0.8168239      0.9386473
      7134.5000         1.1451       954.3535         61.101       72.41527         1.2358       -47.7838      -5.229992      0.8386227      0.9464558
      7135.0000         1.1219         968.54        61.6544       73.43984         1.2217       -47.1583      -4.603115      0.8604222      0.9543909
      7135.5000         1.1256       979.4697        62.1941       74.43895         1.2085       -46.5228      -3.966244      0.8816798      0.9624526
      7136.0000         1.1436       984.6885        62.5627        75.1204         1.1961        -45.888       -3.33007      0.8961787      0.9705054
      7136.5000         1.1494       989.9131        62.9315       75.80222         1.1837       -45.4484      -2.889095      0.9106856      0.9760874
      7137.0000         1.1388       995.1318        62.8979       75.73695         1.1713       -45.0654      -2.504719      0.9092969      0.9809529
      7137.5000         1.1241       995.7324        62.4366       74.87759         1.1589       -45.6312      -3.069145      0.8910125      0.9738083
      7138.0000         1.1088       996.2012        61.9789       74.02493         1.1453       -47.6706      -5.107174      0.8728709      0.9480104
      7138.5000         1.0935       996.6689        61.5648       73.25319         1.1296        -49.271        -6.7062      0.8564509      0.9277696
      7139.0000         1.0789       997.1377        61.1508       72.48165         1.1229       -47.8795      -5.313328      0.8400351      0.9454009
      7139.5000         1.0662       997.6064        60.7366       71.70974         1.1228        -46.437       -3.86945      0.8236115      0.9636778
      7140.0000         1.0535       998.0742        60.3226       70.93822         1.1228       -45.4596      -2.890675      0.8071963      0.9760674
      7140.5000         1.0635        998.543        59.8115        69.9864         1.1225       -45.8488      -3.278503      0.7869447      0.9711582
      7141.0000         1.0736        1002.58        59.4456       69.30415         1.1211         -46.83      -4.258331      0.7724288      0.9587553
      7141.5000         1.0803       1012.121        59.7365       69.84138         1.1197       -47.6741      -5.101055      0.7838591      0.9480879
