#------------------------------------------------------------------------------
# Created by    : vladimir.rabinovich
# Created on    : 09/19/2023 17:22:54
#------------------------------------------------------------------------------
~Version Information Section
VERS.           2.0     :   CWLS log ASCII Standard - VERSION 2.0
WRAP.           NO      :   One line per depth step
~Well Information Section
#MNEM       .UNIT                                         VALUE :DESCRIPTION
#------------------------------------------------------------------------------
STRT        .FT                                             410 :START DEPTH
STOP        .FT                                            7624 :STOP DEPTH
STEP        .FT                                             0.5 :STEP      
NULL        .                                           -999.25 :NULL      
COMP        .                                      SHELL OIL CO :COMPANY   
WELL        .                                     ST TR 00249-L :WELL      
FLD         .                                           WILDCAT :FIELD     
LOC         .                                                   :LOCATION  
CNTY        .                             GALVESTON LARGE BLOCK :LOCATION  
STAT        .                                             TEXAS :STATE     
CTRY        .                                     UNITED STATES :COUNTRY   
SRVC        .                                                   :SERVICE COMPANY
DATE        .                             9/13/2023 11:19:42 AM :LOG DATE  
API         .                                    42706000200000 :API NUMBER
UWI         .                                    42706000200000 :UNIQUE WELL ID
XCOORD      .                                  981084.037319939 :SURFACE X 
YCOORD      .                                  10535303.7769946 :SURFACE Y 
LAT         .                                         29.014458 :LATITUDE  
LON         .                                       -95.0633058 :LONGITUDE 
ELEV        .FT                                              11 :ELEVATION VALUE
ELEV_TYPE   .                                                KB :ELEVATION REFERENCE TYPE
~Curve Information Section
#MNEM       .UNIT                                      API CODE :CURVE DESCRIPTION
#------------------------------------------------------------------------------
DEPT        .FT                                                 :DEPTH     
LAT         .OHMM                                               :          
SN          .OHMM                                               :          
SP          .MV                                                 :          
SP_NORM     .MV                                                 :SP Normalized
VSH_SP      .V/V                                                :Volume of Shale from SP
~A        DEPTH            LAT             SN             SP        SP_NORM         VSH_SP
# ...
      4238.0000         0.1703         0.7064      -156.7385      -75.55733              0
      4238.5000         0.1697         0.7039      -157.1147      -75.94292              0
      4239.0000         0.1684         0.7014      -157.0557      -75.89332              0
      4239.5000         0.1624         0.6989      -156.9966      -75.84361              0
      4240.0000         0.1564         0.6965      -157.6567       -76.5131              0
      4240.5000         0.1504         0.6933      -158.9141      -77.77989              0
      4241.0000         0.1443         0.6897      -160.1704      -79.04559              0
      4241.5000         0.1383         0.6861      -161.0281       -79.9127              0
      4242.0000         0.1323         0.6825      -161.4041      -80.29808              0
      4242.5000         0.1275         0.6789        -161.78      -80.68337              0
      4243.0000         0.1231         0.6773      -162.1558      -81.06858              0
      4243.5000         0.1186         0.6792      -160.0176      -78.93976              0
      4244.0000         0.1142         0.6812      -157.3279      -76.25945              0
      4244.5000         0.1097         0.6831      -154.9856      -73.92654     0.01450616
      4245.0000         0.1077          0.685      -152.6628      -71.61314     0.04576832
      4245.5000         0.1139          0.678      -150.4866      -69.44634     0.07504942
      4246.0000           0.12         0.6687      -149.6208      -68.58994      0.0866225
      4246.5000         0.1261         0.6593      -148.9258      -67.90432     0.09588757
      4247.0000         0.1323         0.6499      -149.2839      -68.27183     0.09092125
      4247.5000         0.1404         0.6406      -149.6418      -68.63911     0.08595791
      4248.0000         0.1657         0.6533      -149.9998      -69.00651     0.08099314
      4248.5000          0.191         0.6714      -149.8616       -68.8777     0.08273377
      4249.0000         0.2163         0.6894       -149.521      -68.54649     0.08720955
      4249.5000         0.2415         0.7075      -149.1802       -68.2151      0.0916879
      4250.0000         0.2507         0.7255      -149.1321      -68.17638     0.09221113
      4250.5000         0.2562         0.7436      -149.6599      -68.71357     0.08495176
      4251.0000         0.2618         0.7602      -150.0896      -69.15267     0.07901795
      4251.5000         0.2673         0.7753      -150.4275      -69.49997     0.07432473
      4252.0000         0.2659         0.7858      -150.7654      -69.84725     0.06963173
      4252.5000          0.257          0.761      -151.0579      -70.14915     0.06555197
      4253.0000         0.2481         0.7362      -151.2388      -70.33945     0.06298044
      4253.5000         0.2392         0.7114      -151.3652      -70.47524     0.06114537
      4254.0000         0.2303         0.6865      -150.8503      -69.96973     0.06797667
      4254.5000         0.2337         0.6829      -148.4172      -67.54603      0.1007293
      4255.0000         0.2654         0.6883      -145.1399      -64.27811      0.1448904
      4255.5000         0.2971         0.6937      -141.8645      -61.01212      0.1890255
      4256.0000         0.3289         0.8035      -138.4756      -57.63261      0.2346945
      4256.5000         0.3757         0.9221      -134.8855       -54.0519      0.2830825
      4257.0000         0.4759         1.0275      -131.2957       -50.4715      0.3314663
      4257.5000         0.5761         1.1164      -128.8342      -48.01939      0.3646029
      4258.0000         0.6779         1.1837      -126.6929      -45.88748      0.3934124
      4258.5000         0.8281          1.197      -127.6041      -46.80807       0.380972
      4259.0000         0.9321         0.9945       -128.949      -48.16237      0.3626707
      4259.5000         0.9955         0.8002      -130.2927      -49.51546      0.3443857
      4260.0000         0.9585         0.6931      -128.6953      -47.92745      0.3658452
      4260.5000         0.7662         0.6492       -126.658      -45.89954      0.3932494
      4261.0000         0.6188         0.6053      -128.0344      -47.28533      0.3745225
      4261.5000         0.4713         0.5795      -130.1572      -49.41753       0.345709
      4262.0000         0.3239         0.5596      -132.3552      -51.62492      0.3158794
      4262.5000         0.1819         0.5498      -134.5535      -53.83262      0.2860457
      4263.0000          0.126          0.559       -140.689      -59.97751      0.2030066
      4263.5000         0.0701         0.5682      -146.3657      -65.66362      0.1261673
      4264.0000          0.112         0.5774      -150.8098       -70.1171     0.06598508
      4264.5000         0.1766         0.6062      -152.9578      -72.27449     0.03683121
      4265.0000         0.2412         0.6663      -154.7878      -74.11388     0.01197454
      4265.5000         0.4221         0.7264      -149.7043      -69.03979     0.08054341
      4266.0000         0.6096         0.7865      -147.5498      -66.89468      0.1095313
      4266.5000         0.7898         0.8466      -145.4119      -64.76617       0.138295
      4267.0000         0.8842         0.9067      -144.2036      -63.56726      0.1544965
      4267.5000         0.9786         0.9511      -143.5032      -62.87627      0.1638342
      4268.0000         1.0319         0.9826      -144.1816      -63.56405      0.1545399
      4268.5000         0.8244         0.9805      -144.5735      -63.96535      0.1491169
      4269.0000         0.6074         0.9777      -144.8052      -64.20644      0.1458589
      4269.5000         0.4879         1.0027      -145.0366      -64.44724      0.1426048
      4270.0000         0.3683          1.035      -145.2683      -64.68832       0.139347
      4270.5000         0.2488         1.0661      -145.4998      -64.92922      0.1360916
      4271.0000         0.1681         1.0991      -145.4536      -64.89241      0.1365891
      4271.5000         0.1374         1.1256      -145.0129      -64.46111      0.1424175
      4272.0000         0.1067         1.0385      -144.5718       -64.0294      0.1482514
      4272.5000          0.076         0.9637      -144.1309       -63.5979      0.1540824
      4273.0000         0.0625         0.8889      -144.2761      -63.75248      0.1519935
      4273.5000         0.0601         0.8141      -144.5247      -64.01049      0.1485069
      4274.0000         0.0576          0.744      -144.7729      -64.26808      0.1450259
      4274.5000         0.0552         0.6985      -145.0212      -64.52576      0.1415437
      4275.0000         0.0533         0.6813      -145.2695      -64.78346      0.1380613
      4275.5000         0.0608         0.6656      -145.1006      -64.62396      0.1402167
      4276.0000         0.0684         0.6645      -144.3511      -63.88386      0.1502181
      4276.5000         0.0759         0.6909      -143.6016      -63.14374      0.1602198
      4277.0000         0.0835         0.7173      -142.8528      -62.40434      0.1702117
      4277.5000         0.0911         0.7329      -142.1033      -61.66424       0.180213
      4278.0000         0.0986         0.7321      -140.9314      -60.50172      0.1959226
      4278.5000         0.0986         0.7313       -139.344      -58.92371      0.2172471
      4279.0000         0.0981         0.7304      -137.7566      -57.34572      0.2385714
      4279.5000         0.0977         0.7296      -136.1704      -55.76891      0.2598796
      4280.0000         0.0973         0.7288      -134.6956       -54.3035      0.2796824
      4280.5000         0.0968         0.7386      -134.6365       -54.2538      0.2803541
      4281.0000         0.0964         0.7508      -134.5774      -54.20408       0.281026
      4281.5000         0.1024         0.7629      -134.5803      -54.21639      0.2808596
