#------------------------------------------------------------------------------
# Created by    : vladimir.rabinovich
# Created on    : 09/19/2023 17:22:33
#------------------------------------------------------------------------------
~Version Information Section
VERS.           2.0     :   CWLS log ASCII Standard - VERSION 2.0
WRAP.           NO      :   One line per depth step
~Well Information Section
#MNEM       .UNIT                                         VALUE :DESCRIPTION
#------------------------------------------------------------------------------
STRT        .FT                                            2877 :START DEPTH
STOP        .FT                                            8775 :STOP DEPTH
STEP        .FT                                             0.5 :STEP      
NULL        .                                           -999.25 :NULL      
COMP        .                                       APACHE CORP :COMPANY   
WELL        .                                  HIGH ISLAND 10-L :WELL      
FLD         .                                           WILDCAT :FIELD     
LOC         .                                                   :LOCATION  
CNTY        .                           HIGH ISLAND LARGE BLOCK :LOCATION  
STAT        .                                             TEXAS :STATE     
CTRY        .                                     UNITED STATES :COUNTRY   
SRVC        .                                                   :SERVICE COMPANY
DATE        .                             9/13/2023 11:19:15 AM :LOG DATE  
API         .                                    42708303590000 :API NUMBER
UWI         .                                    42708303590000 :UNIQUE WELL ID
XCOORD      .                                  1323081.96300683 :SURFACE X 
YCOORD      .                                  10736101.4448574 :SURFACE Y 
LAT         .                                        29.5789626 :LATITUDE  
LON         .                                       -93.9986282 :LONGITUDE 
ELEV        .FT                                             100 :ELEVATION VALUE
ELEV_TYPE   .                                                KB :ELEVATION REFERENCE TYPE
~Curve Information Section
#MNEM       .UNIT                                      API CODE :CURVE DESCRIPTION
#------------------------------------------------------------------------------
DEPT        .FT                                                 :DEPTH     
CNCSS       .%                                                  :          
DCAL        .IN                                                 :          
GRR         .GAPI                                               :          
ILD         .OHMM                                               :          
ILM         .OHMM                                               :          
PORZSS      .%                                                  :          
RFOC        .OHMM                                               :          
SP          .MV                                                 :          
SP_NORM     .MV                                                 :SP Normalized
TENR        .LB                                                 :          
VSH_SP      .V/V                                                :Volume of Shale from SP
ZCOR        .G/CM3                                              :          
~A        DEPTH          CNCSS           DCAL            GRR            ILD            ILM         PORZSS           RFOC             SP        SP_NORM           TENR         VSH_SP           ZCOR
# ...
      3000.0000        51.5644        -999.25         29.847        -999.25        -999.25        -999.25        -999.25        -999.25        -999.25           1210        -999.25        -999.25
      3000.5000        51.2666        -999.25          27.15        -999.25        -999.25        -999.25        -999.25        -999.25        -999.25           1210        -999.25        -999.25
      3001.0000           54.3        -999.25          25.95        -999.25        -999.25        -999.25        -999.25        -999.25        -999.25           1210        -999.25        -999.25
      3001.5000          54.12        -999.25        32.9703        -999.25        -999.25        -999.25        -999.25        -999.25        -999.25           1210        -999.25        -999.25
      3002.0000        51.9172         1.2678         39.505        19.9246         6.2512         48.049         0.5865          -48.6      -20.70986           1210      0.6102113        -0.0218
      3002.5000        49.7132         1.6847          46.05        19.9292         2.3177        42.7184         0.8533          -42.4      -14.53551           1210      0.7388435          0.026
      3003.0000        47.5646         2.0426          53.25          3.317         1.1125        39.0811         0.8612       -38.4158      -10.57697           1210      0.8213132          0.028
      3003.5000        45.5284          2.402          54.45         0.7075         0.6575        33.4088         0.8811       -36.4356      -8.622421           1210      0.8620329          0.034
      3004.0000        43.0162         2.9103           53.7         0.5477         0.5946           28.2         0.8975       -34.2574      -6.469877           1210      0.9068776           0.03
      3004.5000        41.7614         3.3182          52.05         0.5023         0.5378             27         0.9059       -33.6634      -5.901531           1210      0.9187181          0.036
      3005.0000        40.5675         3.6665          50.55         0.4887         0.5046          27.42         0.9229       -33.2673      -5.531086           1210      0.9264357          0.036
      3005.5000        39.3127         3.0498          49.05         0.5865         0.6254           28.8         0.9708       -32.4752      -4.764643           1210      0.9424033           0.04
      3006.0000        38.0567         2.3836          47.55         0.7349         0.7767          28.98         1.0738       -31.4851      -3.800196           1210      0.9624959           0.05
      3006.5000        36.7994         1.6077         44.703         0.9026          0.958          25.62         1.3623        -29.901      -2.241751           1210      0.9949635          0.056
      3007.0000        35.5425         1.3887        44.4059         1.0405         1.0891          20.94         1.5134       -27.7228     -0.0892067           1210              1          0.032
      3007.5000        34.5866          1.379          45.15         0.9896         0.9672        17.4059         1.3626       -25.1485       2.459438           1210              1          0.008
      3008.0000        34.9416         1.5089           47.7          0.879         0.8325           18.6         1.1562       -21.9802       5.602083           1220              1          0.004
      3008.5000        37.5078          1.559          52.95         0.6771          0.719          22.38          1.013          -19.2       8.356628           1220              1           0.02
      3009.0000        41.6404         1.6792           56.7         0.6228         0.6434          25.62         0.9161          -17.4       10.13097           1220              1          0.036
      3009.5000        45.7452         1.7795          61.35         0.5733         0.5973          28.44          0.833          -16.4       11.10532           1220              1           0.05
      3010.0000        45.5057         1.8598           63.3         0.5553            0.6          29.64          0.789            -18       9.479664           1220              1          0.058
      3010.5000        42.8317           1.79           65.1         0.5707         0.6171          29.64         0.7782       -20.9901       6.463907           1220              1           0.06
      3011.0000          40.62           1.77           65.7         0.5919         0.6287          28.44         0.8371       -26.5347      0.8936539           1220              1           0.05
      3011.5000             39           1.71           61.8         0.5973         0.6376          26.58         1.0138       -33.4653      -6.062603           1220      0.9153624          0.038
      3012.0000          36.78           1.66           56.7         0.5865         0.6258          24.36         1.2909          -40.2      -12.82296           1220      0.7745217          0.018
      3012.5000        34.4554           1.66           46.8         0.5733         0.6056          22.38         1.7363            -46      -18.64861           1220       0.653154        -0.0059
      3013.0000         32.495           1.73        39.6535         0.5354         0.5733          22.98         1.5422          -49.4      -22.07427           1230      0.5817861        -0.0475
      3013.5000        31.5446           1.92        36.9802         0.4932         0.5281          25.26         1.1518          -51.4      -24.09992           1250      0.5395849        -0.0653
      3014.0000        33.2079         2.1584        37.7228          0.467         0.4843          28.26         0.9083          -49.6      -22.32557           1250      0.5765505        -0.0515
      3014.5000          38.28          2.297        43.5149         0.4401         0.4691             30         0.8258          -46.2      -18.95123           1240      0.6468493        -0.0317
      3015.0000        43.3663         2.3069          46.95         0.4167         0.4565        30.7129          0.868          -42.8      -15.57689           1250      0.7171482        -0.0198
      3015.5000        44.2574         2.2772          50.55         0.4037         0.4422        30.5347         0.8959            -40      -12.80254           1250       0.774947        -0.0158
      3016.0000        42.4752         2.2772           53.4         0.3982         0.4422        30.3564         0.8919       -37.2277      -10.05589           1250      0.8321689        -0.0119
      3016.5000          40.98         2.2871           56.7         0.4074         0.4565        30.2376          0.864       -35.0495      -7.903351           1250      0.8770135        -0.0099
      3017.0000           41.1         2.2772           59.1         0.4244         0.4691        30.0594          0.864       -34.6535      -7.533005           1250      0.8847291        -0.0059
      3017.5000        42.6535         2.2772          59.85         0.4381         0.4821           29.7         0.8719       -35.6436      -8.548761           1250      0.8635675        -0.0139
      3018.0000          41.22          2.297           57.6         0.4523         0.4955          29.28         0.9041       -36.2376      -9.168415           1240       0.850658        -0.0238
      3018.5000          37.32         2.3069           57.9          0.467         0.5046          28.86         0.9166       -36.6337      -9.590172           1230      0.8418714        -0.0257
      3019.0000        34.2772          2.297           61.5         0.4777         0.5139          28.56         0.9166       -37.2277      -10.20983           1230       0.828962        -0.0218
      3019.5000        32.6733          2.297          64.05         0.4955         0.5257          28.14         0.9379       -38.2178      -11.22558           1240      0.8078004        -0.0158
      3020.0000        32.7327         2.3267          61.05         0.5115         0.5354          27.84         0.9729        -39.802      -12.83543           1230      0.7742618        -0.0099
