#------------------------------------------------------------------------------
# Created by    : vladimir.rabinovich
# Created on    : 09/19/2023 17:22:41
#------------------------------------------------------------------------------
~Version Information Section
VERS.           2.0     :   CWLS log ASCII Standard - VERSION 2.0
WRAP.           NO      :   One line per depth step
~Well Information Section
#MNEM       .UNIT                                         VALUE :DESCRIPTION
#------------------------------------------------------------------------------
STRT        .FT                                            4470 :START DEPTH
STOP        .FT                                            9513 :STOP DEPTH
STEP        .FT                                             0.5 :STEP      
NULL        .                                           -999.25 :NULL      
COMP        .                 FAIRWAYS SPEC SALES & SERVICE INC :COMPANY   
WELL        .                               OCS G11315 ST00BP00 :WELL      
FLD         .                              GALVESTON BLOCK 0319 :FIELD     
LOC         .                                                   :LOCATION  
CNTY        .                             GALVESTON LARGE BLOCK :LOCATION  
STAT        .                                             TEXAS :STATE     
CTRY        .                                     UNITED STATES :COUNTRY   
SRVC        .                                                   :SERVICE COMPANY
DATE        .                             9/13/2023 11:19:34 AM :LOG DATE  
API         .                                    42706402650000 :API NUMBER
UWI         .                                    42706402650000 :UNIQUE WELL ID
XCOORD      .                                  1065572.18570413 :SURFACE X 
YCOORD      .                                  10465680.9820926 :SURFACE Y 
LAT         .                                         28.826802 :LATITUDE  
LON         .                                        -94.795723 :LONGITUDE 
ELEV        .FT                                              86 :ELEVATION VALUE
ELEV_TYPE   .                                                KB :ELEVATION REFERENCE TYPE
~Curve Information Section
#MNEM       .UNIT                                      API CODE :CURVE DESCRIPTION
#------------------------------------------------------------------------------
DEPT        .FT                                                 :DEPTH     
DCAL        .IN                                                 :          
DPHI        .%                                                  :          
DRHO        .G/C3                                               :          
GR          .GAPI                                               :          
GR_NORM     .GAPI                                               :GammaRay Normalized
ILD         .OHMM                                               :          
ILM         .OHMM                                               :          
NPHI        .%                                                  :          
SFL         .OHMM                                               :          
SP          .MV                                                 :          
SP_NORM     .MV                                                 :SP Normalized
VSH_GR      .V/V                                                :Volume of Shale from GR
VSH_SP      .V/V                                                :Volume of Shale from SP
~A        DEPTH           DCAL           DPHI           DRHO             GR        GR_NORM            ILD            ILM           NPHI            SFL             SP        SP_NORM         VSH_GR         VSH_SP
# ...
      7852.0000         2.2383        14.5055        -0.0034        96.3444       89.00027         0.9459         0.9302        34.3276         0.9353        -34.381     -0.5504837              1       0.991531
      7852.5000         2.4024        14.1876        -0.0028        95.0262       87.59615         0.9684         0.9551        33.3873         0.9736       -34.8601      -1.028427              1      0.9841781
      7853.0000         2.5113        13.7501        -0.0028        94.7749       87.33006          0.989         0.9751         33.151         1.0027       -35.3392      -1.506374              1       0.976825
      7853.5000         2.4724        13.3055         -0.003        95.3833       87.98098           1.01         0.9952        32.7399         1.0204       -35.8242      -1.990219              1      0.9693813
      7854.0000         2.3617        12.8497        -0.0032         96.032       88.67488         1.0123         1.0157        32.3434         1.0348       -36.3441      -2.508965              1      0.9614006
      7854.5000         2.4987         12.868        -0.0034        96.6963       89.38542         1.0085         1.0222        32.1283         1.0112       -36.8635      -3.027206              1      0.9534276
      7855.0000         2.4738        13.3732        -0.0034        97.5156       90.26131         1.0047         1.0216        32.8423         0.9882       -36.7385      -2.901054              1      0.9553684
      7855.5000         2.4286        13.7661        -0.0033         98.436       91.24502         0.9929         1.0211        33.5674         0.9657       -36.4086          -2.57              1      0.9604616
      7856.0000          2.242        13.8959        -0.0032        98.9631       91.80922         0.9786         1.0195        34.2897         0.9437       -35.8473      -2.007545              1      0.9691147
      7856.5000         2.1001         13.978        -0.0031        97.3186       90.05705         0.9756         1.0124        34.5487         0.9282       -35.2082      -1.367287              1      0.9789648
      7857.0000         2.0828        13.8985         -0.003        94.5588       87.11523         0.9842         1.0053        34.5765         0.9189       -34.6658     -0.8237343              1      0.9873272
      7857.5000         2.1278        13.8858        -0.0028        92.4186        84.8343         0.9964         1.0053        34.2367         0.9424       -34.6809     -0.8376808              1      0.9871126
      7858.0000          2.182        13.8934        -0.0027         90.998       83.32095         1.0075         1.0139        33.6311         0.9728        -34.696     -0.8516235              1      0.9868981
      7858.5000         2.2625          13.67        -0.0026        90.6415       82.94265         1.0158         1.0226        33.0674           1.01       -34.7787     -0.9331741              1      0.9856434
      7859.0000         2.3591        13.2338        -0.0027        89.4645       81.68913         1.0224         1.0253        33.2422         1.0424       -34.9065      -1.059818              1      0.9836951
      7859.5000         2.5119        12.4951        -0.0028        87.1405       79.21217         1.0131         1.0248        33.9626         1.0732       -35.0344      -1.186562      0.9832376      0.9817452
      7860.0000           2.62        12.4863        -0.0029        84.4148       76.30671         1.0039         1.0239        34.6096         1.0906       -34.9739      -1.124905      0.9214193      0.9826938
      7860.5000         2.4971        12.9429         -0.003        84.6879       76.59997          0.991         1.0153        34.9888          1.088       -34.8675      -1.017353      0.9276589      0.9843484
      7861.0000         2.2872        13.3075        -0.0035        87.3873       79.48129         0.9757         1.0027        34.3865         1.0522       -34.9108      -1.059498      0.9889637         0.9837
      7861.5000         2.0874        13.6155        -0.0043        90.4071       82.70438         0.9607         0.9918        34.9077         1.0497       -35.5056      -1.653141              1      0.9745671
      7862.0000         1.8879        13.7761        -0.0051        92.2388       84.66013         0.9466         0.9865        36.1348         1.0582       -36.3082      -2.454586              1      0.9622371
      7862.5000         1.9175        13.7838        -0.0049        91.3945       83.76151         0.9339         0.9856        37.6695         1.0861       -37.7144      -3.859634              1       0.940621
      7863.0000          2.011        13.2433        -0.0038         88.527       80.70481         0.9214          0.987        38.0543         1.0806        -38.706      -4.850079              1      0.9253834
      7863.5000         2.0087        12.5708        -0.0028        83.8475       75.71531          0.909         0.9862         36.487         1.0559       -39.6858       -5.82872      0.9088364      0.9103274
      7864.0000         1.9203        12.4847        -0.0018        80.4916       72.13763         0.8999         0.9841        33.8064         1.0153        -40.962      -7.103767      0.8327155      0.8907112
      7864.5000          1.793        13.9924        -0.0006        79.1865       70.74748         0.8913         0.9811        31.3012         1.0023         -42.77      -8.910614      0.8031379      0.8629136
      7865.0000         1.6439        15.6737         0.0005        81.0378       72.72417         0.8828         0.9738         31.145         0.9975       -45.0585      -11.19796      0.8451952      0.8277237
      7865.5000         1.4909        16.6466         0.0017        83.4038       75.24986         0.8749         0.9658         32.447         0.9812       -47.3903       -13.5286      0.8989331      0.7918677
      7866.0000            1.4        16.8259         0.0028        85.4493       77.43369         0.8673         0.9552        32.7379         0.9817       -49.3066      -15.44374      0.9453976      0.7624039
      7866.5000         1.3293        15.7693         0.0037        86.9147       78.99873         0.8599         0.9453        32.8139         0.9986       -50.6251      -16.76109      0.9786965       0.742137
      7867.0000         1.3484        15.0753         0.0046         84.567       76.49648         0.8575          0.938        32.7734         0.9845       -50.5789      -16.71374      0.9254569      0.7428656
      7867.5000          1.475        14.8397         0.0053        81.6102       73.34451         0.8564         0.9308        32.7222         0.9412       -49.4957      -15.62938      0.8583939      0.7595479
      7868.0000         1.7421        14.8583         0.0054        81.0798       72.78072          0.855         0.9247        32.1012         0.9334       -48.1663      -14.29883      0.8463984       0.780018
      7868.5000         1.8641        14.8234         0.0054         84.525       76.45755         0.8523           0.92        31.2327         0.9984       -46.5612      -12.69257      0.9246287      0.8047296
      7869.0000         1.6163        14.5764         0.0053        88.6688       80.87956         0.8496         0.9153        32.2159         1.0121       -45.2899      -11.42012              1      0.8243058
      7869.5000          1.547        13.7501         0.0045        91.6991       84.11385         0.8466         0.9127         33.663         0.9925       -44.3721      -10.50116              1      0.8384436
      7870.0000         1.7001        13.1995         0.0037         91.799       84.22237         0.8424         0.9103        35.2758         0.9398       -43.8871      -10.01501              1      0.8459229
      7870.5000         1.7988        14.2904         0.0029        88.1962       80.38132         0.8383         0.9079        35.5212         0.9207       -43.5085      -9.635254              1      0.8517653
