#------------------------------------------------------------------------------
# Created by    : vladimir.rabinovich
# Created on    : 09/19/2023 17:21:39
#------------------------------------------------------------------------------
~Version Information Section
VERS.           2.0     :   CWLS log ASCII Standard - VERSION 2.0
WRAP.           NO      :   One line per depth step
~Well Information Section
#MNEM       .UNIT                                         VALUE :DESCRIPTION
#------------------------------------------------------------------------------
STRT        .FT                                             930 :START DEPTH
STOP        .FT                                           10010 :STOP DEPTH
STEP        .FT                                             0.5 :STEP      
NULL        .                                           -999.25 :NULL      
COMP        .                 FAIRWAYS SPEC SALES & SERVICE INC :COMPANY   
WELL        .                               OCS G02357 ST00BP00 :WELL      
FLD         .                            HIGH ISLAND BLOCK 0154 :FIELD     
LOC         .                                                   :LOCATION  
CNTY        .                           HIGH ISLAND LARGE BLOCK :LOCATION  
STAT        .                                             TEXAS :STATE     
CTRY        .                                     UNITED STATES :COUNTRY   
SRVC        .                                                   :SERVICE COMPANY
DATE        .                             9/13/2023 11:20:04 AM :LOG DATE  
API         .                                    42708400540000 :API NUMBER
UWI         .                                    42708400540000 :UNIQUE WELL ID
XCOORD      .                                  1183911.52517142 :SURFACE X 
YCOORD      .                                  10615048.6542629 :SURFACE Y 
LAT         .                                         29.242029 :LATITUDE  
LON         .                                        -94.431816 :LONGITUDE 
ELEV        .FT                                              73 :ELEVATION VALUE
ELEV_TYPE   .                                                KB :ELEVATION REFERENCE TYPE
~Curve Information Section
#MNEM       .UNIT                                      API CODE :CURVE DESCRIPTION
#------------------------------------------------------------------------------
DEPT        .FT                                                 :DEPTH     
CALI        .IN                                                 :          
DRHO        .G/C3                                               :          
DT          .US/F                                               :          
GR          .GAPI                                               :          
GR_1        .GAPI                                               :          
GR_NORM     .GAPI                                               :GammaRay Normalized
ILD         .OHMM                                               :          
NPHI        .%                                                  :          
RHOB        .G/C3                                               :          
SFL         .OHMM                                               :          
SP          .MV                                                 :          
SP_NORM     .MV                                                 :SP Normalized
VSH_GR      .V/V                                                :Volume of Shale from GR
VSH_SP      .V/V                                                :Volume of Shale from SP
~A        DEPTH           CALI           DRHO             DT             GR           GR_1        GR_NORM            ILD           NPHI           RHOB            SFL             SP        SP_NORM         VSH_GR         VSH_SP
# ...
      2118.0000        -999.25        -999.25        -999.25        -999.25        62.4418       77.30908         0.5845        -999.25        -999.25         0.6054        28.7027      -10.99629      0.9427464      0.5296302
      2118.5000        -999.25        -999.25        -999.25        -999.25        62.7014        77.6639         0.5669        -999.25        -999.25         0.6302        28.8356      -10.85679      0.9502958      0.5378361
      2119.0000        -999.25        -999.25        -999.25        -999.25        63.1957       78.34071         0.5499        -999.25        -999.25         0.6156        29.6496      -10.03618      0.9646959      0.5861068
      2119.5000        -999.25        -999.25        -999.25        -999.25        63.6982       79.02876         0.5333        -999.25        -999.25         0.5942        29.4741      -10.20508      0.9793352      0.5761718
      2120.0000        -999.25        -999.25        -999.25        -999.25        64.3135       79.87151         0.5063        -999.25        -999.25         0.5748        26.6705      -13.00208      0.9972662      0.4116423
      2120.5000        -999.25        -999.25        -999.25        -999.25        64.2288       79.75407         0.4784        -999.25        -999.25         0.5497        25.9068      -13.75918      0.9947675      0.3671072
      2121.0000        -999.25        -999.25        -999.25        -999.25        61.7603       76.36668         0.4549        -999.25        -999.25         0.5201        25.7081      -13.95128      0.9226952      0.3558071
      2121.5000        -999.25        -999.25        -999.25        -999.25        59.2553       72.92918         0.4449        -999.25        -999.25         0.5063        25.4897      -14.16307      0.8495571      0.3433486
      2122.0000        -999.25        -999.25        -999.25        -999.25        56.9919       69.82314         0.4381        -999.25        -999.25         0.5202        24.3723      -15.27387      0.7834711      0.2780075
      2122.5000        -999.25        -999.25        -999.25        -999.25        56.6693       69.37936         0.4532        -999.25        -999.25          0.537        23.7519      -15.88767      0.7740288      0.2419016
      2123.0000        -999.25        -999.25        -999.25        -999.25        58.5352       71.93762         0.4688        -999.25        -999.25          0.554        24.7768      -14.85617        0.82846      0.3025783
      2123.5000        -999.25        -999.25        -999.25        -999.25        60.3987        74.4926         0.4998        -999.25        -999.25         0.5777        26.5012      -13.12517      0.8828213      0.4044018
      2124.0000        -999.25        -999.25        -999.25        -999.25        61.8616       76.49809         0.5336        -999.25        -999.25         0.6034        28.4555      -11.16427      0.9254912       0.519749
      2124.5000        -999.25        -999.25        -999.25        -999.25        63.3246       78.50368         0.5682        -999.25        -999.25         0.6264        30.5303      -9.082863      0.9681634      0.6421846
      2125.0000        -999.25        -999.25        -999.25        -999.25        64.3131       79.85838         0.5917        -999.25        -999.25         0.6238        32.4358      -7.170765      0.9969867      0.7546609
      2125.5000        -999.25        -999.25        -999.25        -999.25         64.761       80.47152         0.6131        -999.25        -999.25         0.6234        33.7546       -5.84536              1      0.8326259
      2126.0000        -999.25        -999.25        -999.25        -999.25        64.7379       80.43858         0.6273        -999.25        -999.25         0.6349        34.2328      -5.360561              1      0.8611435
      2126.5000        -999.25        -999.25        -999.25        -999.25        64.8976       80.65638           0.64        -999.25        -999.25         0.6493        34.2489      -5.337856              1       0.862479
      2127.0000        -999.25        -999.25        -999.25        -999.25        65.2008       81.07103         0.6489        -999.25        -999.25         0.6503        34.2679      -5.312256              1      0.8639849
      2127.5000        -999.25        -999.25        -999.25        -999.25        66.1058        82.3112         0.6341        -999.25        -999.25          0.633        34.6081      -4.965454              1       0.884385
      2128.0000        -999.25        -999.25        -999.25        -999.25        67.6343       84.40665         0.6196        -999.25        -999.25         0.6251        34.2578      -5.309151              1      0.8641676
      2128.5000        -999.25        -999.25        -999.25        -999.25         70.015        87.6711         0.6169        -999.25        -999.25         0.6172         33.723      -5.837353              1      0.8330969
      2129.0000        -999.25        -999.25        -999.25        -999.25        71.8433        90.1778         0.6142        -999.25        -999.25         0.6202        33.8272      -5.726547              1      0.8396149
      2129.5000        -999.25        -999.25        -999.25        -999.25        70.2067       87.93154         0.6124        -999.25        -999.25         0.6323        33.9933      -5.553844              1      0.8497739
      2130.0000        -999.25        -999.25        -999.25        -999.25        68.9211       86.16677         0.6125        -999.25        -999.25         0.6392        33.6429      -5.897648              1      0.8295501
      2130.5000        -999.25        -999.25        -999.25        -999.25        70.5862       88.44961         0.6126        -999.25        -999.25          0.639        33.0087      -6.525242              1      0.7926328
      2131.0000        -999.25        -999.25        -999.25        -999.25        71.4558        89.6412         0.6106        -999.25        -999.25         0.6288        32.1948      -7.332542              1      0.7451445
      2131.5000        -999.25        -999.25        -999.25        -999.25        71.4825       89.67658         0.5964        -999.25        -999.25          0.617        31.8607       -7.66004              1        0.72588
      2132.0000        -999.25        -999.25        -999.25        -999.25        71.9174       90.27189         0.5826        -999.25        -999.25         0.6032         32.989      -6.525143              1      0.7926387
      2132.5000        -999.25        -999.25        -999.25        -999.25         71.512       89.71452         0.5694        -999.25        -999.25         0.5864        34.5458      -4.961739              1      0.8846036
      2133.0000        -999.25        -999.25        -999.25        -999.25        70.1147       87.79653         0.5575        -999.25        -999.25         0.5736        35.1183      -4.382633              1      0.9186686
      2133.5000        -999.25        -999.25        -999.25        -999.25        69.5341       86.99885         0.5458        -999.25        -999.25         0.5708         36.562      -2.932335              1              1
      2134.0000        -999.25        -999.25        -999.25        -999.25        68.8411       86.04697         0.5543        -999.25        -999.25          0.568        38.4841      -1.003632              1              1
      2134.5000        -999.25        -999.25        -999.25        -999.25        67.9912       84.87986         0.5674        -999.25        -999.25         0.5775        38.0098      -1.471333              1              1
      2135.0000        -999.25        -999.25        -999.25        -999.25        67.1185       83.68149         0.5836        -999.25        -999.25         0.5887        37.5795      -1.895031              1              1
      2135.5000        -999.25        -999.25        -999.25        -999.25        66.7579       83.18558         0.6093        -999.25        -999.25         0.6187        37.9393      -1.528625              1              1
