#------------------------------------------------------------------------------
# Created by    : vladimir.rabinovich
# Created on    : 09/19/2023 17:21:04
#------------------------------------------------------------------------------
~Version Information Section
VERS.           2.0     :   CWLS log ASCII Standard - VERSION 2.0
WRAP.           NO      :   One line per depth step
~Well Information Section
#MNEM       .UNIT                                         VALUE :DESCRIPTION
#------------------------------------------------------------------------------
STRT        .FT                                            4500 :START DEPTH
STOP        .FT                                           11014 :STOP DEPTH
STEP        .FT                                             0.5 :STEP      
NULL        .                                           -999.25 :NULL      
COMP        .                              FIELDWOOD ENERGY LLC :COMPANY   
WELL        .                               OCS G06156 ST00BP00 :WELL      
FLD         .                            HIGH ISLAND BLOCK 0116 :FIELD     
LOC         .                                                   :LOCATION  
CNTY        .                           HIGH ISLAND LARGE BLOCK :LOCATION  
STAT        .                                             TEXAS :STATE     
CTRY        .                                     UNITED STATES :COUNTRY   
SRVC        .                                                   :SERVICE COMPANY
DATE        .                             9/13/2023 11:19:57 AM :LOG DATE  
API         .                                    42708404240000 :API NUMBER
UWI         .                                    42708404240000 :UNIQUE WELL ID
XCOORD      .                                  1333979.30181128 :SURFACE X 
YCOORD      .                                  10635798.2403082 :SURFACE Y 
LAT         .                                         29.303317 :LATITUDE  
LON         .                                        -93.961735 :LONGITUDE 
ELEV        .FT                                             101 :ELEVATION VALUE
ELEV_TYPE   .                                                KB :ELEVATION REFERENCE TYPE
~Curve Information Section
#MNEM       .UNIT                                      API CODE :CURVE DESCRIPTION
#------------------------------------------------------------------------------
DEPT        .FT                                                 :DEPTH     
AT10        .OHMM                                               :          
AT20        .OHMM                                               :          
AT30        .OHMM                                               :          
AT60        .OHMM                                               :          
AT90        .OHMM                                               :          
CALI        .IN                                                 :          
DCAL        .IN                                                 :          
DPHI        .DEC                                                :          
DRHO        .G/C3                                               :          
DT2R        .US/F                                               :          
DT4P        .US/F                                               :          
GR          .GAPI                                               :          
GR_NORM     .GAPI                                               :GammaRay Normalized
NPOR        .DEC                                                :          
SP          .MV                                                 :          
SP_NORM     .MV                                                 :SP Normalized
TENS        .LBF                                                :          
VSH_GR      .V/V                                                :Volume of Shale from GR
VSH_SP      .V/V                                                :Volume of Shale from SP
~A        DEPTH           AT10           AT20           AT30           AT60           AT90           CALI           DCAL           DPHI           DRHO           DT2R           DT4P             GR        GR_NORM           NPOR             SP        SP_NORM           TENS         VSH_GR         VSH_SP
# ...
      7443.0000         0.8134         0.8643         0.8379         0.8235         0.8302        11.9339        -999.25         0.2277        -0.0191       269.3306       110.5488        75.7114       84.15437        -999.25       -36.7535      -6.839013        3459.98              1      0.9022998
      7443.5000         0.8088         0.8594         0.8257         0.8094         0.8248        11.9238        -999.25         0.2313        -0.0151       273.3267       111.2487        74.0079       82.17374        -999.25       -36.3533      -6.157118       3460.477              1      0.9120412
      7444.0000         0.8053         0.8483         0.8137         0.8034         0.8206        11.9839        -999.25         0.2266        -0.0082        271.728       111.2487        74.3086       82.52359        -999.25       -35.2498      -4.278648       3450.996              1      0.9388765
      7444.5000         0.8077         0.8341         0.8154          0.802         0.8199        12.1343        -999.25         0.2188        -0.0002       271.3262       111.3483        74.9095        83.2225        -999.25       -34.4485      -2.914332       3461.477              1      0.9583667
      7445.0000         0.8103         0.8201          0.825         0.8005         0.8228        12.0641        -999.25         0.2153         0.0047       276.9243       111.5483        76.5131       85.08734        -999.25       -34.2485       -2.57306       3432.047              1       0.963242
      7445.5000         0.8152         0.8262          0.842         0.8054          0.827        11.9239        -999.25         0.2189         0.0076       279.3188        111.248        77.3146       86.01952        -999.25       -34.6493      -3.253982       3472.453              1      0.9535146
      7446.0000         0.8201         0.8324         0.8525         0.8109         0.8318        11.8437        -999.25         0.2231         0.0046       277.7222       110.5491        76.6127       85.20355        -999.25       -34.9499       -3.76443       3443.012              1      0.9462224
      7446.5000         0.8225         0.8421         0.8593         0.8113         0.8337        11.8837        -999.25         0.2243         0.0026       273.3271       110.0499        75.2102       83.57292        -999.25         -35.05      -3.933741       3413.566              1      0.9438037
      7447.0000          0.824         0.8455         0.8573         0.8154         0.8341         11.984        -999.25         0.2214         0.0005       271.3286         109.95        73.0065       81.01068        -999.25       -35.2505      -4.273878       3404.074              1      0.9389446
      7447.5000         0.8249         0.8396         0.8485         0.8335         0.8317        12.1844        -999.25         0.2148        -0.0015       272.9268         109.95        68.7979       76.11715        -999.25       -35.8521      -5.296441       3424.551      0.9173862      0.9243366
      7448.0000         0.8232          0.838         0.8399         0.8341         0.8286        12.2646        -999.25         0.2071        -0.0046       271.3286       109.7502        67.1943       74.25269        -999.25       -36.1523      -5.806208       3435.027      0.8777167      0.9170542
      7448.5000         0.8216         0.8428         0.8357         0.8303         0.8242        12.4449        -999.25         0.1993        -0.0086        269.731       109.6503        67.1946       74.25323        -999.25       -35.8517      -5.293774       3415.566      0.8777284      0.9243746
      7449.0000         0.8193         0.8334         0.8318         0.8209         0.8207         12.505        -999.25         0.1939        -0.0117       267.3306        108.849         70.601       78.21436        -999.25       -35.3506      -4.440217       3416.066      0.9620076      0.9365683
      7449.5000         0.8181         0.8334          0.842         0.8099         0.8275        12.5751        -999.25         0.1886        -0.0097        264.936       107.2526        73.2062       81.24386        -999.25       -34.7495      -3.416521       3436.523              1      0.9511926
      7450.0000         0.8175         0.8471         0.8616         0.8016         0.8477        12.6052        -999.25         0.1808        -0.0088       261.7383       106.5537        74.8083       83.10696        -999.25        -34.048      -2.222004       3437.023              1      0.9682571
      7450.5000         0.8227         0.8859         0.8873         0.8212         0.8716        12.6453        -999.25         0.1773        -0.0078       258.1426       105.8541         76.012       84.50681        -999.25       -33.4468      -1.198136       3437.523              1      0.9828838
      7451.0000         0.8289         0.9282         0.9175         0.8414         0.8981        12.7154        -999.25         0.1761        -0.0039       255.3462       105.2546        75.6112       84.04095        -999.25       -33.0461     -0.5153967       3477.941              1      0.9926372
      7451.5000         0.8519         0.9686         0.9468         0.8846         0.9299        12.7555        -999.25         0.1761        -0.0039       254.1458        104.955        74.1084        82.2937        -999.25       -33.0461     -0.5144036       3458.484              1      0.9926514
      7452.0000         0.8861         1.0101         0.9746         0.9325         0.9676        12.7736        -999.25         0.1754        -0.0068       254.5474       105.3546        71.0803       78.77285        -999.25       -33.1462     -0.6837156       3417.199      0.9738904      0.9902326
      7452.5000         0.9209         1.0461         0.9988         0.9644          1.003        12.7931        -999.25         0.1754        -0.0098        256.542       105.3546        68.9736       76.32339        -999.25       -33.4468      -1.194164        3387.18      0.9217743      0.9829405
      7453.0000         0.9471         1.0653         1.0192          0.997         1.0165        12.8127        -999.25         0.1784        -0.0118        258.541       105.3546        67.9667       75.15277        -999.25       -34.0478      -2.215702       3437.125      0.8968675      0.9683471
      7453.5000         0.9654         1.0517         1.0292         1.0166         1.0291        12.7119        -999.25          0.182        -0.0148       256.5425       104.1554        69.5634        77.0096        -999.25       -35.0504      -3.920524       3487.023      0.9363744      0.9439925
      7454.0000         0.9665          1.047         1.0336          1.023          1.041        12.5811        -999.25         0.1874        -0.0178       255.7439       102.7571        70.7622       78.40375        -999.25       -35.8517      -5.282854       3477.043      0.9660372      0.9245307
      7454.5000         0.9788         1.0945          1.039         1.0263         1.0607        12.4405        -999.25          0.185        -0.0198        256.541       101.2592        71.2584       78.98092        -999.25       -36.2531      -5.964801       3467.063      0.9783174      0.9147885
      7455.0000          0.989         1.1327         1.0597         1.0426         1.0832        12.3998        -999.25          0.179        -0.0178       256.9414       100.5593        70.7524       78.39274        -999.25       -36.0515      -5.620803       3477.043       0.965803      0.9197028
      7455.5000         0.9866         1.1666         1.0936          1.067         1.0738        12.3994        -999.25         0.1683        -0.0168       256.9429        99.7601        69.7443       77.22072        -999.25       -34.9498       -3.74539       3477.043      0.9408664      0.9464944
      7456.0000         0.9632         1.1052         1.1066         1.0873         1.0423        12.3588        -999.25         0.1587        -0.0128       256.5425        98.1614        68.5375       75.81766        -999.25       -33.8481      -1.869977       3457.117       0.911014       0.973286
