#------------------------------------------------------------------------------
# Created by    : vladimir.rabinovich
# Created on    : 09/19/2023 17:22:16
#------------------------------------------------------------------------------
~Version Information Section
VERS.           2.0     :   CWLS log ASCII Standard - VERSION 2.0
WRAP.           NO      :   One line per depth step
~Well Information Section
#MNEM       .UNIT                                         VALUE :DESCRIPTION
#------------------------------------------------------------------------------
STRT        .FT                                              10 :START DEPTH
STOP        .FT                                            7932 :STOP DEPTH
STEP        .FT                                             0.5 :STEP      
NULL        .                                           -999.25 :NULL      
COMP        .                                       ALLIED CORP :COMPANY   
WELL        .                               OCS G04069 ST00BP00 :WELL      
FLD         .                                           WILDCAT :FIELD     
LOC         .                                                   :LOCATION  
CNTY        .                             GALVESTON LARGE BLOCK :LOCATION  
STAT        .                                             TEXAS :STATE     
CTRY        .                                     UNITED STATES :COUNTRY   
SRVC        .                                                   :SERVICE COMPANY
DATE        .                             9/13/2023 11:18:53 AM :LOG DATE  
API         .                                    42706400790000 :API NUMBER
UWI         .                                    42706400790000 :UNIQUE WELL ID
XCOORD      .                                  993545.470392299 :SURFACE X 
YCOORD      .                                  10396443.6120929 :SURFACE Y 
LAT         .                                         28.633244 :LATITUDE  
LON         .                                        -95.016955 :LONGITUDE 
ELEV        .FT                                              82 :ELEVATION VALUE
ELEV_TYPE   .                                                KB :ELEVATION REFERENCE TYPE
~Curve Information Section
#MNEM       .UNIT                                      API CODE :CURVE DESCRIPTION
#------------------------------------------------------------------------------
DEPT        .FT                                                 :DEPTH     
CALI        .IN                                                 :          
CILD        .MMHO                                               :          
DPHI        .B                                                  :          
DRHO        .G/C3                                               :          
DT          .US/F                                               :          
GR          .GAPI                                               :          
GR_1        .GAPI                                               :          
GR_NORM     .GAPI                                               :GammaRay Normalized
ILD         .OHMM                                               :          
ILM         .OHMM                                               :          
NPHI        .%                                                  :          
SFL         .OHMM                                               :          
SP          .MV                                                 :          
SP_NORM     .MV                                                 :SP Normalized
VSH_GR      .V/V                                                :Volume of Shale from GR
VSH_SP      .V/V                                                :Volume of Shale from SP
~A        DEPTH           CALI           CILD           DPHI           DRHO             DT             GR           GR_1        GR_NORM            ILD            ILM           NPHI            SFL             SP        SP_NORM         VSH_GR         VSH_SP
# ...
      6906.0000        -999.25       1202.555         0.5363        -999.25       115.7456         66.821        65.9912       80.95436         0.8094         0.8364        -999.25         0.9253        -39.494       2.310139              1              1
      6906.5000        -999.25       1202.041         0.5197        -999.25       116.5096        69.2766        64.3923        83.9909         0.8116         0.8405        -999.25         0.9149       -39.7556       2.043915              1              1
      6907.0000        -999.25       1201.529         0.5031        -999.25       116.8579        71.7739        65.2454       87.07955         0.8177         0.8446        -999.25         0.8895       -40.0891       1.705795              1              1
      6907.5000        -999.25       1200.029         0.4865        -999.25       116.5375        71.5869        66.2927       86.81282         0.8262         0.8491        -999.25         0.8997        -40.571       1.219276              1              1
      6908.0000        -999.25       1193.104         0.4782        -999.25       115.7401         69.173        65.8152       83.76247         0.8347         0.8539        -999.25         0.9143        -41.053      0.7326508              1              1
      6908.5000        -999.25       1186.176         0.4701        -999.25       115.0216        67.3771        65.4755       81.48463         0.8443         0.8603        -999.25         0.9143       -40.6432       1.137833              1              1
      6909.0000        -999.25       1179.564          0.482        -999.25       114.7731        67.6569        65.9001       81.80141         0.8566         0.8667        -999.25         0.9122        -39.747       2.029411              1              1
      6909.5000         6.0235       1173.502         0.5084        -999.25       114.1807        68.9462        68.0343       83.38006         0.8692         0.8697        -999.25         0.9083       -39.0049       2.766888              1              1
      6910.0000          6.072       1167.434         0.5348        -999.25       113.3495        64.6122        71.5397        77.9296         0.8717         0.8703        -999.25         0.9459       -38.2881       3.479069      0.9559488              1
      6910.5000         6.0619       1162.723         0.5724        -999.25       112.6769        63.1893        74.4912         76.118         0.8683         0.8646        -999.25         0.9726       -37.8317       3.930851      0.9174044              1
      6911.0000         5.9814       1164.182          0.612        -999.25        113.049        64.5924        73.7306        77.8389          0.865         0.8587        -999.25         0.9438       -37.7238       4.034126      0.9540191              1
      6911.5000         6.0013       1167.633         0.6471        -999.25       114.9805        67.3462        70.7372       81.24818         0.8523         0.8504        -999.25         0.9203       -37.6399       4.113407              1              1
      6912.0000         6.1834       1180.238         0.6525        -999.25       116.0819        68.5037        67.1284       82.66209         0.8379         0.8425        -999.25         0.8974       -37.7526       3.996086              1              1
      6912.5000         6.4141       1192.855          0.658        -999.25       116.6213        68.0587        64.2041       82.07287         0.8238         0.8372        -999.25         0.8968       -37.8654       3.878666              1              1
      6913.0000         6.5861       1205.461         0.6594        -999.25       116.8507        66.7446        63.1739       80.39726         0.8123         0.8319        -999.25         0.9012       -37.9724       3.767044              1              1
      6913.5000         6.7549       1229.314         0.6561        -999.25       117.0144        65.2778        64.3049        78.5308         0.8011         0.8238        -999.25         0.9104        -38.071       3.663826      0.9687404              1
      6914.0000         6.8731       1243.945         0.6529        -999.25       117.1592        65.3773        66.5204        78.6222           0.79         0.8149        -999.25         0.9231       -38.1697       3.560501      0.9706851              1
      6914.5000         6.8896       1254.896         0.6479        -999.25       116.7744        67.5878        69.3809       81.35235         0.7902         0.8068        -999.25         0.9317       -38.3442       3.381382              1              1
      6915.0000         6.9025       1265.848         0.6411        -999.25       115.5596        69.8701        72.4998       84.17226         0.7909         0.7995        -999.25         0.9325       -38.7584       2.962563              1              1
      6915.5000         6.9636       1275.602         0.6344        -999.25       114.5479        68.3373        75.3676       82.22329         0.7911         0.7925        -999.25         0.9298       -39.1911       2.525238              1              1
      6916.0000         7.1396       1282.584         0.6265        -999.25       115.4481         66.365        77.2186       79.72495         0.7912         0.7877        -999.25         0.9004       -39.8093        1.90242      0.9941478              1
      6916.5000         7.7121       1289.566         0.6133        -999.25       116.7604        65.0497        76.8481       78.04784         0.7912         0.7829        -999.25           0.87       -39.8052       1.901901      0.9584646              1
      6917.0000         8.0368       1296.549         0.6002        -999.25       117.8376        64.6381        76.6216       77.50037         0.7818         0.7793        -999.25         0.8352       -39.5122       2.190277      0.9468164              1
      6917.5000         8.0935       1303.529          0.587        -999.25       118.2993        67.6888        76.9155       81.28078          0.772         0.7761        -999.25         0.8059       -38.9267       2.771156              1              1
      6918.0000         8.1139       1310.518         0.5835        -999.25       118.7299         73.655        77.4248       88.70556         0.7616         0.7719        -999.25         0.8071       -38.3578       3.335438              1              1
      6918.5000         8.1144       1317.352          0.585        -999.25       118.7985        75.2008        77.5331       90.60483         0.7501         0.7671        -999.25         0.8083       -37.9362       3.752415              1              1
      6919.0000         8.0969       1322.328         0.6029        -999.25        118.421        73.3221        76.8815       88.22349         0.7394         0.7632        -999.25         0.8143       -37.5181       4.165894              1              1
      6919.5000         8.0937       1327.303         0.6268        -999.25        118.043        67.8418        75.7565       81.34014         0.7349         0.7606        -999.25         0.8234       -37.5118       4.167576              1              1
      6920.0000         8.1193       1332.279         0.6255        -999.25       117.6649        64.7551        73.7723       77.44879         0.7303          0.764        -999.25         0.8319       -37.5056       4.169151      0.9457189              1
      6920.5000         8.1751       1332.953         0.6192        -999.25       117.3005        67.9453        72.6696       81.40357         0.7337         0.7691        -999.25         0.8364       -37.7584       3.911732              1              1
      6921.0000         8.2324       1331.398          0.602        -999.25       116.9807        73.9015        71.9446       88.81585         0.7394         0.7805        -999.25         0.8409       -38.1042       3.561314              1              1
      6921.5000         8.2401       1317.889         0.5849        -999.25       116.5078        78.2701        70.5575       94.24364         0.7517          0.788        -999.25         0.8498       -38.2834       3.377487              1              1
