#------------------------------------------------------------------------------
# Created by    : vladimir.rabinovich
# Created on    : 09/19/2023 17:19:47
#------------------------------------------------------------------------------
~Version Information Section
VERS.           2.0     :   CWLS log ASCII Standard - VERSION 2.0
WRAP.           NO      :   One line per depth step
~Well Information Section
#MNEM       .UNIT                                         VALUE :DESCRIPTION
#------------------------------------------------------------------------------
STRT        .FT                                             970 :START DEPTH
STOP        .FT                                            9511 :STOP DEPTH
STEP        .FT                                             0.5 :STEP      
NULL        .                                           -999.25 :NULL      
COMP        .                                SHELL OFFSHORE INC :COMPANY   
WELL        .                               OCS G06097 ST00BP00 :WELL      
FLD         .                                           WILDCAT :FIELD     
LOC         .                                                   :LOCATION  
CNTY        .                             GALVESTON LARGE BLOCK :LOCATION  
STAT        .                                             TEXAS :STATE     
CTRY        .                                     UNITED STATES :COUNTRY   
SRVC        .                                                   :SERVICE COMPANY
DATE        .                             9/13/2023 11:19:27 AM :LOG DATE  
API         .                                    42706401130000 :API NUMBER
UWI         .                                    42706401130000 :UNIQUE WELL ID
XCOORD      .                                  1026820.46089783 :SURFACE X 
YCOORD      .                                  10482391.3243497 :SURFACE Y 
LAT         .                                         28.871086 :LATITUDE  
LON         .                                        -94.917566 :LONGITUDE 
ELEV        .FT                                             107 :ELEVATION VALUE
ELEV_TYPE   .                                                KB :ELEVATION REFERENCE TYPE
~Curve Information Section
#MNEM       .UNIT                                      API CODE :CURVE DESCRIPTION
#------------------------------------------------------------------------------
DEPT        .FT                                                 :DEPTH     
ASFL        .OHMM                                               :          
CALI        .IN                                                 :          
CILD        .MMHO                                               :          
DT          .US/F                                               :          
GR          .GAPI                                               :          
GR_NORM     .GAPI                                               :GammaRay Normalized
ILD         .OHMM                                               :          
ILM         .OHMM                                               :          
RHOB        .G/C3                                               :          
SP          .MV                                                 :          
SP_NORM     .MV                                                 :SP Normalized
VSH_GR      .V/V                                                :Volume of Shale from GR
VSH_SP      .V/V                                                :Volume of Shale from SP
~A        DEPTH           ASFL           CALI           CILD             DT             GR        GR_NORM            ILD            ILM           RHOB             SP        SP_NORM         VSH_GR         VSH_SP
# ...
      3250.0000          0.628        13.8172       1644.641       134.8123        63.3194       79.69353         0.5984          0.631         2.0311       -83.9186      -2.827942      0.9934793      0.9732922
      3250.5000          0.638          13.93       1607.469       134.0295         62.333       78.22499         0.6045         0.6376         2.0382       -84.1008      -3.008293      0.9622338      0.9674744
      3251.0000         0.6587        14.0619       1568.912       133.4905        61.4948       76.97796         0.6111         0.6428         2.0397       -84.2832      -3.188858      0.9357013      0.9616497
      3251.5000          0.669         14.226       1526.574       134.9521        61.2789       76.66115         0.6178         0.6453         2.0347       -84.4655      -3.369308      0.9289606      0.9558288
      3252.0000          0.665        14.2697       1484.236       136.9775        62.2878       78.17518         0.6244         0.6471         2.0164       -84.6156       -3.51757       0.961174      0.9510461
      3252.5000         0.6611        14.0762        1474.84       138.5569        63.2968       79.68933          0.631         0.6413          2.019       -84.7157      -3.615822        0.99339      0.9478767
      3253.0000         0.6571        13.9547        1470.99       137.8069         64.317       81.22025         0.6376         0.6356         2.0379       -84.8158      -3.714088              1      0.9447068
      3253.5000         0.6531        13.9593       1478.125       137.3774        65.8574       83.52874         0.6443         0.6338         2.0536        -84.916      -3.812439              1      0.9415342
      3254.0000         0.6491        13.9676       1490.662       137.4131        67.3978       85.83722         0.6503         0.6332         2.0531       -85.0161      -3.910698              1      0.9383646
      3254.5000         0.6507        13.9785        1503.16       137.9355         68.939       88.14693         0.6527         0.6329         2.0465       -85.1163      -4.009056              1      0.9351918
      3255.0000         0.6595        13.9341       1501.922       138.5657        70.0784       89.85601          0.655         0.6322         2.0397       -85.1359      -4.026817              1      0.9346188
      3255.5000         0.6683        13.8656       1500.684       138.7402        69.5162       89.02155         0.6574         0.6262         2.0361       -85.1543      -4.043373              1      0.9340847
      3256.0000         0.6799        13.8997       1499.381       138.5588        68.6371       87.71339         0.6597         0.6326         2.0422       -85.1727      -4.059929              1      0.9335507
      3256.5000         0.6954        14.0206       1488.859       137.4224        67.7587        86.4063         0.6621         0.6524         2.0634       -85.1234      -4.008789              1      0.9352003
      3257.0000         0.7109        14.1729       1478.338       135.4409        66.8802       85.09903         0.6628         0.6845         2.1072       -84.9606      -3.844147              1      0.9405114
      3257.5000         0.7213        14.3838       1467.822       130.0278        65.7689       83.44379         0.6629          0.711         2.1222       -84.7975      -3.679207              1       0.945832
      3258.0000         0.7149        14.3433       1457.301       125.5486        64.6351       81.75491         0.6631         0.7166         2.1228       -84.6262      -3.506058              1      0.9514175
      3258.5000          0.705         14.263        1450.32       124.2664         63.502       80.06707         0.6632          0.713         2.1004        -84.439      -3.317024              1      0.9575154
      3259.0000          0.695        14.2237       1447.008       125.4425        62.3688       78.37911         0.6633          0.698         2.0765       -84.2517      -3.127876      0.9655131      0.9636169
      3259.5000         0.6851        14.2224       1443.693       127.7726        60.7324       75.93895         0.6634          0.686         2.0735       -84.1105      -2.984833      0.9135947      0.9682312
      3260.0000         0.6853        14.3112       1440.379       130.4312        58.8111       73.07291         0.6635         0.6752         2.0837       -83.9872      -2.859695      0.8526152      0.9722679
      3260.5000         0.6857        14.5873       1438.654       132.4573        57.3014       70.82214         0.6643         0.6781         2.0964       -83.8639       -2.73455      0.8047265      0.9763048
      3261.0000         0.6999        14.5807       1437.088       129.3091        55.9348       68.78528         0.6657         0.6843         2.1131       -83.7314      -2.600212      0.7613889      0.9806383
      3261.5000         0.7182        14.4826       1435.521       122.2278        55.3478       67.91376         0.6671         0.6927         2.1356        -83.595      -2.461967      0.7428459      0.9850978
      3262.0000          0.723         14.458       1433.955       116.7695         55.803        68.6001         0.6685         0.7002         2.1787       -83.5065      -2.371628      0.7574489       0.988012
      3262.5000         0.7172        14.5643       1432.994       116.5597         56.679       69.91546           0.67         0.7044          2.209       -83.5448      -2.408081      0.7854353      0.9868361
      3263.0000         0.7114        14.7397       1433.336       122.3885        57.5549       71.23066         0.6714         0.7043         2.2026       -83.5831      -2.444542      0.8134183        0.98566
      3263.5000         0.7056        14.7702       1433.678       131.0281        58.4308       72.54587         0.6717         0.7023         2.1539       -83.6215      -2.481094      0.8414015      0.9844808
      3264.0000         0.6991        14.5865       1434.498       135.1167        59.3068       73.86122         0.6691         0.7021         2.1071       -83.6182       -2.47596      0.8693877      0.9846464
      3264.5000         0.6926        14.4546       1439.129       136.8059        60.1827       75.17642         0.6664          0.702         2.0895       -83.5669      -2.422821      0.8973707      0.9863606
      3265.0000          0.686        14.4157        1444.33       135.9358        60.9711       76.36082         0.6638         0.6982         2.0962       -83.5155      -2.369576      0.9225708      0.9880782
      3265.5000         0.6801        14.5497       1455.152       135.1421         61.644       77.37261         0.6611           0.69         2.1178       -83.4642      -2.316437      0.9440981      0.9897923
      3266.0000         0.6779        14.6266       1465.984       134.3696         62.317       78.38451         0.6585         0.6809         2.1327       -83.3647      -2.215088       0.965628      0.9930617
      3266.5000         0.6756        14.6084       1476.814       133.6211        62.9897       79.39597         0.6556         0.6719         2.1343       -83.1129      -1.961449      0.9871483              1
      3267.0000         0.6734        14.6206       1487.637       132.8801        63.6626       80.40774         0.6525         0.6648         2.1375       -82.8612      -1.707901              1              1
      3267.5000         0.6733        14.8576       1498.469       132.3706        63.3922       80.00948         0.6494          0.658         2.1501       -82.6001      -1.444962              1              1
      3268.0000         0.6733        15.2177       1509.732       132.2483        62.2232       78.26797         0.6464         0.6507          2.158        -82.337      -1.180016      0.9631482              1
      3268.5000         0.6684        15.3194       1521.734       131.9839        61.0543       76.52663         0.6433         0.6431         2.1449       -82.0558     -0.8969803      0.9260985              1
