#------------------------------------------------------------------------------
# Created by    : vladimir.rabinovich
# Created on    : 09/19/2023 17:19:40
#------------------------------------------------------------------------------
~Version Information Section
VERS.           2.0     :   CWLS log ASCII Standard - VERSION 2.0
WRAP.           NO      :   One line per depth step
~Well Information Section
#MNEM       .UNIT                                         VALUE :DESCRIPTION
#------------------------------------------------------------------------------
STRT        .FT                                            4790 :START DEPTH
STOP        .FT                                           12963 :STOP DEPTH
STEP        .FT                                             0.5 :STEP      
NULL        .                                           -999.25 :NULL      
COMP        .                         ATLANTIC RICHFIELD CO THE :COMPANY   
WELL        .                               OCS G06150 ST00BP00 :WELL      
FLD         .                                           WILDCAT :FIELD     
LOC         .                                                   :LOCATION  
CNTY        .                           HIGH ISLAND LARGE BLOCK :LOCATION  
STAT        .                                             TEXAS :STATE     
CTRY        .                                     UNITED STATES :COUNTRY   
SRVC        .                                                   :SERVICE COMPANY
DATE        .                             9/13/2023 11:19:59 AM :LOG DATE  
API         .                                    42708402440000 :API NUMBER
UWI         .                                    42708402440000 :UNIQUE WELL ID
XCOORD      .                                  1291497.32246636 :SURFACE X 
YCOORD      .                                   10652058.279547 :SURFACE Y 
LAT         .                                         29.347015 :LATITUDE  
LON         .                                        -94.095521 :LONGITUDE 
ELEV        .FT                                             105 :ELEVATION VALUE
ELEV_TYPE   .                                                KB :ELEVATION REFERENCE TYPE
~Curve Information Section
#MNEM       .UNIT                                      API CODE :CURVE DESCRIPTION
#------------------------------------------------------------------------------
DEPT        .FT                                                 :DEPTH     
ALL         .OHMM                                               :          
CILD        .MMHO                                               :          
GR          .GAPI                                               :          
GR_NORM     .GAPI                                               :GammaRay Normalized
ILD         .OHMM                                               :          
SP          .MV                                                 :          
SP_NORM     .MV                                                 :SP Normalized
VSH_GR      .V/V                                                :Volume of Shale from GR
VSH_SP      .V/V                                                :Volume of Shale from SP
~A        DEPTH            ALL           CILD             GR        GR_NORM            ILD             SP        SP_NORM         VSH_GR         VSH_SP
# ...
      6486.0000         0.7033       5919.313        73.1541       80.06213         0.2949       -58.7053      -18.78111              1      0.7110598
      6486.5000          0.678        5072.43        74.2563        81.5889         0.3202       -53.3065      -13.38375              1      0.7940961
      6487.0000         0.7047        5066.43        75.3599        83.1176         0.3454       -52.0062       -12.0849              1      0.8140785
      6487.5000         0.7384       2502.426        73.8137       80.97581         0.3752       -50.7061      -10.78624              1      0.8340579
      6488.0000         0.7721       2309.445        71.4562       77.71021         0.4222       -49.7304      -9.811981      0.9512811      0.8490465
      6488.5000         0.8079       2116.465        68.9913       74.29585         0.4692       -48.9934      -9.076424       0.878635      0.8603627
      6489.0000         0.8729       1923.488        69.6467        75.2037         0.5162       -48.2573      -8.341766       0.897951      0.8716651
      6489.5000         0.9202        1730.51        70.2595       76.05255         0.5632       -47.5203      -7.606209      0.9160118      0.8829814
      6490.0000         0.9226       1618.781        70.8335       76.84766         0.6005       -46.7601       -6.84745      0.9329289      0.8946546
      6490.5000         0.8705       1576.047        71.4075       77.64275         0.6206       -45.7919      -5.880692      0.9498457      0.9095278
      6491.0000         0.8188       1533.262        71.9814       78.43771         0.6406       -44.8236      -4.913834      0.9667599      0.9244025
      6491.5000         0.7672       1490.525        72.1183       78.62735         0.6607       -43.8554      -3.947075      0.9707947      0.9392757
      6492.0000         0.7364         1446.5        71.1047       77.22331         0.6808       -42.8871      -2.980217      0.9409215      0.9541505
      6492.5000         0.7178       1406.098        69.7854       75.39583         0.6851       -42.9214      -3.015957      0.9020389      0.9536006
      6493.0000         0.6992       1403.641        68.4661       73.56835         0.6827       -43.3505      -3.446499      0.8631564       0.946977
      6493.5000         0.6964       1427.268        67.1467       71.74071         0.6804         -43.78      -3.877438      0.8242704      0.9403471
      6494.0000         0.7045       1450.918        65.9963       70.14719          0.678       -44.2091       -4.30798      0.7903656      0.9337234
      6494.5000         0.7126       1474.543        64.9434       68.68871         0.6757       -44.6387      -4.739021      0.7593343       0.927092
      6495.0000         0.7207       1498.195        63.8917        67.2319         0.6698       -45.0677      -5.169464      0.7283384      0.9204698
      6495.5000         0.7288       1522.143        62.9065        65.8672          0.655       -45.4973      -5.600506      0.6993022      0.9138384
      6496.0000         0.7369        1547.01        62.0729       64.71251         0.6401       -45.9264      -6.031048      0.6747342      0.9072146
      6496.5000          0.745       1571.852        61.2394       63.55795         0.6252        -46.356       -6.46209      0.6501691      0.9005833
      6497.0000         0.7531       1596.695        60.5792       62.64345         0.6104       -47.0893      -7.196831      0.6307117      0.8892795
      6497.5000          0.751       1621.537        61.2678       63.59729         0.5955       -47.8411      -7.950073      0.6510063      0.8776912
      6498.0000          0.744       1647.223        61.9564       64.55113          0.582       -48.5939      -8.704315      0.6713007      0.8660874
      6498.5000         0.7359       1679.236        62.6451       65.50512         0.5782       -49.3466      -9.458458      0.6915983      0.8544853
      6499.0000         0.7274        1711.25        63.3337       66.45897         0.5818       -50.0994       -10.2127       0.711893      0.8428816
      6499.5000         0.7245        1743.24        64.0223       67.41281         0.6014       -50.8522      -10.96694      0.7321874      0.8312778
      6500.0000         0.7433       1772.127        64.7109       68.36665         0.6211       -51.6105      -11.72668       0.752482      0.8195895
      6500.5000         0.7621       1796.598        65.4205       69.34959         0.6405       -52.6453      -12.76293      0.7733955      0.8036473
      6501.0000         0.7809       1821.092        66.1462       70.35483         0.6592       -53.6801      -13.79916      0.7947836      0.7877052
      6501.5000         0.7996       1842.014        66.8718       71.35993         0.6779       -54.7139      -14.83441      0.8161688      0.7717783
      6502.0000         0.8184       1818.486        67.5974       72.36502         0.6967       -54.9119      -15.03385      0.8375536        0.76871
      6502.5000         0.8353       1794.959        68.3231       73.37025         0.7158        -53.717      -13.84039      0.8589416      0.7870709
      6503.0000         0.8515       1771.434        69.0487       74.37535         0.7353       -52.5223      -12.64713      0.8803266      0.8054287
      6503.5000         0.8372       1747.906        69.7743       75.38045         0.7549       -51.3275      -11.45377      0.9017116      0.8237881
      6504.0000         0.8168       1724.379        70.4624       76.33361         0.7561       -50.1327      -10.26042      0.9219917      0.8421474
      6504.5000         0.7964       1700.852         70.963       77.02703          0.745       -48.7123      -8.841457      0.9367453      0.8639776
      6505.0000         0.7817       1677.326        70.9648       77.02953          0.734       -47.2844      -7.415001      0.9367984      0.8859231
      6505.5000         0.7671       1653.773        70.4598          76.33         0.7229       -45.8566      -5.988644      0.9219149       0.907867
      6506.0000         0.7524        1637.73         69.955       75.63076         0.7118       -44.4288      -4.562283      0.9070374      0.9298111
      6506.5000         0.7378       1624.986         69.418        74.8869         0.7007       -43.0009      -3.135826      0.8912107      0.9517565
      6507.0000         0.7274        1612.23        68.7836       74.00813         0.6896       -42.1437      -2.280067      0.8725135       0.964922
      6507.5000         0.7189       1599.486        68.1492       73.12936         0.6776       -41.5222      -1.660011      0.8538163      0.9744614
      6508.0000         0.7114       1593.891        67.5155       72.25157         0.6645       -40.9008      -1.040051      0.8351398      0.9839993
      6508.5000         0.7112       1589.137        66.8811       71.37281         0.6513       -40.2784     -0.4190903      0.8164428      0.9935524
      6509.0000         0.7111       1584.379        66.2467       70.49403         0.6382       -41.2994      -1.441532      0.7977452      0.9778226
      6509.5000         0.7195       1602.451         65.005       68.77404         0.6251        -43.332      -3.475574      0.7611498      0.9465296
      6510.0000         0.7361       1627.939        63.7314       67.00986          0.612       -45.3628      -5.507816       0.723614      0.9152644
      6510.5000         0.7528       1710.656         62.253       64.96198         0.5988       -47.5452      -7.691658       0.680042      0.8816668
      6511.0000         0.7694       1810.322        60.5539        62.6084         0.5857       -49.8571        -10.005      0.6299659      0.8460769
      6511.5000         0.7861       1987.914        58.8795       60.28903         0.5719        -52.169      -12.31834      0.5806177      0.8104871
      6512.0000         0.8027       2097.309        57.4935       58.36914         0.5509       -56.0937      -16.24448      0.5397691      0.7500849
