#------------------------------------------------------------------------------
# Created by    : vladimir.rabinovich
# Created on    : 09/19/2023 17:21:35
#------------------------------------------------------------------------------
~Version Information Section
VERS.           2.0     :   CWLS log ASCII Standard - VERSION 2.0
WRAP.           NO      :   One line per depth step
~Well Information Section
#MNEM       .UNIT                                         VALUE :DESCRIPTION
#------------------------------------------------------------------------------
STRT        .FT                                            3376 :START DEPTH
STOP        .FT                                            7813 :STOP DEPTH
STEP        .FT                                             0.5 :STEP      
NULL        .                                           -999.25 :NULL      
COMP        .                                MARINER ENERGY INC :COMPANY   
WELL        .                               OCS G27491 ST00BP00 :WELL      
FLD         .                                           WILDCAT :FIELD     
LOC         .                                                   :LOCATION  
CNTY        .                             GALVESTON LARGE BLOCK :LOCATION  
STAT        .                                             TEXAS :STATE     
CTRY        .                                     UNITED STATES :COUNTRY   
SRVC        .                                                   :SERVICE COMPANY
DATE        .                             9/13/2023 11:19:33 AM :LOG DATE  
API         .                                    42706404580000 :API NUMBER
UWI         .                                    42706404580000 :UNIQUE WELL ID
XCOORD      .                                  1038987.60828679 :SURFACE X 
YCOORD      .                                  10490484.8642062 :SURFACE Y 
LAT         .                                         28.893877 :LATITUDE  
LON         .                                         -94.87996 :LONGITUDE 
ELEV        .FT                                             110 :ELEVATION VALUE
ELEV_TYPE   .                                                KB :ELEVATION REFERENCE TYPE
~Curve Information Section
#MNEM       .UNIT                                      API CODE :CURVE DESCRIPTION
#------------------------------------------------------------------------------
DEPT        .FT                                                 :DEPTH     
CALI        .IN                                                 :          
DPSS        .%                                                  :          
DRHO        .G/CM3                                              :          
GR          .GAPI                                               :          
GR_NORM     .GAPI                                               :GammaRay Normalized
M2R1        .OHMM                                               :          
M2R2        .OHMM                                               :          
M2R3        .OHMM                                               :          
M2R6        .OHMM                                               :          
M2R9        .OHMM                                               :          
M2RX        .OHMM                                               :          
NPSS        .%                                                  :Neutron Porosity Sandstone
SP          .MV                                                 :          
SP_NORM     .MV                                                 :SP Normalized
TENS        .LB                                                 :          
VSH_GR      .V/V                                                :Volume of Shale from GR
VSH_SP      .V/V                                                :Volume of Shale from SP
~A        DEPTH           CALI           DPSS           DRHO             GR        GR_NORM           M2R1           M2R2           M2R3           M2R6           M2R9           M2RX           NPSS             SP        SP_NORM           TENS         VSH_GR         VSH_SP
# ...
      4651.0000         11.075        27.3061         0.0717           72.6       74.71375         0.5092         0.4642         0.4556          0.439         0.4349         0.4349        44.1115       -53.0725       -8.76112       -18.7755      0.8875266      0.8591433
      4651.5000         11.035        28.5306         0.0635           73.6       75.90409         0.4908         0.4431         0.4349         0.4229         0.4229         0.4152        42.6924       -53.0796      -8.768223       -17.7551       0.912853      0.8589954
      4652.0000         10.955        29.8776         0.0313             72       73.73984         0.4729         0.4229         0.4152         0.4113         0.4075         0.3962        41.8584       -56.7466      -12.43522       -16.7347      0.8668051      0.7825995
      4652.5000         10.875        31.6723         0.0191           70.2       71.31753         0.4599         0.4113            0.4         0.3962         0.3924         0.3813        41.9724            -62      -17.68862       -15.7143      0.8152665      0.6731537
      4653.0000         10.995         32.148         0.0269           71.4       72.76591         0.4599         0.4152         0.3962         0.3924         0.3887         0.3776        42.3218            -66      -21.68862       -14.6939      0.8460833      0.5898204
      4653.5000         11.115        30.2384         0.0387           72.2        73.6982         0.4862         0.4309         0.4152         0.4075         0.4037         0.3924        42.9082          -66.4      -22.08862       -13.6735      0.8659191       0.581487
      4654.0000         11.235        28.1633         0.0465           71.8       73.08223         0.5139         0.4729         0.4431         0.4309         0.4269         0.4152        44.7997          -61.6      -17.28862       -12.6531      0.8528134      0.6814871
      4654.5000         11.235        26.8163         0.0543           72.6       74.01451         0.5477            0.5         0.4685         0.4556         0.4514          0.439        44.6779       -57.5723      -13.26092       -11.6327      0.8726492      0.7653975
      4655.0000         11.115        26.3265         0.0501           74.6       76.49509         0.5629         0.5092         0.4862         0.4685         0.4642         0.4556        41.7024        -55.958      -11.64662       -10.6122      0.9254274      0.7990287
      4655.5000         10.915        25.7143         0.0419           77.8       80.52395         0.5578         0.5092         0.4862         0.4729         0.4685         0.4642        40.0164       -55.5582      -11.24682        -9.5918              1      0.8073578
      4656.0000         10.835         25.102         0.0337           80.8       84.29474         0.5527         0.5046         0.4817         0.4729         0.4685         0.4599        39.4104       -55.5627      -11.25132        -8.5714              1      0.8072641
      4656.5000         10.755        24.4898         0.0375           83.8       88.06554         0.5428         0.4908         0.4729         0.4642         0.4599         0.4514        38.4444       -55.9702      -11.65882         -7.551              1      0.7987745
      4657.0000         10.755         25.102         0.0493           84.2       88.48175         0.5186         0.4729         0.4599         0.4556         0.4514         0.4431        36.2784       -57.5845      -13.27312        -6.5306              1      0.7651433
      4657.5000         10.755        26.3265         0.0371           82.4       86.05945         0.4954         0.4472          0.439         0.4309         0.4269          0.419        35.7954          -60.4      -16.08862        -5.5102              1       0.706487
      4658.0000         10.915        28.0408         0.0249           77.2       79.25034         0.4729         0.4269          0.419         0.4075         0.4037         0.3962        36.3864          -64.8      -20.48862        -4.4898      0.9840499      0.6148203
      4658.5000         11.115        29.5102         0.0367           71.4       71.66711         0.4556         0.4152            0.4         0.3962         0.3924         0.3849        37.3404          -68.8      -24.48862        -3.4694      0.8227044       0.531487
      4659.0000         11.195        30.2358         0.0405           67.4        66.4063         0.4729         0.4229         0.4037            0.4         0.3962         0.3887        36.7344            -72      -27.68862         -2.449      0.7107723      0.4648204
      4659.5000         11.235        30.2356         0.0403           64.4       62.43571         0.5046         0.4431         0.4229          0.419         0.4152         0.4075        36.0082          -72.8      -28.48862        -1.4286      0.6262918      0.4481536
      4660.0000         11.195        29.6327         0.0401           65.2         63.368         0.5281         0.4599          0.439         0.4349         0.4309         0.4229         35.767          -70.8      -26.48862        -0.4082      0.6461276      0.4898203
      4660.5000         11.155        28.6531          0.032           66.2       64.55833         0.5527         0.4773         0.4556         0.4514         0.4472          0.439        35.7647          -70.8      -26.48862              0      0.6714539      0.4898203
      4661.0000         11.075        27.7959          0.028           66.8        65.2326         0.5892            0.5         0.4862         0.4817         0.4773         0.4685        34.5882          -71.6      -27.28862              0         0.6858      0.4731537
      4661.5000         11.075        27.0612          0.028           67.6       66.16489         0.6165         0.5281         0.5139         0.5092         0.5046         0.4954        33.0588          -73.2      -28.88862              0      0.7056359      0.4398204
      4662.0000         11.035        26.3265          0.028           68.6       67.35521         0.6451         0.5527         0.5329         0.5281         0.5233         0.5139        32.8235          -73.2      -28.88862              0      0.7309619      0.4398204
      4662.5000         10.955        25.8367          0.032           68.4       66.99729         0.6629         0.5785         0.5527         0.5477         0.5329         0.5378             34          -71.2      -26.88862              0      0.7233467      0.4814871
      4663.0000         10.915        25.5918          0.036           67.2       65.34911          0.669         0.5838         0.5629         0.5578         0.5477         0.5578        35.6471          -69.6      -25.28862              0       0.688279      0.5148204
      4663.5000         10.915        25.5918          0.036           66.4       64.21705         0.6751         0.5946         0.5785         0.5733         0.5629         0.5629          36.12            -68      -23.68862              0      0.6641925      0.5481537
      4664.0000         10.875        25.2245          0.036           66.6        64.3752         0.6751          0.611         0.5838         0.5785         0.5681         0.5733          36.24          -66.4      -22.08862              0      0.6675574       0.581487
      4664.5000         10.835        24.8571          0.032             68       66.08163          0.669         0.6055         0.5892         0.5838         0.5733         0.5838          36.24          -64.4      -20.08862              0      0.7038644      0.6231537
      4665.0000         10.795        24.3673          0.032           69.6        68.0461         0.6629         0.6055         0.5892         0.5838         0.5733         0.5838          36.24            -62      -17.68862              0      0.7456618      0.6731537
      4665.5000         10.755        24.2449          0.032           70.6       69.23645          0.651            0.6         0.5892         0.5838         0.5733         0.5838          36.24          -60.8      -16.48862              0      0.7709883      0.6981537
