#------------------------------------------------------------------------------
# Created by    : vladimir.rabinovich
# Created on    : 09/19/2023 17:19:43
#------------------------------------------------------------------------------
~Version Information Section
VERS.           2.0     :   CWLS log ASCII Standard - VERSION 2.0
WRAP.           NO      :   One line per depth step
~Well Information Section
#MNEM       .UNIT                                         VALUE :DESCRIPTION
#------------------------------------------------------------------------------
STRT        .FT                                            1054 :START DEPTH
STOP        .FT                                           13910 :STOP DEPTH
STEP        .FT                                             0.5 :STEP      
NULL        .                                           -999.25 :NULL      
COMP        .                                            MTS LP :COMPANY   
WELL        .                                ST TR 00061-L SW/4 :WELL      
FLD         .                                           WILDCAT :FIELD     
LOC         .                                                   :LOCATION  
CNTY        .                           HIGH ISLAND LARGE BLOCK :LOCATION  
STAT        .                                             TEXAS :STATE     
CTRY        .                                     UNITED STATES :COUNTRY   
SRVC        .                                                   :SERVICE COMPANY
DATE        .                             9/13/2023 11:19:15 AM :LOG DATE  
API         .                                    42708302730000 :API NUMBER
UWI         .                                    42708302730000 :UNIQUE WELL ID
XCOORD      .                                  1164861.29381137 :SURFACE X 
YCOORD      .                                   10674042.082625 :SURFACE Y 
LAT         .                                        29.4036169 :LATITUDE  
LON         .                                       -94.4939126 :LONGITUDE 
ELEV        .FT                                              78 :ELEVATION VALUE
ELEV_TYPE   .                                                KB :ELEVATION REFERENCE TYPE
~Curve Information Section
#MNEM       .UNIT                                      API CODE :CURVE DESCRIPTION
#------------------------------------------------------------------------------
DEPT        .FT                                                 :DEPTH     
ASFL        .OHMM                                               :          
CILD        .MMHO                                               :          
ILD         .OHMM                                               :          
SP          .MV                                                 :          
SP_NORM     .MV                                                 :SP Normalized
VSH_SP      .V/V                                                :Volume of Shale from SP
~A        DEPTH           ASFL           CILD            ILD             SP        SP_NORM         VSH_SP
# ...
      1890.0000         1.0766       2423.832         0.4357      -128.3679      -30.18609      0.1415856
      1890.5000         1.0073       2447.066         0.4369      -126.8744      -28.69258      0.1855123
      1891.0000          0.938       2458.289         0.4356      -124.4799      -26.29808      0.2559388
      1891.5000         0.8693       2463.676         0.4344      -122.0349      -23.85308      0.3278506
      1892.0000         0.8475       2465.691         0.4317      -122.5328      -24.35098      0.3132064
      1892.5000         0.8342       2465.086         0.4282      -124.4884      -26.30659      0.2556886
      1893.0000         0.8278       2464.234         0.4248      -127.4061      -29.22428      0.1698741
      1893.5000         0.8336       2458.758         0.4213      -130.0974      -31.91558     0.09071821
      1894.0000         0.8439       2461.879         0.4176      -130.9314      -32.74958     0.06618881
      1894.5000         0.8584       2488.305          0.413       -131.095      -32.91319     0.06137691
      1895.0000         0.8744       2516.184         0.4084      -130.7939      -32.61208     0.07023284
      1895.5000         0.8909       2541.207         0.4038      -130.5215      -32.33968      0.0782446
      1896.0000         0.9059       2563.758         0.3992       -130.366      -32.18418      0.0828182
      1896.5000         0.9188       2594.887         0.4121      -130.2104      -32.02859     0.08739449
      1897.0000         0.8938        2549.09         0.4262      -130.0508      -31.86898     0.09208881
      1897.5000         0.8752       2408.586         0.4403      -129.8599      -31.67808      0.0977036
      1898.0000          0.862       2252.406         0.4603      -129.6687      -31.48689      0.1033269
      1898.5000         0.8562       2118.555          0.496      -129.4045      -31.22268      0.1110977
      1899.0000         0.8611       1986.576         0.5314      -129.0942      -30.91238      0.1202242
      1899.5000         0.8826       1854.596         0.5657      -128.7837      -30.60189      0.1293562
      1900.0000         1.0948       1722.664            0.6      -127.9336      -29.75179      0.1543593
      1900.5000         1.1741       1625.865         0.6159      -124.3562      -26.17439      0.2595769
      1901.0000         1.1946       1575.881          0.625      -122.6899      -24.50809      0.3085857
      1901.5000         1.1704       1598.453         0.6205       -122.467      -24.28519      0.3151416
      1902.0000         1.1294        1620.68         0.6158      -122.2441      -24.06229      0.3216975
      1902.5000         1.0787        1638.67         0.6111      -121.9794      -23.79758      0.3294828
      1903.0000         1.0514       1656.666         0.6214      -121.6965      -23.51469      0.3378033
      1903.5000         1.0291       1553.584          0.639      -121.4314      -23.24958      0.3456006
      1904.0000         1.0116       1472.324         0.6565      -121.1781      -22.99628      0.3530505
      1904.5000         1.0108       1432.953         0.6924      -121.3833      -23.20148      0.3470151
      1905.0000         1.0949       1343.402          0.729      -123.0157      -24.83389      0.2990034
      1905.5000         1.2665       1202.713         0.7656      -125.2393      -27.05749      0.2336033
      1906.0000         1.4394       1166.057         0.8022      -128.4141      -30.23228      0.1402272
      1906.5000         1.6122       1139.098         0.8318      -130.1016      -31.91978      0.0905948
      1907.0000         1.7119       1114.701         0.8551      -131.1941      -33.01229     0.05846203
      1907.5000          1.823       1096.281         0.8783      -132.0574      -33.87559     0.03307096
      1908.0000         1.7547       1098.389         0.8593       -132.457      -34.27518      0.0213181
      1908.5000         1.6696       1133.109         0.8146      -132.6973      -34.51548     0.01425059
      1909.0000         1.5801       1169.029           0.77      -132.8228      -34.64098     0.01055931
      1909.5000         1.4906       1373.744         0.6924      -132.9084      -34.72659    0.008041606
      1910.0000         1.4011       1854.104         0.6089      -132.9944      -34.81258    0.005512238
      1910.5000         1.3115       2277.859         0.5147      -133.0803      -34.89849    0.002985561
      1911.0000         1.2318       2365.813          0.467      -133.1682      -34.98638   0.0004005432
      1911.5000         1.1791       2413.992         0.4378      -133.2573      -35.07548              0
      1912.0000         1.1319       2448.879         0.4269      -133.3464      -35.17617              0
      1912.5000         1.1087       2467.953         0.4168      -133.4138      -35.27744              0
      1913.0000          1.093       2430.625          0.413      -133.3721       -35.2696              0
      1913.5000          1.079       2317.277          0.413      -133.3303      -35.26167              0
      1914.0000         1.0729       2270.672         0.4131      -133.3955      -35.36073              0
      1914.5000         1.1078       2215.379         0.4396      -133.7498       -35.7489              0
      1915.0000         1.2628       2043.084         0.4825      -134.1145      -36.14747              0
      1915.5000         1.3113       1832.436         0.5298      -134.4902      -36.55704              0
      1916.0000         1.3406       1621.785         0.5742      -134.5588      -36.65951              0
      1916.5000         1.3593       1475.188         0.6169      -134.3271      -36.46167              0
      1917.0000         1.3536       1423.408         0.6571      -133.0623      -35.23074              0
      1917.5000         1.3348       1406.414         0.6776      -131.0654       -33.2677     0.05094999
      1918.0000         1.3085       1390.027         0.6981      -127.0627      -29.29887      0.1676804
      1918.5000         1.2821       1381.898         0.7014      -123.0601      -25.33013      0.2844079
      1919.0000         1.2504       1378.596         0.7002      -119.0562       -21.3601      0.4011735
      1919.5000         1.1391       1407.809          0.699      -114.9871      -17.32487      0.5198569
      1920.0000         0.9574       1436.443         0.6913      -110.6718      -13.04343      0.6457813
      1920.5000         0.7875       1464.635         0.6805      -105.3767      -7.782204      0.8005234
      1921.0000          0.772       1498.883         0.6697      -104.2136      -6.652969      0.8337362
      1921.5000         0.7642       1551.447         0.6589      -103.9243       -6.39753      0.8412491
      1922.0000         0.7918       1630.809         0.6482      -105.4985      -8.005592      0.7939532
      1922.5000         0.8404       1652.457         0.6374      -107.1589       -9.69986      0.7441218
      1923.0000         0.9203       1663.215         0.6287      -111.2023      -13.77713      0.6242021
      1923.5000         1.0167       1673.973         0.6205      -113.8086       -16.4173      0.5465501
      1924.0000         1.0387        1683.99         0.6122      -114.9006      -17.54316      0.5134365
      1924.5000          1.059       1693.787          0.604       -115.488      -18.16443      0.4951639
      1925.0000         1.0793       1703.633         0.5969      -116.0739      -18.78419      0.4769354
      1925.5000         1.0996       1714.633         0.5909      -116.9945      -19.73866      0.4488629
      1926.0000         1.1199       1725.637         0.5849      -118.2882      -21.06623      0.4098167
      1926.5000         1.1345        1733.98         0.5788      -119.0913       -21.9032      0.3852001
      1927.0000          1.148       1742.613         0.5761      -119.2993      -22.14507      0.3780863
      1927.5000         1.1615       1754.348         0.5752      -119.2039      -22.08353       0.379896
