#------------------------------------------------------------------------------
# Created by    : vladimir.rabinovich
# Created on    : 09/19/2023 17:22:21
#------------------------------------------------------------------------------
~Version Information Section
VERS.           2.0     :   CWLS log ASCII Standard - VERSION 2.0
WRAP.           NO      :   One line per depth step
~Well Information Section
#MNEM       .UNIT                                         VALUE :DESCRIPTION
#------------------------------------------------------------------------------
STRT        .FT                                            2180 :START DEPTH
STOP        .FT                                            6738 :STOP DEPTH
STEP        .FT                                             0.5 :STEP      
NULL        .                                           -999.25 :NULL      
COMP        .                          SEAGULL ENERGY E & P INC :COMPANY   
WELL        .                               OCS G08131 ST00BP00 :WELL      
FLD         .                              GALVESTON BLOCK 0384 :FIELD     
LOC         .                                                   :LOCATION  
CNTY        .                             GALVESTON LARGE BLOCK :LOCATION  
STAT        .                                             TEXAS :STATE     
CTRY        .                                     UNITED STATES :COUNTRY   
SRVC        .                                                   :SERVICE COMPANY
DATE        .                             9/13/2023 11:19:36 AM :LOG DATE  
API         .                                    42706401890000 :API NUMBER
UWI         .                                    42706401890000 :UNIQUE WELL ID
XCOORD      .                                  986765.057424596 :SURFACE X 
YCOORD      .                                  10402321.6077632 :SURFACE Y 
LAT         .                                          28.64909 :LATITUDE  
LON         .                                        -95.038398 :LONGITUDE 
ELEV        .FT                                             100 :ELEVATION VALUE
ELEV_TYPE   .                                                KB :ELEVATION REFERENCE TYPE
~Curve Information Section
#MNEM       .UNIT                                      API CODE :CURVE DESCRIPTION
#------------------------------------------------------------------------------
DEPT        .FT                                                 :DEPTH     
CALN        .IN                                                 :          
DRHO        .G/CM3                                              :          
GR          .GAPI                                               :          
GR_NORM     .GAPI                                               :GammaRay Normalized
ILD         .OHMM                                               :          
ILM         .OHMM                                               :          
NPSS        .V/V                                                :Neutron Porosity Sandstone
RHOB        .G/CM3                                              :          
SFL         .OHMM                                               :          
SP          .MV                                                 :          
SP_NORM     .MV                                                 :SP Normalized
TENN        .LB                                                 :          
VSH_GR      .V/V                                                :Volume of Shale from GR
VSH_SP      .V/V                                                :Volume of Shale from SP
~A        DEPTH           CALN           DRHO             GR        GR_NORM            ILD            ILM           NPSS           RHOB            SFL             SP        SP_NORM           TENN         VSH_GR         VSH_SP
# ...
      3728.0000          13.14        -0.0012           97.6       82.42892         1.0556         1.0457         0.5112           2.12         1.0074        -7.2549      -5.313152       1812.686              1      0.9240978
      3728.5000          12.98        -0.0031           96.6       81.52811         1.0562         1.0463         0.4794         2.1143         1.0078        -7.2549      -5.313152       1810.781              1      0.9240978
      3729.0000          12.84        -0.0001           96.2       81.16729         1.0567         1.0567         0.4713         2.1105         0.9989        -7.0588      -5.117053       1808.495              1      0.9268993
      3729.5000          12.74         0.0029           95.6       80.62647         1.0571         1.0571          0.469         2.1144         1.0278        -6.8627      -4.920952       1806.589              1      0.9297007
      3730.0000          12.68          0.006             94       79.18566         1.0576         1.0576         0.4633         2.1192         1.0676        -6.6667      -4.724952       1804.684      0.9826736      0.9325007
      3730.5000          12.72          0.009           92.8       78.10484         1.0678         1.0578         0.4575         2.1221         1.0678        -6.2745      -4.332752       1803.922      0.9596775      0.9381036
      3731.0000           12.8          0.005           93.4       78.64404         1.0678         1.0578         0.4581         2.1221         1.0479        -6.2745      -4.332752       1803.922      0.9711497      0.9381036
      3731.5000          12.78          0.005           95.4       80.44321         1.0678         1.0578         0.4777         2.1202         1.0094        -6.2745      -4.332752       1803.922              1      0.9381036
      3732.0000          12.74          0.005           96.8        81.7024         1.0678         1.0578          0.498         2.1202         0.9826        -6.2745      -4.332752       1803.922              1      0.9381036
      3732.5000           12.7          0.023           97.2       82.06158         1.0678         1.0578         0.5064          2.126         0.9913        -6.2745      -4.332752       1803.922              1      0.9381036
      3733.0000          12.68          0.036           97.6       82.42076         1.0678         1.0578         0.4992         2.1365         1.0094        -6.4706      -4.528852       1803.922              1      0.9353021
      3733.5000          12.66          0.045           98.6       83.31995         1.0678         1.0578         0.4932         2.1452         1.0189        -6.6667      -4.724952       1843.137              1      0.9325007
      3734.0000           12.7          0.041             99       83.67913         1.0578         1.0578         0.4914         2.1433         1.0094        -7.0588      -5.117053       1843.137              1      0.9268993
      3734.5000          12.74          0.022           96.8       81.69832         1.0578         1.0578         0.4836         2.1327         1.0094        -7.2549      -5.313152       1843.137              1      0.9240978
      3735.0000          12.78          0.003           95.8        80.7975         1.0578         1.0479         0.4742          2.125         1.0094         -7.451      -5.509253       1882.353              1      0.9212964
      3735.5000           12.8          0.001           96.8       81.69668         1.0578         1.0479         0.4731         2.1288         1.0094         -7.451      -5.509253       1882.353              1      0.9212964
      3736.0000          12.66          0.004           97.6       82.41586         1.0578         1.0479         0.4896         2.1385         1.0189         -7.451      -5.509253       1882.353              1      0.9212964
      3736.5000          12.58          0.011             97       81.87505         1.0479         1.0479         0.5034         2.1471         1.0189        -7.2549      -5.313152       1882.353              1      0.9240978
      3737.0000           12.5          0.011           96.2       81.15423         1.0479         1.0479         0.5106           2.15         1.0189        -7.0588      -5.117053       1882.353              1      0.9268993
      3737.5000          12.48          0.004           95.4       80.43342         1.0479         1.0479         0.5131         2.1433         1.0189        -6.8627      -4.920952       1882.353              1      0.9297007
      3738.0000          12.48              0             95        80.0726         1.0479         1.0479           0.51         2.1346         1.0382        -6.6667      -4.724952       1882.353              1      0.9325007
      3738.5000          12.48         -0.001           94.8       79.89178         1.0382         1.0382         0.4986         2.1288         1.0285        -6.6667      -4.724952       1882.353      0.9976975      0.9325007
      3739.0000          12.48          0.002           94.6       79.71096         1.0382         1.0382         0.4725         2.1298         1.0189        -6.6667      -4.724952       1882.353      0.9938502      0.9325007
      3739.5000          12.44          0.004           94.8       79.89015         1.0382         1.0382         0.4581         2.1298              1        -6.8627      -4.920952       1882.353      0.9976628      0.9297007
      3740.0000          12.46          0.005           95.6       80.60933         1.0382         1.0285         0.4402          2.125         0.9826        -7.0588      -5.117053       1882.353              1      0.9268993
      3740.5000          12.48          0.005           96.6       81.50851         1.0382         1.0285         0.4523         2.1183         0.9826        -6.8627      -4.920952       1882.353              1      0.9297007
      3741.0000           12.5         0.0051           98.6       83.30769         1.0189         1.0189         0.4632         2.1135         0.9826        -6.6667      -4.724952       1882.353              1      0.9325007
      3741.5000           12.5         0.0051       100.5882       85.09626         1.0189         1.0189         0.5004         2.1116              1        -6.4706      -4.528852       1882.353              1      0.9353021
      3742.0000          12.52         0.0102       100.7843       85.27194         1.0284         1.0189         0.5046         2.1193              1        -6.2745      -4.332752       1882.353              1      0.9381036
      3742.5000          12.56         0.0172             96       80.96526         1.0284         1.0189         0.4956          2.129              1        -6.2745      -4.332752       1882.353              1      0.9381036
      3743.0000          12.62         0.0253             92       77.36443         1.0284         1.0188         0.4884         2.1358         0.9913        -6.2745      -4.332752       1882.353      0.9439241      0.9381036
      3743.5000          12.72         0.0153             92       77.36362          1.038         1.0188         0.4806         2.1319         0.9913        -6.2745      -4.332752       1882.353      0.9439067      0.9381036
      3744.0000          12.82         0.0064           95.6        80.6028          1.038         1.0283         0.4765         2.1213         1.0094        -6.2745      -4.332752       1882.353              1      0.9381036
      3744.5000          12.82         0.0014           97.2       82.04198         1.0477         1.0283         0.4788         2.1126         1.0188        -6.2745      -4.332752       1882.353              1      0.9381036
      3745.0000          12.82         0.0105           95.8       80.78117         1.0476         1.0283         0.4854         2.1165         1.0188        -6.2745      -4.332752       1882.353              1      0.9381036
      3745.5000          12.82         0.0185           92.8       78.08035         1.0476         1.0283          0.486         2.1262         1.0093        -6.2745      -4.332752       1882.353      0.9591565      0.9381036
