#------------------------------------------------------------------------------
# Created by    : vladimir.rabinovich
# Created on    : 09/19/2023 17:19:47
#------------------------------------------------------------------------------
~Version Information Section
VERS.           2.0     :   CWLS log ASCII Standard - VERSION 2.0
WRAP.           NO      :   One line per depth step
~Well Information Section
#MNEM       .UNIT                                         VALUE :DESCRIPTION
#------------------------------------------------------------------------------
STRT        .FT                                            2960 :START DEPTH
STOP        .FT                                           11758 :STOP DEPTH
STEP        .FT                                             0.5 :STEP      
NULL        .                                           -999.25 :NULL      
COMP        .                             CHAMPLIN PETROLEUM CO :COMPANY   
WELL        .                               OCS G06095 ST00BP00 :WELL      
FLD         .                                           WILDCAT :FIELD     
LOC         .                                                   :LOCATION  
CNTY        .                             GALVESTON LARGE BLOCK :LOCATION  
STAT        .                                             TEXAS :STATE     
CTRY        .                                     UNITED STATES :COUNTRY   
SRVC        .                                                   :SERVICE COMPANY
DATE        .                             9/13/2023 11:19:27 AM :LOG DATE  
API         .                                    42706401150000 :API NUMBER
UWI         .                                    42706401150000 :UNIQUE WELL ID
XCOORD      .                                  1057213.14222316 :SURFACE X 
YCOORD      .                                  10507856.7651171 :SURFACE Y 
LAT         .                                        28.9424301 :LATITUDE  
LON         .                                       -94.8238502 :LONGITUDE 
ELEV        .FT                                              89 :ELEVATION VALUE
ELEV_TYPE   .                                                KB :ELEVATION REFERENCE TYPE
~Curve Information Section
#MNEM       .UNIT                                      API CODE :CURVE DESCRIPTION
#------------------------------------------------------------------------------
DEPT        .FT                                                 :DEPTH     
ASFL        .OHMM                                               :          
CILD        .MMHO                                               :          
GR          .GAPI                                               :          
GR_NORM     .GAPI                                               :GammaRay Normalized
ILD         .OHMM                                               :          
SP          .MV                                                 :          
SP_NORM     .MV                                                 :SP Normalized
VSH_GR      .V/V                                                :Volume of Shale from GR
VSH_SP      .V/V                                                :Volume of Shale from SP
~A        DEPTH           ASFL           CILD             GR        GR_NORM            ILD             SP        SP_NORM         VSH_GR         VSH_SP
# ...
      9399.5000         0.8537       1451.768        48.6884       71.97942         0.6975        23.6986      -2.884535      0.8293495      0.9833106
      9400.0000         0.8461       1454.887        50.0195       74.55188         0.6983        23.7033      -2.880203      0.8840826      0.9833924
      9400.5000         0.8356       1464.072        50.9064       76.26627         0.6992        23.7081      -2.875973      0.9205589      0.9834722
      9401.0000         0.8143       1489.227        51.2361       76.90439            0.7        23.7223      -2.881144      0.9341359      0.9833747
      9401.5000         0.8065       1499.768        51.5666       77.54404         0.7022        23.7389      -2.888712      0.9477454      0.9832318
      9402.0000         0.8032       1504.049         51.897       78.18349         0.7054        23.7555      -2.896284      0.9613508       0.983089
      9402.5000         0.7999       1495.941        52.1274       78.62981         0.7086        23.7983      -2.930052       0.970847      0.9824519
      9403.0000         0.8066       1486.539        52.0057         78.396         0.7118        23.8511      -2.973824      0.9658724       0.981626
      9403.5000         0.8166       1477.123        51.8837       78.16159         0.7149        23.8678      -2.981493      0.9608849      0.9814813
      9404.0000         0.8267       1467.719        51.7619       77.92758         0.7181        23.8225      -2.927162       0.955906      0.9825064
      9404.5000         0.8348       1462.941         51.025       76.50545         0.7262        23.7773      -2.872932      0.9256478      0.9835296
      9405.0000         0.8329       1459.768        50.2736       75.05528          0.735        23.7063      -2.792904      0.8947933      0.9850395
      9405.5000         0.8207       1466.086        49.5234       73.60744         0.7437        23.5709      -2.648472       0.863988      0.9877647
      9406.0000         0.8085       1486.645        50.6636       75.81113         0.7524        23.4355      -2.504042       0.910875      0.9904898
      9406.5000         0.7963       1511.824        52.2524       78.88133           0.74        23.4549      -2.514412      0.9761986      0.9902941
      9407.0000         0.7841       1539.773        53.8387       81.94674         0.7147        23.6001      -2.650581              1      0.9877249
      9407.5000         0.7719       1567.676        52.6365        79.6258         0.6894        23.7456      -2.787052      0.9920383        0.98515
      9408.0000         0.7597       1595.625        51.1503       76.75626         0.6641        23.8675      -2.899921      0.9309842      0.9830204
      9408.5000         0.7475       1627.365        49.6641       73.88679         0.6374        23.9366      -2.959991      0.8699316       0.981887
      9409.0000         0.7353       1665.215        49.1786       72.95023         0.6097        24.0058      -3.020163       0.850005      0.9807516
      9409.5000         0.7231       1703.066         48.695       72.01734         0.5835         24.075      -3.080332      0.8301562      0.9796164
      9410.0000         0.7115       1740.963        48.9437       72.49902         0.5736        24.1442      -3.140501      0.8404046      0.9784811
      9410.5000         0.7008       1799.326        49.5245       73.62216         0.5638        24.1345      -3.121771      0.8643013      0.9788345
      9411.0000           0.69       1866.689        50.1054        74.7455         0.5539         24.074       -3.05224      0.8882021      0.9801464
      9411.5000         0.6792       1932.916        50.6863       75.86884         0.5451        24.0136      -2.982811      0.9121029      0.9814564
      9412.0000         0.6715       1988.531        51.2672       76.99216          0.541        23.9531       -2.91328      0.9360033      0.9827683
      9412.5000         0.6664        2037.35        51.8469        78.1132          0.537        23.8926       -2.84375      0.9598553      0.9840802
      9413.0000         0.6613       2058.336        52.4277       79.23631          0.533        23.8895      -2.831621      0.9837514       0.984309
      9413.5000         0.6562       2079.297        53.0396       80.41954         0.5289        23.8937       -2.82679              1      0.9844002
      9414.0000         0.6511       2100.281        53.6682       81.63502         0.5249        23.9268      -2.850861              1       0.983946
      9414.5000         0.6469       2121.602        53.8901        82.0649         0.5218        24.0133      -2.928329              1      0.9824843
      9415.0000         0.6431       2143.012        53.5251       81.36112         0.5206        24.0996        -3.0056              1      0.9810264
      9415.5000         0.6392       2156.539        53.1601       80.65733         0.5195        24.1757       -3.07267              1      0.9797609
      9416.0000         0.6369       2162.707        52.5482       79.47663         0.5183        24.1608       -3.04874      0.9888645      0.9802125
      9416.5000         0.6369       2168.879         51.736       77.90903         0.5171        24.1458       -3.02471      0.9555112      0.9806659
      9417.0000         0.6368       2169.824        50.8903       76.27673          0.516        24.1309       -3.00078      0.9207816      0.9811174
      9417.5000         0.6368        2157.98         49.719       74.01549         0.5148        24.1181      -2.978949      0.8726699      0.9815293
      9418.0000         0.6368       2146.117        48.8077       72.25645         0.5136        24.1223      -2.974119      0.8352435      0.9816204
      9418.5000         0.6376       2134.273        48.3574        71.3879          0.512        24.1265      -2.969288      0.8167639      0.9817116
      9419.0000         0.6387       2122.406        47.9078       70.52071         0.5103        24.1307      -2.964458      0.7983131      0.9818026
      9419.5000         0.6398       2110.539        47.4575       69.65215         0.5087        24.2054       -3.03013      0.7798329      0.9805636
      9420.0000         0.6417       2095.449        47.0073       68.78381          0.507        24.3546        -3.1703      0.7613575      0.9779189
      9420.5000         0.6447       2073.188        47.7569       70.23302         0.5053        24.5039       -3.31057      0.7921919      0.9752723
      9421.0000         0.6477       2050.969        48.6204       71.90221         0.5078        24.6389      -3.436539      0.8277067      0.9728955
      9421.5000         0.6506       2028.703        49.4614       73.52798         0.5108        24.5731      -3.361708      0.8622974      0.9743074
      9422.0000         0.6539       2008.713        50.1006       74.76393         0.5137        24.5073      -3.286879      0.8885943      0.9757193
      9422.5000         0.6589         1989.1        50.7388       75.99793         0.5167        24.4415      -3.212048      0.9148496      0.9771312
      9423.0000         0.6638       1976.311        51.3769       77.23178         0.5197        24.3104      -3.071918      0.9411017      0.9797751
      9423.5000         0.6683       1964.799        52.0162       78.46793         0.5227        24.1622       -2.91469      0.9674028      0.9827417
      9424.0000         0.6682       1957.615        52.6329       79.66039         0.5238         24.014      -2.757458      0.9927743      0.9857084
      9424.5000         0.6682       1955.088         53.246       80.84595         0.5247        23.8661      -2.600529              1      0.9886693
      9425.0000         0.6667       1953.736        53.3271       81.00385         0.5255         23.799      -2.524397              1      0.9901057
      9425.5000         0.6632       1959.434        52.6389       79.67575         0.5263        23.7542      -2.470568      0.9931011      0.9911214
