#------------------------------------------------------------------------------
# Created by    : vladimir.rabinovich
# Created on    : 09/19/2023 17:20:12
#------------------------------------------------------------------------------
~Version Information Section
VERS.           2.0     :   CWLS log ASCII Standard - VERSION 2.0
WRAP.           NO      :   One line per depth step
~Well Information Section
#MNEM       .UNIT                                         VALUE :DESCRIPTION
#------------------------------------------------------------------------------
STRT        .FT                                             309 :START DEPTH
STOP        .FT                                            9124 :STOP DEPTH
STEP        .FT                                             0.5 :STEP      
NULL        .                                           -999.25 :NULL      
COMP        .                         SONAT EXPLORATION GOM INC :COMPANY   
WELL        .                               OCS G03084 ST00BP00 :WELL      
FLD         .                                           WILDCAT :FIELD     
LOC         .                                                   :LOCATION  
CNTY        .                      MATAGORDA ISLAND LARGE BLOCK :LOCATION  
STAT        .                                             TEXAS :STATE     
CTRY        .                                     UNITED STATES :COUNTRY   
SRVC        .                                                   :SERVICE COMPANY
DATE        .                             9/13/2023 11:12:09 AM :LOG DATE  
API         .                                    42703400260000 :API NUMBER
UWI         .                                    42703400260000 :UNIQUE WELL ID
XCOORD      .                                  563826.313549269 :SURFACE X 
YCOORD      .                                  10238444.2560225 :SURFACE Y 
LAT         .                                         28.172716 :LATITUDE  
LON         .                                        -96.341662 :LONGITUDE 
ELEV        .FT                                              97 :ELEVATION VALUE
ELEV_TYPE   .                                                KB :ELEVATION REFERENCE TYPE
~Curve Information Section
#MNEM       .UNIT                                      API CODE :CURVE DESCRIPTION
#------------------------------------------------------------------------------
DEPT        .FT                                                 :DEPTH     
ASFL        .OHMM                                               :          
CILD        .MMHO                                               :          
DT          .US/F                                               :          
GR          .GAPI                                               :          
GR_NORM     .GAPI                                               :GammaRay Normalized
ILD         .OHMM                                               :          
SP          .MV                                                 :          
SP_NORM     .MV                                                 :SP Normalized
VSH_GR      .V/V                                                :Volume of Shale from GR
VSH_SP      .V/V                                                :Volume of Shale from SP
~A        DEPTH           ASFL           CILD             DT             GR        GR_NORM            ILD             SP        SP_NORM         VSH_GR         VSH_SP
# ...
      3837.0000         1.5377        647.085        90.4303        45.9156       52.43938         1.5107       -88.6611      0.7667923      0.4136038              1
      3837.5000         1.5671       661.8174         96.778        45.6077       51.79241         1.4611       -89.4614    -0.03582001      0.3998385              1
      3838.0000         1.5941       676.5371       106.2543        45.0775       50.67836         1.4157        -90.546      -1.122726      0.3761354      0.9948864
      3838.5000         1.6066       691.2568       115.5107        44.0535       48.52675          1.371       -92.2946      -2.873642      0.3303564      0.9219316
      3839.0000         1.6191       705.9766       114.1011        43.0355       46.38773          1.337       -94.0308      -4.612152      0.2848452      0.8494937
      3839.5000         1.6343       719.0332       101.2083        42.4107       45.07491         1.3171       -95.7993      -6.382965       0.256913      0.7757098
      3840.0000         1.6513       724.0674        91.2113        41.9322       44.06949         1.2916       -97.3188      -7.904778       0.235521       0.712301
      3840.5000         1.6674       729.1025        89.4479        41.5557       43.27839         1.2651       -98.8335      -9.421791       0.218689       0.649092
      3841.0000         1.6458       734.1396        88.9795        41.3603       42.86781         1.2286      -100.3893       -10.9799      0.2099535       0.584171
      3841.5000         1.6008       741.8594        89.4661        41.2115       42.55515          1.179      -102.4116      -13.00451       0.203301      0.4998121
      3842.0000         1.5582       753.8262        92.2926        41.0628       42.24271         1.1213      -104.7073      -15.30252      0.1966533      0.4040616
      3842.5000         1.3881       772.1855        96.4149        41.0908       42.30155         1.0619      -105.5902      -16.18774      0.1979053      0.3671776
      3843.0000         1.2702        800.626        99.1069        41.2328       42.59991          0.996      -106.6046      -17.20444      0.2042533      0.3248148
      3843.5000         1.1524       829.0674       101.0255        41.3748       42.89828         0.9274      -108.6581      -19.26025      0.2106017      0.2391561
      3844.0000         1.0344       893.1152        103.715        41.5756       43.32021         0.8428      -110.2051      -20.80957      0.2195788      0.1746012
      3844.5000         0.9981        1815.41       106.6346        41.9888       44.18843         0.7564      -110.8799      -21.48668      0.2380517      0.1463884
      3845.0000         0.9776        1923.93       111.3503         42.402       45.05663         0.6796      -111.6406      -22.24969       0.256524       0.114596
      3845.5000          0.783       2002.186       118.2035        42.8233       45.94186         0.5872       -112.505       -23.1164      0.2753586     0.07848326
      3846.0000         0.6405       2137.723       122.1708        43.2729       46.88654         0.5254      -112.7069      -23.32062      0.2954584     0.06997427
      3846.5000         0.6151        2399.91       123.1777         43.921       48.24834         0.4524      -112.1329      -22.74892      0.3244328     0.09379482
      3847.0000         0.6028        2542.09        121.699        45.0716       50.66598          0.386      -111.7523      -22.37064      0.3758719      0.1095568
      3847.5000         0.5917        2632.23       118.0233        47.2073       55.15348         0.3502       -111.443      -22.06365      0.4713506      0.1223478
      3848.0000         0.5824       2719.773       112.8696        48.3074       57.46501         0.3184      -111.6018      -22.22476      0.5205322      0.1156349
      3848.5000          0.573       2796.781       111.1952        48.9783       58.87471         0.2945      -111.7181      -22.34338      0.5505258      0.1106927
      3849.0000         0.5661       2835.113       112.0681        48.9845       58.88773         0.2767      -111.4399      -22.06749      0.5508026      0.1221879
      3849.5000         0.5609       2855.313       113.5129        48.4553       57.77578         0.2708      -111.1619       -21.7918      0.5271442      0.1336749
      3850.0000         0.5557       2875.574       114.8615        47.8557       56.51591         0.2649      -110.8837      -21.51591      0.5003386      0.1451705
      3850.5000         0.5504        2933.82       115.7319        47.2561       55.25601          0.259      -110.6448      -21.27932      0.4735321      0.1550283
      3851.0000         0.5465       3013.574       115.9434        46.7219       54.13356         0.2603      -110.4559      -21.09274      0.4496503      0.1628027
      3851.5000         0.5428       3029.766       116.7605        46.2726        53.1895         0.2619      -110.3676      -21.00674      0.4295639      0.1663857
      3852.0000         0.5392       3045.711        117.656        45.8354       52.27087         0.2635      -110.2791      -20.92056      0.4100184      0.1699769
      3852.5000         0.5356       3060.066       119.7053        45.6368       51.85357         0.2651      -110.1906      -20.83437      0.4011397      0.1735681
      3853.0000         0.5323       3031.402       121.6702        46.0274       52.67428         0.2667      -109.7129      -20.35898      0.4186018      0.1933759
      3853.5000         0.5296       2970.023        122.441        47.1313       54.99381         0.2817      -108.9847      -19.63309      0.4679534      0.2236211
      3854.0000         0.5268       2900.906       122.2046        48.1236        57.0788          0.297      -108.0551       -18.7058      0.5123148      0.2622582
      3854.5000         0.5345       2652.008       121.1583        48.7792       58.45637         0.3123      -106.4521      -17.10512      0.5416248      0.3289534
      3855.0000         0.5471        2414.09       119.5151        49.4351       59.83452         0.3276      -105.1609      -15.81622      0.5709472      0.3826574
      3855.5000         0.5613       2273.262       119.2279        49.7839       60.56742         0.3429      -103.7557      -14.41334      0.5865409      0.4411109
      3856.0000         0.5755       2145.813       124.5662          49.76       60.51718         0.3582      -102.5623      -13.22225      0.5854719      0.4907395
      3856.5000         0.5897        1865.15       137.3088        49.7361       60.46699         0.3735      -100.6742      -11.33646       0.584404       0.569314
      3857.0000         0.5968       1735.006       144.8552         49.861       60.72941         0.3998       -98.7017      -9.366272      0.5899875      0.6514053
      3857.5000         0.6008       1629.332       150.5171        50.4064       61.87541           0.44       -97.0699      -7.736786      0.6143705      0.7193006
      3858.0000         0.6048       1509.676       149.0454        50.9521       63.02201         0.4804       -95.4359      -6.105095      0.6387663      0.7872877
      3858.5000         0.6088       1345.473       145.2007        51.5695        64.3193           0.51       -93.5828      -4.254311      0.6663681      0.8644037
      3859.0000          0.617       1242.646       141.7329        52.3871       66.03726         0.5344       -92.0538      -2.727623      0.7029205      0.9280157
      3859.5000         0.6287       1161.742       140.1409        52.9316       67.18133         0.5588       -91.1322      -1.808334      0.7272623      0.9663194
      3860.0000         0.6503       1091.451       139.2236        52.7107       66.71719          0.596       -90.3938      -1.072243       0.717387      0.9969899
      3860.5000         0.6864       1039.115       138.3677        52.5469       67.95921         0.6348       -89.8546     -0.5353546      0.7438129              1
      3861.0000         0.7247        1001.56       135.4917        52.4481       67.77576         0.6764       -89.4276     -0.1106644      0.7399097              1
