#------------------------------------------------------------------------------
# Created by    : vladimir.rabinovich
# Created on    : 09/19/2023 17:20:04
#------------------------------------------------------------------------------
~Version Information Section
VERS.           2.0     :   CWLS log ASCII Standard - VERSION 2.0
WRAP.           NO      :   One line per depth step
~Well Information Section
#MNEM       .UNIT                                         VALUE :DESCRIPTION
#------------------------------------------------------------------------------
STRT        .FT                                             627 :START DEPTH
STOP        .FT                                            8077 :STOP DEPTH
STEP        .FT                                             0.5 :STEP      
NULL        .                                           -999.25 :NULL      
COMP        .                                    MOBIL OIL CORP :COMPANY   
WELL        .                               OCS G02338 ST00BP00 :WELL      
FLD         .                                           WILDCAT :FIELD     
LOC         .                                                   :LOCATION  
CNTY        .                             GALVESTON LARGE BLOCK :LOCATION  
STAT        .                                             TEXAS :STATE     
CTRY        .                                     UNITED STATES :COUNTRY   
SRVC        .                                                   :SERVICE COMPANY
DATE        .                             9/13/2023 11:18:53 AM :LOG DATE  
API         .                                    42706400220000 :API NUMBER
UWI         .                                    42706400220000 :UNIQUE WELL ID
XCOORD      .                                  948421.875172236 :SURFACE X 
YCOORD      .                                   10402667.405867 :SURFACE Y 
LAT         .                                         28.648189 :LATITUDE  
LON         .                                        -95.157922 :LONGITUDE 
ELEV        .FT                                              76 :ELEVATION VALUE
ELEV_TYPE   .                                                KB :ELEVATION REFERENCE TYPE
~Curve Information Section
#MNEM       .UNIT                                      API CODE :CURVE DESCRIPTION
#------------------------------------------------------------------------------
DEPT        .FT                                                 :DEPTH     
ASFL        .OHMM                                               :          
CALI        .IN                                                 :          
CILD        .MMHO                                               :          
DT          .US/F                                               :          
DT_1        .US/F                                               :          
GR          .GAPI                                               :          
GR_NORM     .GAPI                                               :GammaRay Normalized
ILD         .OHMM                                               :          
SFL         .OHMM                                               :          
SP          .MV                                                 :          
SP_NORM     .MV                                                 :SP Normalized
VSH_GR      .V/V                                                :Volume of Shale from GR
VSH_SP      .V/V                                                :Volume of Shale from SP
~A        DEPTH           ASFL           CALI           CILD             DT           DT_1             GR        GR_NORM            ILD            SFL             SP        SP_NORM         VSH_GR         VSH_SP
# ...
      1653.0000         1.3969        -999.25       653.4111        -999.25       161.7917        30.4391       45.90047         1.4924         1.2967      -109.4911      -30.23092      0.2744782     0.05896937
      1653.5000         1.4074        -999.25       653.2666        -999.25       160.8794        30.8358       46.40404         1.4906         1.3375      -110.3865      -31.12173      0.2851923     0.02927577
      1654.0000         1.4173        -999.25       653.1211        -999.25       160.4604        30.9925       46.60022         1.4812           1.36      -109.3192      -30.04984      0.2893663      0.0650055
      1654.5000         1.4273        -999.25       652.9766        -999.25       159.1353        31.1704       46.82354         1.4722         1.3811      -106.8901      -27.61614      0.2941178      0.1461286
      1655.0000         1.4372        -999.25       652.8301        -999.25       157.6675         31.443       47.16816         1.4637         1.3868      -105.4227      -26.14414      0.3014501      0.1951953
      1655.5000         1.4471        -999.25       653.3711        -999.25       163.6479        31.8309       47.66045         1.4565         1.3636      -104.7207      -25.43755      0.3119245      0.2187482
      1656.0000         1.4571        -999.25       654.5615        -999.25       166.4104        32.3809       48.36037         1.4526         1.3228      -104.8301      -25.54236      0.3268165      0.2152547
      1656.5000         1.4645        -999.25        655.752        -999.25       164.9358        32.5993       48.63557         1.4487          1.267      -106.5972      -27.30486      0.3326716      0.1565046
      1657.0000         1.4614        -999.25       656.9424        -999.25       167.4912        32.6045        48.6377          1.443         1.2237      -106.4104      -27.11347      0.3327169      0.1628843
      1657.5000         1.4533        -999.25       658.1318        -999.25       169.5046        32.8274       48.91866         1.4354          1.221      -106.3479      -27.04638      0.3386949      0.1651207
      1658.0000         1.4427        -999.25       659.3232        -999.25        167.395         31.519        47.2383         1.4279         1.2391      -107.1691      -27.86298      0.3029426      0.1379005
      1658.5000         1.4309        -999.25       660.5127        -999.25       164.8569        30.1561       45.48813         1.4213         1.2596      -108.0369      -28.72619      0.2657049       0.109127
      1659.0000         1.4191        -999.25       662.0283        -999.25       166.2388        29.2908       44.37531         1.4147         1.2801       -107.682      -28.36669      0.2420278      0.1211103
      1659.5000          1.408        -999.25       664.4434        -999.25       171.2163        28.7163       43.63494         1.4058         1.3007      -107.2467       -27.9268      0.2262753      0.1357735
      1660.0000         1.4008        -999.25       666.8574        -999.25       167.5337        28.7239       43.64014         1.3965         1.2997      -106.7417      -27.41721      0.2263859      0.1527598
      1660.5000         1.3962        -999.25       669.2725        -999.25       164.7017        28.9502       43.92545         1.3881         1.2807      -106.2109      -26.88181      0.2324564      0.1706062
      1661.0000         1.3959        -999.25       671.6875        -999.25        164.054        29.2381       44.28967         1.3803         1.2588        -105.41      -26.07632      0.2402057      0.1974559
      1661.5000         1.3953        -999.25       674.1025        -999.25       163.7949        29.6011       44.75008         1.3735         1.2568      -104.8042      -25.46592      0.2500016      0.2178027
      1662.0000         1.3935        -999.25       676.5176        -999.25       163.5051        29.8355       45.04576         1.3677         1.2547      -106.2628      -26.91993      0.2562928      0.1693357
      1662.5000         1.3918        -999.25       678.9316        -999.25        162.623        29.7554       44.93863          1.362         1.2757      -106.0143      -26.66683      0.2540135      0.1777723
      1663.0000           1.39        -999.25       681.3525        -999.25       161.9666        30.0241       45.27826         1.3568         1.2984      -105.4521      -26.10004      0.2612396      0.1966652
      1663.5000         1.3883        -999.25       684.0303        -999.25       162.2524        30.4818       45.85996         1.3516         1.2787      -105.6013      -26.24465      0.2736162      0.1918449
      1664.0000         1.3865        -999.25        686.707        -999.25       161.7754        30.6687       46.09481         1.3465         1.2496      -105.3824      -26.02116      0.2786129      0.1992948
      1664.5000         1.3848        -999.25       689.3838        -999.25        161.146         30.516        45.8947          1.343         1.2166      -103.0862      -23.72036      0.2743553       0.275988
      1665.0000         1.3834        -999.25       692.0605        -999.25       159.9744        30.3634       45.69471         1.3396         1.2394      -103.3936      -24.02316      0.2701001      0.2658946
      1665.5000          1.382        -999.25       694.7383        -999.25       159.5676        30.0803       45.32758         1.3361         1.2503      -105.6187      -26.24367      0.2622888      0.1918778
      1666.0000         1.3807        -999.25        697.415        -999.25       160.8572        29.7625         44.916         1.3342         1.2494      -107.1981      -27.81847      0.2535318      0.1393842
      1666.5000         1.3796        -999.25       700.0918        -999.25       162.3376        29.4193       44.47189         1.3324         1.2508      -106.7816      -27.39738      0.2440827      0.1534205
      1667.0000         1.3794        -999.25       702.7695        -999.25       161.8794         29.015       43.94952         1.3305         1.2541      -108.1953      -28.80649      0.2329684      0.1064504
      1667.5000         1.3792        -999.25       704.9648        -999.25       161.2803        28.8826        43.7754         1.3286         1.2643       -109.478      -30.08459      0.2292638     0.06384684
      1668.0000          1.379        -999.25        706.375        -999.25       160.1672        28.9792        43.8946         1.3267         1.2827      -109.3198      -29.92181      0.2317999     0.06927312
      1668.5000         1.3788        -999.25       707.7871        -999.25       161.1118        29.6385        44.7345         1.3244          1.258      -107.3508       -27.9482      0.2496703      0.1350599
      1669.0000         1.3765        -999.25       709.1992        -999.25        162.259         30.494       45.82572         1.3217         1.2238      -106.4421      -27.03491      0.2728876      0.1655029
      1669.5000         1.3741        -999.25       710.6094        -999.25       162.9695        31.5031       47.11365         1.3191         1.2067      -108.4774      -29.06562      0.3002905     0.09781265
      1670.0000         1.3688        -999.25       712.0215        -999.25       163.3457        31.7189       47.38553          1.312         1.1909      -109.4921      -30.07573      0.3060752     0.06414235
      1670.5000         1.3633        -999.25       713.4336        -999.25       162.7405        31.5815       47.20501          1.303         1.1761       -110.343      -30.92204      0.3022343     0.03593216
      1671.0000         1.3578        -999.25       714.9521        -999.25       162.1353        31.2967        46.8357         1.2941         1.1785      -112.0349      -32.60934      0.2943765              0
      1671.5000         1.3522        -999.25       717.1738        -999.25       161.7158        30.9076        46.3328         1.2852          1.181      -112.3734      -32.94324      0.2836766              0
