#------------------------------------------------------------------------------
# Created by    : vladimir.rabinovich
# Created on    : 09/19/2023 17:22:29
#------------------------------------------------------------------------------
~Version Information Section
VERS.           2.0     :   CWLS log ASCII Standard - VERSION 2.0
WRAP.           NO      :   One line per depth step
~Well Information Section
#MNEM       .UNIT                                         VALUE :DESCRIPTION
#------------------------------------------------------------------------------
STRT        .FT                                            1202 :START DEPTH
STOP        .FT                                           11047 :STOP DEPTH
STEP        .FT                                             0.5 :STEP      
NULL        .                                           -999.25 :NULL      
COMP        .                                 MESA PETROLEUM CO :COMPANY   
WELL        .                               OCS G03305 ST00BP00 :WELL      
FLD         .                                           WILDCAT :FIELD     
LOC         .                                                   :LOCATION  
CNTY        .                      MATAGORDA ISLAND LARGE BLOCK :LOCATION  
STAT        .                                             TEXAS :STATE     
CTRY        .                                     UNITED STATES :COUNTRY   
SRVC        .                                                   :SERVICE COMPANY
DATE        .                             9/13/2023 11:12:09 AM :LOG DATE  
API         .                                    42703400870000 :API NUMBER
UWI         .                                    42703400870000 :UNIQUE WELL ID
XCOORD      .                                  540264.325087739 :SURFACE X 
YCOORD      .                                   10226560.637492 :SURFACE Y 
LAT         .                                         28.138272 :LATITUDE  
LON         .                                        -96.413655 :LONGITUDE 
ELEV        .FT                                              80 :ELEVATION VALUE
ELEV_TYPE   .                                                KB :ELEVATION REFERENCE TYPE
~Curve Information Section
#MNEM       .UNIT                                      API CODE :CURVE DESCRIPTION
#------------------------------------------------------------------------------
DEPT        .FT                                                 :DEPTH     
CILD        .MMHO                                               :          
DPHI        .%                                                  :          
GR          .GAPI                                               :          
GR_NORM     .GAPI                                               :GammaRay Normalized
ILD         .OHMM                                               :          
ILM         .OHMM                                               :          
SFL         .OHMM                                               :          
SP          .MV                                                 :          
SP_NORM     .MV                                                 :SP Normalized
VSH_GR      .V/V                                                :Volume of Shale from GR
VSH_SP      .V/V                                                :Volume of Shale from SP
~A        DEPTH           CILD           DPHI             GR        GR_NORM            ILD            ILM            SFL             SP        SP_NORM         VSH_GR         VSH_SP
# ...
     11034.5000        -999.25        10.4349        -999.25        -999.25         0.7487         0.9439         0.8812       -42.6006      -3.079643        -999.25      0.9527354
     11035.0000        -999.25        10.8103        -999.25        -999.25         0.7434         0.9552         0.8897        -42.826      -3.305042        -999.25      0.9476127
     11035.5000        -999.25        11.2836        -999.25        -999.25         0.7341         0.9595         0.8443       -43.0515       -3.53054        -999.25      0.9424877
     11036.0000        -999.25        11.8277        -999.25        -999.25         0.7415         0.9529         0.8727       -43.0346      -3.513641        -999.25      0.9428718
     11036.5000        -999.25        11.9086        -999.25        -999.25         0.7728         0.9392         0.9114       -42.9135      -3.392544        -999.25       0.945624
     11037.0000        -999.25        11.6695        -999.25        -999.25         0.7889           0.94         0.9158       -42.6656      -3.144642        -999.25      0.9512581
     11037.5000        -999.25        10.8857        -999.25        -999.25         0.7737          0.943         0.9065       -42.5709      -3.049942        -999.25      0.9534104
     11038.0000        -999.25        10.2888        -999.25        -999.25         0.7664         0.9573         0.8955       -42.5753       -3.05434        -999.25      0.9533104
     11038.5000        -999.25         10.183        -999.25        -999.25         0.7704         0.9771         0.9005       -42.6852      -3.164242        -999.25      0.9508127
     11039.0000        -999.25        10.4117        -999.25        -999.25         0.8098         1.0045         0.9261       -42.4272      -2.906242        -999.25      0.9566763
     11039.5000        -999.25        10.7062        -999.25        -999.25         0.9075          1.045         0.9788       -42.1571      -2.636143        -999.25      0.9628149
     11040.0000        -999.25        10.4569        -999.25        -999.25         1.0218         1.1301         1.0582       -42.0512      -2.530243        -999.25      0.9652218
     11040.5000        -999.25        10.2964        -999.25        -999.25         1.1579         1.2226         1.1265       -42.0482      -2.527241        -999.25        0.96529
     11041.0000        -999.25        10.3243        -999.25        -999.25         1.2306         1.2879         1.1843       -42.2998      -2.778843        -999.25      0.9595718
     11041.5000        -999.25        10.3521        -999.25        -999.25         1.2554         1.3243         1.2298       -42.6722      -3.151241        -999.25      0.9511082
     11042.0000        -999.25         10.679        -999.25        -999.25         1.2522         1.3489         1.2578       -43.0923      -3.571342        -999.25      0.9415604
     11042.5000        -999.25        11.0518        -999.25        -999.25          1.219         1.3665         1.2538       -43.0997      -3.578743        -999.25      0.9413922
     11043.0000        -999.25         11.275        -999.25        -999.25          1.144         1.3693          1.227       -43.0171      -3.496143        -999.25      0.9432695
     11043.5000        -999.25        11.4978        -999.25        -999.25         1.0547         1.3215         1.1587       -42.6088      -3.087841        -999.25       0.952549
     11044.0000        -999.25        11.6277        -999.25        -999.25         0.9643         1.2403         1.0778       -42.2011      -2.680141        -999.25      0.9618149
     11044.5000        -999.25        11.6331        -999.25        -999.25         0.8996         1.1523         1.0235       -41.9342      -2.413242        -999.25      0.9678808
     11045.0000        -999.25        11.6257        -999.25        -999.25           0.86         1.0805         0.9912        -41.688      -2.167042        -999.25      0.9734764
     11045.5000        -999.25        11.6182        -999.25        -999.25         0.8263         1.0233         0.9645       -41.4936      -1.972641        -999.25      0.9778945
     11046.0000        -999.25        11.6108        -999.25        -999.25         0.7958         0.9932          0.939       -41.3196      -1.798641        -999.25      0.9818491
     11046.5000        -999.25        11.5658        -999.25        -999.25         0.7754         0.9728         0.9218       -41.2117      -1.690742        -999.25      0.9843013
     11047.0000        -999.25        11.5208        -999.25        -999.25         0.7598         0.9636         0.9073       -41.4619      -1.940941        -999.25       0.978615
