#------------------------------------------------------------------------------
# Created by    : vladimir.rabinovich
# Created on    : 09/19/2023 17:19:47
#------------------------------------------------------------------------------
~Version Information Section
VERS.           2.0     :   CWLS log ASCII Standard - VERSION 2.0
WRAP.           NO      :   One line per depth step
~Well Information Section
#MNEM       .UNIT                                         VALUE :DESCRIPTION
#------------------------------------------------------------------------------
STRT        .FT                                             970 :START DEPTH
STOP        .FT                                            9511 :STOP DEPTH
STEP        .FT                                             0.5 :STEP      
NULL        .                                           -999.25 :NULL      
COMP        .                                SHELL OFFSHORE INC :COMPANY   
WELL        .                               OCS G06097 ST00BP00 :WELL      
FLD         .                                           WILDCAT :FIELD     
LOC         .                                                   :LOCATION  
CNTY        .                             GALVESTON LARGE BLOCK :LOCATION  
STAT        .                                             TEXAS :STATE     
CTRY        .                                     UNITED STATES :COUNTRY   
SRVC        .                                                   :SERVICE COMPANY
DATE        .                             9/13/2023 11:19:27 AM :LOG DATE  
API         .                                    42706401130000 :API NUMBER
UWI         .                                    42706401130000 :UNIQUE WELL ID
XCOORD      .                                  1026820.46089783 :SURFACE X 
YCOORD      .                                  10482391.3243497 :SURFACE Y 
LAT         .                                         28.871086 :LATITUDE  
LON         .                                        -94.917566 :LONGITUDE 
ELEV        .FT                                             107 :ELEVATION VALUE
ELEV_TYPE   .                                                KB :ELEVATION REFERENCE TYPE
~Curve Information Section
#MNEM       .UNIT                                      API CODE :CURVE DESCRIPTION
#------------------------------------------------------------------------------
DEPT        .FT                                                 :DEPTH     
ASFL        .OHMM                                               :          
CALI        .IN                                                 :          
CILD        .MMHO                                               :          
DT          .US/F                                               :          
GR          .GAPI                                               :          
GR_NORM     .GAPI                                               :GammaRay Normalized
ILD         .OHMM                                               :          
ILM         .OHMM                                               :          
RHOB        .G/C3                                               :          
SP          .MV                                                 :          
SP_NORM     .MV                                                 :SP Normalized
VSH_GR      .V/V                                                :Volume of Shale from GR
VSH_SP      .V/V                                                :Volume of Shale from SP
~A        DEPTH           ASFL           CALI           CILD             DT             GR        GR_NORM            ILD            ILM           RHOB             SP        SP_NORM         VSH_GR         VSH_SP
# ...
       989.0000        -999.25        -999.25        -999.25        -999.25        36.2782        42.2635        -999.25        -999.25        -999.25        -999.25      0.7496448      0.1970958              1
       989.5000        -999.25        -999.25        -999.25        -999.25        36.0593        41.9363        -999.25        -999.25        -999.25        -999.25       1.919414       0.190134              1
       990.0000        -999.25        -999.25        -999.25        -999.25        35.7376       41.45542        -999.25        -999.25        -999.25        -999.25      0.1556122      0.1799025              1
       990.5000        -999.25        -999.25        -999.25        -999.25         35.134       40.55317        -999.25        -999.25        -999.25        -999.25       3.199054      0.1607056              1
       991.0000        -999.25        -999.25        -999.25        -999.25        34.3933       39.44597        -999.25        -999.25        -999.25        -999.25       0.490776      0.1371484              1
       991.5000        -999.25        -999.25        -999.25        -999.25        33.0147       37.38525        -999.25        -999.25        -999.25        -999.25       2.007272     0.09330328              1
       992.0000        -999.25        -999.25        -999.25        -999.25        32.1263       36.05728        -999.25        -999.25        -999.25        -999.25      0.2467206     0.06504855              1
       992.5000        -999.25        -999.25        -999.25        -999.25        31.2385       34.73021        -999.25        -999.25        -999.25        -999.25     -0.6880469     0.03681288      0.9901708
       993.0000        -999.25        -999.25        -999.25        -999.25        30.5405       33.68684        -999.25        -999.25        -999.25        -999.25      0.9510882      0.0146137              1
       993.5000        -999.25        -999.25        -999.25        -999.25        30.5362       33.68041        -999.25        -999.25        -999.25        -999.25       2.406865     0.01447686              1
       994.0000        -999.25        -999.25        -999.25        -999.25        31.8664       35.66878        -999.25        -999.25        -999.25        -999.25       1.223822     0.05678258              1
       994.5000        -999.25        -999.25        -999.25        -999.25        32.7665       37.01424        -999.25        -999.25        -999.25        -999.25     -0.5258332     0.08540945      0.9924881
       995.0000        -999.25        -999.25        -999.25        -999.25        33.2135       37.68242        -999.25        -999.25        -999.25        -999.25       3.136019     0.09962593              1
       995.5000        -999.25        -999.25        -999.25        -999.25        33.4148       37.98332        -999.25        -999.25        -999.25        -999.25       1.305059      0.1060281              1
       996.0000        -999.25        -999.25        -999.25        -999.25        32.9283        37.2561        -999.25        -999.25        -999.25        -999.25       2.787281     0.09055539              1
       996.5000        -999.25        -999.25        -999.25        -999.25        32.4418       36.52889        -999.25        -999.25        -999.25        -999.25    -0.03827048     0.07508274      0.9994533
       997.0000        -999.25        -999.25        -999.25        -999.25        31.9301         35.764        -999.25        -999.25        -999.25        -999.25      0.9058809     0.05880859              1
       997.5000        -999.25        -999.25        -999.25        -999.25        31.4105       34.98731        -999.25        -999.25        -999.25        -999.25       2.040351     0.04228324              1
       998.0000        -999.25        -999.25        -999.25        -999.25        30.7729       34.03423        -999.25        -999.25        -999.25        -999.25       1.044896     0.02200488              1
       998.5000        -999.25        -999.25        -999.25        -999.25        30.0729       32.98788        -999.25        -999.25        -999.25        -999.25      0.2002071              0              1
       999.0000        -999.25        -999.25        -999.25        -999.25        29.7833       32.55498        -999.25        -999.25        -999.25        -999.25      0.4917014              0              1
       999.5000        -999.25        -999.25        -999.25        -999.25        30.8825       34.19806        -999.25        -999.25        -999.25        -999.25      0.2268002     0.02549062              1
      1000.0000         0.0463        16.1923        -1.6155       175.3855        31.2984       34.81974         9.9984         0.5245         1.7486      -107.0365     -0.7580828     0.03871796      0.9891703
      1000.5000         0.5825        21.0931        23.5854       170.7351        39.7676       47.47943         10.002         3.8313         1.6049      -102.1731     -0.8619738      0.3080731      0.9876861
      1001.0000         0.8949        22.4167        77.6924       161.4319        46.0187       56.82352         7.0306        41.1295         1.4628       -96.8704       2.646506      0.5068835              1
      1001.5000         0.9496        22.8161       146.3154       109.7733        44.1501       54.03036         2.3707          3.835         1.4423       -94.4845       3.125693      0.4474544              1
      1002.0000         0.9837        22.0032        446.021       123.8063        42.6326       51.76201         2.1401         0.8312         1.4618       -92.5905      -1.237365      0.3991917      0.9823233
      1002.5000         1.0158         20.997       950.2979       162.2476        41.3582       49.85705         0.7635         0.8099         1.5506       -91.3907       1.460846      0.3586606              1
      1003.0000         1.0602        21.7176       1119.852       179.4602        40.1154       47.99932         0.7829         0.8689         1.5798       -90.4862       3.708666      0.3191344              1
      1003.5000         1.1118        22.2619       1035.352       180.1577        39.4581       47.01679         0.8853         0.9796         1.6059       -89.5818       1.030719      0.2982296              1
      1004.0000         1.1485        23.1367       928.1963       176.4553        39.0673       46.43263         1.0101          1.086         1.6448       -88.9299     -0.3599049      0.2858006      0.9948585
      1004.5000         1.1846         23.306       854.4951        171.627         38.771       45.98972         1.1552         1.1684         1.7266       -88.4337       1.837242      0.2763771              1
      1005.0000         1.2262        20.7215       726.1572       165.0854        39.1081       46.49362         1.2669         1.2093         1.7962       -87.9976       0.630086      0.2870983              1
      1005.5000         1.2822        19.7472       704.1973       160.4346        39.6693        47.3325         1.3808          1.228         1.7928       -87.5718       1.212723      0.3049468              1
      1006.0000         1.2757        19.5936       704.9561       154.5715        39.7677       47.47958         1.4127          1.202         1.7784       -87.2289       2.580532      0.3080762              1
      1006.5000         1.2212        20.1401       701.4697        152.426        39.4328       46.97897         1.4157         1.1762         1.7694        -86.896     0.07698423       0.297425              1
      1007.0000         1.1574         20.838       696.6748       165.8896        38.8992       46.18136         1.4186         1.1597         1.7516        -86.566      -1.237222      0.2804544      0.9823254
      1007.5000         1.1198         21.322        691.877       179.3916        38.7779       46.00003         1.4223         1.1521         1.7476       -86.2372     -0.8549451      0.2765965      0.9877865
