#------------------------------------------------------------------------------
# Created by    : vladimir.rabinovich
# Created on    : 09/19/2023 17:22:29
#------------------------------------------------------------------------------
~Version Information Section
VERS.           2.0     :   CWLS log ASCII Standard - VERSION 2.0
WRAP.           NO      :   One line per depth step
~Well Information Section
#MNEM       .UNIT                                         VALUE :DESCRIPTION
#------------------------------------------------------------------------------
STRT        .FT                                            1202 :START DEPTH
STOP        .FT                                           11047 :STOP DEPTH
STEP        .FT                                             0.5 :STEP      
NULL        .                                           -999.25 :NULL      
COMP        .                                 MESA PETROLEUM CO :COMPANY   
WELL        .                               OCS G03305 ST00BP00 :WELL      
FLD         .                                           WILDCAT :FIELD     
LOC         .                                                   :LOCATION  
CNTY        .                      MATAGORDA ISLAND LARGE BLOCK :LOCATION  
STAT        .                                             TEXAS :STATE     
CTRY        .                                     UNITED STATES :COUNTRY   
SRVC        .                                                   :SERVICE COMPANY
DATE        .                             9/13/2023 11:12:09 AM :LOG DATE  
API         .                                    42703400870000 :API NUMBER
UWI         .                                    42703400870000 :UNIQUE WELL ID
XCOORD      .                                  540264.325087739 :SURFACE X 
YCOORD      .                                   10226560.637492 :SURFACE Y 
LAT         .                                         28.138272 :LATITUDE  
LON         .                                        -96.413655 :LONGITUDE 
ELEV        .FT                                              80 :ELEVATION VALUE
ELEV_TYPE   .                                                KB :ELEVATION REFERENCE TYPE
~Curve Information Section
#MNEM       .UNIT                                      API CODE :CURVE DESCRIPTION
#------------------------------------------------------------------------------
DEPT        .FT                                                 :DEPTH     
CILD        .MMHO                                               :          
DPHI        .%                                                  :          
GR          .GAPI                                               :          
GR_NORM     .GAPI                                               :GammaRay Normalized
ILD         .OHMM                                               :          
ILM         .OHMM                                               :          
SFL         .OHMM                                               :          
SP          .MV                                                 :          
SP_NORM     .MV                                                 :SP Normalized
VSH_GR      .V/V                                                :Volume of Shale from GR
VSH_SP      .V/V                                                :Volume of Shale from SP
~A        DEPTH           CILD           DPHI             GR        GR_NORM            ILD            ILM            SFL             SP        SP_NORM         VSH_GR         VSH_SP
# ...
      3159.5000       1376.266        -999.25        54.5829       70.35525         0.8057        -999.25         0.8246      -111.2864       -8.92868      0.7947925      0.8475254
      3160.0000        1471.49        -999.25        49.5712       62.61691         0.7472        -999.25         0.8094       -111.833      -9.484367       0.630147      0.8368391
      3160.5000       1594.918        -999.25        43.6018        53.3998         0.6953        -999.25         0.8128      -113.3467      -11.00715      0.4340383      0.8075548
      3161.0000       1688.082        -999.25        42.3618       51.48518          0.652        -999.25         0.8192      -116.7793      -14.44882      0.3933017      0.7413688
      3161.5000       1788.514        -999.25        41.8994       50.77121         0.6095        -999.25         0.8102      -121.4575       -19.1361      0.3781109      0.6512288
      3162.0000         1877.5        -999.25        41.1968       49.68635          0.578        -999.25         0.7881      -124.0815      -21.76918      0.3550287      0.6005927
      3162.5000       1963.486        -999.25        40.3236       48.33808         0.5475        -999.25         0.7931      -126.7512      -24.44796      0.3263422      0.5490777
      3163.0000       2045.297        -999.25        39.3661       46.85965         0.5176        -999.25         0.9052      -131.7998      -29.50565      0.2948862      0.4518144
      3163.5000       2114.871        -999.25        37.8208       44.47362         0.5018        -999.25         1.2788      -134.9038      -32.61872      0.2441196      0.3919477
      3164.0000       2148.449        -999.25        36.8036       42.90301         0.4991        -999.25         1.4427      -137.0515      -34.77551      0.2107024       0.350471
      3164.5000       2140.375        -999.25         36.442       42.34468         0.5013        -999.25         1.2509        -139.55      -37.28309       0.198823      0.3022483
      3165.0000       2116.781        -999.25        36.5035       42.43964         0.4989        -999.25         1.0183      -140.2798      -38.02197      0.2008434      0.2880391
      3165.5000       2125.211        -999.25        36.9796       43.17476         0.4962        -999.25         0.9221      -140.6252      -38.37645      0.2164842      0.2812221
      3166.0000       2202.434        -999.25        37.4056       43.83253         0.4811        -999.25         0.9585      -141.2942      -39.05453      0.2304794       0.268182
      3166.5000       2297.512        -999.25        37.7694       44.39426         0.4619        -999.25         1.1266      -144.2542      -42.02361      0.2424311      0.2110845
      3167.0000       2385.906        -999.25        37.1467       43.43278         0.4404        -999.25          1.357      -146.8081      -44.58659      0.2219741      0.1617963
      3167.5000       2495.328        -999.25        35.2916       40.56839         0.4194        -999.25         1.4968      -150.0769      -47.86447      0.1610296     0.09876017
      3168.0000       2617.629        -999.25         33.277       37.45774         0.4005        -999.25          1.281      -153.2476      -51.04425     0.09484555     0.03761057
      3168.5000       2760.465        -999.25        32.6115       36.43017         0.3832        -999.25         1.1548      -155.0039      -52.80964      0.0729823    0.003660789
      3169.0000       2919.074        -999.25        33.0078       37.04208         0.3667        -999.25         1.1274      -156.2148      -54.02961      0.0860017              0
      3169.5000       3052.824        -999.25        34.3918       39.17904         0.3513        -999.25           1.13      -156.6401        -54.464      0.1314689              0
      3170.0000       3151.535        -999.25        34.7654       39.75591         0.3373        -999.25         1.0661      -156.2449      -54.07787      0.1437427              0
      3170.5000       3205.465        -999.25        34.7895       39.79312          0.328        -999.25         1.0225      -155.9958      -53.83785      0.1445345              0
      3171.0000       3202.074        -999.25        34.6943       39.64613         0.3234        -999.25         1.0277      -155.8584      -53.70953       0.141407              0
      3171.5000       3153.355        -999.25        34.2556       38.96875          0.325        -999.25         1.0226      -155.7947      -53.65491      0.1269947              0
      3172.0000       3086.629        -999.25        33.8165       38.29076         0.3303        -999.25         1.0101      -155.8276       -53.6969      0.1125694              0
      3172.5000       3025.184        -999.25        33.3777       37.61321         0.3399        -999.25         0.9876      -155.7476      -53.62598     0.09815338              0
      3173.0000       2984.648        -999.25        33.3167       37.51904         0.3465        -999.25         0.9532      -155.5667      -53.45415     0.09614977              0
      3173.5000       2960.484        -999.25        33.2927       37.48198         0.3498        -999.25          0.909      -155.3325      -53.22903     0.09536126              0
      3174.0000       2972.082        -999.25        33.4312       37.69583         0.3464        -999.25         0.8756      -155.1489      -53.05451      0.0999113              0
      3174.5000        3003.59        -999.25        33.7568       38.19859         0.3408        -999.25         0.8908      -155.5237      -53.43839      0.1106083              0
      3175.0000       3043.219        -999.25        34.0825       38.70147         0.3349        -999.25         0.9535      -156.3398      -54.26357      0.1213079              0
      3175.5000       3085.375        -999.25        34.7149       39.67794         0.3286        -999.25         1.0357      -157.1953      -55.12815      0.1420838              0
      3176.0000       3130.652        -999.25        35.3528       40.66289         0.3223        -999.25         1.0595      -157.5808      -55.52273      0.1630402              0
      3176.5000       3172.125        -999.25        35.5909       41.03053         0.3178        -999.25         1.0441      -157.3862      -55.33721      0.1708623              0
      3177.0000       3209.859        -999.25        35.4925       40.87859          0.316        -999.25         1.0206      -157.4951       -55.4552      0.1676296              0
      3177.5000        3231.16        -999.25         35.296       40.57518         0.3143        -999.25          0.994       -157.688      -55.65718       0.161174              0
      3178.0000        3231.73        -999.25        34.8994       39.96281         0.3144        -999.25         0.9546      -158.0479      -56.02615      0.1481449              0
      3178.5000       3213.215        -999.25        34.4232       39.22753         0.3149        -999.25         0.9252      -158.4077      -56.39503      0.1325007              0
      3179.0000       3204.035        -999.25        33.6047       37.96372         0.3154        -999.25         0.9111      -158.5574      -56.55382       0.105611              0
      3179.5000        3216.91        -999.25        32.4927       36.24673          0.316        -999.25         0.9174       -158.531      -56.53651     0.06907938              0
      3180.0000       3244.059        -999.25        31.5075       34.72553         0.3165        -999.25         0.9332      -158.3184      -56.33298     0.03671338              0
      3180.5000       3255.238        -999.25        30.6706       33.43331          0.318        -999.25         0.9377      -157.7888      -55.81246    0.009219393              0
      3181.0000       3237.672        -999.25         30.464       33.11432           0.32        -999.25         0.9083      -156.9233      -54.95603    0.002432316              0
      3181.5000       3188.684        -999.25        31.6509       34.94694         0.3223        -999.25         0.8572      -156.0032      -54.04502     0.04142429              0
