#------------------------------------------------------------------------------
# Created by    : vladimir.rabinovich
# Created on    : 09/19/2023 17:20:40
#------------------------------------------------------------------------------
~Version Information Section
VERS.           2.0     :   CWLS log ASCII Standard - VERSION 2.0
WRAP.           NO      :   One line per depth step
~Well Information Section
#MNEM       .UNIT                                         VALUE :DESCRIPTION
#------------------------------------------------------------------------------
STRT        .FT                                             546 :START DEPTH
STOP        .FT                                            8737 :STOP DEPTH
STEP        .FT                                             0.5 :STEP      
NULL        .                                           -999.25 :NULL      
COMP        .                                      SHELL OIL CO :COMPANY   
WELL        .                                OCS 00702 ST00BP00 :WELL      
FLD         .                                           WILDCAT :FIELD     
LOC         .                                                   :LOCATION  
CNTY        .                             GALVESTON LARGE BLOCK :LOCATION  
STAT        .                                             TEXAS :STATE     
CTRY        .                                     UNITED STATES :COUNTRY   
SRVC        .                                                   :SERVICE COMPANY
DATE        .                             9/13/2023 11:19:42 AM :LOG DATE  
API         .                                    42706000140000 :API NUMBER
UWI         .                                    42706000140000 :UNIQUE WELL ID
XCOORD      .                                  1138683.88536091 :SURFACE X 
YCOORD      .                                  10533063.1188688 :SURFACE Y 
LAT         .                                         29.014964 :LATITUDE  
LON         .                                        -94.570199 :LONGITUDE 
ELEV        .FT                                              72 :ELEVATION VALUE
ELEV_TYPE   .                                                KB :ELEVATION REFERENCE TYPE
~Curve Information Section
#MNEM       .UNIT                                      API CODE :CURVE DESCRIPTION
#------------------------------------------------------------------------------
DEPT        .FT                                                 :DEPTH     
ASN         .OHMM                                               :          
CILD        .MMHO                                               :          
ILD         .OHMM                                               :          
SP          .MV                                                 :          
SP_NORM     .MV                                                 :SP Normalized
VSH_SP      .V/V                                                :Volume of Shale from SP
~A        DEPTH            ASN           CILD            ILD             SP        SP_NORM         VSH_SP
# ...
      4916.0000         0.9251       1607.627         0.7503       -74.2955      -28.70422      0.1967432
      4916.5000         0.9566       1556.387          0.776       -73.6196      -28.02921      0.2178373
      4917.0000          0.973       1530.244         0.8004       -73.1115      -27.52201      0.2336873
      4917.5000          0.987       1507.957         0.8242       -72.6031       -27.0145      0.2495468
      4918.0000         0.9987       1491.721         0.8473       -72.2751       -26.6874      0.2597688
      4918.5000         1.0065       1475.473         0.8632       -72.0824      -26.49559      0.2657628
      4919.0000         1.0143       1459.281         0.8604       -71.8899      -26.30399      0.2717505
      4919.5000         1.0181       1603.184         0.8407       -71.7139      -26.12888      0.2772225
      4920.0000         0.9995        1663.33          0.821       -71.5927      -26.00858       0.280982
      4920.5000         0.9754       1712.061         0.8013       -71.4712      -25.88797      0.2847508
      4921.0000         0.9512       1761.191         0.7831       -71.4395      -25.85717      0.2857136
      4921.5000         0.9376       1811.031         0.7649       -71.6455      -26.06406       0.279248
      4922.0000         0.9282       1858.695         0.7467       -71.8513      -26.27076      0.2727886
      4922.5000         0.9188       1905.205         0.7285       -72.1144      -26.53476      0.2645388
      4923.0000         0.9107       1957.156         0.7103       -72.3854      -26.80665      0.2560421
      4923.5000         0.9031         2009.5         0.6922       -72.7507      -27.17285      0.2445985
      4924.0000         0.8971       2071.852          0.674       -73.3767      -27.79974       0.225008
      4924.5000         0.9127       2218.621         0.6558       -74.1957      -28.61964      0.1993862
      4925.0000         0.9283       2325.141         0.6427       -75.5533      -29.97813      0.1569333
      4925.5000         0.9493       2416.027         0.6298       -76.3402      -30.76593      0.1323146
      4926.0000         0.9787       2517.039          0.617       -76.9877      -31.41433      0.1120523
      4926.5000         1.0066       2647.996         0.6042       -77.3392      -31.76672      0.1010399
      4927.0000         1.0246       2692.262         0.5913        -77.691      -32.11942     0.09001815
      4927.5000         1.0104       2714.281         0.5792       -78.0242      -32.45351     0.07957768
      4928.0000         0.9959       2724.855         0.5703       -78.3149      -32.74511     0.07046521
      4928.5000         0.9766        2703.52         0.5615       -78.6057       -33.0368     0.06134999
      4929.0000         0.9451       2663.277         0.5526       -78.8961       -33.3281     0.05224681
      4929.5000         0.8184       2623.074         0.5491       -79.1289      -33.56179     0.04494393
      4930.0000         0.7709       2582.828          0.566       -79.2168      -33.65059     0.04216909
      4930.5000         0.7446       2542.094          0.583       -79.1234      -33.55809      0.0450598
      4931.0000         0.7359       2440.813         0.6015       -78.5985      -33.03408     0.06143486
      4931.5000         0.7319       2253.711         0.6245       -77.1143      -31.55078      0.1077881
      4932.0000         0.7278        2194.41         0.6475       -75.5684      -30.00577      0.1560696
      4932.5000         0.7206       2153.496          0.659       -73.9504      -28.38867       0.206604
      4933.0000         0.6992       2120.781         0.6448       -72.2914      -26.73056      0.2584199
      4933.5000         0.6622        2235.59         0.6306       -71.1294      -25.56946      0.2947043
      4934.0000         0.6333       2429.266         0.6164       -70.2799      -24.72086      0.3212233
      4934.5000         0.6087       2558.973         0.6022       -70.8575      -25.29935      0.3031453
      4935.0000         0.6068       2663.141         0.5869       -72.0704      -26.51315      0.2652142
      4935.5000         0.6106       2711.027         0.5691       -73.2834      -27.72705      0.2272798
      4936.0000         0.6144       2736.816         0.5921       -74.2312      -28.67574      0.1976331
      4936.5000         0.6182       2738.703         0.6179       -75.0258      -29.47124      0.1727738
      4937.0000         0.6184       2666.652         0.6437       -75.5734      -30.01973      0.1556333
      4937.5000         0.6086        2546.27         0.6695       -73.5187      -27.96593      0.2198148
      4938.0000         0.5919       2465.602         0.6946       -70.7577      -25.20582      0.3060681
      4938.5000         0.5752       2326.918         0.7174       -68.5981      -23.04712      0.3735276
      4939.0000         0.5585       2157.586         0.7403       -61.4915      -15.94141      0.5955808
      4939.5000         0.5459         1843.5         0.7631       -59.5872      -14.03801      0.6550622
      4940.0000         0.5371       1669.949          0.786       -58.5662      -13.01791      0.6869404
      4940.5000         0.5718        1598.52         0.8088       -57.8463       -12.2989      0.7094094
      4941.0000         0.5977       1570.867         0.8316        -57.548       -12.0015      0.7187033
      4941.5000         0.6114       1544.082         0.8545       -57.2584      -11.71279      0.7277253
      4942.0000         0.6174        1504.08         0.8773       -57.0939      -11.54919      0.7328379
      4942.5000         0.6244       1441.535          0.904       -56.9293      -11.38548      0.7379537
      4943.0000         0.6788       1382.877         0.9317       -56.7648      -11.22188      0.7430662
      4943.5000          0.728       1357.025         0.9594       -56.6003      -11.05827       0.748179
      4944.0000         0.7564       1331.193         0.9871       -57.2112      -11.67007      0.7290603
      4944.5000         0.8061       1305.363         1.0086       -57.8787      -12.33847      0.7081729
      4945.0000         0.8396       1287.039         1.0147       -58.7781      -13.23876      0.6800387
      4945.5000          0.863       1272.225         1.0056       -58.4758      -12.93736      0.6894575
      4946.0000          0.879        1261.49          0.982       -57.5042      -11.96665      0.7197921
      4946.5000         0.8882        1268.57         0.9583       -56.3745      -10.83785      0.7550672
      4947.0000         0.8675       1286.018         0.9377       -55.2459      -9.710144       0.790308
      4947.5000          0.827       1320.221           0.92        -54.145      -8.610142      0.8246831
      4948.0000         0.7609       1354.404         0.9023       -53.1141      -7.580139      0.8568707
      4948.5000         0.7108       1390.939         0.8845       -52.5284      -6.995331      0.8751459
      4949.0000         0.6789       1437.004         0.8668       -52.1836      -6.651428      0.8858929
      4949.5000         0.6587        1484.18         0.8514       -53.5325      -8.001225      0.8437117
      4950.0000          0.668       1570.623         0.8362       -54.7598       -9.22942      0.8053306
      4950.5000         0.6773       1650.404         0.8216       -55.6043      -10.07482      0.7789119
      4951.0000         0.6866       1725.609         0.8113       -56.2713      -10.74271      0.7580403
      4951.5000         0.6955       1785.223          0.801       -56.7523      -11.22461      0.7429811
      4952.0000         0.6821       1842.881         0.7906       -57.2289       -11.7021      0.7280593
      4952.5000         0.6688       1894.188         0.7803       -58.1112       -12.5853      0.7004595
      4953.0000         0.6554         1967.5         0.7687        -59.646      -14.12099      0.6524689
      4953.5000         0.6456       2046.178         0.7548       -64.2902      -18.76609      0.5073098
