#------------------------------------------------------------------------------
# Created by    : vladimir.rabinovich
# Created on    : 09/19/2023 17:22:15
#------------------------------------------------------------------------------
~Version Information Section
VERS.           2.0     :   CWLS log ASCII Standard - VERSION 2.0
WRAP.           NO      :   One line per depth step
~Well Information Section
#MNEM       .UNIT                                         VALUE :DESCRIPTION
#------------------------------------------------------------------------------
STRT        .FT                                             712 :START DEPTH
STOP        .FT                                            8940 :STOP DEPTH
STEP        .FT                                             0.5 :STEP      
NULL        .                                           -999.25 :NULL      
COMP        .                                      SHELL OIL CO :COMPANY   
WELL        .                               OCS G03086 ST00BP00 :WELL      
FLD         .                                           WILDCAT :FIELD     
LOC         .                                                   :LOCATION  
CNTY        .                      MATAGORDA ISLAND LARGE BLOCK :LOCATION  
STAT        .                                             TEXAS :STATE     
CTRY        .                                     UNITED STATES :COUNTRY   
SRVC        .                                                   :SERVICE COMPANY
DATE        .                             9/13/2023 11:19:05 AM :LOG DATE  
API         .                                    42703400050000 :API NUMBER
UWI         .                                    42703400050000 :UNIQUE WELL ID
XCOORD      .                                  597395.628989583 :SURFACE X 
YCOORD      .                                    10217429.66268 :SURFACE Y 
LAT         .                                         28.117488 :LATITUDE  
LON         .                                        -96.235866 :LONGITUDE 
ELEV        .FT                                              93 :ELEVATION VALUE
ELEV_TYPE   .                                                KB :ELEVATION REFERENCE TYPE
~Curve Information Section
#MNEM       .UNIT                                      API CODE :CURVE DESCRIPTION
#------------------------------------------------------------------------------
DEPT        .FT                                                 :DEPTH     
CALI        .IN                                                 :          
DRHO        .G/C3                                               :          
DT          .US/F                                               :          
GR          .GAPI                                               :          
GR_1        .GAPI                                               :          
GR_NORM     .GAPI                                               :GammaRay Normalized
ILD         .OHMM                                               :          
NPHI        .%                                                  :          
RHOB        .G/C3                                               :          
SFL         .OHMM                                               :          
SP          .MV                                                 :          
SP_NORM     .MV                                                 :SP Normalized
VSH_GR      .V/V                                                :Volume of Shale from GR
VSH_SP      .V/V                                                :Volume of Shale from SP
~A        DEPTH           CALI           DRHO             DT             GR           GR_1        GR_NORM            ILD           NPHI           RHOB            SFL             SP        SP_NORM         VSH_GR         VSH_SP
# ...
      7282.0000        11.8615         0.0491        -999.25        66.8947         53.393       81.69386         0.9507        32.3043         2.4588         0.9789       -44.0637      -2.358803              1      0.9691181
      7282.5000        11.8656         0.0495        -999.25         67.135        53.8262       82.83627         0.9943        29.4315         2.4635         1.0319       -44.8178      -3.113976              1      0.9519551
      7283.0000        11.7984         0.0375        -999.25        64.2218        53.3682       81.63395         1.0009        28.8749         2.4741         0.9829       -45.8346      -4.131851              1      0.9288216
      7283.5000        11.8514         0.0409        -999.25        62.6232        52.5972       79.60813         0.9785         32.565         2.4971         1.0594       -46.6564      -4.954723      0.9916624        0.91012
      7284.0000        12.0442         0.0535        -999.25        64.1969        52.0249       78.10513         0.9514        36.5412         2.4782         2.0532       -46.6186      -4.917999      0.9596835      0.9109545
      7284.5000        11.9097         0.0582        -999.25        67.8837         52.699       79.88132         0.9217        40.0216         2.3947         1.8696       -46.4696      -4.770073       0.997475      0.9143165
      7285.0000        11.6738         0.0498        -999.25        73.8671        54.7797       85.35828         0.8903          39.16         2.2927         1.2469         -46.35      -4.651546              1      0.9170103
      7285.5000        11.6261         0.0369        -999.25        74.0315        56.9647       91.10966          0.853        37.7704         2.3014         0.8799       -45.8383      -4.140923              1      0.9286154
      7286.0000        11.5219         0.0342        -999.25        73.2406        59.1422       96.84132         0.7976        37.6682         2.3063         0.7949       -44.5162      -2.819897              1      0.9586387
      7286.5000        11.4128          0.029        -999.25        74.8199        57.6748       92.98325         0.7493        38.0791         2.3145         0.8067       -43.7986      -2.103371              1      0.9749234
      7287.0000        11.3394         0.0249        -999.25        74.8734         56.406       89.64777         0.7177        38.3728         2.3316         0.8195       -43.4619      -1.767746              1      0.9825512
      7287.5000        11.3842         0.0278        -999.25        74.3391        55.3619       86.90345         0.6985        39.0533         2.3363         0.8146       -43.3696      -1.676517              1      0.9846246
      7288.0000        11.4509         0.0319        -999.25        75.3019        55.1285       86.29205         0.6906        39.3162         2.3343         0.8136       -43.3021      -1.610096              1      0.9861342
      7288.5000        11.4093         0.0323        -999.25        74.7738        55.5978       87.52944         0.6986        38.9533         2.3421         0.8222       -43.2465      -1.555569              1      0.9873734
      7289.0000        11.3331         0.0358        -999.25        73.1796         57.064       91.38962         0.7186        38.4788          2.349         0.8506       -43.2699      -1.580044              1      0.9868172
      7289.5000        11.3105          0.039        -999.25        71.1718        58.1974        94.3743         0.7558        37.6978         2.3567         0.8639       -43.2936      -1.604816              1      0.9862542
      7290.0000        11.3045         0.0333        -999.25        70.2775        57.0479       91.35268         0.8055        35.9869         2.3551         0.8443       -43.3389      -1.651192              1      0.9852002
      7290.5000        11.2686         0.0216        -999.25        68.4142        55.8399       88.17712         0.8645        34.2669         2.3604         0.8337       -44.3423      -2.655666              1      0.9623712
      7291.0000         11.148         0.0189        -999.25        65.7413         54.231       83.94682         0.9383        31.5222         2.3569         0.9192       -46.7533      -5.067741              1      0.9075513
      7291.5000        10.8301         0.0208        -999.25        63.7747        53.3073       81.51923         0.9977        30.0181         2.3393         1.0776       -50.7955      -9.111015              1      0.8156587
      7292.0000        10.3598         0.0275        -999.25        63.8276        52.9046       80.46243         1.1051        29.5255          2.327         1.2544       -54.8079      -13.12449              1      0.7244434
      7292.5000         10.308         0.0326        -999.25        65.1434        52.7518        80.0631         1.1667        29.7087         2.3297         1.7325       -60.2208      -18.53846              1      0.6013985
      7293.0000        10.3381         0.0323        -999.25        67.5087        52.0361       78.18278         1.1976        31.1477         2.3266              2       -63.1655      -21.48424      0.9613357      0.5344492
      7293.5000        10.3779         0.0309        -999.25        68.3513        51.2117       76.01651         1.2166        32.2189         2.3204          1.825       -64.9147      -23.23452      0.9152449      0.4946701
      7294.0000        10.4177         0.0231        -999.25        69.4019        50.4696       74.06671          1.218        32.1785         2.3375         1.5136       -64.5535      -22.87439      0.8737598      0.5028549
      7294.5000        10.4536         0.0242        -999.25        70.5129        50.4868       74.11465         1.1966        31.5043         2.3774         1.3009       -62.2443      -20.56626      0.8747797      0.5553122
      7295.0000        10.4511         0.0344        -999.25        71.7709        51.5941       77.03057         1.1518        31.3387         2.4033          1.169       -59.5801      -17.90314      0.9368207      0.6158378
      7295.5000        10.4355         0.0313        -999.25        72.0339        52.6456       79.79974         1.0894        29.9911         2.4005         1.0706       -58.7294      -17.05351      0.9957392      0.6351475
      7296.0000        10.3603         0.0155        -999.25        70.6561        53.1922       81.24054         1.0472        29.9626         2.3864          1.225       -60.1251      -18.45028              1      0.6034027
      7296.5000        10.2587          0.011        -999.25        66.6431         52.801       80.21397         1.0039        30.4776         2.3758         1.4761       -61.3107      -19.63696              1      0.5764328
      7297.0000        10.2792         0.0067        -999.25        66.6555        52.7257       80.01855         0.9585        31.6121         2.3551         1.4771       -62.8229      -21.15023              1      0.5420402
      7297.5000        10.2279        -0.0013        -999.25        67.3829        52.9578       80.63187         0.9183        32.9928         2.3433         1.1793       -65.3207      -23.64911              1      0.4852475
      7298.0000          10.19          0.005        -999.25        63.0411        53.2787       81.47881         0.8857        33.0793         2.3492         1.1933       -67.8756      -26.20509              1      0.4271571
      7298.5000        10.1658         0.0133        -999.25        59.0535        51.2762       76.21294         0.8571        34.2399         2.3285         1.2758       -70.8625      -29.19306      0.9194244      0.3592487
      7299.0000        10.1599         0.0156        -999.25        59.2248        49.9703       72.77982         0.8233        36.8138         2.2967         1.4298       -73.9613      -32.29293       0.846379      0.2887969
      7299.5000        10.1539         0.0127        -999.25        59.5343        48.1639       68.02991         0.7887        37.1023         2.2861         1.4918        -76.988      -35.32071      0.7453172       0.219984
