#------------------------------------------------------------------------------
# Created by    : vladimir.rabinovich
# Created on    : 09/19/2023 17:20:32
#------------------------------------------------------------------------------
~Version Information Section
VERS.           2.0     :   CWLS log ASCII Standard - VERSION 2.0
WRAP.           NO      :   One line per depth step
~Well Information Section
#MNEM       .UNIT                                         VALUE :DESCRIPTION
#------------------------------------------------------------------------------
STRT        .FT                                             642 :START DEPTH
STOP        .FT                                           11989 :STOP DEPTH
STEP        .FT                                             0.5 :STEP      
NULL        .                                           -999.25 :NULL      
COMP        .                       CORPUS CHRISTI OIL & GAS CO :COMPANY   
WELL        .                               OCS G05177 ST00BP00 :WELL      
FLD         .                              GALVESTON BLOCK 0151 :FIELD     
LOC         .                                                   :LOCATION  
CNTY        .                             GALVESTON LARGE BLOCK :LOCATION  
STAT        .                                             TEXAS :STATE     
CTRY        .                                     UNITED STATES :COUNTRY   
SRVC        .                                                   :SERVICE COMPANY
DATE        .                             9/13/2023 11:19:27 AM :LOG DATE  
API         .                                    42706401010000 :API NUMBER
UWI         .                                    42706401010000 :UNIQUE WELL ID
XCOORD      .                                   1130272.6689428 :SURFACE X 
YCOORD      .                                  10609756.0111422 :SURFACE Y 
LAT         .                                         29.225567 :LATITUDE  
LON         .                                        -94.599775 :LONGITUDE 
ELEV        .FT                                              83 :ELEVATION VALUE
ELEV_TYPE   .                                                KB :ELEVATION REFERENCE TYPE
~Curve Information Section
#MNEM       .UNIT                                      API CODE :CURVE DESCRIPTION
#------------------------------------------------------------------------------
DEPT        .FT                                                 :DEPTH     
ASN         .OHMM                                               :          
CILD        .MMHO                                               :          
DT          .US/F                                               :          
ILD         .OHMM                                               :          
RHOB        .G/CC                                               :          
SP          .MV                                                 :          
SP_NORM     .MV                                                 :SP Normalized
VSH_SP      .V/V                                                :Volume of Shale from SP
~A        DEPTH            ASN           CILD             DT            ILD           RHOB             SP        SP_NORM         VSH_SP
# ...
      2146.5000           0.68       1473.686       163.1117         0.6738        -999.25       -79.3368      -3.630585      0.9713371
      2147.0000         0.6813       1478.799       163.2768         0.6752        -999.25       -79.2794      -3.573189       0.973946
      2147.5000         0.6825        1483.91       162.8233         0.6765        -999.25        -79.222      -3.515785      0.9765552
      2148.0000         0.6837       1486.695       162.2151         0.6778        -999.25       -79.1647      -3.458488      0.9791596
      2148.5000          0.685       1487.811       161.6042         0.6791        -999.25       -79.1027      -3.396484       0.981978
      2149.0000         0.6862       1488.928        161.308         0.6805        -999.25       -79.0406      -3.334389      0.9848005
      2149.5000         0.6875       1490.043       161.0087         0.6817        -999.25       -78.9785      -3.272285      0.9876234
      2150.0000           0.69        1491.16         160.71         0.6829        -999.25       -78.8738      -3.167587      0.9923824
      2150.5000         0.6927       1488.496        160.566         0.6841        -999.25       -78.7659      -3.059685       0.997287
      2151.0000         0.6953       1485.598        160.886         0.6853        -999.25       -78.5974      -2.891182              1
      2151.5000          0.698       1482.699       160.7417         0.6865        -999.25       -78.3895      -2.683289              1
      2152.0000         0.7002       1478.721       160.2908         0.6877        -999.25       -78.0232      -2.316986              1
      2152.5000         0.7009       1470.699       159.2185         0.6889        -999.25       -77.4626      -1.756386              1
      2153.0000         0.7016       1462.678       158.6103         0.6901        -999.25       -76.8322      -1.125984              1
      2153.5000         0.7023       1454.652       157.3833         0.6917        -999.25       -76.1309     -0.4246826              1
      2154.0000         0.7023       1446.631       156.6204         0.6948        -999.25       -76.2404     -0.5341873              1
      2154.5000         0.7022       1443.633       155.8575         0.6979        -999.25       -77.4061      -1.699883              1
      2155.0000          0.703        1441.23       155.0946          0.701        -999.25       -79.5989      -3.892685      0.9594234
      2155.5000         0.7051       1438.828       154.3317         0.7042        -999.25       -80.1766      -4.470383      0.9331644
      2156.0000         0.7071       1436.426       153.1048         0.7073        -999.25       -80.4237      -4.717484      0.9219326
      2156.5000         0.7092       1434.619       152.8055         0.7104        -999.25       -80.4687      -4.762482      0.9198872
      2157.0000         0.7125       1433.639       153.2804         0.7136        -999.25       -80.2494      -4.543182      0.9298553
      2157.5000         0.7158       1432.658        154.219         0.7167        -999.25         -80.03      -4.323784       0.939828
      2158.0000         0.7188       1429.754       155.6396         0.7198        -999.25       -79.9385      -4.232285      0.9439871
      2158.5000         0.7203        1424.43       157.0445         0.7216        -999.25        -79.879      -4.172783      0.9466917
      2159.0000         0.7217       1417.359       156.7253         0.7226        -999.25       -79.9144      -4.208183      0.9450826
      2159.5000         0.7232       1407.496        155.965         0.7236        -999.25       -79.9626      -4.256386      0.9428915
      2160.0000         0.7233       1397.631       155.0475         0.7245        -999.25        -80.011      -4.304787      0.9406915
      2160.5000         0.7232       1389.268       154.9007         0.7255        -999.25       -80.0024      -4.296188      0.9410824
      2161.0000          0.726       1387.457       154.6018         0.7264        -999.25       -79.9362      -4.229988      0.9440914
      2161.5000         0.7301       1385.645       155.2336         0.7274        -999.25       -79.6624      -3.956184      0.9565371
      2162.0000         0.7342       1383.834       156.0175         0.7292        -999.25       -79.3253      -3.619087      0.9718597
      2162.5000         0.7387       1392.432       156.6467         0.7315        -999.25       -79.0372      -3.330986      0.9849552
      2163.0000         0.7433       1398.781       156.9665         0.7338        -999.25       -78.8473      -3.141083      0.9935871
      2163.5000          0.748       1385.535        156.977         0.7361        -999.25       -78.6573      -2.951088              1
      2164.0000         0.7526       1372.283       156.2141         0.7385        -999.25        -78.522      -2.815788              1
      2164.5000         0.7566       1355.207       155.1419         0.7408        -999.25       -78.7648      -3.058586       0.997337
      2165.0000         0.7578       1337.766       154.5336         0.7429        -999.25       -79.0703      -3.364082      0.9834508
      2165.5000          0.759       1313.188       153.8851         0.7447        -999.25       -79.3665      -3.660286       0.969987
      2166.0000         0.7603        1325.52       152.5464         0.7464        -999.25       -79.6132      -3.906982      0.9587736
      2166.5000         0.7615       1337.852       152.2449         0.7481        -999.25       -79.7842      -4.077988      0.9510006
      2167.0000          0.763       1350.178        152.258         0.7503        -999.25       -79.9413      -4.235085      0.9438598
      2167.5000         0.7646       1362.518       153.0419         0.7559        -999.25       -80.0398      -4.333588      0.9393824
      2168.0000         0.7661       1375.023       154.1351         0.7614        -999.25       -80.1383      -4.432083      0.9349053
      2168.5000         0.7706       1387.529       155.5378          0.767        -999.25       -80.1945      -4.488289      0.9323505
      2169.0000         0.7766       1392.813       156.1669         0.7725        -999.25       -80.2487      -4.542488      0.9298869
      2169.5000         0.7884       1389.703       155.8681         0.7788        -999.25       -80.3201      -4.613884      0.9266416
      2170.0000         0.8002       1373.053       153.7131         0.7851        -999.25       -80.4275      -4.721283      0.9217598
      2170.5000         0.8137       1355.973        151.094         0.7908        -999.25       -80.5854      -4.879189      0.9145823
      2171.0000         0.8302       1338.885       148.0109         0.7958        -999.25       -80.7675      -5.061287      0.9063051
      2171.5000         0.8466       1321.803       144.4638         0.7865        -999.25       -81.0129      -5.306686      0.8951506
      2172.0000          0.859       1302.234       141.0346         0.7772        -999.25        -81.389      -5.682785      0.8780552
      2172.5000         0.8677       1282.625       138.4652         0.7679        -999.25       -81.8521      -6.145882      0.8570054
      2173.0000         0.8453       1262.416       129.6487         0.7578        -999.25       -82.5389      -6.832687      0.8257869
      2173.5000          0.817       1240.965       124.8641         0.7388        -999.25       -83.9939      -8.287682      0.7596508
      2174.0000          0.782        1222.23       124.5626         0.7197        -999.25       -84.8136      -9.107384      0.7223917
      2174.5000          0.771       1296.971       126.4319         0.7007        -999.25       -85.4427      -9.736488       0.693796
      2175.0000         0.7594       1399.756        129.536         0.6817        -999.25       -86.7032      -10.99699      0.6365006
      2175.5000          0.734       1532.678       133.5681         0.6586        -999.25         -87.87      -12.16379      0.5834642
