#------------------------------------------------------------------------------
# Created by    : vladimir.rabinovich
# Created on    : 09/19/2023 17:20:33
#------------------------------------------------------------------------------
~Version Information Section
VERS.           2.0     :   CWLS log ASCII Standard - VERSION 2.0
WRAP.           NO      :   One line per depth step
~Well Information Section
#MNEM       .UNIT                                         VALUE :DESCRIPTION
#------------------------------------------------------------------------------
STRT        .FT                                             510 :START DEPTH
STOP        .FT                                            9509 :STOP DEPTH
STEP        .FT                                             0.5 :STEP      
NULL        .                                           -999.25 :NULL      
COMP        .                       BLUE DOLPHIN EXPLORATION CO :COMPANY   
WELL        .                                OCS 00714 ST00BP00 :WELL      
FLD         .                              GALVESTON BLOCK 0288 :FIELD     
LOC         .                                                   :LOCATION  
CNTY        .                             GALVESTON LARGE BLOCK :LOCATION  
STAT        .                                             TEXAS :STATE     
CTRY        .                                     UNITED STATES :COUNTRY   
SRVC        .                                                   :SERVICE COMPANY
DATE        .                             9/13/2023 11:19:25 AM :LOG DATE  
API         .                                    42706000660000 :API NUMBER
UWI         .                                    42706000660000 :UNIQUE WELL ID
XCOORD      .                                  1093932.46617998 :SURFACE X 
YCOORD      .                                  10479390.8980397 :SURFACE Y 
LAT         .                                         28.865655 :LATITUDE  
LON         .                                       -94.7077791 :LONGITUDE 
ELEV        .FT                                              83 :ELEVATION VALUE
ELEV_TYPE   .                                                KB :ELEVATION REFERENCE TYPE
~Curve Information Section
#MNEM       .UNIT                                      API CODE :CURVE DESCRIPTION
#------------------------------------------------------------------------------
DEPT        .FT                                                 :DEPTH     
ASN         .OHMM                                               :          
CALI        .IN                                                 :          
DT          .US/F                                               :          
IL          .OHMM                                               :          
SP          .MV                                                 :          
SP_NORM     .MV                                                 :SP Normalized
VSH_SP      .V/V                                                :Volume of Shale from SP
~A        DEPTH            ASN           CALI             DT             IL             SP        SP_NORM         VSH_SP
# ...
      9488.0000         0.8331         7.3939       108.6534         0.7926       -40.3532     -0.7995377              1
      9488.5000         0.8454         7.4159       110.7651         0.7924        -40.509     -0.9580956              1
      9489.0000         0.8569         7.4038       109.5017         0.7934       -40.7567      -1.208549              1
      9489.5000         0.8474         7.3672       107.8848         0.7944       -40.8577      -1.312305              1
      9490.0000         0.8569         7.3995       107.4404         0.8027       -40.6625      -1.119858              1
      9490.5000         0.8897         7.3275       107.9442         0.8123       -40.6931      -1.153214              1
      9491.0000         0.8958         7.2058       105.8842         0.8219       -40.8826      -1.345467              1
      9491.5000         0.9034         7.2389        111.472         0.8306       -40.8521      -1.317219              1
      9492.0000         0.9173         7.2571       113.7297         0.8388       -40.6267       -1.09182              1
      9492.5000         0.9027         7.2419       108.6624         0.8469       -40.3104     -0.7755165              1
      9493.0000          0.863         7.1887       108.0542         0.8448       -40.3782     -0.8433189              1
      9493.5000         0.8566           7.15       107.9701         0.8419       -40.8956      -1.360718              1
      9494.0000         0.8926         7.1289       108.4828         0.8358       -40.8729      -1.338017              1
      9494.5000         0.9042         7.1116         109.78         0.8275       -41.1968      -1.661919              1
      9495.0000         0.8932         7.1934       110.3152         0.8217       -41.7068      -2.171917      0.9964184
      9495.5000          0.893         7.1569        106.517         0.8181       -41.8247      -2.289818      0.9939621
      9496.0000         0.8948         7.3175        98.9182         0.8284       -41.4512      -1.916317              1
      9496.5000         0.8916         7.3122       109.0215         0.8355       -40.9987      -1.463818              1
      9497.0000         0.8986         7.3252       111.3571         0.8385       -40.5754       -1.04052              1
      9497.5000         0.8776         7.2706       111.6246         0.8074       -40.7947      -1.259819              1
      9498.0000         0.7869         7.1413       112.6885          0.762       -40.8912      -1.356319              1
      9498.5000         0.8083         7.2422       112.6794         0.7335       -40.6666      -1.131718              1
      9499.0000          0.876         7.1263        112.161         0.7477       -40.4837     -0.9488182              1
      9499.5000         0.8831         7.3353       111.7596         0.7706       -40.3648     -0.8299179              1
      9500.0000          0.847         7.2722       111.7565         0.7776       -40.5167     -0.9818192              1
      9500.5000         0.8176          7.169       111.7441         0.7688       -40.6794       -1.14452              1
      9501.0000         0.8013         7.1078       112.1196         0.7522       -40.7591       -1.22422              1
      9501.5000          0.794         7.2893       112.1577         0.7401        -40.666      -1.131119              1
      9502.0000          0.799         7.3195       112.1251         0.7346       -40.6933      -1.158417              1
      9502.5000         0.8239        -999.25        -999.25         0.7412       -40.8766      -1.341717              1
      9503.0000         0.8419        -999.25        -999.25         0.7491       -41.1636      -1.628719              1
      9503.5000          0.838        -999.25        -999.25         0.7682        -41.265      -1.730118              1
      9504.0000         0.8307        -999.25        -999.25         0.7852       -41.0494      -1.514519              1
      9504.5000         0.8365        -999.25        -999.25         0.7914       -40.7213      -1.186417              1
      9505.0000         0.8545        -999.25        -999.25         0.7942       -40.3458     -0.8109169              1
      9505.5000         0.8485        -999.25        -999.25         0.7885       -40.1947     -0.6598167              1
      9506.0000           0.81        -999.25        -999.25          0.781        -40.162     -0.6271172              1
      9506.5000         0.7903        -999.25        -999.25         0.7729       -40.6846      -1.149719              1
      9507.0000          0.814        -999.25        -999.25          0.767       -41.6036      -2.068718      0.9985684
      9507.5000         0.8142        -999.25        -999.25         0.7635        -41.431      -1.896118              1
      9508.0000         0.7988        -999.25        -999.25         0.7624       -41.0567       -1.52182              1
      9508.5000         0.7842        -999.25        -999.25          0.764       -40.6453       -1.11042              1
      9509.0000         0.7752        -999.25        -999.25         0.7681       -40.2842     -0.7493172              1
