#------------------------------------------------------------------------------
# Created by    : vladimir.rabinovich
# Created on    : 09/19/2023 17:21:25
#------------------------------------------------------------------------------
~Version Information Section
VERS.           2.0     :   CWLS log ASCII Standard - VERSION 2.0
WRAP.           NO      :   One line per depth step
~Well Information Section
#MNEM       .UNIT                                         VALUE :DESCRIPTION
#------------------------------------------------------------------------------
STRT        .FT                                            2957 :START DEPTH
STOP        .FT                                            7390 :STOP DEPTH
STEP        .FT                                             0.5 :STEP      
NULL        .                                           -999.25 :NULL      
COMP        .                              DEVON LOUISIANA CORP :COMPANY   
WELL        .                               OCS G09039 ST00BP00 :WELL      
FLD         .                              GALVESTON BLOCK 0273 :FIELD     
LOC         .                                                   :LOCATION  
CNTY        .                             GALVESTON LARGE BLOCK :LOCATION  
STAT        .                                             TEXAS :STATE     
CTRY        .                                     UNITED STATES :COUNTRY   
SRVC        .                                                   :SERVICE COMPANY
DATE        .                             9/13/2023 11:19:54 AM :LOG DATE  
API         .                                    42706403330000 :API NUMBER
UWI         .                                    42706403330000 :UNIQUE WELL ID
XCOORD      .                                  1020560.14583294 :SURFACE X 
YCOORD      .                                  10500181.0477632 :SURFACE Y 
LAT         .                                        28.9197225 :LATITUDE  
LON         .                                       -94.9380297 :LONGITUDE 
ELEV        .FT                                              98 :ELEVATION VALUE
ELEV_TYPE   .                                                KB :ELEVATION REFERENCE TYPE
~Curve Information Section
#MNEM       .UNIT                                      API CODE :CURVE DESCRIPTION
#------------------------------------------------------------------------------
DEPT        .FT                                                 :DEPTH     
CALI        .IN                                                 :          
DCAL        .IN                                                 :          
DPHI        .%                                                  :          
DRHO        .G/C3                                               :          
GR          .GAPI                                               :          
GR_NORM     .GAPI                                               :GammaRay Normalized
ILD         .OHMM                                               :          
ILM         .OHMM                                               :          
LL3         .OHMM                                               :          
NPHI        .%                                                  :          
SP          .MV                                                 :          
SP_NORM     .MV                                                 :SP Normalized
VSH_GR      .V/V                                                :Volume of Shale from GR
VSH_SP      .V/V                                                :Volume of Shale from SP
~A        DEPTH           CALI           DCAL           DPHI           DRHO             GR        GR_NORM            ILD            ILM            LL3           NPHI             SP        SP_NORM         VSH_GR         VSH_SP
# ...
      3857.0000        11.3609         1.1735        20.6021         0.0598        71.2764       77.14923         0.8862         0.9388         0.8879        34.0797       -11.7943      0.2968216      0.9393454              1
      3857.5000         11.198         1.1195        20.9703         0.0632        71.2034       77.06522         0.9155         0.9822         0.8447        31.9292       -13.2094      -1.122308      0.9375578       0.983967
      3858.0000        11.0475          1.091        20.8499         0.0653        69.7482       75.39626           0.95         1.0509         1.3553        29.3765       -16.5025      -4.419437       0.902048      0.9368652
      3858.5000        10.9859         1.0486        19.7668          0.056         66.769       71.97977         0.9802         1.1263         2.0683        27.3662       -20.6529      -8.573867      0.8293569      0.8775162
      3859.0000        10.9532         1.0173        18.2041         0.0428         63.448       68.17139         1.0065         1.1815         2.8414        26.0497       -24.1895       -12.1145      0.7483276      0.8269358
      3859.5000        10.9419         0.9998        16.6415         0.0333        61.0423       65.41253         1.0362         1.2023         2.9896        25.0837       -25.7304      -13.65942      0.6896283      0.8048654
      3860.0000        10.9346         1.0232        15.7627         0.0381        59.2606        63.3692         1.0758         1.1991         2.1045        24.5851       -24.7741      -12.70715      0.6461532      0.8184692
      3860.5000        10.9435         1.0609        15.2262         0.0458        58.2191       62.17463          1.123         1.1932         1.3631        24.6842       -22.0211      -9.958181      0.6207367      0.8577403
      3861.0000        10.9664         1.1324         15.277         0.0498        59.6342       63.79696         1.1659         1.1987         1.1377        25.2689       -18.6893      -6.630412      0.6552544      0.9052798
      3861.5000        11.0072         1.2183        15.3986         0.0464        60.9094       65.25886         1.1936         1.2187         1.1592        25.8923       -15.5954       -3.54054      0.6863587      0.9494209
      3862.0000        11.0538         1.2811        15.0525         0.0443        59.7986       63.98483         1.2056         1.2496         1.2712        26.1361       -13.3897      -1.338869      0.6592516      0.9808733
      3862.5000        11.1194         1.3234        14.2863          0.052        56.8745       60.63154          1.206         1.2846         1.4169        25.8846       -12.3778     -0.3309984       0.587905      0.9952714
      3863.0000         11.215         1.3842        13.4955         0.0622        54.5609       57.97829         1.1992         1.3119         1.4806        25.4453       -12.3685     -0.3257275      0.5314531      0.9953467
      3863.5000        11.2815         1.3952        13.1265         0.0646        53.1331       56.34076         1.1854          1.313         1.4834        25.4178       -12.7908     -0.7520571      0.4966119      0.9892563
      3864.0000        11.3002         1.3581        13.4839         0.0602        53.4996        56.7607          1.161         1.2724         1.5497        26.0866       -12.9851     -0.9503851      0.5055467      0.9864231
      3864.5000        11.2656         1.3225        15.3611         0.0574        55.9579       59.57923         1.1241         1.1948         1.5257        27.3759       -12.5748     -0.5441141      0.5655155       0.992227
      3865.0000        11.2026         1.2631        17.6147         0.0559        64.7151        69.6205         1.0762         1.1017         1.1682        29.5846       -11.8335      0.1931562      0.7791595              1
      3865.5000        11.1554         1.1687        20.2959         0.0571        73.7052       79.92883         1.0152         1.0134         0.9016        32.7758        -11.005       1.017627      0.9984856              1
      3866.0000         11.102          1.126        23.5672         0.0505         82.411       89.91115          0.948           0.94          0.838        35.9902       -10.4075       1.611097              1              1
      3866.5000         11.054         1.1231        25.1923         0.0457        90.1902       98.83099         0.8857         0.8831         0.7934        38.8914       -10.0933       1.921269              1              1
      3867.0000        11.0136         1.1201        26.2265         0.0451        95.9623       105.4493         0.8363         0.8409         0.7533        40.9528       -10.0521        1.95844              1              1
      3867.5000        10.9974         1.1201        26.9109         0.0489        98.6877       108.5741         0.8024         0.8116           0.76        42.0139       -10.1126        1.89391              1              1
      3868.0000        10.9908         1.1201        27.1787         0.0529         99.541       109.5523         0.7829         0.7935         0.7657        42.3733        -10.296       1.706482              1              1
      3868.5000        10.9906         1.1195        27.2294         0.0529           97.7       107.4409         0.7721         0.7839          0.761        42.7155       -10.5087       1.489752              1              1
      3869.0000        10.9871         1.1171        27.1061         0.0509        93.9341       103.1224         0.7679         0.7806         0.7257        43.4164       -10.6978       1.296624              1              1
      3869.5000        10.9774         1.1197        26.9375         0.0504        92.5781       101.5672         0.7697         0.7825          0.749        44.5166       -10.8285       1.161895              1              1
      3870.0000        10.9679         1.1189        26.6433         0.0497        92.7877       101.8072         0.7754          0.788         0.7381        45.6155       -10.9628       1.023565              1              1
      3870.5000        10.9708         1.1275        26.2307         0.0518        94.0922       103.3027          0.783         0.7955         0.7242        46.3986       -11.1909      0.7914362              1              1
      3871.0000        10.9797         1.1361        25.7207         0.0536        95.2975       104.6845         0.7906         0.8035         0.7272        46.8502       -11.5998      0.3785067              1              1
      3871.5000        10.9881         1.1563         25.204         0.0551        95.3992       104.8008         0.7971         0.8106         0.7501             47       -12.1621     -0.1878214              1      0.9973168
      3872.0000        11.0104         1.1799        24.8383         0.0571        94.8895        104.216         0.8019         0.8163         0.7262        46.7494       -12.5742     -0.6039505              1      0.9913721
      3872.5000        11.0389         1.2123        24.7007         0.0584        94.5837        103.865         0.8043         0.8195         0.7516        45.8962        -12.539     -0.5727797              1      0.9918174
      3873.0000        11.0723         1.2444        24.8145         0.0578        92.9207       101.9578         0.8046         0.8187         0.7595        44.5223       -12.0869     -0.1247091              1      0.9982184
      3873.5000        11.1191         1.2803        25.2006          0.058        89.4624       97.99197         0.8035         0.8146         0.7624        43.1135       -11.3899      0.5682611              1              1
      3874.0000        11.1609         1.3228        25.6669         0.0594        86.0042       94.02625         0.8016         0.8084          0.793        42.4188        -10.674       1.280133              1              1
      3874.5000        11.1963         1.3611        26.0195         0.0603        82.7333       90.27528         0.7996         0.8021         0.8011        42.8757        -10.186       1.764104              1              1
