#------------------------------------------------------------------------------
# Created by    : vladimir.rabinovich
# Created on    : 09/19/2023 17:20:35
#------------------------------------------------------------------------------
~Version Information Section
VERS.           2.0     :   CWLS log ASCII Standard - VERSION 2.0
WRAP.           NO      :   One line per depth step
~Well Information Section
#MNEM       .UNIT                                         VALUE :DESCRIPTION
#------------------------------------------------------------------------------
STRT        .FT                                             501 :START DEPTH
STOP        .FT                                            8659 :STOP DEPTH
STEP        .FT                                             0.5 :STEP      
NULL        .                                           -999.25 :NULL      
COMP        .                                      SHELL OIL CO :COMPANY   
WELL        .                                OCS 00705 ST00BP00 :WELL      
FLD         .                                           WILDCAT :FIELD     
LOC         .                                                   :LOCATION  
CNTY        .                             GALVESTON LARGE BLOCK :LOCATION  
STAT        .                                             TEXAS :STATE     
CTRY        .                                     UNITED STATES :COUNTRY   
SRVC        .                                                   :SERVICE COMPANY
DATE        .                             9/13/2023 11:19:25 AM :LOG DATE  
API         .                                    42706000440000 :API NUMBER
UWI         .                                    42706000440000 :UNIQUE WELL ID
XCOORD      .                                  1104214.94625617 :SURFACE X 
YCOORD      .                                  10500066.5450575 :SURFACE Y 
LAT         .                                         28.922918 :LATITUDE  
LON         .                                        -94.676571 :LONGITUDE 
ELEV        .FT                                              41 :ELEVATION VALUE
ELEV_TYPE   .                                                KB :ELEVATION REFERENCE TYPE
~Curve Information Section
#MNEM       .UNIT                                      API CODE :CURVE DESCRIPTION
#------------------------------------------------------------------------------
DEPT        .FT                                                 :DEPTH     
ASN         .OHMM                                               :          
CILD        .MMHO                                               :          
DT          .US/F                                               :          
ILD         .OHMM                                               :          
LAT         .OHMM                                               :          
SP          .MV                                                 :          
SP_NORM     .MV                                                 :SP Normalized
VSH_SP      .V/V                                                :Volume of Shale from SP
~A        DEPTH            ASN           CILD             DT            ILD            LAT             SP        SP_NORM         VSH_SP
# ...
      3215.0000         0.8869       998.5898        -999.25         1.0753        -999.25       -54.6633      -2.585575      0.9559562
      3215.5000         0.8773       1022.555        -999.25         1.0628        -999.25       -53.7996      -1.726318      0.9798245
      3216.0000         0.8641       1047.477        -999.25         1.0502        -999.25       -52.9365     -0.8676605              1
      3216.5000         0.8508       1064.535        -999.25         1.0377        -999.25       -52.5149     -0.4505043              1
      3217.0000         0.8376       1079.197        -999.25         1.0252        -999.25       -52.2865     -0.2265472              1
      3217.5000         0.8243        1081.74        -999.25         1.0127        -999.25       -52.0582   -0.002689362              1
      3218.0000         0.8173       1077.768        -999.25         1.0143        -999.25       -51.8297      0.2213669              1
      3218.5000         0.8132       1073.799        -999.25         1.0161        -999.25       -52.2068     -0.1601715              1
      3219.0000         0.8184       1069.826        -999.25          1.028        -999.25       -52.6272     -0.5850182              1
      3219.5000         0.8452       1065.855        -999.25         1.0311        -999.25       -53.0478      -1.010059      0.9997206
      3220.0000         0.8708       1061.365        -999.25         1.0318        -999.25       -53.6933          -1.66      0.9816667
      3220.5000         0.8803        1063.42        -999.25         1.0325        -999.25       -54.5391      -2.510246      0.9580487
      3221.0000         0.8831       1081.281        -999.25         1.0332        -999.25       -55.3848       -3.36039      0.9344336
      3221.5000         0.8667        1096.26        -999.25         1.0339        -999.25       -55.2699      -3.249931      0.9375019
      3222.0000         0.8502        1110.02        -999.25         1.0346        -999.25        -55.053      -3.037476      0.9434035
      3222.5000         0.8342       1123.674        -999.25         1.0361        -999.25       -54.8359      -2.824814      0.9493107
      3223.0000         0.8185       1132.375        -999.25         1.0375        -999.25       -54.5555      -2.548859      0.9569762
      3223.5000         0.8027       1141.082        -999.25          1.039        -999.25       -54.2706      -2.268402      0.9647666
      3224.0000         0.7944        1136.75        -999.25         1.0404        -999.25       -53.9857      -1.987942      0.9725572
      3224.5000         0.7993       1132.191        -999.25         1.0419        -999.25       -53.7007      -1.707386      0.9803504
      3225.0000         0.8037       1123.734        -999.25         1.0433        -999.25       -53.4159      -1.427032       0.988138
      3225.5000          0.808       1115.279        -999.25         1.0448        -999.25       -53.1309      -1.146473      0.9959313
      3226.0000         0.8123       1106.822        -999.25         1.0462        -999.25       -52.8459     -0.8659172              1
      3226.5000         0.8165       1098.365        -999.25         1.0476        -999.25        -52.561     -0.5854607              1
      3227.0000         0.8208       1090.512        -999.25         1.0491        -999.25        -52.276     -0.3049011              1
      3227.5000         0.8251       1085.295        -999.25         1.0505        -999.25        -52.085     -0.1183434              1
      3228.0000         0.8271        1080.08        -999.25          1.052        -999.25       -51.9474     0.01481628              1
      3228.5000         0.8274       1074.863        -999.25         1.0534        -999.25       -51.8099      0.1478729              1
      3229.0000         0.8277        1074.09        -999.25         1.0529        -999.25       -51.6724      0.2809258              1
      3229.5000         0.8279       1074.021        -999.25         1.0521        -999.25       -51.5348      0.4140854              1
      3230.0000         0.8282       1073.953        -999.25         1.0512        -999.25       -51.3973       0.547142              1
      3230.5000         0.8284       1077.648        -999.25         1.0504        -999.25       -51.2598      0.6801987              1
      3231.0000         0.8255        1085.23        -999.25         1.0495        -999.25       -51.1222      0.8133583              1
      3231.5000         0.8218       1092.813        -999.25         1.0487        -999.25       -51.0169      0.9142151              1
      3232.0000          0.818       1100.393        -999.25         1.0479        -999.25       -50.9844      0.9422722              1
      3232.5000         0.8141        1107.98        -999.25          1.047        -999.25        -50.952      0.9702301              1
      3233.0000         0.8102       1114.176        -999.25         1.0462        -999.25       -50.9196      0.9981842              1
      3233.5000         0.8063       1120.092        -999.25         1.0453        -999.25       -50.8871       1.026245              1
      3234.0000         0.8024       1124.697        -999.25         1.0445        -999.25       -50.8547       1.054203              1
      3234.5000         0.7987       1124.365        -999.25         1.0436        -999.25       -50.8223       1.082157              1
      3235.0000         0.8002       1124.035        -999.25         1.0428        -999.25       -50.7899       1.110115              1
      3235.5000         0.8017       1123.703        -999.25          1.042        -999.25       -50.7574       1.138172              1
      3236.0000         0.8032       1123.373        -999.25         1.0411        -999.25        -50.725        1.16613              1
      3236.5000         0.8047       1123.041        -999.25         1.0371        -999.25       -50.7507       1.135986              1
      3237.0000         0.8062       1122.711        -999.25         1.0302        -999.25       -50.8741       1.008144              1
      3237.5000         0.8077       1122.379        -999.25         1.0233        -999.25       -50.9977      0.8801041              1
      3238.0000         0.8079       1122.523        -999.25         1.0164        -999.25       -51.1695      0.7038612              1
      3238.5000         0.8044       1127.771        -999.25         1.0095        -999.25       -51.5557      0.3132172              1
      3239.0000          0.801       1133.016        -999.25         1.0026        -999.25        -51.942    -0.07752609              1
      3239.5000         0.7975       1161.299        -999.25         0.9957        -999.25       -52.3282     -0.4681702              1
      3240.0000         0.7941       1182.764        -999.25         0.9888        -999.25       -52.7147     -0.8591118              1
      3240.5000         0.7906       1189.748        -999.25         0.9819        -999.25       -53.0029      -1.151752      0.9957846
      3241.0000         0.7871        1196.73        -999.25          0.975        -999.25       -52.8436     -0.9968987              1
      3241.5000         0.7795       1199.949        -999.25         0.9681        -999.25       -52.6842      -0.841938              1
      3242.0000         0.7714       1201.736        -999.25         0.9612        -999.25       -52.5249     -0.6870804              1
      3242.5000         0.7633       1203.525        -999.25         0.9564        -999.25       -52.2766     -0.4432259              1
      3243.0000         0.7552       1205.311        -999.25          0.952        -999.25       -52.0074     -0.1784668              1
      3243.5000         0.7482       1207.098        -999.25         0.9477        -999.25       -51.7382     0.08628845              1
      3244.0000         0.7474        1208.75        -999.25         0.9434        -999.25        -51.469      0.3510437              1
