#------------------------------------------------------------------------------
# Created by    : vladimir.rabinovich
# Created on    : 09/19/2023 17:20:34
#------------------------------------------------------------------------------
~Version Information Section
VERS.           2.0     :   CWLS log ASCII Standard - VERSION 2.0
WRAP.           NO      :   One line per depth step
~Well Information Section
#MNEM       .UNIT                                         VALUE :DESCRIPTION
#------------------------------------------------------------------------------
STRT        .FT                                             495 :START DEPTH
STOP        .FT                                            9652 :STOP DEPTH
STEP        .FT                                             0.5 :STEP      
NULL        .                                           -999.25 :NULL      
COMP        .                                      SHELL OIL CO :COMPANY   
WELL        .                                OCS 00714 ST00BP00 :WELL      
FLD         .                                FEDERAL BLOCK 0288 :FIELD     
LOC         .                                                   :LOCATION  
CNTY        .                             GALVESTON LARGE BLOCK :LOCATION  
STAT        .                                             TEXAS :STATE     
CTRY        .                                     UNITED STATES :COUNTRY   
SRVC        .                                                   :SERVICE COMPANY
DATE        .                             9/13/2023 11:19:25 AM :LOG DATE  
API         .                                    42706000490000 :API NUMBER
UWI         .                                    42706000490000 :UNIQUE WELL ID
XCOORD      .                                  1093419.85109126 :SURFACE X 
YCOORD      .                                  10468907.9519753 :SURFACE Y 
LAT         .                                         28.836806 :LATITUDE  
LON         .                                        -94.708909 :LONGITUDE 
ELEV        .FT                                              83 :ELEVATION VALUE
ELEV_TYPE   .                                                KB :ELEVATION REFERENCE TYPE
~Curve Information Section
#MNEM       .UNIT                                      API CODE :CURVE DESCRIPTION
#------------------------------------------------------------------------------
DEPT        .FT                                                 :DEPTH     
ASN         .OHMM                                               :          
ASN_1       .OHMM                                               :          
CALI        .IN                                                 :          
CALI_1      .IN                                                 :          
DRHO        .G/C3                                               :          
DT          .US/F                                               :          
ILD         .OHMM                                               :          
LAT         .OHMM                                               :          
LN          .OHMM                                               :          
RHOB        .G/C3                                               :          
SP          .MV                                                 :          
SP_1        .MV                                                 :          
SP_NORM     .MV                                                 :SP Normalized
VSH_SP      .V/V                                                :Volume of Shale from SP
~A        DEPTH            ASN          ASN_1           CALI         CALI_1           DRHO             DT            ILD            LAT             LN           RHOB             SP           SP_1        SP_NORM         VSH_SP
# ...
      9441.0000         1.3835        -999.25        -999.25         7.1157        -999.25        95.3495         1.0748        -999.25        -999.25        -999.25        -999.25       -39.2653      -1.728912              1
      9441.5000         1.3832        -999.25        -999.25         7.2624        -999.25        97.6562         1.0672        -999.25        -999.25        -999.25        -999.25       -39.7764       -2.22971      0.9917961
      9442.0000          1.369        -999.25        -999.25         7.3245        -999.25        97.9308         1.0588        -999.25        -999.25        -999.25        -999.25       -40.2092      -2.652206      0.9767069
      9442.5000         1.3442        -999.25        -999.25         7.3843        -999.25        96.7426          1.049        -999.25        -999.25        -999.25        -999.25       -40.5138      -2.946503      0.9661964
      9443.0000         1.3213        -999.25        -999.25          7.399        -999.25        94.1703         1.0402        -999.25        -999.25        -999.25        -999.25       -40.5667      -2.989098      0.9646751
      9443.5000         1.3088        -999.25        -999.25         7.4136        -999.25        91.9647         1.0351        -999.25        -999.25        -999.25        -999.25       -40.3089      -2.720989      0.9742504
      9444.0000         1.3136        -999.25        -999.25         7.4093        -999.25        92.8695         1.0305        -999.25        -999.25        -999.25        -999.25        -39.737      -2.138786      0.9950433
      9444.5000         1.3228        -999.25        -999.25          7.403        -999.25        94.9669         1.0272        -999.25        -999.25        -999.25        -999.25       -39.0593      -1.450783              1
      9445.0000         1.3292        -999.25        -999.25         7.3808        -999.25        97.0486         1.0215        -999.25        -999.25        -999.25        -999.25       -38.6186     -0.9997787              1
      9445.5000         1.3279        -999.25        -999.25         7.3578        -999.25        97.7755         1.0111        -999.25        -999.25        -999.25        -999.25       -38.3918     -0.7626762              1
      9446.0000         1.3115        -999.25        -999.25         7.3176        -999.25        94.9849         0.9896        -999.25        -999.25        -999.25        -999.25       -38.8657      -1.226273              1
      9446.5000         1.2881        -999.25        -999.25         7.2996        -999.25        93.3804         0.9675        -999.25        -999.25        -999.25        -999.25       -39.3196      -1.669868              1
      9447.0000         1.2634        -999.25        -999.25         7.2955        -999.25        95.4642         0.9505        -999.25        -999.25        -999.25        -999.25       -38.7621      -1.102066              1
      9447.5000         1.2441        -999.25        -999.25         7.2646        -999.25        96.4331          0.937        -999.25        -999.25        -999.25        -999.25       -39.5198      -1.849457              1
      9448.0000         1.2259        -999.25        -999.25         7.2115        -999.25        97.3929         0.9252        -999.25        -999.25        -999.25        -999.25       -39.6453      -1.964657              1
      9448.5000          1.214        -999.25        -999.25         7.0792        -999.25       102.1099         0.9151        -999.25        -999.25        -999.25        -999.25         -39.24      -1.549053              1
      9449.0000         1.2194        -999.25        -999.25         7.0497        -999.25       103.9924          0.903        -999.25        -999.25        -999.25        -999.25        -38.996      -1.294746              1
      9449.5000         1.1854        -999.25        -999.25         7.1567        -999.25       102.0018         0.8905        -999.25        -999.25        -999.25        -999.25       -39.2394      -1.527843              1
      9450.0000         1.1357        -999.25        -999.25         7.2781        -999.25       100.3973          0.889        -999.25        -999.25        -999.25        -999.25       -39.1066      -1.384743              1
      9450.5000         1.1211        -999.25        -999.25         7.3921        -999.25        99.7312         0.8889        -999.25        -999.25        -999.25        -999.25       -38.2986     -0.5664368              1
      9451.0000         1.1282        -999.25        -999.25         7.3904        -999.25        97.9196         0.8788        -999.25        -999.25        -999.25        -999.25       -38.4323     -0.6898346              1
      9451.5000         1.1396        -999.25        -999.25         7.3018        -999.25        95.6803         0.8814        -999.25        -999.25        -999.25        -999.25         -38.62     -0.8672256              1
      9452.0000         1.1479        -999.25        -999.25         7.2793        -999.25       100.3275           0.89        -999.25        -999.25        -999.25        -999.25       -38.0867     -0.3236237              1
      9452.5000         1.1169        -999.25        -999.25         7.3063        -999.25       104.9545         0.9002        -999.25        -999.25        -999.25        -999.25       -37.5261      0.2472801              1
      9453.0000         1.0838        -999.25        -999.25         7.3114        -999.25       103.1721         0.9087        -999.25        -999.25        -999.25        -999.25        -37.006      0.7717781              1
      9453.5000         1.1317        -999.25        -999.25         7.2235        -999.25         97.708         0.9196        -999.25        -999.25        -999.25        -999.25        -38.098     -0.3202209              1
      9454.0000         1.1857        -999.25        -999.25         7.2098        -999.25        96.9744         0.9165        -999.25        -999.25        -999.25        -999.25         -39.28       -1.50222              1
      9454.5000         1.1729        -999.25        -999.25         7.2874        -999.25       101.2908         0.9038        -999.25        -999.25        -999.25        -999.25       -39.5794       -1.80162              1
      9455.0000         1.1426        -999.25        -999.25         7.3458        -999.25       102.0592         0.8906        -999.25        -999.25        -999.25        -999.25       -39.2515      -1.473721              1
      9455.5000         1.1147        -999.25        -999.25         7.3663        -999.25       102.1459         0.8761        -999.25        -999.25        -999.25        -999.25        -39.168      -1.390221              1
      9456.0000         1.1018        -999.25        -999.25         7.3072        -999.25       103.1406         0.8646        -999.25        -999.25        -999.25        -999.25       -39.8845       -2.10672      0.9961886
      9456.5000         1.0982        -999.25        -999.25         7.2249        -999.25       105.3439         0.8583        -999.25        -999.25        -999.25        -999.25       -39.5862      -1.808422              1
      9457.0000         1.0921        -999.25        -999.25         7.1766        -999.25       101.8938         0.8531        -999.25        -999.25        -999.25        -999.25       -40.0027      -2.224922      0.9919671
      9457.5000         1.0745        -999.25        -999.25         7.1568        -999.25         98.077         0.8533        -999.25        -999.25        -999.25        -999.25       -38.9332      -1.155422              1
      9458.0000         1.0703        -999.25        -999.25         7.2196        -999.25       101.9298         0.8536        -999.25        -999.25        -999.25        -999.25       -39.4376      -1.659821              1
      9458.5000         1.0894        -999.25        -999.25          7.281        -999.25        103.854         0.8606        -999.25        -999.25        -999.25        -999.25       -39.3926      -1.614822              1
