#------------------------------------------------------------------------------
# Created by    : vladimir.rabinovich
# Created on    : 09/19/2023 17:20:33
#------------------------------------------------------------------------------
~Version Information Section
VERS.           2.0     :   CWLS log ASCII Standard - VERSION 2.0
WRAP.           NO      :   One line per depth step
~Well Information Section
#MNEM       .UNIT                                         VALUE :DESCRIPTION
#------------------------------------------------------------------------------
STRT        .FT                                             526 :START DEPTH
STOP        .FT                                            9568 :STOP DEPTH
STEP        .FT                                             0.5 :STEP      
NULL        .                                           -999.25 :NULL      
COMP        .                       BLUE DOLPHIN EXPLORATION CO :COMPANY   
WELL        .                                OCS 00713 ST00BP00 :WELL      
FLD         .                              GALVESTON BLOCK 0288 :FIELD     
LOC         .                                                   :LOCATION  
CNTY        .                             GALVESTON LARGE BLOCK :LOCATION  
STAT        .                                             TEXAS :STATE     
CTRY        .                                     UNITED STATES :COUNTRY   
SRVC        .                                                   :SERVICE COMPANY
DATE        .                             9/13/2023 11:19:25 AM :LOG DATE  
API         .                                    42706000630000 :API NUMBER
UWI         .                                    42706000630000 :UNIQUE WELL ID
XCOORD      .                                  1101981.32688909 :SURFACE X 
YCOORD      .                                  10481575.8265757 :SURFACE Y 
LAT         .                                          28.87198 :LATITUDE  
LON         .                                        -94.682732 :LONGITUDE 
ELEV        .FT                                              58 :ELEVATION VALUE
ELEV_TYPE   .                                                KB :ELEVATION REFERENCE TYPE
~Curve Information Section
#MNEM       .UNIT                                      API CODE :CURVE DESCRIPTION
#------------------------------------------------------------------------------
DEPT        .FT                                                 :DEPTH     
ASN         .OHMM                                               :          
CALI        .IN                                                 :          
DT          .US/F                                               :          
ILD         .OHMM                                               :          
SP          .MV                                                 :          
SP_NORM     .MV                                                 :SP Normalized
VSH_SP      .V/V                                                :Volume of Shale from SP
~A        DEPTH            ASN           CALI             DT            ILD             SP        SP_NORM         VSH_SP
# ...
      2335.0000         0.8139        -999.25        -999.25         0.6504       -40.0647      -1.183971              1
      2335.5000         0.8101        -999.25        -999.25         0.6651       -39.8318     -0.9500732              1
      2336.0000         0.7945        -999.25        -999.25         0.6695       -39.1646     -0.2818756              1
      2336.5000         0.7774        -999.25        -999.25         0.6754       -38.6624      0.2213211              1
      2337.0000         0.7691        -999.25        -999.25         0.6804       -38.9083    -0.02357864              1
      2337.5000          0.771        -999.25        -999.25         0.6794        -39.035     -0.1492844              1
      2338.0000         0.7741        -999.25        -999.25          0.671       -38.9896     -0.1028862              1
      2338.5000         0.7726        -999.25        -999.25         0.6578       -38.7798      0.1079102              1
      2339.0000         0.7703        -999.25        -999.25         0.6535       -38.4106      0.4781113              1
      2339.5000         0.7714        -999.25        -999.25         0.6455       -38.1208      0.7689056              1
      2340.0000         0.7789        -999.25        -999.25         0.6332       -37.7659       1.124805              1
      2340.5000         0.7814        -999.25        -999.25         0.6161       -37.6719       1.219799              1
      2341.0000         0.7669        -999.25        -999.25         0.5993       -37.8902       1.002499              1
      2341.5000          0.771        -999.25        -999.25         0.5991       -38.6494       0.244297              1
      2342.0000         0.7809        -999.25        -999.25         0.6047       -38.0347       0.859993              1
      2342.5000         0.7725        -999.25        -999.25         0.6068       -38.5767      0.3189926              1
      2343.0000         0.7684        -999.25        -999.25          0.609       -39.1248     -0.2281151              1
      2343.5000         0.7724        -999.25        -999.25         0.6216       -39.4419     -0.5442123              1
      2344.0000         0.7721        -999.25        -999.25         0.6319       -39.6332       -0.73452              1
      2344.5000         0.7687        -999.25        -999.25         0.6371       -39.4298      -0.530117              1
      2345.0000         0.7672        -999.25        -999.25         0.6425       -38.7106      0.1900749              1
      2345.5000         0.7676        -999.25        -999.25         0.6386       -38.4244      0.4772758              1
      2346.0000         0.7673        -999.25        -999.25         0.6286       -38.6732      0.2294731              1
      2346.5000         0.7684        -999.25        -999.25         0.6162       -39.7906     -0.8869286              1
      2347.0000         0.7678        -999.25        -999.25         0.6008       -40.1652      -1.260532              1
      2347.5000         0.7643        -999.25        -999.25         0.5875        -39.928      -1.022335              1
      2348.0000         0.7593        -999.25        -999.25          0.583       -40.3306      -1.423939              1
      2348.5000         0.7519        -999.25        -999.25          0.582        -40.449       -1.54134              1
      2349.0000         0.7463        -999.25        -999.25         0.5773       -40.5436      -1.634941              1
      2349.5000         0.7416        -999.25        -999.25         0.5733       -40.2667      -1.357048              1
      2350.0000         0.7392        -999.25        -999.25          0.562       -39.7088     -0.7981491              1
      2350.5000         0.7343        -999.25        -999.25         0.5583       -39.3799     -0.4682541              1
      2351.0000         0.7314        -999.25        -999.25          0.535       -39.3699     -0.4572525              1
      2351.5000         0.7303        -999.25        -999.25         0.5278       -39.5461     -0.6324577              1
      2352.0000         0.7311        -999.25        -999.25         0.5182       -39.9766      -1.061958              1
      2352.5000         0.7326        -999.25        -999.25         0.5041       -40.8509      -1.935261              1
      2353.0000          0.741        -999.25        -999.25         0.4965       -42.7971      -3.880463      0.8746358
      2353.5000         0.7529        -999.25        -999.25         0.5046       -46.0986      -7.180965      0.6546023
      2354.0000         0.7551        -999.25        -999.25          0.515       -48.5553      -9.636669      0.4908887
      2354.5000         0.7475        -999.25        -999.25         0.5204       -50.4818      -11.56217      0.3625219
      2355.0000         0.7407        -999.25        -999.25         0.5156       -51.3063      -12.38567      0.3076218
      2355.5000         0.7336        -999.25        -999.25         0.5204       -51.8151      -12.89348      0.2737681
      2356.0000         0.7298        -999.25        -999.25         0.5347       -51.9579      -13.03528      0.2643148
      2356.5000         0.7258        -999.25        -999.25         0.5578       -52.3362      -13.41258      0.2391612
      2357.0000         0.7288        -999.25        -999.25         0.5808       -53.0222      -14.09758      0.1934944
      2357.5000         0.7343        -999.25        -999.25         0.6043       -53.5859      -14.66029      0.1559809
      2358.0000         0.7371        -999.25        -999.25         0.6143       -54.0494      -15.12279      0.1251473
      2358.5000         0.7407        -999.25        -999.25         0.6212       -54.4908      -15.56319      0.0957873
      2359.0000         0.7449        -999.25        -999.25         0.6177       -54.7823      -15.85369     0.07642034
      2359.5000         0.7533        -999.25        -999.25         0.6085       -55.0107       -16.0811     0.06126022
      2360.0000         0.7635        -999.25        -999.25         0.5992       -55.1722       -16.2416        0.05056
      2360.5000          0.771        -999.25        -999.25         0.5934       -55.0764       -16.1448      0.0570132
      2361.0000         0.7952        -999.25        -999.25         0.5873       -54.8833      -15.95071      0.0699529
      2361.5000         0.8306        -999.25        -999.25         0.5913       -54.8311      -15.89751     0.07349955
      2362.0000         0.8773        -999.25        -999.25         0.5972       -54.8779      -15.94331     0.07044601
      2362.5000         0.9124        -999.25        -999.25         0.5957       -54.9911      -16.05551      0.0629659
      2363.0000         0.9502        -999.25        -999.25         0.5958       -55.2333      -16.29671     0.04688568
      2363.5000         0.9859        -999.25        -999.25         0.5897        -55.467      -16.52942     0.03137232
      2364.0000         1.0268        -999.25        -999.25         0.5768       -55.2305      -16.29192     0.04720535
      2364.5000         1.0415        -999.25        -999.25         0.5588       -55.0547      -16.11512     0.05899201
      2365.0000         1.0097        -999.25        -999.25         0.5392       -55.0688      -16.12823     0.05811818
      2365.5000         0.9531        -999.25        -999.25         0.5323       -55.3773      -16.43573       0.037618
      2366.0000         0.9192        -999.25        -999.25         0.5379       -55.6917      -16.74913     0.01672465
      2366.5000         0.9015        -999.25        -999.25         0.5399       -55.9125      -16.96893    0.002071126
      2367.0000         0.9173        -999.25        -999.25           0.55       -56.1859      -17.24134              0
      2367.5000         0.9549        -999.25        -999.25         0.5604       -56.3456      -17.40004              0
      2368.0000         0.9837        -999.25        -999.25         0.5675       -56.3363      -17.38974              0
