#------------------------------------------------------------------------------
# Created by    : vladimir.rabinovich
# Created on    : 09/19/2023 17:22:53
#------------------------------------------------------------------------------
~Version Information Section
VERS.           2.0     :   CWLS log ASCII Standard - VERSION 2.0
WRAP.           NO      :   One line per depth step
~Well Information Section
#MNEM       .UNIT                                         VALUE :DESCRIPTION
#------------------------------------------------------------------------------
STRT        .FT                                             411 :START DEPTH
STOP        .FT                                           10036 :STOP DEPTH
STEP        .FT                                             0.5 :STEP      
NULL        .                                           -999.25 :NULL      
COMP        .                          HUMBLE OIL & REFINING CO :COMPANY   
WELL        .                                     ST TR 00278-L :WELL      
FLD         .                                           WILDCAT :FIELD     
LOC         .                                                   :LOCATION  
CNTY        .                             GALVESTON LARGE BLOCK :LOCATION  
STAT        .                                             TEXAS :STATE     
CTRY        .                                     UNITED STATES :COUNTRY   
SRVC        .                                                   :SERVICE COMPANY
DATE        .                             9/13/2023 11:19:42 AM :LOG DATE  
API         .                                    42706000220000 :API NUMBER
UWI         .                                    42706000220000 :UNIQUE WELL ID
XCOORD      .                                  941560.719964966 :SURFACE X 
YCOORD      .                                  10497824.1170516 :SURFACE Y 
LAT         .                                        28.9094621 :LATITUDE  
LON         .                                       -95.1847519 :LONGITUDE 
ELEV        .FT                                              10 :ELEVATION VALUE
ELEV_TYPE   .                                                KB :ELEVATION REFERENCE TYPE
~Curve Information Section
#MNEM       .UNIT                                      API CODE :CURVE DESCRIPTION
#------------------------------------------------------------------------------
DEPT        .FT                                                 :DEPTH     
LAT         .OHMM                                               :          
LN          .OHMM                                               :          
SN          .OHMM                                               :          
SP          .MV                                                 :          
SP_NORM     .MV                                                 :SP Normalized
VSH_SP      .V/V                                                :Volume of Shale from SP
~A        DEPTH            LAT             LN             SN             SP        SP_NORM         VSH_SP
# ...
      7441.0000         1.3585         0.9016         0.8935        63.5693     -0.1546669              1
      7441.5000         1.3826         0.9138         0.9146        63.8105     -0.3958664              1
      7442.0000         1.3893          0.926         0.9358        64.4287      -1.014069      0.9997961
      7442.5000         1.3833         0.9383         0.9569        65.0469      -1.632263      0.9908367
      7443.0000         1.3346         0.9334         0.9781        65.6241      -2.209465      0.9824715
      7443.5000         1.2858         0.9262         0.9956        65.3634      -1.948769      0.9862497
      7444.0000         1.2371         0.9189         0.9817        65.0719      -1.657265      0.9904744
      7444.5000         1.1884         0.9116         0.9678        64.3585     -0.9438629              1
      7445.0000         1.1397         0.9044         0.9539        63.6452     -0.2305641              1
      7445.5000         1.0984         0.8971         0.9396        62.9319      0.4827347              1
      7446.0000         1.0995         0.8874          0.921        62.5299      0.8847351              1
      7446.5000         1.1006         0.8713         0.9024        63.5059    -0.09126663              1
      7447.0000         1.1018         0.8552         0.8838         64.483      -1.068367      0.9990092
      7447.5000         1.1029         0.8392         0.8652        65.4591      -2.044464      0.9848629
      7448.0000          1.104         0.8231         0.8466        65.2168      -1.802162      0.9883745
      7448.5000         1.1052         0.8084         0.8301        64.2838     -0.8691635              1
      7449.0000         1.1063          0.811         0.8374        63.3497     0.06493378              1
      7449.5000         1.1074         0.8135         0.8446         63.515     -0.1003647              1
      7450.0000          1.113          0.816         0.8518        64.1094     -0.6947632              1
      7450.5000         1.1198         0.8185         0.8591        64.7661      -1.351463      0.9949063
      7451.0000         1.1265          0.821         0.8663        65.4218      -2.007164      0.9854034
      7451.5000         1.1333         0.8235         0.8735        65.7501      -2.335464      0.9806454
      7452.0000         1.1401         0.8352         0.8808        64.9983      -1.583664      0.9915411
      7452.5000         1.1469         0.8507         0.8721        64.2465     -0.8318634              1
      7453.0000         1.1537         0.8662         0.8623        63.4946    -0.07996368              1
      7453.5000         1.1604         0.8817         0.8524        62.7416      0.6730347              1
      7454.0000         1.1659         0.8972         0.8425        62.1382       1.276436              1
      7454.5000         1.1414         0.9128         0.8327        62.3228       1.091835              1
      7455.0000         1.1169         0.9283           0.82        63.5128     -0.0981636              1
      7455.5000         1.0923         0.9438         0.8018        64.7028      -1.288162      0.9958237
      7456.0000         1.0678         0.9609         0.7837        65.8927      -2.478065      0.9785787
      7456.5000         1.0433         0.9784         0.7655        66.6016      -3.186966      0.9683048
      7457.0000         1.0188          0.996         0.7473        67.2067      -3.792068      0.9595352
      7457.5000         0.9942         1.0135         0.7411        66.8948      -3.480164      0.9640556
      7458.0000         0.9714         1.0311         0.7396        65.8837      -2.469063      0.9787092
      7458.5000         0.9498         1.0435         0.7381        64.8715      -1.456863      0.9933788
      7459.0000         0.9281         1.0493         0.7366        63.8592     -0.4445648              1
      7459.5000         0.9064          1.055         0.7299        62.8481      0.5665359              1
      7460.0000         0.8848         1.0481          0.731        62.3652       1.049435              1
      7460.5000         0.8631         1.0389         0.7941        61.9021       1.512535              1
      7461.0000         0.9158         1.0297         0.8571        61.4396       1.975033              1
      7461.5000         0.9892         1.0893         0.9201        60.9764       2.438236              1
      7462.0000         1.0626         1.1606         1.0635        60.5134       2.901234              1
      7462.5000         1.1847         1.2319          1.254        60.4126       3.002033              1
      7463.0000           1.33         1.2973         1.4445        61.2709       2.143734              1
      7463.5000         1.4755         1.3521         1.6377        62.1291       1.285534              1
      7464.0000         1.6208         1.4057         1.8584        62.9874      0.4272346              1
      7464.5000         1.7101         1.3726         2.0793        63.8445     -0.4298668              1
      7465.0000         1.6816         1.3396         2.2893        64.7004      -1.285767      0.9958584
      7465.5000         1.6504         1.3065         2.4763        65.5564      -2.141762      0.9834527
      7466.0000         1.5977         1.2748         2.6628        66.4136      -2.998962      0.9710295
      7466.5000          1.545         1.2492         2.7382        67.2695      -3.854866      0.9586251
      7467.0000         1.4924         1.2236         2.7173        68.1256      -4.710968      0.9462178
      7467.5000         1.4397         1.2066         2.6516        67.3193      -3.904663      0.9579034
      7468.0000          1.387         1.2324         2.5423        66.3988      -2.984169      0.9712439
      7468.5000         1.3343         1.2581         2.4331        65.4772      -2.062569      0.9846004
      7469.0000         1.3221         1.2839         2.3238        64.5566      -1.141968      0.9979425
      7469.5000         1.3687         1.3096         2.2145        63.9688     -0.5541649              1
      7470.0000         1.4152         1.3558         2.1155        63.7027     -0.2880669              1
      7470.5000         1.4617         1.4292         2.0381        63.4366    -0.02196503              1
      7471.0000         1.4874         1.5026         1.9607        63.1705       0.244133              1
      7471.5000         1.5101         1.5761         1.8833        62.9044      0.5102348              1
      7472.0000         1.5328         1.5703         1.8059        62.6384      0.7762337              1
      7472.5000         1.4551         1.5369         1.7285        62.3723       1.042336              1
      7473.0000         1.3381         1.5035         1.6511        62.1062       1.308434              1
      7473.5000          1.221         1.4701         1.6075         61.888       1.526634              1
      7474.0000         1.1232         1.4367           1.59        61.8623       1.552334              1
      7474.5000         1.0552         1.4025         1.5726        61.8366       1.578033              1
      7475.0000         0.9872         1.3683         1.5552        61.8109       1.603733              1
      7475.5000         0.9193          1.334         1.5378        61.7852       1.629436              1
      7476.0000         0.8513         1.2998         1.5204        61.7595       1.655136              1
      7476.5000         0.7833         1.2656          1.503        61.7339       1.680737              1
      7477.0000         0.7859         1.2314         1.4882        61.8143       1.600334              1
      7477.5000         0.7981         1.1972         1.4783         62.049       1.365635              1
      7478.0000         0.8103         1.1631         1.4684        62.2839       1.130733              1
      7478.5000         0.8226         1.1288         1.4586        62.5186      0.8960342              1
