#------------------------------------------------------------------------------
# Created by    : vladimir.rabinovich
# Created on    : 09/19/2023 17:22:50
#------------------------------------------------------------------------------
~Version Information Section
VERS.           2.0     :   CWLS log ASCII Standard - VERSION 2.0
WRAP.           NO      :   One line per depth step
~Well Information Section
#MNEM       .UNIT                                         VALUE :DESCRIPTION
#------------------------------------------------------------------------------
STRT        .FT                                            2472 :START DEPTH
STOP        .FT                                            8382 :STOP DEPTH
STEP        .FT                                             0.5 :STEP      
NULL        .                                           -999.25 :NULL      
COMP        .                                 EPL OIL & GAS LLC :COMPANY   
WELL        .                               OCS G07215 ST00BP00 :WELL      
FLD         .                                 BRAZOS BLOCK 0376 :FIELD     
LOC         .                                                   :LOCATION  
CNTY        .                                BRAZOS LARGE BLOCK :LOCATION  
STAT        .                                             TEXAS :STATE     
CTRY        .                                     UNITED STATES :COUNTRY   
SRVC        .                                                   :SERVICE COMPANY
DATE        .                             9/13/2023 11:19:08 AM :LOG DATE  
API         .                                    42704402290000 :API NUMBER
UWI         .                                    42704402290000 :UNIQUE WELL ID
XCOORD      .                                  871225.230552878 :SURFACE X 
YCOORD      .                                  10399792.7272756 :SURFACE Y 
LAT         .                                         28.636239 :LATITUDE  
LON         .                                        -95.398308 :LONGITUDE 
ELEV        .FT                                              95 :ELEVATION VALUE
ELEV_TYPE   .                                                KB :ELEVATION REFERENCE TYPE
~Curve Information Section
#MNEM       .UNIT                                      API CODE :CURVE DESCRIPTION
#------------------------------------------------------------------------------
DEPT        .FT                                                 :DEPTH     
DT          .US/F                                               :          
GR          .GAPI                                               :          
GR_NORM     .GAPI                                               :GammaRay Normalized
ILD         .OHMM                                               :          
ILM         .OHMM                                               :          
SFL         .OHMM                                               :          
SP          .MV                                                 :          
SP_NORM     .MV                                                 :SP Normalized
VSH_GR      .V/V                                                :Volume of Shale from GR
VSH_SP      .V/V                                                :Volume of Shale from SP
~A        DEPTH             DT             GR        GR_NORM            ILD            ILM            SFL             SP        SP_NORM         VSH_GR         VSH_SP
# ...
      7960.0000        97.7072        64.5958       68.06394         1.1964         1.1103         1.0318       -32.9578     -0.1046906      0.7460413              1
      7960.5000        98.7438         62.829       66.10062         1.1967          1.099         1.0473       -33.1763     -0.3175468      0.7042685              1
      7961.0000         98.875        62.2908        65.5024         1.1958         1.0949         1.1193       -33.2464     -0.3820038      0.6915405              1
      7961.5000         97.491        62.2896       65.50086         1.1944         1.1118         1.1881       -33.3282     -0.4581642      0.6915077              1
      7962.0000        96.1647        63.0429       66.33765         1.1922         1.1377         1.2059       -33.3986     -0.5229225      0.7093116              1
      7962.5000         96.449        64.6799       68.15633         1.2017         1.1543         1.1489       -33.4134      -0.532074      0.7480069              1
      7963.0000        97.9817        65.2928       68.83711         1.2193         1.1876         1.1109       -33.2274      -0.340435      0.7624918              1
      7963.5000        99.2551        61.3362       64.44068         1.2578         1.2449          1.089       -32.9536    -0.06099319      0.6689507              1
      7964.0000        99.2837        59.7917       62.72435         1.3071         1.3069         1.0792       -32.5531        0.34515      0.6324331              1
      7964.5000        97.3962        60.1547       63.12748          1.371         1.3792         1.1411       -32.4317      0.4721909      0.6410103              1
      7965.0000        93.4806        61.2269        64.3186         1.4583         1.4642         1.4007       -32.7769      0.1326332      0.6663533              1
      7965.5000        90.3568        62.3266       65.54028         1.5591          1.551         1.9237       -33.4692     -0.5540237      0.6923465              1
      7966.0000        88.3893        63.5213       66.86752         1.6745         1.6366         2.3402        -34.105      -1.184181      0.7205855      0.9964581
      7966.5000        88.2017        64.7977       68.28552          1.761         1.7092         2.3423       -35.0353      -2.108837      0.7507558      0.9786762
      7967.0000        89.4849        66.0291       69.65353         1.8317         1.7768         2.1664       -35.9872      -3.055096      0.7798624      0.9604789
      7967.5000        90.0612        64.2352        67.6601         1.8867         1.8317         2.0965       -36.9175      -3.979752      0.7374488      0.9426971
      7968.0000        90.4564        62.2533       65.45778         1.9302         1.8754         2.1965       -37.7709      -4.827511       0.690591       0.926394
      7968.5000        91.0807        61.7914       64.94434         1.9474         1.9019           2.29       -38.4181      -5.469067      0.6796667      0.9140564
      7969.0000        92.0026        61.8304       64.98746          1.926         1.9118         2.0781       -38.8132      -5.858528      0.6805844      0.9065667
      7969.5000        91.7001        61.8487       65.00758         1.8737         1.8908         1.9562       -38.9984      -6.038086      0.6810124      0.9031137
      7970.0000         89.322        61.6379       64.77316         1.8067         1.8106         1.9534       -38.6651      -5.699142      0.6760246      0.9096318
      7970.5000        86.6914        61.0598       64.13061         1.7146         1.7369         2.1344       -37.7096      -4.737999      0.6623533      0.9281154
      7971.0000        85.1356        60.0622       63.02195         1.6261         1.6364         2.0942       -36.6158      -3.638554       0.638765      0.9492586
      7971.5000        86.0817        59.2551       62.12496         1.5452         1.4834         1.6677       -35.5906      -2.607712        0.61968      0.9690825
      7972.0000        87.9473        60.3651       63.35809         1.4857         1.3214         1.3644       -34.6904       -1.70187      0.6459167      0.9865025
      7972.5000        91.7778        63.9131        67.3001         1.4497         1.2004          1.249       -34.0582       -1.06403      0.7297894      0.9987687
      7973.0000        93.0878        67.1438       70.88956         1.4257         1.2072         1.2153       -33.5372     -0.5373878      0.8061608              1
      7973.5000        93.6859        68.2574       72.12668         1.4034         1.2531         1.2664       -33.1237     -0.1182442      0.8324825              1
      7974.0000        94.3757        68.5452       72.44624         1.3823         1.2822         1.3373       -32.7784      0.2326965      0.8392816              1
      7974.5000        94.7428        68.5862       72.49158         1.3667         1.2934         1.3611        -32.563      0.4537392      0.8402465              1
      7975.0000        94.8643        69.0985        73.0606         1.3574         1.3061         1.3703       -32.4376      0.5847816      0.8523532              1
      7975.5000        94.6874        68.3794       72.26138         1.3561         1.3258         1.3695       -32.4683      0.5597267      0.8353485              1
      7976.0000        94.5758        64.6294       68.09451          1.368          1.348         1.3836       -32.7241      0.3095703      0.7466916              1
      7976.5000        94.3126        61.3723        64.4753         1.3803         1.3676         1.4735         -33.23     -0.1906891      0.6696872              1
      7977.0000        93.9209         59.454       62.34363         1.3915         1.3831         1.5451       -33.7619     -0.7169495      0.6243326              1
      7977.5000        93.3634        60.4901       63.49465            1.4         1.3954         1.5279       -34.2944      -1.243805      0.6488224      0.9953114
      7978.0000        92.9402         63.079       66.37099          1.403         1.4006         1.4956       -34.7913      -1.735065       0.710021      0.9858641
      7978.5000        92.4629        65.1775       68.70245         1.4005         1.4001         1.4612        -35.471      -2.409122      0.7596265      0.9729015
      7979.0000        91.2264        65.7186       69.30345         1.3915          1.385         1.4281       -36.0516      -2.984081      0.7724138      0.9618446
      7979.5000        91.9771        64.7015       68.17313         1.3756         1.3577         1.3997       -36.3959      -3.322735      0.7483646       0.955332
      7980.0000        93.0239         63.472       66.80681         1.3552         1.3191          1.368        -36.355      -3.276192      0.7192938      0.9562271
      7980.5000        93.4885        62.7352       65.98793         1.3346         1.2654           1.32       -35.9307      -2.846249      0.7018709      0.9644952
      7981.0000        93.3726        62.2533       65.45229          1.321         1.2143         1.2389       -35.2529      -2.162807      0.6904742      0.9776383
      7981.5000        94.9453        62.0727        65.2514          1.314         1.1772          1.166       -34.6255      -1.529766      0.6862001      0.9898122
      7982.0000        96.9177        63.1607       66.46008         1.2992         1.1512         1.1163       -34.0371     -0.9357262      0.7119167              1
      7982.5000        97.6641        64.7496       68.22532         1.2797         1.1579         1.1516        -33.658     -0.5509834      0.7494749              1
      7983.0000        96.7793         64.704       68.17444         1.2577         1.1811         1.2624       -33.4887     -0.3760414      0.7483923              1
      7983.5000        95.1445        63.3482       66.66779         1.2386         1.2052         1.3737       -33.5499     -0.4315987      0.7163359              1
      7984.0000        93.4539        61.8506       65.00357         1.2205         1.2185         1.4073       -33.5464      -0.422451       0.680927              1
