#------------------------------------------------------------------------------
# Created by    : vladimir.rabinovich
# Created on    : 09/19/2023 17:20:45
#------------------------------------------------------------------------------
~Version Information Section
VERS.           2.0     :   CWLS log ASCII Standard - VERSION 2.0
WRAP.           NO      :   One line per depth step
~Well Information Section
#MNEM       .UNIT                                         VALUE :DESCRIPTION
#------------------------------------------------------------------------------
STRT        .FT                                            2010 :START DEPTH
STOP        .FT                                            7000 :STOP DEPTH
STEP        .FT                                             0.5 :STEP      
NULL        .                                           -999.25 :NULL      
COMP        .                                    TEXAS GULF INC :COMPANY   
WELL        .                                ST OF TEX TR 693-L :WELL      
FLD         .                                           WILDCAT :FIELD     
LOC         .                                                   :LOCATION  
CNTY        .                      MATAGORDA ISLAND LARGE BLOCK :LOCATION  
STAT        .                                             TEXAS :STATE     
CTRY        .                                     UNITED STATES :COUNTRY   
SRVC        .                                                   :SERVICE COMPANY
DATE        .                             9/13/2023 11:12:01 AM :LOG DATE  
API         .                                    42703300330000 :API NUMBER
UWI         .                                    42703300330000 :UNIQUE WELL ID
XCOORD      .                                  377893.250269135 :SURFACE X 
YCOORD      .                                  10151490.3803449 :SURFACE Y 
LAT         .                                        27.9187241 :LATITUDE  
LON         .                                       -96.9091122 :LONGITUDE 
ELEV        .FT                                              70 :ELEVATION VALUE
ELEV_TYPE   .                                                KB :ELEVATION REFERENCE TYPE
~Curve Information Section
#MNEM       .UNIT                                      API CODE :CURVE DESCRIPTION
#------------------------------------------------------------------------------
DEPT        .FT                                                 :DEPTH     
ASN         .OHMM                                               :          
CILD        .MMHO                                               :          
ILD         .OHMM                                               :          
SP          .MV                                                 :          
SP_NORM     .MV                                                 :SP Normalized
VSH_SP      .V/V                                                :Volume of Shale from SP
~A        DEPTH            ASN           CILD            ILD             SP        SP_NORM         VSH_SP
# ...
      3644.0000         2.7221       1296.533         0.8296      -112.6898       -63.6332      0.0517969
      3644.5000         2.7474       1270.941         0.8021      -113.5494       -64.4928     0.03857234
      3645.0000         2.7727       1233.477         0.7993      -114.1786        -65.122     0.02889228
      3645.5000         2.8025       1196.035         0.8232      -115.2256        -66.169     0.01278463
      3646.0000         2.8328       1265.754         0.7176      -116.3099       -67.2533              0
      3646.5000         2.8632       1374.459         0.6303      -116.9735       -67.9169              0
      3647.0000         2.6121       1483.164         0.5722      -114.7863       -65.7297     0.01954311
      3647.5000         2.2274        1591.92          0.514      -113.1583       -64.1017     0.04458923
      3648.0000         2.1927       1766.326         0.4559      -111.5315       -62.4749     0.06961694
      3648.5000          2.158       1943.328         0.3978      -109.9036        -60.847     0.09466153
      3649.0000         2.1232       2219.805         0.3503      -109.9092       -60.8526     0.09457538
      3649.5000         2.0885       2483.012         0.3413       -110.533       -61.4764     0.08497848
      3650.0000         2.0538       2739.035         0.3323      -111.1571       -62.1005     0.07537695
      3650.5000          2.019       2995.258         0.3233      -109.7059       -60.6493     0.09770308
      3651.0000         1.0409       3175.156         0.3144      -107.9419       -58.8853      0.1248415
      3651.5000         0.7755       3231.414         0.3054      -106.9874       -57.9308      0.1395261
      3652.0000         0.7511       3210.613         0.2964       -106.033       -56.9764      0.1542093
      3652.5000         0.7618       3189.809         0.2937      -105.0786        -56.022      0.1688923
      3653.0000         0.7725        3169.02          0.296      -104.1241       -55.0675      0.1835769
      3653.5000         0.7832       3148.164         0.2984      -103.9185       -54.8619        0.18674
      3654.0000         0.7939       3127.262         0.3007      -104.9196        -55.863      0.1713385
      3654.5000         0.8046       3106.359         0.3031      -105.9205       -56.8639        0.15594
      3655.0000         0.8153       3085.457         0.3055      -106.9216        -57.865      0.1405384
      3655.5000         0.8281       3064.555         0.3078      -107.9226        -58.866      0.1251384
      3656.0000         0.8473       3043.664         0.3102       -108.672       -59.6154      0.1136093
      3656.5000         0.8665       3061.535         0.3125      -109.3834       -60.3268      0.1026646
      3657.0000         0.8734       3092.043         0.3149      -108.4259       -59.3693      0.1173954
      3657.5000         0.8599       3122.547         0.3173      -107.2733       -58.2167      0.1351277
      3658.0000         0.8478       3153.031         0.3196      -106.1206        -57.064      0.1528616
      3658.5000           0.84       3183.535          0.322       -104.968       -55.9114      0.1705938
      3659.0000         0.8322       3218.109         0.3243      -104.1229       -55.0663      0.1835954
      3659.5000         0.8349        3264.23         0.3267      -103.2841       -54.2275         0.1965
      3660.0000         0.8507       3244.473          0.329      -103.5336        -54.477      0.1926615
      3660.5000         0.8666       3192.965         0.3326      -104.1328       -55.0762      0.1834431
      3661.0000         0.8709       3135.047         0.3366      -104.8984       -55.8418      0.1716646
      3661.5000         0.8694       3071.988         0.3406      -105.6646        -56.608      0.1598769
      3662.0000         0.8852        3003.84         0.3446      -106.3785       -57.3219      0.1488938
      3662.5000          0.903       2935.695         0.3486      -105.1034       -56.0468      0.1685108
      3663.0000         0.9181       2867.547         0.3526      -103.8284       -54.7718      0.1881261
      3663.5000         0.8962        2808.73         0.3566      -102.5527       -53.4961      0.2077523
      3664.0000         0.8807       2752.707         0.3606      -101.3491       -52.2925      0.2262692
      3664.5000          0.884       2696.684         0.3646      -100.2133       -51.1567      0.2437431
      3665.0000         0.9129       2640.656         0.3686       -99.0774       -50.0208      0.2612184
      3665.5000         0.9419        2578.25         0.3726       -98.4625       -49.4059      0.2706785
      3666.0000         0.9708        2515.84         0.3766       -98.8562       -49.7996      0.2646216
      3666.5000         0.9997       2456.473         0.3806       -99.2805       -50.2239      0.2580938
      3667.0000         1.0313       2416.512         0.3851      -100.0319       -50.9753      0.2465339
      3667.5000         1.0661       2377.039         0.3933      -100.7831       -51.7265      0.2349769
      3668.0000         1.1032       2354.055         0.4014      -101.5349       -52.4783      0.2234108
      3668.5000         1.0931       2326.215         0.4096      -102.2861       -53.2295      0.2118538
      3669.0000         1.0771       2296.508         0.4231      -103.0374       -53.9808      0.2002954
      3669.5000         1.1835       2241.457         0.4964      -103.7886        -54.732      0.1887385
      3670.0000         1.2647       2158.891         0.5698       -102.078       -53.0214      0.2150554
      3670.5000          1.345       2076.328         0.6431       -99.9342       -50.8776      0.2480369
      3671.0000         1.8297       1976.854          0.727       -98.0984       -49.0418        0.27628
      3671.5000          1.893        1840.76         0.8164       -98.7217       -49.6651      0.2666908
      3672.0000         1.9433       1704.666         0.9058       -99.2184       -50.1618      0.2590492
      3672.5000         1.9714       1450.736         0.9951       -99.7152       -50.6586      0.2514062
      3673.0000         2.1387       1184.637         1.0845       -99.1774       -50.1208        0.25968
      3673.5000         2.4268       1027.291         1.1917       -97.2834       -48.2268      0.2888185
      3674.0000         2.7789       881.3193         1.3201       -95.3907       -46.3341      0.3179369
      3674.5000         3.1004        764.083         1.4485       -93.9908       -44.9342      0.3394738
      3675.0000         3.3715       648.3936         1.5394       -92.6748       -43.6182        0.35972
      3675.5000          3.618       752.1104         1.4617       -91.3643       -42.3077      0.3798815
      3676.0000          3.352       855.8262         1.2373       -90.2561       -41.1995      0.3969308
      3676.5000         3.0871       1007.235         1.0527       -90.4701       -41.4135      0.3936384
      3677.0000         2.6992        1222.65          0.908       -91.2133       -42.1567      0.3822046
      3677.5000         2.0524       1437.965         0.7633       -92.6189       -43.5623        0.36058
      3678.0000         2.0323       1653.281         0.6187       -94.0244       -44.9678      0.3389569
      3678.5000         2.0252       1868.695         0.4974       -95.4293       -46.3727      0.3173431
      3679.0000         2.0181       2084.012          0.376      -101.5461       -52.4895      0.2232385
      3679.5000          2.011       2322.176         0.2697      -111.0133       -61.9567     0.07758924
      3680.0000         2.0039       3656.922         0.2332      -113.7585       -64.7019     0.03535544
      3680.5000         1.9968       3758.168         0.3076      -116.5038       -67.4472              0
      3681.0000         1.8036        3800.57         0.3801      -117.9447       -68.8881              0
      3681.5000         1.7933       3843.824         0.4234      -119.0476        -69.991              0
