#------------------------------------------------------------------------------
# Created by    : vladimir.rabinovich
# Created on    : 09/19/2023 17:21:26
#------------------------------------------------------------------------------
~Version Information Section
VERS.           2.0     :   CWLS log ASCII Standard - VERSION 2.0
WRAP.           NO      :   One line per depth step
~Well Information Section
#MNEM       .UNIT                                         VALUE :DESCRIPTION
#------------------------------------------------------------------------------
STRT        .FT                                            3102 :START DEPTH
STOP        .FT                                            8740 :STOP DEPTH
STEP        .FT                                             0.5 :STEP      
NULL        .                                           -999.25 :NULL      
COMP        .                          SEAGULL ENERGY E & P INC :COMPANY   
WELL        .                               OCS G13314 ST00BP00 :WELL      
FLD         .                              GALVESTON BLOCK 0330 :FIELD     
LOC         .                                                   :LOCATION  
CNTY        .                             GALVESTON LARGE BLOCK :LOCATION  
STAT        .                                             TEXAS :STATE     
CTRY        .                                     UNITED STATES :COUNTRY   
SRVC        .                                                   :SERVICE COMPANY
DATE        .                             9/13/2023 11:19:54 AM :LOG DATE  
API         .                                    42706403240000 :API NUMBER
UWI         .                                    42706403240000 :UNIQUE WELL ID
XCOORD      .                                  980373.867630971 :SURFACE X 
YCOORD      .                                  10452895.3513713 :SURFACE Y 
LAT         .                                         28.787844 :LATITUDE  
LON         .                                        -95.061044 :LONGITUDE 
ELEV        .FT                                              95 :ELEVATION VALUE
ELEV_TYPE   .                                                KB :ELEVATION REFERENCE TYPE
~Curve Information Section
#MNEM       .UNIT                                      API CODE :CURVE DESCRIPTION
#------------------------------------------------------------------------------
DEPT        .FT                                                 :DEPTH     
CALI        .IN                                                 :          
DRHO        .G/C3                                               :          
DT          .US/F                                               :          
GR          .GAPI                                               :          
GR_1        .GAPI                                               :          
GR_NORM     .GAPI                                               :GammaRay Normalized
ILD         .OHMM                                               :          
ILM         .OHMM                                               :          
NPHI        .%                                                  :          
RFOC        .OHMM                                               :          
RHOB        .G/C3                                               :          
SP          .MV                                                 :          
SP_NORM     .MV                                                 :SP Normalized
VSH_GR      .V/V                                                :Volume of Shale from GR
VSH_SP      .V/V                                                :Volume of Shale from SP
~A        DEPTH           CALI           DRHO             DT             GR           GR_1        GR_NORM            ILD            ILM           NPHI           RFOC           RHOB             SP        SP_NORM         VSH_GR         VSH_SP
# ...
      4275.0000        -999.25        -999.25       116.4423        41.3633        -999.25       51.68526         0.5884         0.7001        -999.25         1.2935        -999.25       -60.1227      -29.10463      0.3975587      0.6361922
      4275.5000        -999.25        -999.25       117.6316        40.1259        -999.25        50.4251         0.5978         0.7191        -999.25         1.2647        -999.25       -58.8903      -27.87249      0.3707469      0.6515938
      4276.0000        -999.25        -999.25       119.1252        38.3669        -999.25       48.63375         0.5994         0.7274        -999.25         1.2706        -999.25       -60.0217      -29.00416      0.3326331       0.637448
      4276.5000        -999.25        -999.25       120.7996        35.2766        -999.25       45.48661         0.5942         0.7212        -999.25         1.3105        -999.25       -63.8646      -32.84733      0.2656727      0.5894084
      4277.0000        -999.25        -999.25       122.6835        31.2368        -999.25       41.37251         0.5806         0.7109        -999.25         1.4133        -999.25       -69.0526      -38.03559      0.1781384      0.5245551
      4277.5000        -999.25        -999.25        123.939        29.0161        -999.25       39.11097         0.5608         0.6951        -999.25         1.5226        -999.25       -74.8896      -43.87286      0.1300205      0.4515892
      4278.0000        -999.25        -999.25       124.7057        28.6199        -999.25       38.70747         0.5391         0.6729        -999.25         1.5894        -999.25       -79.3621      -48.34563      0.1214356      0.3956797
      4278.5000        -999.25        -999.25       124.9073        29.1592        -999.25        39.2567         0.5183         0.6477        -999.25         1.5982        -999.25       -82.8776       -51.8614      0.1331213      0.3517326
      4279.0000        -999.25        -999.25       124.1003        28.4537        -999.25       38.53822         0.5004         0.6218        -999.25         1.5753        -999.25        -84.819      -53.80306      0.1178345      0.3274617
      4279.5000        -999.25        -999.25       122.9677        27.3202        -999.25       37.38387         0.4869         0.5981        -999.25          1.535        -999.25       -86.1392      -55.12353     0.09327389      0.3109559
      4280.0000        -999.25        -999.25       122.3833        26.4416        -999.25       36.48912          0.476         0.5859        -999.25         1.4861        -999.25       -87.2443       -56.2289     0.07423653      0.2971388
      4280.5000        -999.25        -999.25       124.0199        26.5865        -999.25       36.63668         0.4651         0.5828        -999.25         1.4537        -999.25       -87.9576      -56.94247      0.0773761      0.2882191
      4281.0000        -999.25        -999.25       125.3926        28.6533        -999.25       38.74149         0.4584         0.5849        -999.25         1.4676        -999.25       -88.3148      -57.29993      0.1221594      0.2837509
      4281.5000        -999.25        -999.25       126.2207        31.3234        -999.25        41.4607         0.4576         0.5924        -999.25         1.4867        -999.25       -88.4136        -57.399      0.1800149      0.2825125
      4282.0000        -999.25        -999.25       124.2793        33.2455        -999.25       43.41816         0.4617         0.6029        -999.25         1.4975        -999.25       -88.2445      -57.23017      0.2216629      0.2846229
      4282.5000        -999.25        -999.25       120.6537        33.0447        -999.25       43.21366         0.4705         0.6153        -999.25           1.49        -999.25       -88.3688      -57.35474      0.2173119      0.2830658
      4283.0000        -999.25        -999.25       117.3112        32.1349        -999.25       42.28712         0.4793         0.6228        -999.25         1.4956        -999.25       -89.0576      -58.04381      0.1975984      0.2744524
      4283.5000        -999.25        -999.25       115.5851        31.0496        -999.25       41.18187         0.4878         0.6221        -999.25         1.5237        -999.25       -90.5605      -59.54697      0.1740822      0.2556628
      4284.0000        -999.25        -999.25       116.0221        28.4407        -999.25       38.52499         0.4952          0.616        -999.25         1.5562        -999.25       -93.4818      -62.46854      0.1175529      0.2191433
      4284.5000        -999.25        -999.25       119.2051        25.6693        -999.25       35.70261         0.4997         0.6068        -999.25         1.5893        -999.25       -96.5691      -65.55611     0.05750234      0.1805487
      4285.0000        -999.25        -999.25        122.661        22.9152        -999.25       32.89785         0.4964         0.5945        -999.25          1.623        -999.25      -100.7448      -69.73207              0      0.1283491
      4285.5000        -999.25        -999.25       125.8053        21.4133        -999.25       31.36833           0.49         0.5811        -999.25         1.5316        -999.25      -104.6757      -73.66324              0     0.07920952
      4286.0000        -999.25        -999.25       128.3262        24.8411        -999.25       34.85918         0.4816         0.5625        -999.25         1.4582        -999.25      -107.0583       -76.0461     0.03955695     0.04942369
      4286.5000        -999.25        -999.25       130.9392         27.746        -999.25        37.8175         0.4696         0.5372        -999.25         1.3958        -999.25      -107.8478      -76.83588      0.1025001     0.03955154
      4287.0000        -999.25        -999.25       133.3132        28.1008        -999.25       38.17883         0.4555         0.5101        -999.25         1.3653        -999.25      -107.9817      -76.97004      0.1101879     0.03787451
      4287.5000        -999.25        -999.25       135.9539        26.7645        -999.25       36.81796         0.4362         0.4756        -999.25         1.3501        -999.25      -108.0886      -77.07721     0.08123317     0.03653488
      4288.0000        -999.25        -999.25       137.8699        24.0561        -999.25       34.05974          0.415         0.4429        -999.25         1.3137        -999.25      -108.2264      -77.21528      0.0225477     0.03480902
      4288.5000        -999.25        -999.25       139.0537        22.4998        -999.25       32.47481         0.3941         0.4151        -999.25         1.2697        -999.25      -108.4755      -77.46465              0     0.03169193
      4289.0000        -999.25        -999.25       137.5222        21.5523        -999.25       31.50989         0.3697         0.3911        -999.25         1.2645        -999.25      -108.6465      -77.63591              0     0.02955112
      4289.5000        -999.25        -999.25       135.6396        21.3239        -999.25       31.27728         0.3482         0.3685        -999.25         1.2351        -999.25      -109.1884      -78.17808              0     0.02277403
      4290.0000        -999.25        -999.25       134.7668        22.2254        -999.25       32.19537         0.3317         0.3513        -999.25         1.1906        -999.25      -109.9935      -78.98344              0     0.01270695
      4290.5000        -999.25        -999.25       135.9114        22.4501        -999.25        32.4242         0.3187         0.3425        -999.25         1.1521        -999.25      -110.8655      -79.85571              0    0.001803589
      4291.0000        -999.25        -999.25       137.5308        21.0245        -999.25       30.97238         0.3076         0.3371        -999.25         1.1366        -999.25      -111.4684      -80.45888              0              0
      4291.5000        -999.25        -999.25       138.3218         20.093        -999.25       30.02374         0.2989         0.3355        -999.25         1.1438        -999.25      -111.7158      -80.70654              0              0
