#------------------------------------------------------------------------------
# Created by    : vladimir.rabinovich
# Created on    : 09/19/2023 17:20:39
#------------------------------------------------------------------------------
~Version Information Section
VERS.           2.0     :   CWLS log ASCII Standard - VERSION 2.0
WRAP.           NO      :   One line per depth step
~Well Information Section
#MNEM       .UNIT                                         VALUE :DESCRIPTION
#------------------------------------------------------------------------------
STRT        .FT                                             520 :START DEPTH
STOP        .FT                                           11478 :STOP DEPTH
STEP        .FT                                             0.5 :STEP      
NULL        .                                           -999.25 :NULL      
COMP        .                                      SHELL OIL CO :COMPANY   
WELL        .                                OCS 00730 ST00BP00 :WELL      
FLD         .                                           WILDCAT :FIELD     
LOC         .                                                   :LOCATION  
CNTY        .                             GALVESTON LARGE BLOCK :LOCATION  
STAT        .                                             TEXAS :STATE     
CTRY        .                                     UNITED STATES :COUNTRY   
SRVC        .                                                   :SERVICE COMPANY
DATE        .                             9/13/2023 11:19:42 AM :LOG DATE  
API         .                                    42706000260000 :API NUMBER
UWI         .                                    42706000260000 :UNIQUE WELL ID
XCOORD      .                                  961416.888637646 :SURFACE X 
YCOORD      .                                  10353223.2377546 :SURFACE Y 
LAT         .                                         28.512881 :LATITUDE  
LON         .                                        -95.114699 :LONGITUDE 
ELEV        .FT                                              72 :ELEVATION VALUE
ELEV_TYPE   .                                                KB :ELEVATION REFERENCE TYPE
~Curve Information Section
#MNEM       .UNIT                                      API CODE :CURVE DESCRIPTION
#------------------------------------------------------------------------------
DEPT        .FT                                                 :DEPTH     
ASN         .OHMM                                               :          
CILD        .MMHO                                               :          
ILD         .OHMM                                               :          
LAT         .OHMM                                               :          
LN          .OHMM                                               :          
SP          .MV                                                 :          
SP_NORM     .MV                                                 :SP Normalized
VSH_SP      .V/V                                                :Volume of Shale from SP
~A        DEPTH            ASN           CILD            ILD            LAT             LN             SP        SP_NORM         VSH_SP
       520.0000          1.015        -999.25        -999.25              0         0.9515       -70.7067      -7.292068      0.6471955
       520.5000         1.0204        -999.25        -999.25              0         0.9588       -71.1107      -7.696068      0.6202621
       521.0000         1.0258        -999.25        -999.25              0         0.9637       -71.5148      -8.100166      0.5933222
       521.5000         1.0311        -999.25        -999.25              0         0.9678       -71.9188      -8.504166       0.566389
       522.0000         1.0365        -999.25        -999.25              0         0.9718       -72.3229      -8.908264       0.539449
       522.5000         1.0419        -999.25        -999.25              0         0.9759       -72.6949      -9.280266       0.514649
       523.0000         1.0472        -999.25        -999.25              0           0.98       -73.0115      -9.596863      0.4935425
       523.5000         1.0527        -999.25        -999.25              0          0.984        -73.328      -9.913368      0.4724421
       524.0000         1.0605        -999.25        -999.25              0         0.9881       -73.6445      -10.22987      0.4513423
       524.5000         1.0683        -999.25        -999.25              0         0.9899        -73.989      -10.57436      0.4283758
       525.0000         1.0595        -999.25        -999.25              0           0.99       -74.3889      -10.97427      0.4017156
       525.5000         1.0336        -999.25        -999.25              0           0.99       -74.6406      -11.22597      0.3849355
       526.0000         1.0076        -999.25        -999.25              0         0.9901       -73.7875      -10.37286      0.4418091
       526.5000          0.982        -999.25        -999.25          0.053         0.9889       -72.9342      -9.519562      0.4986959
       527.0000         0.9632        -999.25        -999.25         0.1064         0.9858       -72.0809      -8.666267      0.5555822
       527.5000         0.9443        -999.25        -999.25         0.1599         0.9827       -71.2421      -7.827469      0.6115021
       528.0000         0.9255        -999.25        -999.25         0.2083         0.9795       -70.4182      -7.003563      0.6664292
       528.5000         0.9157        -999.25        -999.25         0.2545         0.9764       -69.5945      -6.179863      0.7213424
       529.0000         0.9076        -999.25        -999.25         0.3007         0.9732       -68.7705      -5.355865      0.7762756
       529.5000         0.8996        -999.25        -999.25          0.347         0.9697       -68.2323      -4.817665      0.8121557
       530.0000         0.8916        -999.25        -999.25         0.3932         0.9659       -67.7391      -4.324463      0.8450358
       530.5000         0.8855        -999.25        -999.25         0.4394         0.9622        -67.246      -3.831367      0.8779088
       531.0000         0.8798        -999.25        -999.25         0.4769         0.9585       -66.7528      -3.338165       0.910789
       531.5000         0.8741        -999.25        -999.25         0.5132         0.9548       -66.2593      -2.844666       0.943689
       532.0000         0.8771        -999.25        -999.25         0.5495         0.9511       -65.7545      -2.339867      0.9773422
       532.5000         0.8839        -999.25        -999.25         0.5858         0.9474       -65.2498      -1.835167              1
       533.0000         0.8933        -999.25        -999.25         0.6151         0.9438       -64.8833      -1.468666              1
       533.5000         0.9027        -999.25        -999.25         0.6362         0.9408       -65.0493      -1.634666              1
       534.0000         0.9121        -999.25        -999.25         0.6572         0.9377       -65.2152      -1.800568              1
       534.5000         0.9216        -999.25        -999.25         0.6783         0.9346       -65.3811      -1.966469              1
       535.0000          0.917        -999.25        -999.25         0.6993         0.9315        -65.547      -2.132362      0.9911758
       535.5000         0.9108        -999.25        -999.25         0.7204         0.9285        -65.713      -2.298363      0.9801092
       536.0000          0.909        -999.25        -999.25         0.7414         0.9254       -65.8789      -2.464264      0.9690491
       536.5000          0.909        -999.25        -999.25         0.7484         0.9223       -66.0448      -2.630165       0.957989
       537.0000          0.909        -999.25        -999.25         0.7522         0.9198       -66.0798      -2.665169      0.9556554
       537.5000          0.909        -999.25        -999.25         0.7561         0.9185       -66.0713      -2.656662      0.9562225
       538.0000         0.9091        -999.25        -999.25           0.76         0.9172       -66.0627      -2.648064      0.9567958
       538.5000         0.9107        -999.25        -999.25         0.7639          0.916       -66.0542      -2.639565      0.9573624
       539.0000         0.9107        -999.25        -999.25         0.7677         0.9147       -66.0182      -2.603569       0.959762
       539.5000         0.8962        -999.25        -999.25         0.7716         0.9135       -65.7714      -2.356766      0.9762156
       540.0000         0.8818        -999.25        -999.25         0.7712         0.9123       -65.5244      -2.109764      0.9926824
       540.5000          0.867        -999.25        -999.25         0.7677         0.9112       -65.2776      -1.862968              1
       541.0000         0.8503        -999.25        -999.25         0.7642         0.9101       -65.0308      -1.616165              1
       541.5000         0.8336        -999.25        -999.25         0.7606         0.9089       -64.7839      -1.369263              1
       542.0000         0.8169        -999.25        -999.25         0.7571         0.9078        -64.537      -1.122368              1
       542.5000         0.8046        -999.25        -999.25         0.7536         0.9067       -64.2902     -0.8755646              1
       543.0000         0.7941        -999.25        -999.25           0.75         0.9046       -64.0618     -0.6471634              1
       543.5000         0.7837        -999.25        -999.25         0.7465         0.9025       -63.8551      -0.440464              1
       544.0000         0.7748        -999.25        -999.25          0.743         0.9004       -63.6651     -0.2504654              1
       544.5000         0.7674        -999.25        -999.25         0.7395         0.8983       -63.8763     -0.4616661              1
       545.0000         0.7601        -999.25        -999.25         0.7359         0.8962       -64.1022     -0.6875687              1
       545.5000         0.7543        -999.25        -999.25         0.7292         0.8941        -64.328     -0.9133682              1
       546.0000         0.7522        -999.25        -999.25         0.7194         0.8925       -64.5538      -1.139168              1
       546.5000         0.7501        -999.25        -999.25         0.7095          0.892       -64.7797      -1.365067              1
       547.0000         0.7481        -999.25        -999.25         0.6996         0.8914       -65.0055      -1.590866              1
       547.5000          0.746        -999.25        -999.25         0.6898         0.8908       -65.2313      -1.816666              1
       548.0000         0.7439        -999.25        -999.25         0.6799         0.8902       -65.4573      -2.042664      0.9971558
       548.5000         0.7423        -999.25        -999.25         0.6701         0.8897       -65.4541      -2.039467      0.9973689
       549.0000          0.741        -999.25        -999.25         0.6602         0.8901       -65.4462      -2.031563      0.9978958
