#------------------------------------------------------------------------------
# Created by    : vladimir.rabinovich
# Created on    : 09/19/2023 17:20:38
#------------------------------------------------------------------------------
~Version Information Section
VERS.           2.0     :   CWLS log ASCII Standard - VERSION 2.0
WRAP.           NO      :   One line per depth step
~Well Information Section
#MNEM       .UNIT                                         VALUE :DESCRIPTION
#------------------------------------------------------------------------------
STRT        .FT                                             540 :START DEPTH
STOP        .FT                                            8409 :STOP DEPTH
STEP        .FT                                             0.5 :STEP      
NULL        .                                           -999.25 :NULL      
COMP        .                                      SHELL OIL CO :COMPANY   
WELL        .                                OCS 00706 ST00BP00 :WELL      
FLD         .                                           WILDCAT :FIELD     
LOC         .                                                   :LOCATION  
CNTY        .                             GALVESTON LARGE BLOCK :LOCATION  
STAT        .                                             TEXAS :STATE     
CTRY        .                                     UNITED STATES :COUNTRY   
SRVC        .                                                   :SERVICE COMPANY
DATE        .                             9/13/2023 11:19:25 AM :LOG DATE  
API         .                                    42706000280000 :API NUMBER
UWI         .                                    42706000280000 :UNIQUE WELL ID
XCOORD      .                                  1100625.96198943 :SURFACE X 
YCOORD      .                                  10499283.7203345 :SURFACE Y 
LAT         .                                         28.920625 :LATITUDE  
LON         .                                        -94.687754 :LONGITUDE 
ELEV        .FT                                              78 :ELEVATION VALUE
ELEV_TYPE   .                                                KB :ELEVATION REFERENCE TYPE
~Curve Information Section
#MNEM       .UNIT                                      API CODE :CURVE DESCRIPTION
#------------------------------------------------------------------------------
DEPT        .FT                                                 :DEPTH     
ASN         .OHMM                                               :          
DT          .US/F                                               :          
ILD         .OHMM                                               :          
LAT         .OHMM                                               :          
LN          .OHMM                                               :          
SP          .MV                                                 :          
SP_NORM     .MV                                                 :SP Normalized
VSH_SP      .V/V                                                :Volume of Shale from SP
~A        DEPTH            ASN             DT            ILD            LAT             LN             SP        SP_NORM         VSH_SP
# ...
      7354.5000          1.786        83.6256         1.3072        -999.25        -999.25       -40.7115      -1.687107      0.9883541
      7355.0000         1.7516        84.2099         1.2777        -999.25        -999.25       -40.3839      -1.359509      0.9939066
      7355.5000         1.7172        91.1784         1.2482        -999.25        -999.25       -40.0568       -1.03241      0.9994507
      7356.0000         1.6828        89.8162         1.2187        -999.25        -999.25       -39.7556     -0.7312088              1
      7356.5000         1.6522         91.095         1.1907        -999.25        -999.25       -39.4573     -0.4329071              1
      7357.0000         1.6262        94.7546         1.1744        -999.25        -999.25       -39.1589       -0.13451              1
      7357.5000         1.6147        91.3978         1.1582        -999.25        -999.25       -39.1698     -0.1454086              1
      7358.0000         1.6215        91.1628         1.1419        -999.25        -999.25       -39.2122      -0.187809              1
      7358.5000         1.6285        92.6115         1.1256        -999.25        -999.25       -39.2842     -0.2598076              1
      7359.0000         1.6262        91.9716         1.1093        -999.25        -999.25       -39.3888     -0.3644104              1
      7359.5000         1.6094        91.7408          1.093        -999.25        -999.25       -39.4933     -0.4689102              1
      7360.0000         1.5924        91.9765         1.0768        -999.25        -999.25        -39.598     -0.5736084              1
      7360.5000         1.5755        96.8974         1.0605        -999.25        -999.25       -39.7025     -0.6781082              1
      7361.0000         1.5518        99.1711         1.0486        -999.25        -999.25       -39.8071     -0.7827072              1
      7361.5000         1.5234        95.5536         1.0375        -999.25        -999.25       -39.9117       -0.88731              1
      7362.0000         1.4978        89.6299         1.0264        -999.25        -999.25       -39.8184     -0.7940102              1
      7362.5000         1.4872        93.4544         1.0153        -999.25        -999.25       -39.6663     -0.6419106              1
      7363.0000         1.4767        93.1643         1.0042        -999.25        -999.25       -39.5141     -0.4897079              1
      7363.5000         1.4644        86.7403          0.993        -999.25        -999.25        -39.362     -0.3376083              1
      7364.0000         1.4487        89.5577         0.9819        -999.25        -999.25       -39.2098     -0.1854095              1
      7364.5000          1.433        98.1214         0.9708        -999.25        -999.25       -39.1329     -0.1085091              1
      7365.0000         1.4102        97.1197         0.9588        -999.25        -999.25       -39.1971     -0.1727104              1
      7365.5000         1.3845        92.5228         0.9462        -999.25        -999.25       -39.2615     -0.2371101              1
      7366.0000         1.3602        96.4125         0.9336        -999.25        -999.25       -39.3306     -0.3062096              1
      7366.5000         1.3516       101.2191          0.921        -999.25        -999.25       -39.4423     -0.4179077              1
      7367.0000          1.343       102.6072         0.9084        -999.25        -999.25       -39.5541     -0.5297089              1
      7367.5000         1.3344       102.2487         0.8958        -999.25        -999.25       -39.6658      -0.641407              1
      7368.0000         1.3258         99.057         0.8833        -999.25        -999.25       -39.4682     -0.4438095              1
      7368.5000         1.3172        96.9845         0.8707        -999.25        -999.25       -39.1017    -0.07730865              1
      7369.0000         1.3077        98.2385         0.8661        -999.25        -999.25       -38.7352      0.2891922              1
      7369.5000         1.2983       101.0472         0.8647        -999.25        -999.25       -38.3687      0.6556931              1
      7370.0000         1.2888        96.3481         0.8633        -999.25        -999.25       -38.1194      0.9049911              1
      7370.5000         1.2911        96.9383         0.8619        -999.25        -999.25        -39.481     -0.4566078              1
      7371.0000         1.3403        103.396         0.8605        -999.25        -999.25        -40.857      -1.832607       0.985888
      7371.5000         1.3545       109.1726         0.8742        -999.25        -999.25       -40.1606      -1.136208      0.9976914
      7372.0000         1.3598       105.0901         0.8899        -999.25        -999.25       -39.4654     -0.4410095              1
      7372.5000         1.3637        95.0653         0.9056        -999.25        -999.25        -39.009      0.0153923              1
      7373.0000         1.3651        92.0205         0.9213        -999.25        -999.25       -38.7762      0.2481918              1
      7373.5000         1.3808         98.286          0.937        -999.25        -999.25       -39.2533     -0.2289085              1
      7374.0000         1.4312       103.1972         0.9527        -999.25        -999.25       -39.7458     -0.7214088              1
      7374.5000         1.4892       100.8479         0.9685        -999.25        -999.25       -40.2356      -1.211208      0.9964202
      7375.0000         1.5415       100.3445         0.9842        -999.25        -999.25       -40.7253      -1.700909      0.9881202
      7375.5000         1.5872        95.6045         0.9999        -999.25        -999.25       -41.2151      -2.190708      0.9798185
      7376.0000         1.6054        84.4016          1.017        -999.25        -999.25       -41.7049      -2.680508      0.9715168
      7376.5000         1.6067        78.3466         1.0341        -999.25        -999.25       -42.1941      -3.169708      0.9632253
      7377.0000         1.5883        86.1377         1.0512        -999.25        -999.25       -42.6678       -3.64341      0.9551964
      7377.5000         1.5585        90.3866         1.0683        -999.25        -999.25       -42.9587      -3.934307       0.950266
      7378.0000         1.5287        94.5905         1.0854        -999.25        -999.25       -42.6839      -3.659508      0.9549236
      7378.5000         1.4989        95.3752         1.0969        -999.25        -999.25        -42.409      -3.384609      0.9595829
      7379.0000         1.4754        91.8156         1.0989        -999.25        -999.25       -42.1344      -3.110008      0.9642372
      7379.5000         1.4586        93.3974          1.094        -999.25        -999.25       -41.8596      -2.835209      0.9688948
      7380.0000         1.4608        96.1097         1.0834        -999.25        -999.25        -41.585      -2.560608       0.973549
      7380.5000         1.4725        96.7342         1.0728        -999.25        -999.25       -41.3101      -2.285709      0.9782083
      7381.0000         1.4843        95.8913         1.0623        -999.25        -999.25       -41.0352      -2.010807      0.9828677
      7381.5000          1.496        93.7654         1.0517        -999.25        -999.25       -40.7606       -1.73621      0.9875219
      7382.0000         1.5077        91.8243         1.0411        -999.25        -999.25       -40.5385      -1.514111      0.9912863
      7382.5000         1.5194        91.9679         1.0305        -999.25        -999.25       -40.3222       -1.29781      0.9949524
      7383.0000         1.5062        90.1178         1.0199        -999.25        -999.25        -40.106      -1.081608      0.9986168
      7383.5000         1.4555        90.2879         1.0094        -999.25        -999.25       -39.8899      -0.865509              1
