#------------------------------------------------------------------------------
# Created by    : vladimir.rabinovich
# Created on    : 09/19/2023 17:21:51
#------------------------------------------------------------------------------
~Version Information Section
VERS.           2.0     :   CWLS log ASCII Standard - VERSION 2.0
WRAP.           NO      :   One line per depth step
~Well Information Section
#MNEM       .UNIT                                         VALUE :DESCRIPTION
#------------------------------------------------------------------------------
STRT        .FT                                             692 :START DEPTH
STOP        .FT                                            6716 :STOP DEPTH
STEP        .FT                                             0.5 :STEP      
NULL        .                                           -999.25 :NULL      
COMP        .                                  FMP OPERATING CO :COMPANY   
WELL        .                                          SL 89457 :WELL      
FLD         .                                           WILDCAT :FIELD     
LOC         .                                                   :LOCATION  
CNTY        .                      MATAGORDA ISLAND LARGE BLOCK :LOCATION  
STAT        .                                             TEXAS :STATE     
CTRY        .                                     UNITED STATES :COUNTRY   
SRVC        .                                                   :SERVICE COMPANY
DATE        .                             9/13/2023 11:12:01 AM :LOG DATE  
API         .                                    42703303600000 :API NUMBER
UWI         .                                    42703303600000 :UNIQUE WELL ID
XCOORD      .                                  499223.886875127 :SURFACE X 
YCOORD      .                                  10221285.9321665 :SURFACE Y 
LAT         .                                        28.1205561 :LATITUDE  
LON         .                                       -96.5403272 :LONGITUDE 
ELEV        .FT                                              81 :ELEVATION VALUE
ELEV_TYPE   .                                                KB :ELEVATION REFERENCE TYPE
~Curve Information Section
#MNEM       .UNIT                                      API CODE :CURVE DESCRIPTION
#------------------------------------------------------------------------------
DEPT        .FT                                                 :DEPTH     
CALI        .IN                                                 :          
CILD        .MMHO                                               :          
DT          .US/F                                               :          
DTL         .US/F                                               :          
GR          .GAPI                                               :          
GR_NORM     .GAPI                                               :GammaRay Normalized
ILD         .OHMM                                               :          
ILM         .OHMM                                               :          
SFLU        .OHMM                                               :          
SP          .MV                                                 :          
SP_NORM     .MV                                                 :SP Normalized
TENS        .LBS                                                :          
VSH_GR      .V/V                                                :Volume of Shale from GR
VSH_SP      .V/V                                                :Volume of Shale from SP
~A        DEPTH           CALI           CILD             DT            DTL             GR        GR_NORM            ILD            ILM           SFLU             SP        SP_NORM           TENS         VSH_GR         VSH_SP
# ...
      5930.0000        -999.25       1044.561       111.7234       111.5158        75.3433        79.2894          0.975         0.9402         0.8776         2.2846        -3.6619       2965.207      0.9848808      0.9463903
      5930.5000        -999.25       1068.363       109.9325       109.7338        72.8163       76.04559         0.9787         0.9574         0.9062        -0.1089        -6.1544       2965.055      0.9158635      0.8659871
      5931.0000        -999.25       1092.189       109.7323       109.1355        67.3526       69.04053         0.9795           0.94          0.902        -2.9892        -9.1336        2945.05      0.7668197      0.7698839
      5931.5000        -999.25       1151.547       109.1345       108.5379        58.8083       58.08963         0.9143          0.891         0.8736        -7.0601       -13.3035       2944.898      0.5338219       0.635371
      5932.0000        -999.25       1187.496       108.9343       108.5366        49.8648       46.62756         0.8817         0.8446         0.8307        -9.6428       -15.9852       2944.747      0.2899481      0.5488645
      5932.5000        -999.25       1195.392       108.9329       107.9387        45.4927       41.02051         0.8696         0.8005         0.7546       -11.0204       -17.4618       2964.479      0.1706491      0.5012323
      5933.0000        -999.25       1203.324       107.9373       107.1419        50.2617        47.1217         0.8324         0.7756         0.7274        -9.8476       -16.3879        2956.26      0.3004616      0.5358742
      5933.5000        -999.25       1266.876       107.1406        106.544        53.3421       51.05997         0.7968         0.7756         0.7045        -8.3628       -15.0021       2959.631      0.3842548      0.5805774
      5934.0000        -999.25       1354.314        107.338       106.3438         57.217       56.01598         0.7792         0.7792         0.7459         -7.041       -13.7793       2963.965      0.4897017      0.6200226
      5934.5000        -999.25       1457.668       107.3367       106.7401        56.6205       55.24479         0.7241         0.7546         0.8046        -9.8224       -16.6597       2979.145      0.4732935      0.5271065
      5935.0000        -999.25       1489.441       107.9322       107.1367        52.0485       49.38184         0.6764         0.7341         0.8013        -13.002       -19.9382       2983.608      0.3485497      0.4213484
      5935.5000        -999.25        1580.86       108.3285       107.5331        46.8788        42.7532         0.6317         0.6901         0.7208        -15.685       -22.7202       2983.457      0.2075148      0.3316065
      5936.0000        -999.25       1680.236       108.7249        108.724        41.5091       35.86853         0.5901         0.6486         0.6699       -18.9648        -26.099       2983.305     0.06103248      0.2226129
      5936.5000        -999.25       1823.344       108.9224       108.7235        39.7182       33.56753         0.5511         0.6096         0.6548       -20.2565       -27.4896       2983.154     0.01207514      0.1777549
      5937.0000        -999.25       1974.407        108.921       108.7222         38.325       31.77605         0.5067          0.573         0.6488       -21.1508       -28.4829       2963.117              0      0.1457129
      5937.5000        -999.25       2077.786       109.3174       108.7208        37.1299       30.23817         0.4884         0.5386           0.64       -21.6473       -29.0784       2962.966              0      0.1265032
      5938.0000        -999.25       2165.237       110.1115       109.3152        37.9239       31.24809          0.456         0.5113         0.6255       -21.9451       -29.4752       2982.701              0      0.1137032
      5938.5000        -999.25       2268.598       109.5136        108.917        39.7125        33.5318         0.4498         0.5113         0.6141       -21.9446       -29.5736       2982.549      0.0113148       0.110529
      5939.0000        -999.25        2268.56       108.5179       107.9213        44.9827       40.27494         0.4478         0.5113         0.6002       -21.7452       -29.4732       2982.413       0.154786      0.1137678
      5939.5000        -999.25       2188.964       107.9199       107.3233        46.4738        42.1776          0.454         0.5169         0.5813       -21.6451       -29.4721       2972.273      0.1952681      0.1138032
      5940.0000        -999.25       1982.079       107.1231       106.5265        48.1637       44.33501          0.493          0.528         0.5502       -21.2467       -29.1727       2972.548      0.2411704      0.1234613
      5940.5000        -999.25        1759.29       102.9454       102.7815        48.4613       44.70902         0.5553         0.5452         0.5378       -21.0472       -29.0721       2972.823      0.2491281      0.1267065
      5941.0000        -999.25       1552.408        97.3755        97.2393        48.1622       44.31887         0.6441         0.7014         0.5578       -20.9471        -29.071       2973.097       0.240827       0.126742
      5941.5000        -999.25       1401.208          91.01        90.9054        43.4854       38.32156          0.747         0.7111         0.7376       -21.1455       -29.3684       2973.372      0.1132246      0.1171484
      5942.0000        -999.25       1234.095        88.8208        88.7272        39.3047       32.95978         0.8665         0.8239         0.9106       -21.2444       -29.5663       2973.646              0      0.1107645
      5942.5000        -999.25       1059.024        86.6316        86.8305        34.9259       27.34415         0.9709         0.9547         1.2838       -21.6418       -30.0626       2973.921              0     0.09475487
      5943.0000        -999.25       939.6371          88.42        88.8178        35.0237       27.46237         1.1555         1.0837         1.2779       -21.6413       -30.1611       2974.196              0      0.0915774
      5943.5000        -999.25       883.8906        90.2084        89.8107        36.3158       29.11015         1.1502         1.1038         1.0447       -21.6407       -30.2595        2974.47              0     0.08840321
      5944.0000        -999.25       848.0719         91.798        90.6044        38.4043        31.7781         1.1449         1.0542         1.0495       -21.7397       -30.4575       2974.745              0     0.08201612
      5944.5000        -999.25       1122.435        94.7798        92.1943        40.2939       34.19116         0.8819         0.9065         1.2152       -21.9382       -30.7549        2975.02     0.02534387     0.07242258
      5945.0000        -999.25       1241.721        99.8652        96.3697        42.4823       36.98707         0.7548         0.7796          1.145       -22.7339       -31.6496       2975.294     0.08483132     0.04356132
      5945.5000        -999.25       1512.154       104.9506       107.5061        42.6802       37.23338         0.6519         0.6705          0.853       -23.6293        -32.644       2975.569     0.09007182     0.01148384
      5946.0000        -999.25       1663.257        110.036       109.6925        41.6835       35.94973         0.5734         0.5503         0.6355       -24.6244       -33.7381       2960.361     0.06276021              0
      5946.5000        -999.25       2029.167       113.2712       112.4757        40.0894        33.9008         0.5033         0.5102         0.5138       -25.0223       -34.2349       2960.236     0.01916593              0
      5947.0000        -999.25        2311.57       113.2699       112.6588        39.8889       33.63695         0.4418         0.4863         0.5185        -25.221       -34.5326       2920.309     0.01355216              0
      5947.5000        -999.25       2486.551       112.2741       110.8764         40.286       34.13839         0.3994         0.4731         0.5281       -25.2207       -34.6313       2921.705     0.02422114              0
