#------------------------------------------------------------------------------
# Created by    : vladimir.rabinovich
# Created on    : 09/19/2023 17:20:25
#------------------------------------------------------------------------------
~Version Information Section
VERS.           2.0     :   CWLS log ASCII Standard - VERSION 2.0
WRAP.           NO      :   One line per depth step
~Well Information Section
#MNEM       .UNIT                                         VALUE :DESCRIPTION
#------------------------------------------------------------------------------
STRT        .FT                                             396 :START DEPTH
STOP        .FT                                           11006 :STOP DEPTH
STEP        .FT                                             0.5 :STEP      
NULL        .                                           -999.25 :NULL      
COMP        .                                 CALIFORNIA CO THE :COMPANY   
WELL        .                                OCS 00507 ST00BP00 :WELL      
FLD         .                            HIGH ISLAND BLOCK 0052 :FIELD     
LOC         .                                                   :LOCATION  
CNTY        .                           HIGH ISLAND LARGE BLOCK :LOCATION  
STAT        .                                             TEXAS :STATE     
CTRY        .                                     UNITED STATES :COUNTRY   
SRVC        .                                                   :SERVICE COMPANY
DATE        .                             9/13/2023 11:19:15 AM :LOG DATE  
API         .                                    42708000170000 :API NUMBER
UWI         .                                    42708000170000 :UNIQUE WELL ID
XCOORD      .                                  1293108.02889945 :SURFACE X 
YCOORD      .                                   10685731.628563 :SURFACE Y 
LAT         .                                         29.439677 :LATITUDE  
LON         .                                        -94.091453 :LONGITUDE 
ELEV        .FT                                              70 :ELEVATION VALUE
ELEV_TYPE   .                                                KB :ELEVATION REFERENCE TYPE
~Curve Information Section
#MNEM       .UNIT                                      API CODE :CURVE DESCRIPTION
#------------------------------------------------------------------------------
DEPT        .FT                                                 :DEPTH     
ASN         .OHMM                                               :          
CILD        .MMHO                                               :          
ILM         .OHMM                                               :          
SP          .MV                                                 :          
SP_NORM     .MV                                                 :SP Normalized
VSH_SP      .V/V                                                :Volume of Shale from SP
~A        DEPTH            ASN           CILD            ILM             SP        SP_NORM         VSH_SP
       396.0000         0.1275        2002.66         1.6199       -99.6791       -16.6602        0.26699
       396.5000         0.1232       2003.105         1.5841       -103.443       -20.4241     0.07879496
       397.0000         0.1187       2002.949         1.5483      -107.3179        -24.299              0
       397.5000         0.1165       2001.355         1.5133      -108.9103       -25.8914              0
       398.0000         0.1182       1999.762         1.4847      -109.5405       -26.5216              0
       398.5000         0.1387        1986.49         1.4561      -106.6995       -23.6806              0
       399.0000         0.1729       1959.377         1.4275      -103.5892       -20.5703     0.07148504
       399.5000          0.237       1829.336         1.4001       -97.8735       -14.8546        0.35727
       400.0000         0.5945        1232.25         1.3775       -93.4839        -10.465        0.57675
       400.5000         1.0139       829.9131         1.3549       -91.6287        -8.6098        0.66951
       401.0000         1.0869       639.9912         1.3323       -90.2618        -7.2429       0.737855
       401.5000         1.1265       654.0361         1.3097       -89.3342        -6.3153       0.784235
       402.0000         1.1551       668.0801         1.3002       -88.8218        -5.8029       0.809855
       402.5000          1.181       675.3291         1.2923       -88.3094        -5.2905       0.835475
       403.0000         1.2035       682.5762         1.2844       -87.8365        -4.8176        0.85912
       403.5000         1.2244       689.8223         1.2765       -87.4451        -4.4262        0.87869
       404.0000         1.2334       701.6621         1.2686       -87.0535        -4.0346        0.89827
       404.5000         1.2283       713.9854         1.2825       -86.6619         -3.643        0.91785
       405.0000         1.2232       726.3086         1.3015       -86.3071        -3.2882        0.93559
       405.5000           1.22       722.5977         1.3205       -86.0282        -3.0093       0.949535
       406.0000         1.2175       690.4141         1.3396       -85.7493        -2.7304        0.96348
       406.5000         1.2282       658.2334         1.3781       -85.4705        -2.4516        0.97742
       407.0000         1.2547        615.498         1.4293       -85.1915        -2.1849       0.990755
       407.5000         1.3119       549.0186         1.4805       -85.0366        -2.0878        0.99561
       408.0000         1.3837        526.248         1.5318       -84.9325        -2.0414        0.99793
       408.5000         1.4459       509.7144          1.583       -84.8284         -1.995              1
       409.0000         1.4956       493.1807         1.6389       -84.7242        -1.9486              1
       409.5000          1.558        480.228         1.7061       -84.7538        -2.0359       0.998205
       410.0000         1.6237       474.3779         1.7733       -84.9351        -2.2749       0.986255
       410.5000          1.657       468.5273         1.8404       -85.1163        -2.5139       0.974305
       411.0000          1.687       462.6772         1.9001       -85.2976        -2.7529       0.962355
       411.5000         1.7148       456.8271         1.9578       -85.4789        -2.9919       0.950405
       412.0000         1.7426       450.9771         2.0154       -85.6174        -3.1882        0.94059
       412.5000         1.7651       449.6245         2.0716       -85.5432        -3.1717       0.941415
       413.0000         1.7863        448.709          2.104        -85.469        -3.1553       0.942235
       413.5000         1.8074       447.7935         2.1364       -85.3948        -3.1388        0.94306
       414.0000          1.812       446.8779         2.1688       -85.3206        -3.1223       0.943885
       414.5000         1.7878       445.9629         2.1922       -85.2069        -3.0664        0.94668
       415.0000         1.7635       445.0474         2.1927       -84.7841        -2.7013       0.964935
       415.5000         1.7539       444.2046         2.1931       -84.3613        -2.3362        0.98319
       416.0000         1.7447       448.7925         2.1936       -83.9385        -1.9712              1
       416.5000          1.745       453.3804         2.1941       -83.5157        -1.6061              1
       417.0000         1.7497       457.9687         2.1941       -83.0929         -1.241              1
       417.5000         1.7543       462.5562         2.1719       -82.6702        -0.8761              1
       418.0000         1.7488       467.1445         2.1498       -82.1385        -0.4021              1
       418.5000          1.742       471.7324         2.1276       -81.5645         0.1142              1
       419.0000         1.7352       476.3613         2.1054       -80.9905         0.6304              1
       419.5000         1.7179       482.0586         2.0833       -80.4165         1.1467              1
       420.0000         1.6931       487.7554         2.0509       -79.8824         1.6231              1
       420.5000         1.6711       493.4521         2.0139       -79.5797          1.868              1
       421.0000          1.661       499.1494          1.977        -79.277          2.113              1
       421.5000         1.6509       504.8462           1.94       -78.9742         2.3581              1
       422.0000          1.644        510.543          1.903       -78.7319         2.5426              1
       422.5000         1.6386        516.501          1.866       -78.8755         2.3413              1
       423.0000         1.6333       522.5928          1.829        -79.019         2.1401              1
       423.5000         1.6279       528.6836         1.8036       -79.1626         1.9387              1
       424.0000         1.6225       534.7754         1.7801        -79.306         1.7376              1
       424.5000         1.6156       540.8672         1.7565       -79.7141         1.2717              1
       425.0000         1.6082        546.959          1.733       -80.1654         0.7627              1
       425.5000         1.6007        555.875         1.7094       -80.6168         0.2536              1
       426.0000         1.5933        566.041         1.6858       -81.0681        -0.2555              1
       426.5000         1.5824        576.207         1.6623       -81.5194        -0.7645              1
       427.0000         1.5665        586.374         1.6419       -81.8177        -1.1205              1
       427.5000         1.5506         596.54          1.625       -82.1028        -1.4634              1
       428.0000         1.5361       612.6162         1.6081       -82.3878        -1.8061              1
       428.5000         1.5222       631.0879         1.5912         -82.65         -2.126         0.9937
       429.0000         1.5083       649.5596         1.5743       -82.2347        -1.7685              1
       429.5000         1.4879       668.0322         1.5574       -81.8193        -1.4108              1
       430.0000         1.4668       686.5156         1.5405       -81.4039        -1.0531              1
       430.5000         1.4326       705.0352         1.5108       -80.9886        -0.6956              1
       431.0000         1.3941       723.5537         1.4803       -80.5782        -0.3429              1
       431.5000         1.3548        736.833         1.4497       -80.1842        -0.0066              1
       432.0000         1.3188       745.4727         1.4192         -79.79         0.3298              1
       432.5000         1.2849       749.0303         1.3886       -79.3959         0.6662              1
       433.0000         1.2545       737.7119         1.3581       -79.0018         1.0025              1
       433.5000         1.2276       726.3945         1.3314       -78.6077         1.3389              1
