#------------------------------------------------------------------------------
# Created by    : vladimir.rabinovich
# Created on    : 09/19/2023 17:19:44
#------------------------------------------------------------------------------
~Version Information Section
VERS.           2.0     :   CWLS log ASCII Standard - VERSION 2.0
WRAP.           NO      :   One line per depth step
~Well Information Section
#MNEM       .UNIT                                         VALUE :DESCRIPTION
#------------------------------------------------------------------------------
STRT        .FT                                            2932 :START DEPTH
STOP        .FT                                           14530 :STOP DEPTH
STEP        .FT                                             0.5 :STEP      
NULL        .                                           -999.25 :NULL      
COMP        .                                 MESA PETROLEUM CO :COMPANY   
WELL        .                                 ST TR 00022-L W/2 :WELL      
FLD         .                                           WILDCAT :FIELD     
LOC         .                                                   :LOCATION  
CNTY        .                           HIGH ISLAND LARGE BLOCK :LOCATION  
STAT        .                                             TEXAS :STATE     
CTRY        .                                     UNITED STATES :COUNTRY   
SRVC        .                                                   :SERVICE COMPANY
DATE        .                             9/13/2023 11:19:15 AM :LOG DATE  
API         .                                    42708300770000 :API NUMBER
UWI         .                                    42708300770000 :UNIQUE WELL ID
XCOORD      .                                  1307803.37781852 :SURFACE X 
YCOORD      .                                  10713200.3443699 :SURFACE Y 
LAT         .                                         29.515602 :LATITUDE  
LON         .                                       -94.0460534 :LONGITUDE 
ELEV        .FT                                              85 :ELEVATION VALUE
ELEV_TYPE   .                                                KB :ELEVATION REFERENCE TYPE
~Curve Information Section
#MNEM       .UNIT                                      API CODE :CURVE DESCRIPTION
#------------------------------------------------------------------------------
DEPT        .FT                                                 :DEPTH     
ASFL        .OHMM                                               :          
CILD        .MMHO                                               :          
ILD         .OHMM                                               :          
SP          .MV                                                 :          
SP_NORM     .MV                                                 :SP Normalized
VSH_SP      .V/V                                                :Volume of Shale from SP
~A        DEPTH           ASFL           CILD            ILD             SP        SP_NORM         VSH_SP
# ...
      4490.0000         0.4066       4160.125         0.2444      -108.5508       -50.9171      0.1948855
      4490.5000         0.3891       4118.125         0.2411      -105.7363      -48.09914      0.2403365
      4491.0000         0.3725       4081.188         0.2384      -102.3438      -44.70317      0.2951101
      4491.5000         0.3587           4043         0.2358       -80.3477      -22.70361      0.6499418
      4492.0000         0.3449       3973.438         0.2332       -74.9531      -17.30554      0.7370074
      4492.5000         0.3311       3903.813         0.2307       -69.5625      -11.91148      0.8240085
      4493.0000         0.3195       3843.125         0.2281       -64.1719      -6.517406      0.9110096
      4493.5000         0.3318        3917.75         0.2255       -62.4414      -4.783443      0.9389767
      4494.0000          0.344       3994.063         0.2229       -68.1484      -10.48698      0.8469843
      4494.5000         0.3563           4085         0.2259       -75.2852      -17.62031      0.7319304
      4495.0000         0.3685       4145.875         0.2332       -91.2109      -33.54255      0.4751202
      4495.5000         0.3808        3976.25         0.2405      -100.2988      -42.62698      0.3285972
      4496.0000          0.393           3830         0.2479      -102.3076      -44.63232       0.296253
      4496.5000         0.3999       3744.625         0.2552       -99.9531      -42.27435      0.3342847
      4497.0000         0.4009       3491.375         0.2625       -92.6562      -34.97398      0.4520326
      4497.5000         0.4019       3329.875         0.2698       -85.3516      -27.66592      0.5699046
      4498.0000         0.4057        3206.75         0.2771       -77.4766      -19.78745      0.6969765
      4498.5000         0.4099       3091.188         0.2878       -68.3594      -10.66678      0.8440841
      4499.0000         0.4142       2975.688         0.3158       -59.5039      -1.807819      0.9869707
      4499.5000         0.4185       2860.125         0.3439       -55.9258       1.773746              1
      4500.0000         0.4326       2744.625         0.3719       -55.5684       2.134613              1
      4500.5000         0.4478       2629.063         0.3999       -58.3105      -0.604023              1
      4501.0000         0.4631           2460          0.428       -60.6855      -2.975555      0.9681362
      4501.5000         0.4783       2208.063         0.4561       -63.0605      -5.347092      0.9298856
      4502.0000         0.4935           2220         0.4841       -65.4355      -7.718624      0.8916351
      4502.5000         0.5086       2251.281         0.5109       -67.9648      -10.24446      0.8508958
      4503.0000         0.5237        2275.25         0.5371       -70.6855      -12.96169      0.8070695
      4503.5000         0.5388           2201         0.5634       -73.4082      -15.68093      0.7632108
      4504.0000         0.5589       2108.125         0.5896       -75.7227      -17.99196      0.7259361
      4504.5000         0.5841       2015.313         0.5978        -77.498       -19.7638      0.6973581
      4505.0000         0.6094        1919.75          0.578       -76.8242      -19.08653      0.7082818
      4505.5000         0.6296           1775         0.5583       -75.6553      -17.91416       0.727191
      4506.0000         0.6368       1772.094         0.5385       -74.5444       -16.7998      0.7451645
      4506.5000         0.6258       1798.094         0.5188       -73.7349      -15.98683      0.7582769
      4507.0000         0.6148         1877.5         0.4991        -74.418      -16.66647       0.747315
      4507.5000         0.6038       1970.375         0.4793       -75.3887       -17.6337      0.7317145
      4508.0000         0.5928       2063.188         0.4596       -76.3594      -18.60093       0.716114
      4508.5000         0.5819       2151.375         0.4398       -77.3301      -19.56817      0.7005134
      4509.0000         0.5687        2229.75         0.4201       -78.1978       -20.4324      0.6865742
      4509.5000         0.5552       2308.125         0.4111       -79.0547      -21.28584      0.6728091
      4510.0000         0.5418        2407.75         0.4098       -78.3262      -20.55387      0.6846149
      4510.5000         0.5312        2412.25         0.4085       -76.4531      -18.67731      0.7148821
      4511.0000         0.5253        2366.75         0.4072       -74.3477      -16.56844      0.7488961
      4511.5000         0.5223        2321.25         0.4059       -72.2441      -14.46138       0.782881
      4512.0000         0.5202       2275.781         0.4046       -71.1807      -13.39451      0.8000886
      4512.5000         0.5181       2230.281         0.4033       -70.2598      -12.47015      0.8149976
      4513.0000         0.5147       2184.781          0.402       -67.7266      -9.933475      0.8559117
      4513.5000          0.509         2121.5         0.4017       -63.8711      -6.074512       0.918153
      4514.0000         0.5033       2044.938         0.4019       -59.4375      -1.637444      0.9897187
      4514.5000         0.4976       1999.625         0.4021       -57.9219     -0.1183815              1
      4515.0000          0.492           2058         0.4024       -60.1074      -2.300411      0.9790256
      4515.5000          0.489       2182.313         0.4026       -64.9805      -7.170048      0.9004831
      4516.0000         0.4911       2296.188         0.4028       -69.8984      -12.08448      0.8212181
      4516.5000         0.4931       2379.219          0.403       -73.7852      -15.96782      0.7585835
      4517.0000         0.4958       2423.813          0.406       -77.3047      -19.48385      0.7018734
      4517.5000          0.499       2457.938         0.4101       -81.9688      -24.14449      0.6267018
      4518.0000         0.5021       2489.313         0.4142       -80.6074      -22.77962      0.6487159
      4518.5000         0.5053       2509.266         0.4183       -78.5234      -20.69215      0.6823847
      4519.0000         0.5084       2518.563         0.4224       -76.4395      -18.60479      0.7160518
      4519.5000         0.5116        2463.75         0.4277       -74.3889      -16.55072      0.7491819
      4520.0000         0.5147       2408.938         0.4339       -74.7385      -16.89686      0.7435991
      4520.5000         0.5179       2354.125         0.4401       -74.6892      -16.84409      0.7444502
      4521.0000          0.521       2299.313         0.4462       -72.9434      -15.09482      0.7726642
      4521.5000         0.5242         2244.5         0.4524       -70.6255      -12.77346      0.8101055
      4522.0000         0.5273       2189.688         0.4586       -71.5083      -13.65279      0.7959227
      4522.5000         0.5305       2154.844         0.4647       -72.3906      -14.53163      0.7817479
      4523.0000         0.5336       2121.844         0.4654       -72.2295      -14.36706      0.7844023
      4523.5000         0.5368       2088.844         0.4651       -70.4482      -12.58229      0.8131889
      4524.0000         0.5353       2058.422         0.4648        -68.667      -10.79763      0.8419738
      4524.5000         0.5278       2029.453         0.4645       -66.8857      -9.012859      0.8707603
      4525.0000         0.5203         2000.5         0.4642       -65.1045      -7.228195      0.8995453
      4525.5000         0.5128       1962.281         0.4639       -62.3008      -4.421032      0.9448221
      4526.0000         0.5053       2008.719         0.4636       -58.9023      -1.019066      0.9996925
      4526.5000         0.4943       2055.156         0.4628       -55.7715         2.1152              1
      4527.0000         0.4833       2103.281         0.4584       -53.7979       4.092266              1
      4527.5000         0.4723       2153.125          0.454       -52.7705       5.123131              1
