#------------------------------------------------------------------------------
# Created by    : vladimir.rabinovich
# Created on    : 09/19/2023 17:21:52
#------------------------------------------------------------------------------
~Version Information Section
VERS.           2.0     :   CWLS log ASCII Standard - VERSION 2.0
WRAP.           NO      :   One line per depth step
~Well Information Section
#MNEM       .UNIT                                         VALUE :DESCRIPTION
#------------------------------------------------------------------------------
STRT        .FT                                            2690 :START DEPTH
STOP        .FT                                            8272 :STOP DEPTH
STEP        .FT                                             0.5 :STEP      
NULL        .                                           -999.25 :NULL      
COMP        .                        PG&E RESOURCES OFFSHORE CO :COMPANY   
WELL        .                               OCS G09053 ST00BP00 :WELL      
FLD         .                              GALVESTON BLOCK 0427 :FIELD     
LOC         .                                                   :LOCATION  
CNTY        .                             GALVESTON LARGE BLOCK :LOCATION  
STAT        .                                             TEXAS :STATE     
CTRY        .                                     UNITED STATES :COUNTRY   
SRVC        .                                                   :SERVICE COMPANY
DATE        .                             9/13/2023 11:11:09 AM :LOG DATE  
API         .                                    42706402380000 :API NUMBER
UWI         .                                    42706402380000 :UNIQUE WELL ID
XCOORD      .                                  948581.259723803 :SURFACE X 
YCOORD      .                                  10360666.4777899 :SURFACE Y 
LAT         .                                         28.532718 :LATITUDE  
LON         .                                        -95.155068 :LONGITUDE 
ELEV        .FT                                             119 :ELEVATION VALUE
ELEV_TYPE   .                                                KB :ELEVATION REFERENCE TYPE
~Curve Information Section
#MNEM       .UNIT                                      API CODE :CURVE DESCRIPTION
#------------------------------------------------------------------------------
DEPT        .FT                                                 :DEPTH     
CALI        .IN                                                 :          
DRHO        .G/C3                                               :          
DT          .US/F                                               :          
GR          .GAPI                                               :          
GR_1        .GAPI                                               :          
GR_NORM     .GAPI                                               :GammaRay Normalized
ILD         .OHMM                                               :          
ILM         .OHMM                                               :          
NPHI        .%                                                  :          
RFOC        .OHMM                                               :          
RHOB        .G/C3                                               :          
SP          .MV                                                 :          
SP_NORM     .MV                                                 :SP Normalized
VSH_GR      .V/V                                                :Volume of Shale from GR
VSH_SP      .V/V                                                :Volume of Shale from SP
~A        DEPTH           CALI           DRHO             DT             GR           GR_1        GR_NORM            ILD            ILM           NPHI           RFOC           RHOB             SP        SP_NORM         VSH_GR         VSH_SP
# ...
      8249.0000         13.961         0.0625        -999.25        79.1924        85.1251        79.6544         0.8543         0.8811        36.8373         1.1093         2.4051       -42.6718     -0.6964912      0.9926469              1
      8249.5000        14.0621         0.0641        -999.25         30.223        85.2217       79.76373         0.8504         0.8798        36.7516          1.106         2.4073       -42.0533    -0.07799149      0.9949731              1
      8250.0000         14.145         0.0671        -999.25        30.1176        86.3704       81.06376           0.86         0.9074        36.6477         1.1371         2.4094       -42.0212    -0.04589081              1              1
      8250.5000        14.0162           0.07        -999.25        -999.25        89.2369       84.30787          0.862         0.8968        36.5164         1.1556         2.4073       -41.7529      0.2224083              1              1
      8251.0000        13.8573         0.0735        -999.25        -999.25         86.532       81.24664         0.8649         0.8875        36.3773         1.1678         2.4025       -41.6334      0.3419075              1              1
      8251.5000        13.7097         0.0772        -999.25        -999.25        84.2367       78.64898         0.8657         0.8851        36.5731         1.1717         2.3944       -41.5284       0.446907      0.9712549              1
      8252.0000        13.5396         0.0789        -999.25        -999.25        85.8955        80.5263         0.8621          0.892        36.7753         1.1665          2.387       -41.4297      0.5456085              1              1
      8252.5000        13.3357         0.0724        -999.25        -999.25        88.4205       83.38393         0.8554         0.9011        36.7351         1.1433         2.3852       -41.5276      0.4477081              1              1
      8253.0000        13.0231         0.0674        -999.25        -999.25        87.6616       82.52505         0.8479         0.9064        37.7137         1.1178         2.3877       -41.6171      0.3582077              1              1
      8253.5000        12.4038          0.064        -999.25        -999.25        87.1121       81.90316         0.8396         0.9018        38.3749         1.1213         2.3898       -41.5357      0.4396057              1              1
      8254.0000        12.5433          0.061        -999.25        -999.25        87.6776       82.54315          0.831         0.8885        38.1642         1.1295          2.389       -41.1021      0.8732071              1              1
      8254.5000        12.6792         0.0593        -999.25        -999.25        89.9137       85.07382         0.8202         0.8751         38.236         1.1275         2.3872       -40.5284       1.446907              1              1
      8255.0000        12.8309         0.0609        -999.25        -999.25        90.1497       85.34091         0.8103         0.8644        38.6844         1.1172         2.3871       -40.1866       1.788708              1              1
      8255.5000        12.9742         0.0675        -999.25        -999.25        89.8531       85.00525         0.8043         0.8534        38.7751         1.1021         2.3871       -40.0796       1.895706              1              1
      8256.0000         12.889         0.0774        -999.25        -999.25        89.8157       84.96291         0.7999         0.8389        38.1075          1.085         2.3791       -40.0037       1.971607              1              1
      8256.5000        12.6185          0.091        -999.25        -999.25        89.0215       84.06409         0.7957         0.8286        37.2499         1.0692         2.3661        -39.835       2.140308              1              1
      8257.0000        12.4764         0.0902        -999.25        -999.25        85.5724       80.16063         0.7922         0.8251         37.265         1.0658         2.3571        -39.442       2.533306              1              1
      8257.5000        12.5052         0.0756        -999.25        -999.25        83.3827       77.68247         0.7878         0.8281        37.5663         1.0649          2.356       -39.1212       2.854107      0.9506909              1
      8258.0000        12.5766          0.066        -999.25        -999.25        85.3815       79.94458         0.7824         0.8288         37.743         1.0583         2.3606       -38.8924       3.082909      0.9988208              1
      8258.5000        12.6402         0.0652        -999.25        -999.25          89.21       84.27743         0.7785          0.831        37.5637         1.0547          2.367       -38.6806       3.294708              1              1
      8259.0000        12.6508          0.066        -999.25        -999.25        92.3922       87.87883         0.7766         0.8387        37.5717         1.0708         2.3727       -38.5778       3.397507              1              1
      8259.5000        12.6316         0.0675        -999.25        -999.25        88.5197       83.49619         0.7772         0.8462        37.4318          1.095         2.3774       -38.6209       3.354408              1              1
      8260.0000        12.5865         0.0689        -999.25        -999.25        85.8049       80.42377         0.7798         0.8545        37.0087         1.1142         2.3764       -38.5381       3.437206              1              1
      8260.5000        12.4459         0.0687        -999.25        -999.25        87.0314       81.81184         0.7835         0.8658        37.0621         1.1162         2.3738       -38.2674       3.707909              1              1
      8261.0000        12.0811         0.0671        -999.25        -999.25        87.6423       82.50321         0.7883         0.8738        37.4942         1.0954         2.3741       -38.2623       3.713009              1              1
      8261.5000        11.9372         0.0675        -999.25        -999.25        86.6691        81.4018         0.7908         0.8775        38.0083         1.0839          2.376       -38.5186       3.456707              1              1
      8262.0000        12.0736         0.0701        -999.25        -999.25        84.0474       78.43474         0.7919         0.8771         38.392         1.0956         2.3799        -39.185       2.790306      0.9666966              1
      8262.5000        12.2706         0.0738        -999.25        -999.25        83.7878       78.14095         0.7929         0.8733        38.6085            1.1         2.3846       -39.3474       2.627907      0.9604456              1
      8263.0000        12.5042         0.0758        -999.25        -999.25        85.5822       80.17171         0.7938         0.8702        38.6133         1.0808         2.3864       -38.7102       3.265106              1              1
      8263.5000        12.4917         0.0717        -999.25        -999.25        87.5442       82.39218         0.7924         0.8614        38.2458         1.0548         2.3862       -37.9576       4.017708              1              1
      8264.0000        12.3624         0.0698        -999.25        -999.25        88.1102       83.03274           0.79         0.8569        36.1473         1.0409         2.3851       -37.7031       4.272209              1              1
      8264.5000        12.2057         0.0699        -999.25        -999.25        88.6334       83.62487         0.7869         0.8582        35.7806         1.0564         2.3832       -37.9247       4.050606              1              1
      8265.0000        12.0219         0.0792        -999.25        -999.25        89.8708       85.02527         0.7836          0.858        36.4112          1.077          2.377       -38.6028       3.372509              1              1
      8265.5000        11.8439          0.089        -999.25        -999.25        91.8365       87.24993          0.782         0.8557        36.8478          1.082         2.3567       -39.1068       2.868507              1              1
