#------------------------------------------------------------------------------
# Created by    : vladimir.rabinovich
# Created on    : 09/19/2023 17:21:26
#------------------------------------------------------------------------------
~Version Information Section
VERS.           2.0     :   CWLS log ASCII Standard - VERSION 2.0
WRAP.           NO      :   One line per depth step
~Well Information Section
#MNEM       .UNIT                                         VALUE :DESCRIPTION
#------------------------------------------------------------------------------
STRT        .FT                                            3102 :START DEPTH
STOP        .FT                                            8740 :STOP DEPTH
STEP        .FT                                             0.5 :STEP      
NULL        .                                           -999.25 :NULL      
COMP        .                          SEAGULL ENERGY E & P INC :COMPANY   
WELL        .                               OCS G13314 ST00BP00 :WELL      
FLD         .                              GALVESTON BLOCK 0330 :FIELD     
LOC         .                                                   :LOCATION  
CNTY        .                             GALVESTON LARGE BLOCK :LOCATION  
STAT        .                                             TEXAS :STATE     
CTRY        .                                     UNITED STATES :COUNTRY   
SRVC        .                                                   :SERVICE COMPANY
DATE        .                             9/13/2023 11:19:54 AM :LOG DATE  
API         .                                    42706403240000 :API NUMBER
UWI         .                                    42706403240000 :UNIQUE WELL ID
XCOORD      .                                  980373.867630971 :SURFACE X 
YCOORD      .                                  10452895.3513713 :SURFACE Y 
LAT         .                                         28.787844 :LATITUDE  
LON         .                                        -95.061044 :LONGITUDE 
ELEV        .FT                                              95 :ELEVATION VALUE
ELEV_TYPE   .                                                KB :ELEVATION REFERENCE TYPE
~Curve Information Section
#MNEM       .UNIT                                      API CODE :CURVE DESCRIPTION
#------------------------------------------------------------------------------
DEPT        .FT                                                 :DEPTH     
CALI        .IN                                                 :          
DRHO        .G/C3                                               :          
DT          .US/F                                               :          
GR          .GAPI                                               :          
GR_1        .GAPI                                               :          
GR_NORM     .GAPI                                               :GammaRay Normalized
ILD         .OHMM                                               :          
ILM         .OHMM                                               :          
NPHI        .%                                                  :          
RFOC        .OHMM                                               :          
RHOB        .G/C3                                               :          
SP          .MV                                                 :          
SP_NORM     .MV                                                 :SP Normalized
VSH_GR      .V/V                                                :Volume of Shale from GR
VSH_SP      .V/V                                                :Volume of Shale from SP
~A        DEPTH           CALI           DRHO             DT             GR           GR_1        GR_NORM            ILD            ILM           NPHI           RFOC           RHOB             SP        SP_NORM         VSH_GR         VSH_SP
# ...
      6502.0000        -999.25        -999.25       107.9006        65.6401        -999.25       76.01674          0.546         0.6663        -999.25         0.9414        -999.25       -42.0742      -12.24701      0.9152498      0.8469124
      6502.5000        -999.25        -999.25       107.8595        61.1302        -999.25       70.92282         0.5568         0.6804        -999.25         0.9555        -999.25       -45.9442      -16.11727      0.8068686      0.7985341
      6503.0000        -999.25        -999.25        105.943        54.1464        -999.25       63.03464          0.573         0.6983        -999.25         0.9994        -999.25       -49.9587      -20.13204      0.6390349      0.7483495
      6503.5000        -999.25        -999.25       102.5869        50.3018        -999.25       58.69217         0.5942           0.73        -999.25         1.0961        -999.25       -51.4795      -21.65311      0.5466418      0.7293361
      6504.0000        -999.25        -999.25        98.8224        50.1235        -999.25       58.49078         0.6229         0.7673        -999.25         1.2593        -999.25       -48.7132      -18.88708       0.542357      0.7639115
      6504.5000        -999.25        -999.25        95.8226        50.4939        -999.25       58.90915         0.6561         0.8189        -999.25         1.2739        -999.25       -45.1176      -15.29174      0.5512585      0.8088532
      6505.0000        -999.25        -999.25        94.9388        51.6579        -999.25       60.22388         0.6872         0.8446        -999.25         1.2608        -999.25       -42.1187      -12.29311      0.5792316      0.8463361
      6505.5000        -999.25        -999.25         95.069        53.7831        -999.25       62.62429         0.7177         0.8449        -999.25          1.244        -999.25       -41.1614      -11.33608      0.6303042       0.858299
      6506.0000        -999.25        -999.25        96.2089        54.3108        -999.25       63.22033         0.7431          0.835        -999.25         1.2218        -999.25        -39.902      -10.07695      0.6429856      0.8740382
      6506.5000        -999.25        -999.25        98.7264        54.6951        -999.25        63.6544         0.7507         0.8249        -999.25         1.1314        -999.25       -38.6949      -8.870113      0.6522212      0.8891236
      6507.0000        -999.25        -999.25        99.2855        56.4101        -999.25       65.59148         0.7456         0.8168        -999.25         1.1308        -999.25       -38.7894      -8.964878      0.6934358       0.887939
      6507.5000        -999.25        -999.25        99.0023        57.1323        -999.25       66.40721         0.7402         0.8123        -999.25         1.1464        -999.25       -39.2056      -9.381348      0.7107917      0.8827332
      6508.0000        -999.25        -999.25        98.2705        56.8978        -999.25       66.14234         0.7364         0.8111        -999.25         1.1687        -999.25       -38.9933      -9.169317      0.7051562      0.8853835
      6508.5000        -999.25        -999.25        98.1627        57.6519        -999.25       66.99409         0.7306          0.809        -999.25         1.1774        -999.25       -38.4285      -8.604784      0.7232785      0.8924402
      6509.0000        -999.25        -999.25        99.1749        58.9789        -999.25       68.49294         0.7321         0.8107        -999.25         1.1301        -999.25         -37.79      -7.966551       0.755169      0.9004181
      6509.5000        -999.25        -999.25       101.0422        60.1973        -999.25       69.86913         0.7452         0.8206        -999.25         1.0904        -999.25       -36.5213      -6.698118      0.7844496      0.9162735
      6510.0000        -999.25        -999.25       103.0728        61.1543        -999.25       70.95004         0.7652         0.8394        -999.25         1.0725        -999.25       -34.7642      -4.941282      0.8074477       0.938234
      6510.5000        -999.25        -999.25       105.1357        61.5824        -999.25       71.43359          0.799         0.8599        -999.25         1.0535        -999.25       -33.7198       -3.89715      0.8177359      0.9512856
      6511.0000        -999.25        -999.25       106.4867        61.3378        -999.25        71.1573         0.8584         0.9115        -999.25         1.0506        -999.25       -33.3081      -3.485722      0.8118575      0.9564285
      6511.5000        -999.25        -999.25        106.526        59.7635        -999.25       69.37914          0.941         1.0063        -999.25         1.0475        -999.25       -33.5873      -3.765186      0.7740243      0.9529352
      6512.0000        -999.25        -999.25       104.0245        55.4463        -999.25       64.50288         1.0293         1.0992        -999.25         1.0856        -999.25       -34.3324      -4.510555       0.670274      0.9436181
      6512.5000        -999.25        -999.25        92.3745        51.1809        -999.25       59.68511         1.0902         1.1851        -999.25          1.213        -999.25        -36.614      -6.792419      0.5677683      0.9150947
      6513.0000        -999.25        -999.25        84.7655        42.7391        -999.25       50.15012         1.1488         1.2019        -999.25         1.6737        -999.25       -43.5532      -13.73189      0.3648961      0.8283514
      6513.5000        -999.25        -999.25        78.0336        36.4276        -999.25       43.02128         1.2028          1.184        -999.25         2.2492        -999.25       -56.6978      -26.87676      0.2132188      0.6640406
      6514.0000        -999.25        -999.25        76.5022        32.6447        -999.25        38.7485         1.2407         1.1586        -999.25         2.3357        -999.25       -65.2384      -35.41763      0.1223086      0.5572797
      6514.5000        -999.25        -999.25        77.4457        34.5395        -999.25       40.88868         1.2559         1.1293        -999.25         2.1801        -999.25       -70.1696      -40.34909      0.1678443      0.4956364
      6515.0000        -999.25        -999.25        81.0781        37.9696        -999.25       44.76297         1.2405         1.0925        -999.25         1.9025        -999.25       -65.9353      -36.11506      0.2502759      0.5485618
      6515.5000        -999.25        -999.25        86.1658        41.6765        -999.25       48.94991         1.2058         1.0485        -999.25          1.641        -999.25       -59.4039      -29.58393      0.3393597      0.6302009
      6516.0000        -999.25        -999.25        91.5472        49.2336        -999.25       57.48564         1.1572         1.0014        -999.25          1.372        -999.25        -50.322      -20.50229      0.5209711      0.7437214
      6516.5000        -999.25        -999.25        96.2462         52.723        -999.25       61.42691         1.0888         0.9536        -999.25         1.1912        -999.25       -42.0631      -12.24366      0.6048279      0.8469542
      6517.0000        -999.25        -999.25        99.6421        55.0608        -999.25       64.06745         1.0105         0.8876        -999.25         1.0532        -999.25       -36.3508      -6.531628      0.6610096      0.9183546
      6517.5000        -999.25        -999.25       103.6459        56.5892        -999.25       65.79378         0.9006         0.8196        -999.25         0.9905        -999.25       -35.6414      -5.822495        0.69774      0.9272188
      6518.0000        -999.25        -999.25        105.634        56.6906        -999.25        65.9083         0.8066         0.7482        -999.25         0.9872        -999.25       -36.8067      -6.988064      0.7001767      0.9126492
      6518.5000        -999.25        -999.25       105.4677        50.9931        -999.25       59.47299         0.7092         0.6634        -999.25         1.0015        -999.25       -46.6003      -16.78193      0.5632551      0.7902259
