#------------------------------------------------------------------------------
# Created by    : vladimir.rabinovich
# Created on    : 09/19/2023 17:21:35
#------------------------------------------------------------------------------
~Version Information Section
VERS.           2.0     :   CWLS log ASCII Standard - VERSION 2.0
WRAP.           NO      :   One line per depth step
~Well Information Section
#MNEM       .UNIT                                         VALUE :DESCRIPTION
#------------------------------------------------------------------------------
STRT        .FT                                            3376 :START DEPTH
STOP        .FT                                            7813 :STOP DEPTH
STEP        .FT                                             0.5 :STEP      
NULL        .                                           -999.25 :NULL      
COMP        .                                MARINER ENERGY INC :COMPANY   
WELL        .                               OCS G27491 ST00BP00 :WELL      
FLD         .                                           WILDCAT :FIELD     
LOC         .                                                   :LOCATION  
CNTY        .                             GALVESTON LARGE BLOCK :LOCATION  
STAT        .                                             TEXAS :STATE     
CTRY        .                                     UNITED STATES :COUNTRY   
SRVC        .                                                   :SERVICE COMPANY
DATE        .                             9/13/2023 11:19:33 AM :LOG DATE  
API         .                                    42706404580000 :API NUMBER
UWI         .                                    42706404580000 :UNIQUE WELL ID
XCOORD      .                                  1038987.60828679 :SURFACE X 
YCOORD      .                                  10490484.8642062 :SURFACE Y 
LAT         .                                         28.893877 :LATITUDE  
LON         .                                         -94.87996 :LONGITUDE 
ELEV        .FT                                             110 :ELEVATION VALUE
ELEV_TYPE   .                                                KB :ELEVATION REFERENCE TYPE
~Curve Information Section
#MNEM       .UNIT                                      API CODE :CURVE DESCRIPTION
#------------------------------------------------------------------------------
DEPT        .FT                                                 :DEPTH     
CALI        .IN                                                 :          
DPSS        .%                                                  :          
DRHO        .G/CM3                                              :          
GR          .GAPI                                               :          
GR_NORM     .GAPI                                               :GammaRay Normalized
M2R1        .OHMM                                               :          
M2R2        .OHMM                                               :          
M2R3        .OHMM                                               :          
M2R6        .OHMM                                               :          
M2R9        .OHMM                                               :          
M2RX        .OHMM                                               :          
NPSS        .%                                                  :Neutron Porosity Sandstone
SP          .MV                                                 :          
SP_NORM     .MV                                                 :SP Normalized
TENS        .LB                                                 :          
VSH_GR      .V/V                                                :Volume of Shale from GR
VSH_SP      .V/V                                                :Volume of Shale from SP
~A        DEPTH           CALI           DPSS           DRHO             GR        GR_NORM           M2R1           M2R2           M2R3           M2R6           M2R9           M2RX           NPSS             SP        SP_NORM           TENS         VSH_GR         VSH_SP
# ...
      6361.0000        12.6985        23.3878           0.08           65.6       60.24649         0.9603         1.0093         1.0473         1.0281          1.057         1.0377        36.2353          -45.6       -1.28862             20      0.5797126       0.978523
      6361.5000         12.424           25.2          0.088           64.6       58.95626         0.9525         1.0281         1.0377         1.0473          1.057          1.057        36.4706          -45.6       -1.28862             20      0.5522609       0.978523
      6362.0000        12.4632          26.64          0.112           63.6       57.66603         0.9222              1         1.0187         1.0281         1.0473         1.0377        36.4706          -44.8     -0.4886208             20      0.5248092      0.9918563
      6362.5000        12.7377          25.56          0.104             67       62.05282         0.8912         0.9681         0.9919              1         1.0281         1.0093        37.0588          -44.4    -0.08862305             20       0.618145      0.9985229
      6363.0000        12.8554        23.2653          0.092           70.4        66.4396         0.8653         0.9525         0.9681         0.9839         1.0093         0.9919        38.7059          -44.4    -0.08862305             20      0.7114808      0.9985229
      6363.5000        12.8162        21.4286          0.092           72.4       69.02007         0.8485         0.9222         0.9681         0.9603         0.9919         0.9681        39.5294            -44      0.3113785             20      0.7663845              1
      6364.0000        12.7377        20.0816            0.1           73.8       70.82641         0.8079         0.9222         0.9603         0.9448          0.976         0.9525        38.7059            -44      0.3113785             20      0.8048172              1
      6364.5000        12.5809        18.9796          0.096           74.8       72.11663         0.8159         0.9147         0.9525         0.9448         0.9681         0.9448        38.4706            -44      0.3113785             20      0.8322687              1
      6365.0000        12.5025        18.1224          0.076             75       72.37468          0.832         0.9222         0.9525         0.9525         0.9839         0.9681        39.5294            -44      0.3113785             20      0.8377591              1
      6365.5000        12.4632        19.2245          0.076           71.4       67.72984         0.8485         0.9297         0.9681         0.9603              1         0.9839        40.5882          -44.4    -0.08862305             20      0.7389327      0.9985229
      6366.0000        12.3064        20.8163          0.096           68.8       64.37524          0.832         0.9448         0.9603         0.9603         0.9919          0.976        40.9412            -44      0.3113785             40      0.6675584              1
      6366.5000        12.2672        21.7959          0.112           67.2       62.31087            0.8         0.9073         0.9448         0.9448          0.976         0.9603        40.7059          -43.6        0.71138             40      0.6236355              1
      6367.0000        12.3848        21.7959           0.12             68       63.34305         0.7859         0.8653         0.9222         0.9222         0.9525         0.9372        40.2353          -43.6        0.71138             40      0.6455967              1
      6367.5000        12.7377        21.4286          0.116           70.2       66.18156         0.7652         0.8653         0.9073         0.9147         0.9372         0.9222        39.4118          -43.2       1.111378             40      0.7059906              1
      6368.0000        12.9338        21.0612          0.112           71.6       67.98788         0.7584         0.8569         0.9073            0.9         0.9297         0.9147        39.7647          -42.4       1.911377             40      0.7444231              1
      6368.5000        12.9338        21.0612          0.104           71.8       68.24593         0.7517         0.8569         0.9073            0.9         0.9222         0.9073        41.2941          -42.4       1.911377             40      0.7499135              1
      6369.0000        12.9338        20.8163          0.104           71.6       67.98788         0.7652         0.8739         0.9073         0.9147         0.9448         0.9297        41.8824            -42       2.311378             40      0.7444231              1
      6369.5000        12.8554         20.449          0.108           71.2       67.47179         0.7859         0.9147         0.9297         0.9372         0.9681         0.9525        40.5882          -41.6        2.71138             40      0.7334422              1
      6370.0000        12.8554        20.0816          0.116             71       67.21375         0.8079         0.9147         0.9525         0.9448         0.9919          0.976        39.5294          -41.2       3.111378             40       0.727952              1
      6370.5000        12.8162        20.0828           0.12           70.8       66.95571         0.7859            0.9         0.9448         0.9222         0.9681         0.9525        39.6449          -41.2       3.111378        40.5757      0.7224619              1
      6371.0000        12.6985        20.8169          0.112           70.8       66.95571         0.7652         0.8739         0.9147            0.9         0.9372         0.9222        39.8763          -40.8       3.511379        41.5335      0.7224619              1
      6371.5000        12.6593        23.1315          0.092             70       65.92352          0.745          0.832         0.8825         0.8739         0.9073         0.8825        39.6378          -40.8       3.511379        42.4895      0.7005003              1
      6372.0000        12.7377         25.544          0.084           69.2       64.89132         0.7319         0.8159         0.8485         0.8569         0.8739         0.8485        39.8687          -41.2       3.111378        43.4436      0.6785387              1
      6372.5000        12.7377        28.0711          0.096           72.2       68.76202         0.7319         0.8159         0.8485         0.8402         0.8653         0.8485        40.3334          -41.2       3.111378        44.3958      0.7608939              1
      6373.0000        12.6593        28.3105          0.088           76.6       74.43903         0.7384         0.8079         0.8569         0.8653         0.8825         0.8653        40.0952          -41.2       3.111378        45.3461      0.8816814              1
      6373.5000         12.424        25.2889          0.064           76.6       74.43903          0.772         0.8402         0.8739         0.8912         0.9073         0.8912        38.5716          -41.2       3.111378        46.2945      0.8816814              1
      6374.0000        12.2279        23.3513          0.052           74.6       71.85858         0.8079         0.8739            0.9         0.9222         0.9222         0.9073        36.9342          -41.2       3.111378         47.241      0.8267784              1
      6374.5000        12.2672         24.069          0.048           72.4       69.02007          0.832         0.8825         0.9073            0.9         0.9147            0.9        35.2653          -41.6        2.71138        48.1856      0.7663845              1
      6375.0000        12.8162        26.2439           0.08             71       67.21375         0.8079         0.8569         0.8653         0.8739         0.8912         0.8739        34.0408          -42.4       1.911377        49.1284       0.727952              1
      6375.5000        12.9338         25.755          0.084           70.6       66.69765            0.8         0.8569         0.8485         0.8569         0.8569         0.8402        33.0612          -42.8       1.511379        50.0693      0.7169714              1
