#------------------------------------------------------------------------------
# Created by    : vladimir.rabinovich
# Created on    : 09/19/2023 17:22:54
#------------------------------------------------------------------------------
~Version Information Section
VERS.           2.0     :   CWLS log ASCII Standard - VERSION 2.0
WRAP.           NO      :   One line per depth step
~Well Information Section
#MNEM       .UNIT                                         VALUE :DESCRIPTION
#------------------------------------------------------------------------------
STRT        .FT                                            1705 :START DEPTH
STOP        .FT                                           10298 :STOP DEPTH
STEP        .FT                                             0.5 :STEP      
NULL        .                                           -999.25 :NULL      
COMP        .                            STANOLIND OIL & GAS CO :COMPANY   
WELL        .                                       ST TR 00219 :WELL      
FLD         .                                           WILDCAT :FIELD     
LOC         .                                                   :LOCATION  
CNTY        .                             GALVESTON LARGE BLOCK :LOCATION  
STAT        .                                             TEXAS :STATE     
CTRY        .                                     UNITED STATES :COUNTRY   
SRVC        .                                                   :SERVICE COMPANY
DATE        .                             9/13/2023 11:19:42 AM :LOG DATE  
API         .                                    42706000170000 :API NUMBER
UWI         .                                    42706000170000 :UNIQUE WELL ID
XCOORD      .                                  1024804.26554262 :SURFACE X 
YCOORD      .                                  10549089.4715911 :SURFACE Y 
LAT         .                                        29.0543948 :LATITUDE  
LON         .                                       -94.9272588 :LONGITUDE 
ELEV        .FT                                              60 :ELEVATION VALUE
ELEV_TYPE   .                                                GL :ELEVATION REFERENCE TYPE
~Curve Information Section
#MNEM       .UNIT                                      API CODE :CURVE DESCRIPTION
#------------------------------------------------------------------------------
DEPT        .FT                                                 :DEPTH     
LAT         .OHMM                                               :          
LN          .OHMM                                               :          
SN          .OHMM                                               :          
SP          .MV                                                 :          
SP_NORM     .MV                                                 :SP Normalized
VSH_SP      .V/V                                                :Volume of Shale from SP
~A        DEPTH            LAT             LN             SN             SP        SP_NORM         VSH_SP
# ...
      4555.0000         0.3497         0.3249         0.3902      -137.9124      -65.50337      0.2783708
      4555.5000         0.3599         0.3385          0.375      -144.2664       -71.8648      0.2060818
      4556.0000         0.3701         0.3521         0.3597      -148.4253      -76.03111      0.1587374
      4556.5000         0.3615         0.3689         0.3445        -148.52      -76.13325      0.1575767
      4557.0000         0.3504         0.3861         0.3371      -133.1367      -60.75737      0.3323026
      4557.5000         0.3393         0.4033         0.3906      -124.0049      -51.63299      0.4359888
      4558.0000         0.3557         0.4203         0.4441      -113.1761      -40.81161       0.558959
      4558.5000         0.4012         0.4354         0.5026      -102.6348      -30.27773      0.6786621
      4559.0000         0.4462         0.4505         0.6014       -95.3959      -23.04625      0.7608381
      4559.5000         0.4847         0.4744         0.7002       -88.1569      -15.81467      0.8430151
      4560.0000         0.5232         0.5017         0.7813       -70.1896       2.145203              1
      4560.5000         0.5618         0.5314         0.8202       -64.8436        7.48378              1
      4561.0000         0.5691         0.5662         0.8591       -63.3909       8.929054              1
      4561.5000         0.5611         0.6009         0.8952       -64.4434       7.869141              1
      4562.0000         0.5532         0.6356         0.9243       -65.4971       6.808014              1
      4562.5000         0.5452         0.6691         0.9535       -66.4242       5.873489              1
      4563.0000         0.5372         0.6929         0.9826       -67.3159       4.974365              1
      4563.5000          0.541         0.7167         1.0089       -68.2076       4.075241              1
      4564.0000         0.5463         0.7405         1.0283       -67.9459       4.329521              1
      4564.5000         0.5517         0.7643         1.0478       -67.4083       4.859695              1
      4565.0000         0.5571         0.7881         1.0673       -66.8706       5.389984              1
      4565.5000         0.5624         0.7897         1.0868       -66.3329       5.920258              1
      4566.0000         0.5716         0.7895         1.1063       -66.1678       6.077934              1
      4566.5000         0.5827         0.7893         1.1271       -66.1021       6.136215              1
      4567.0000         0.5937         0.7822         1.1485       -66.9692       5.261688              1
      4567.5000         0.6047         0.7692         1.1699       -68.0834       4.140068              1
      4568.0000         0.6157         0.7561         1.1942        -69.624       2.592049              1
      4568.5000         0.6204          0.743         1.2251       -71.7542       0.454422              1
      4569.0000         0.6184         0.7251         1.2559       -73.8866      -1.685394              1
      4569.5000         0.6163         0.7033         1.3064       -84.0015      -11.80772      0.8885486
      4570.0000         0.6143         0.6814         1.3647       -99.1818      -26.99545      0.7159609
      4570.5000         0.5933         0.6575         1.4462      -104.9359      -32.75697       0.650489
      4571.0000         0.5338         0.6236         1.5373      -107.4904      -35.31889      0.6213762
      4571.5000         0.5564         0.5896         1.6663      -112.9161      -40.75201      0.5596363
      4572.0000          0.655         0.5557         1.8114      -129.8936      -57.73693      0.3666258
      4572.5000         0.8316         0.5217         1.9485      -135.4949      -63.34566      0.3028903
      4573.0000         1.0299         0.4871         2.0662      -140.9048      -68.76298      0.2413298
      4573.5000          0.996         0.4517          2.134      -143.9243       -71.7899      0.2069329
      4574.0000         0.9217         0.4162         1.8225      -148.6213      -76.49433      0.1534735
      4574.5000         0.8476         0.3808         1.3071      -146.9531      -74.83354      0.1723461
      4575.0000          0.777         0.3453         1.3857      -145.7239      -73.61177      0.1862299
      4575.5000         0.7095         0.3196         1.5507      -144.4946      -72.38988       0.200115
      4576.0000         0.6723          0.296         1.6673      -143.9202      -71.82291      0.2065579
      4576.5000         0.7131         0.2724         1.7802      -144.4167      -72.32684      0.2008314
      4577.0000         0.7577         0.2487         1.6358      -146.2029      -74.12045      0.1804494
      4577.5000         0.7888         0.2436         1.2728      -148.8826      -76.80758      0.1499139
      4578.0000         0.6994         0.2618         0.8746      -151.5625       -79.4949      0.1193761
      4578.5000         0.5946         0.2802         0.7619      -153.5547      -81.49452     0.09665316
      4579.0000         0.5166         0.3034         0.6505      -154.7942      -82.74145     0.08248355
      4579.5000         0.4498         0.3265         0.5508      -156.0349      -83.98956     0.06830042
      4580.0000         0.4308         0.3497         0.4902      -156.8098      -84.77189     0.05941036
      4580.5000         0.4305         0.3729         0.4301      -157.1504      -85.11992     0.05545547
      4581.0000         0.4302         0.3721          0.382      -157.5994      -85.57633     0.05026895
      4581.5000         0.4299         0.3586         0.3353      -158.2717      -86.25605     0.04254489
      4582.0000         0.4248         0.3434         0.3116      -158.9443      -86.93608     0.03481726
      4582.5000         0.4098         0.3265          0.288      -159.6167       -87.6159     0.02709207
      4583.0000         0.4023         0.3096         0.2891      -160.2712      -88.27782     0.01957026
      4583.5000         0.4101         0.2927         0.2938      -160.8293      -88.84335      0.0131438
      4584.0000          0.418         0.2771         0.2985      -158.3154      -86.33687      0.0416265
      4584.5000         0.4259         0.2769         0.3311      -153.0974      -81.12629      0.1008376
      4585.0000         0.4759         0.2767         0.3676      -147.5781       -75.6144      0.1634727
      4585.5000         0.5121         0.2765         0.4634      -147.3113      -75.35503      0.1664202
      4586.0000         0.5372         0.2764         0.5458      -150.5383      -78.58945      0.1296653
      4586.5000         0.5553         0.2802          0.558      -154.1965      -82.25508     0.08801044
      4587.0000         0.5227         0.2859         0.5179       -158.311      -86.37701     0.04117038
      4587.5000         0.4901         0.2916         0.4749      -157.1707      -85.24413     0.05404403
      4588.0000         0.4576         0.2973         0.4007      -154.5752      -82.65604     0.08345404
      4588.5000         0.4068          0.303         0.3266      -158.7671      -86.85537     0.03573444
      4589.0000         0.3792         0.3056         0.2601      -161.4116      -89.50729    0.005598935
      4589.5000         0.3531         0.3069          0.255      -162.9021      -91.00521              0
      4590.0000         0.3561         0.3082         0.2499      -162.7537      -90.86423              0
      4590.5000         0.3608         0.3095         0.2448      -160.2085      -88.32645     0.01901757
      4591.0000         0.3655         0.3108         0.2397      -157.6633      -85.78868      0.0478559
      4591.5000         0.3703         0.3017         0.2346      -157.7087      -85.84149     0.04725578
      4592.0000         0.3765         0.2887         0.2308      -158.4272      -86.56742     0.03900658
      4592.5000          0.384         0.2756         0.2354       -160.123      -88.27065     0.01965176
