#------------------------------------------------------------------------------
# Created by    : vladimir.rabinovich
# Created on    : 09/19/2023 17:21:24
#------------------------------------------------------------------------------
~Version Information Section
VERS.           2.0     :   CWLS log ASCII Standard - VERSION 2.0
WRAP.           NO      :   One line per depth step
~Well Information Section
#MNEM       .UNIT                                         VALUE :DESCRIPTION
#------------------------------------------------------------------------------
STRT        .FT                                             682 :START DEPTH
STOP        .FT                                            8542 :STOP DEPTH
STEP        .FT                                             0.5 :STEP      
NULL        .                                           -999.25 :NULL      
COMP        .                       CORPUS CHRISTI OIL & GAS CO :COMPANY   
WELL        .                               OCS G08551 ST00BP00 :WELL      
FLD         .                                           WILDCAT :FIELD     
LOC         .                                                   :LOCATION  
CNTY        .                             GALVESTON LARGE BLOCK :LOCATION  
STAT        .                                             TEXAS :STATE     
CTRY        .                                     UNITED STATES :COUNTRY   
SRVC        .                                                   :SERVICE COMPANY
DATE        .                             9/13/2023 11:19:36 AM :LOG DATE  
API         .                                    42706401950000 :API NUMBER
UWI         .                                    42706401950000 :UNIQUE WELL ID
XCOORD      .                                   976199.22633255 :SURFACE X 
YCOORD      .                                  10415950.2633902 :SURFACE Y 
LAT         .                                         28.686063 :LATITUDE  
LON         .                                        -95.072067 :LONGITUDE 
ELEV        .FT                                              81 :ELEVATION VALUE
ELEV_TYPE   .                                                KB :ELEVATION REFERENCE TYPE
~Curve Information Section
#MNEM       .UNIT                                      API CODE :CURVE DESCRIPTION
#------------------------------------------------------------------------------
DEPT        .FT                                                 :DEPTH     
CALI        .IN                                                 :          
DPHI        .%                                                  :          
DRHO        .G/C3                                               :          
DT          .US/F                                               :          
GR          .GAPI                                               :          
GR_1        .GAPI                                               :          
GR_NORM     .GAPI                                               :GammaRay Normalized
ILD         .OHMM                                               :          
ILM         .OHMM                                               :          
NPHI        .%                                                  :          
SFL         .OHMM                                               :          
SP_NORM     .MV                                                 :SP Normalized
SPS         .MV                                                 :          
VSH_GR      .V/V                                                :Volume of Shale from GR
VSH_SP      .V/V                                                :Volume of Shale from SP
~A        DEPTH           CALI           DPHI           DRHO             DT             GR           GR_1        GR_NORM            ILD            ILM           NPHI            SFL        SP_NORM            SPS         VSH_GR         VSH_SP
# ...
      6768.0000        -999.25        -999.25        -999.25         96.317        46.7952        -999.25       51.10342         0.9346         0.9145        -999.25          1.194      -22.80972       -79.0935      0.3851792      0.6303437
      6768.5000        -999.25        -999.25        -999.25        98.7084        44.7336        -999.25       47.23423         0.7809         0.8177        -999.25         1.2892      -26.94646       -83.2267       0.302856      0.5602295
      6769.0000        -999.25        -999.25        -999.25       100.3839         42.838        -999.25       43.67672          0.659         0.7222        -999.25         1.2451      -32.82289       -89.0996      0.2271642       0.460629
      6769.5000        -999.25        -999.25        -999.25       101.9941         41.327        -999.25       40.84135         0.5849         0.6338        -999.25         0.9581      -39.28762       -95.5608      0.1668373      0.3510572
      6770.0000        -999.25        -999.25        -999.25       103.1604        40.2799        -999.25       38.87701          0.507         0.5573        -999.25         0.7788      -49.89066      -106.1603      0.1250427      0.1713448
      6770.5000        -999.25        -999.25        -999.25        103.811        39.1913        -999.25       36.83475         0.4218         0.4828        -999.25         0.6964      -55.59109      -111.8572     0.08159037     0.07472721
      6771.0000        -999.25        -999.25        -999.25       104.4313        38.1907        -999.25       34.95772         0.3527         0.4205        -999.25         0.6797      -59.58703      -115.8496     0.04165357    0.006999517
      6771.5000        -999.25        -999.25        -999.25       104.4546        37.2278        -999.25       33.15147         0.3216         0.3783        -999.25         0.6382      -58.56987      -114.8289    0.003222851     0.02423956
      6772.0000        -999.25        -999.25        -999.25        104.543         38.559        -999.25       35.65269         0.3098         0.3494        -999.25         0.5058       -51.6395       -107.895     0.05644015      0.1417035
      6772.5000        -999.25        -999.25        -999.25       104.8177        44.9096        -999.25       47.57851         0.3158         0.3483        -999.25         0.4067      -45.47334      -101.7253       0.310181      0.2462147
      6773.0000        -999.25        -999.25        -999.25       105.1594        50.3451        -999.25       57.78607         0.3267         0.3663        -999.25         0.4019      -34.06297       -90.3114      0.5273632      0.4396107
      6773.5000        -999.25        -999.25        -999.25       106.1428        55.2325        -999.25       66.96455         0.3369         0.3901        -999.25          0.478       -26.2728       -82.5177      0.7226499      0.5716475
      6774.0000        -999.25        -999.25        -999.25       107.2557        57.0074        -999.25       70.29887          0.348         0.4184        -999.25          0.554      -23.14874       -79.3901      0.7935929      0.6245977
      6774.5000        -999.25        -999.25        -999.25       108.5833        52.6882        -999.25       62.19075         0.3633         0.4562        -999.25         0.5793      -33.36957       -89.6074      0.6210799      0.4513633
      6775.0000        -999.25        -999.25        -999.25       105.7396        48.7964        -999.25       54.88509         0.3934         0.4737        -999.25         0.5724       -43.9928      -100.2271      0.4656403      0.2713085
      6775.5000        -999.25        -999.25        -999.25        97.7312        46.3099        -999.25       50.21811         0.4215         0.4643        -999.25         0.5552      -50.49764      -106.7284      0.3663427       0.161057
      6776.0000        -999.25        -999.25        -999.25        91.0392        45.1472        -999.25       48.03671         0.4446          0.458        -999.25         0.5376      -53.73187      -109.9591        0.31993      0.1062394
      6776.5000        -999.25        -999.25        -999.25        80.3479        43.9517        -999.25       45.79373         0.4589         0.4699        -999.25         0.5273       -56.6844      -112.9081       0.272207     0.05619657
      6777.0000        -999.25        -999.25        -999.25         80.996        42.5992        -999.25       43.25596         0.4252         0.4953        -999.25         1.0204      -59.69474      -115.9149      0.2182119    0.005173828
      6777.5000        -999.25        -999.25        -999.25        86.4622        41.0078        -999.25       40.26963         0.3717         0.4908        -999.25         1.2855      -62.02888      -118.2455      0.1546731    -0.03438775
      6778.0000        -999.25        -999.25        -999.25         91.215        40.7224        -999.25       39.73548         0.3292         0.4399        -999.25         1.5295      -63.44911      -119.6622      0.1433081    -0.05845952
      6778.5000        -999.25        -999.25        -999.25        95.6814        42.3629        -999.25       42.81746         0.2988         0.3878        -999.25         1.1579      -62.05355      -118.2631       0.208882    -0.03480588
      6779.0000        -999.25        -999.25        -999.25        99.5123        43.3572        -999.25       44.68611         0.3017          0.355        -999.25         0.6143      -55.82718      -112.0332      0.2486407     0.07072572
      6779.5000        -999.25        -999.25        -999.25        99.2837        43.8499        -999.25       45.61294         0.3182         0.3413        -999.25         0.4914      -46.09612      -102.2986      0.2683604      0.2356591
      6780.0000        -999.25        -999.25        -999.25        97.8494        46.2169        -999.25       50.05901         0.3347         0.3721        -999.25         0.4948      -37.92385       -94.1228      0.3629577       0.374172
      6780.5000        -999.25        -999.25        -999.25        100.075        52.5323        -999.25       61.91873         0.3456         0.4144        -999.25         0.6219      -22.09868       -78.2941      0.6152921      0.6423952
      6781.0000        -999.25        -999.25        -999.25       102.3107        57.2186        -999.25       70.71958         0.3698         0.4566        -999.25         0.6577      -14.85162       -71.0435      0.8025443      0.7652268
      6781.5000        -999.25        -999.25        -999.25       104.0089        60.1802        -999.25        76.2821         0.4091         0.4959        -999.25         0.6726      -11.48625       -67.6746      0.9208957      0.8222669
      6782.0000        -999.25        -999.25        -999.25       105.6442         62.145        -999.25       79.97299         0.4569         0.5403        -999.25         0.6915      -10.33569       -66.5205      0.9994254       0.841768
      6782.5000        -999.25        -999.25        -999.25       106.4072        62.0683        -999.25       79.83072         0.5104         0.5831        -999.25         0.7037      -12.39573        -68.577      0.9963983      0.8068521
      6783.0000        -999.25        -999.25        -999.25       107.0131        62.4467        -999.25       80.54293         0.5721          0.617        -999.25         0.7232      -16.69096       -72.8687              1      0.7340516
      6783.5000        -999.25        -999.25        -999.25       107.0939        63.2323        -999.25       82.01974         0.6084         0.6409        -999.25         0.7504      -19.70389       -75.8781              1      0.6829849
      6784.0000        -999.25        -999.25        -999.25       107.1791        63.3536        -999.25       82.24918         0.6075         0.6413        -999.25         0.7773      -22.39743       -78.5681              1      0.6373317
      6784.5000        -999.25        -999.25        -999.25       107.8353          62.59        -999.25       80.81718         0.5828         0.6048        -999.25         0.7861      -24.18346       -80.3506              1        0.60706
