#------------------------------------------------------------------------------
# Created by    : vladimir.rabinovich
# Created on    : 09/19/2023 17:22:16
#------------------------------------------------------------------------------
~Version Information Section
VERS.           2.0     :   CWLS log ASCII Standard - VERSION 2.0
WRAP.           NO      :   One line per depth step
~Well Information Section
#MNEM       .UNIT                                         VALUE :DESCRIPTION
#------------------------------------------------------------------------------
STRT        .FT                                              10 :START DEPTH
STOP        .FT                                            7932 :STOP DEPTH
STEP        .FT                                             0.5 :STEP      
NULL        .                                           -999.25 :NULL      
COMP        .                                       ALLIED CORP :COMPANY   
WELL        .                               OCS G04069 ST00BP00 :WELL      
FLD         .                                           WILDCAT :FIELD     
LOC         .                                                   :LOCATION  
CNTY        .                             GALVESTON LARGE BLOCK :LOCATION  
STAT        .                                             TEXAS :STATE     
CTRY        .                                     UNITED STATES :COUNTRY   
SRVC        .                                                   :SERVICE COMPANY
DATE        .                             9/13/2023 11:18:53 AM :LOG DATE  
API         .                                    42706400790000 :API NUMBER
UWI         .                                    42706400790000 :UNIQUE WELL ID
XCOORD      .                                  993545.470392299 :SURFACE X 
YCOORD      .                                  10396443.6120929 :SURFACE Y 
LAT         .                                         28.633244 :LATITUDE  
LON         .                                        -95.016955 :LONGITUDE 
ELEV        .FT                                              82 :ELEVATION VALUE
ELEV_TYPE   .                                                KB :ELEVATION REFERENCE TYPE
~Curve Information Section
#MNEM       .UNIT                                      API CODE :CURVE DESCRIPTION
#------------------------------------------------------------------------------
DEPT        .FT                                                 :DEPTH     
CALI        .IN                                                 :          
CILD        .MMHO                                               :          
DPHI        .B                                                  :          
DRHO        .G/C3                                               :          
DT          .US/F                                               :          
GR          .GAPI                                               :          
GR_1        .GAPI                                               :          
GR_NORM     .GAPI                                               :GammaRay Normalized
ILD         .OHMM                                               :          
ILM         .OHMM                                               :          
NPHI        .%                                                  :          
SFL         .OHMM                                               :          
SP          .MV                                                 :          
SP_NORM     .MV                                                 :SP Normalized
VSH_GR      .V/V                                                :Volume of Shale from GR
VSH_SP      .V/V                                                :Volume of Shale from SP
~A        DEPTH           CALI           CILD           DPHI           DRHO             DT             GR           GR_1        GR_NORM            ILD            ILM           NPHI            SFL             SP        SP_NORM         VSH_GR         VSH_SP
# ...
       330.0000        -999.25         1303.4        -999.25        -999.25        -999.25        67.7778        -999.25       88.89934         1.7903        -999.25        -999.25         0.8029      -156.9138      -15.16623              1      0.7833396
       330.5000        -999.25       1540.813        -999.25        -999.25        -999.25        64.9351        -999.25       85.13645         0.7221        -999.25        -999.25         0.8372      -148.8877      -7.140121              1      0.8979983
       331.0000        -999.25       1609.439        -999.25        -999.25        -999.25        64.0317        -999.25       83.79771         0.6158        -999.25        -999.25         0.8559      -144.9958       -3.24823              1      0.9535967
       331.5000        -999.25        1464.77        -999.25        -999.25        -999.25        63.3679        -999.25       82.75847         0.5867        -999.25        -999.25         0.8713      -142.4871     -0.7395325              1      0.9894353
       332.0000        -999.25       1462.521        -999.25        -999.25        -999.25        62.6525        -999.25       81.65472         0.6026        -999.25        -999.25         0.8836      -141.6821     0.06547546              1              1
       332.5000        -999.25       1460.271        -999.25        -999.25        -999.25        62.1549        -999.25       80.82321         0.6384        -999.25        -999.25          0.896      -142.4346      -0.687027              1      0.9901853
       333.0000        -999.25       1457.908        -999.25        -999.25        -999.25        62.5536        -999.25        81.1121         0.6664        -999.25        -999.25         0.9067      -143.7266      -1.979019              1      0.9717283
       333.5000        -999.25       1455.457        -999.25        -999.25        -999.25         64.136        -999.25        82.8806         0.6806        -999.25        -999.25         0.9173      -145.0562      -3.308624              1      0.9527339
       334.0000        -999.25       1450.068        -999.25        -999.25        -999.25        68.5138        -999.25       88.14335         0.6792        -999.25        -999.25         0.9268      -145.5168      -3.769226              1      0.9461539
       334.5000        -999.25       1432.592        -999.25        -999.25        -999.25          68.96        -999.25        88.4916         0.6747        -999.25        -999.25         0.9333        -144.22      -2.472427              1      0.9646796
       335.0000        -999.25       1411.875        -999.25        -999.25        -999.25         68.088        -999.25       87.19209         0.6644        -999.25        -999.25         0.9398      -142.0708     -0.3232269              1      0.9953825
       335.5000        -999.25       1333.387        -999.25        -999.25        -999.25        67.7223        -999.25       86.52548         0.6572        -999.25        -999.25         0.9428      -139.2036       2.543976              1              1
       336.0000        -999.25       1287.076        -999.25        -999.25        -999.25        68.2157        -999.25       86.93274         0.6609        -999.25        -999.25         0.9441      -137.0884        4.65918              1              1
       336.5000        -999.25        1260.26        -999.25        -999.25        -999.25        64.3575        -999.25       81.90048         0.6731        -999.25        -999.25          0.946      -136.6892        5.05838              1              1
       337.0000        -999.25       1262.197        -999.25        -999.25        -999.25        58.9331        -999.25       74.91049          0.709        -999.25        -999.25         0.9538       -137.198       4.549576      0.8917126              1
       337.5000        -999.25       1264.135        -999.25        -999.25        -999.25        58.4751        -999.25       74.12849         0.7615        -999.25        -999.25         0.9617      -137.4939       4.253677      0.8750743              1
       338.0000        -999.25       1266.072        -999.25        -999.25        -999.25        60.4357        -999.25       76.36974          0.791        -999.25        -999.25         0.9694      -137.1462       4.601379      0.9227605              1
       338.5000        -999.25       1259.396        -999.25        -999.25        -999.25        66.2076        -999.25       83.42064         0.8092        -999.25        -999.25         0.9769      -136.4497       5.297867              1              1
       339.0000        -999.25       1250.436        -999.25        -999.25        -999.25         67.043        -999.25       84.42135         0.7978        -999.25        -999.25         0.9845      -135.3823        6.36528              1              1
       339.5000        -999.25       1241.475        -999.25        -999.25        -999.25        65.1691        -999.25       82.03545         0.7854        -999.25        -999.25         0.9861      -134.4231       7.324478              1              1
       340.0000        -999.25       1225.154        -999.25        -999.25        -999.25        61.8461        -999.25       77.83817          0.776        -999.25        -999.25         0.9841      -134.4956       7.251968      0.9540035              1
       340.5000        -999.25       1201.627        -999.25        -999.25        -999.25        59.5616        -999.25         74.939         0.7667        -999.25        -999.25          0.982      -137.5237       4.223877      0.8923192              1
       341.0000        -999.25         1178.1        -999.25        -999.25        -999.25         59.364        -999.25       74.64848         0.7726        -999.25        -999.25          0.982      -139.4265       2.321075      0.8861378              1
       341.5000        -999.25       1145.838        -999.25        -999.25        -999.25        63.1478        -999.25        79.3347         0.7808        -999.25        -999.25          0.982      -139.5242       2.223373      0.9858447              1
       342.0000        -999.25       1111.814        -999.25        -999.25        -999.25         66.959        -999.25       84.05516         0.8257        -999.25        -999.25         0.9875      -138.4429       3.304672              1              1
       342.5000        -999.25       1039.523        -999.25        -999.25        -999.25        73.2983        -999.25       91.93576          0.883        -999.25        -999.25         0.9948       -137.804       3.943573              1              1
       343.0000        -999.25       1033.883        -999.25        -999.25        -999.25        76.1859        -999.25       95.50172         0.9539        -999.25        -999.25         1.0039      -138.5977       3.149872              1              1
       343.5000        -999.25       1070.352        -999.25        -999.25        -999.25        78.2333        -999.25       98.01744         0.9812        -999.25        -999.25         1.0175      -141.8794     -0.1318207              1      0.9981169
       344.0000        -999.25       1107.586        -999.25        -999.25        -999.25        77.3801        -999.25       96.90741         0.9485        -999.25        -999.25         1.0413      -143.4858       -1.73822              1      0.9751683
       344.5000        -999.25       1134.432        -999.25        -999.25        -999.25         63.081        -999.25       78.99001         0.9046        -999.25        -999.25         1.0965      -143.4395      -1.691925      0.9785107      0.9758297
       345.0000        -999.25       1105.879        -999.25        -999.25        -999.25        53.3087        -999.25       66.73109         0.8779        -999.25        -999.25         1.1452      -143.3118      -1.564224      0.7176828      0.9776539
       345.5000        -999.25       1087.066        -999.25        -999.25        -999.25         48.696        -999.25       60.92169         0.8771        -999.25        -999.25         1.0996      -144.4058      -2.658234      0.5940785      0.9620252
