#------------------------------------------------------------------------------
# Created by    : vladimir.rabinovich
# Created on    : 09/19/2023 17:20:24
#------------------------------------------------------------------------------
~Version Information Section
VERS.           2.0     :   CWLS log ASCII Standard - VERSION 2.0
WRAP.           NO      :   One line per depth step
~Well Information Section
#MNEM       .UNIT                                         VALUE :DESCRIPTION
#------------------------------------------------------------------------------
STRT        .FT                                            1590 :START DEPTH
STOP        .FT                                            8991 :STOP DEPTH
STEP        .FT                                             0.5 :STEP      
NULL        .                                           -999.25 :NULL      
COMP        .                                 C & K OFFSHORE CO :COMPANY   
WELL        .                                OCS 00507 ST00BP00 :WELL      
FLD         .                                           WILDCAT :FIELD     
LOC         .                                                   :LOCATION  
CNTY        .                           HIGH ISLAND LARGE BLOCK :LOCATION  
STAT        .                                             TEXAS :STATE     
CTRY        .                                     UNITED STATES :COUNTRY   
SRVC        .                                                   :SERVICE COMPANY
DATE        .                             9/13/2023 11:19:15 AM :LOG DATE  
API         .                                    42708300260000 :API NUMBER
UWI         .                                    42708300260000 :UNIQUE WELL ID
XCOORD      .                                  1287575.74118613 :SURFACE X 
YCOORD      .                                  10681645.7296129 :SURFACE Y 
LAT         .                                         29.428295 :LATITUDE  
LON         .                                        -94.108714 :LONGITUDE 
ELEV        .FT                                              73 :ELEVATION VALUE
ELEV_TYPE   .                                                KB :ELEVATION REFERENCE TYPE
~Curve Information Section
#MNEM       .UNIT                                      API CODE :CURVE DESCRIPTION
#------------------------------------------------------------------------------
DEPT        .FT                                                 :DEPTH     
ASN         .OHMM                                               :          
CALI        .IN                                                 :          
CILD        .MMHO                                               :          
DT          .US/F                                               :          
GR          .GAPI                                               :          
GR_NORM     .GAPI                                               :GammaRay Normalized
ILD         .OHMM                                               :          
SP          .MV                                                 :          
SP_NORM     .MV                                                 :SP Normalized
VSH_GR      .V/V                                                :Volume of Shale from GR
VSH_SP      .V/V                                                :Volume of Shale from SP
~A        DEPTH            ASN           CALI           CILD             DT             GR        GR_NORM            ILD             SP        SP_NORM         VSH_GR         VSH_SP
# ...
      3075.0000         0.6231        11.7443       2444.195       143.8806        65.4829       70.81226         0.3408       -56.8984      -17.89452      0.8045163      0.7443641
      3075.5000         0.6128        11.9876       2548.508       143.6677        60.8541        65.0461         0.3264       -59.6646      -20.66007       0.681832      0.7048561
      3076.0000         0.6167        12.0115       2717.398       146.2786        53.5233       55.90244         0.3125       -61.9922      -22.98702       0.487286       0.671614
      3076.5000         0.6269        11.6489       2940.992       146.9187        47.5851       48.49953         0.2985       -63.5262      -24.52038      0.3297773      0.6497089
      3077.0000         0.6424        11.1703       2971.445        146.696        45.6938       46.15525          0.285       -65.5309      -26.52443      0.2798989      0.6210796
      3077.5000         0.6577        11.0488       3030.707        145.842        46.5769       47.27897         0.2784       -75.8751      -36.86798      0.3038079      0.4733145
      3078.0000         0.6728        11.1677       3053.555       143.5613        49.2774       50.67443         0.2739       -76.0403      -37.03254      0.3760518      0.4709638
      3078.5000         0.6493        11.1338       3066.934       140.6541        51.0308       52.88602         0.2694        -74.361      -35.35259      0.4231067       0.494963
      3079.0000         0.6111        11.0147       3079.629       138.5889         50.838       52.66487         0.2665       -73.2736      -34.26454      0.4184014      0.5105066
      3079.5000         0.5448        10.8857       3092.508       137.4568        50.6916        52.5017         0.2708       -72.1172       -33.1075      0.4149298      0.5270357
      3080.0000         0.5411        10.8223       3105.711       136.8933        51.8932       54.02355         0.2784       -69.4529      -30.44255      0.4473095      0.5651064
      3080.5000         0.5911        10.8213       3239.328       136.5305        54.3993       57.17601         0.2926       -77.8003      -38.78931      0.5143832      0.4458671
      3081.0000         0.5967        11.0516       3124.953       136.4375        53.4741       56.03934         0.3121       -82.5303      -43.51865      0.4901988       0.378305
      3081.5000         0.6047        11.4008       2894.555       137.5562        47.3575       48.41344         0.3308       -84.1698      -45.15751      0.3279455      0.3548927
      3082.0000         0.6143        11.7253        2787.02       137.4077        43.6182       43.75915          0.348       -85.2976      -46.28466      0.2289181      0.3387905
      3082.5000         0.6258        11.6581       2637.684       133.6653        43.3254         43.413         0.3621       -87.0304      -48.01682      0.2215532      0.3140454
      3083.0000         0.6392        11.7813        2623.98       132.1028        45.6642       46.35633         0.3752       -87.7781      -48.76387      0.2841773      0.3033733
      3083.5000          0.675        11.9401       2402.738       124.6758        46.8912       47.90992          0.388       -85.5175      -46.50263      0.3172324      0.3356767
      3084.0000         0.8157        11.5884       2307.543       121.4146        47.4861       48.67339         0.4003       -82.6458      -43.63028      0.3334765      0.3767104
      3084.5000         1.0178        11.9734       2210.051       127.3142        49.4016        51.0876         0.4007       -79.8696      -40.85343      0.3848427      0.4163795
      3085.0000         1.0255        12.7515       2138.453       135.7397        51.2673       53.43958          0.396       -78.5698      -39.55299      0.4348846      0.4349574
      3085.5000         1.0199        12.9616       2065.496       145.7261        54.9426       58.05354         0.3912       -77.6221      -38.60464      0.5330539      0.4485051
      3086.0000         1.0149        12.2053       2034.898       147.5989        53.8644       56.72563         0.3857       -76.2565      -37.23839      0.5048007       0.468023
      3086.5000         1.0081        11.2617       2270.883       145.2959        51.6758       54.00972         0.3802         -74.52      -35.50124      0.4470153      0.4928394
      3087.0000         1.0008        11.0037       2460.078       139.5962        50.1575       52.13168         0.3715       -73.1505       -34.1311      0.4070571      0.5124129
      3087.5000         0.9908        10.9482       2508.051       134.9707        51.6645       54.03528         0.3633       -71.2955      -32.27546      0.4475591      0.5389221
      3088.0000         0.9735        10.9042       2546.934       134.8765        55.8611       59.30086         0.3604       -70.4192       -31.3985      0.5595928        0.55145
      3088.5000         0.8713        10.7585       2632.391       136.4944        57.8483       61.80471         0.3574        -71.729      -32.70766      0.6128662      0.5327477
      3089.0000         0.7687        10.6889       2716.824       139.7244        58.4178       62.53642          0.356       -72.9972      -33.97521      0.6284345      0.5146399
      3089.5000         0.7199        10.6238       2710.453       144.2219        61.1971       66.03038         0.3575       -74.2467      -35.22406       0.702774      0.4967991
      3090.0000         0.6661        10.5828        2536.77       146.0491        64.6584       70.37685         0.3589       -72.6854      -33.66212      0.7952522      0.5191126
      3090.5000         0.6818        10.5664        2491.32       146.9961        70.5543       77.76656         0.3631       -64.5745      -25.55058      0.9524801      0.6349918
      3091.0000         0.6975        10.5293       2452.137       144.2639        70.9037       78.22316         0.3683       -62.7797      -23.75513      0.9621949       0.660641
      3091.5000         0.7126        10.5157       2272.559       140.6443         69.343       76.29212         0.3736       -62.3248      -23.29958       0.921109      0.6671489
      3092.0000         0.7271        10.5322       2232.449       139.9875        67.0325       73.42384         0.3807       -62.6937      -23.66783      0.8600818      0.6618881
      3092.5000         0.7416        10.6236       2153.488       141.3098        67.8237       74.43268         0.3885       -63.0525      -24.02599      0.8815463      0.6567717
      3093.0000         0.7641        10.7513       2063.012        142.803        70.3896        77.6599         0.3937       -63.5945      -24.56734      0.9502106       0.649038
      3093.5000         0.7861        10.8858       2024.928       144.5352        70.4005       77.69336         0.3979       -64.1615      -25.13369      0.9509225      0.6409473
      3094.0000         0.8067        10.9187       2004.164       144.6152        68.5851       75.44395          0.402       -64.6082      -25.57975      0.9030627      0.6345751
      3094.5000         0.8292        10.8309       1988.412        143.377        66.3853       72.71404         0.4042       -59.9502       -20.9211      0.8449796      0.7011272
      3095.0000         0.7698        10.8401       1970.113       141.7366        66.2246         72.533         0.4062       -58.2734      -19.24365      0.8411278      0.7250907
      3095.5000         0.7377        10.8959       1971.361       140.9805        68.3141       75.16472         0.4083       -57.1338       -18.1034      0.8971217      0.7413799
      3096.0000         0.7198        11.0094       2032.545       142.2273        71.2264       78.82494         0.4092       -56.1475      -17.11646      0.9749987      0.7554792
      3096.5000         0.7029        11.1311       2097.398       146.1699        74.1498       82.49902         0.4025       -55.3641      -16.33241              1      0.7666798
      3097.0000         0.6917        11.3322       2137.578        148.573         77.005       86.08787         0.3957       -55.6432      -16.61087              1      0.7627019
