#------------------------------------------------------------------------------
# Created by    : vladimir.rabinovich
# Created on    : 09/19/2023 17:20:01
#------------------------------------------------------------------------------
~Version Information Section
VERS.           2.0     :   CWLS log ASCII Standard - VERSION 2.0
WRAP.           NO      :   One line per depth step
~Well Information Section
#MNEM       .UNIT                                         VALUE :DESCRIPTION
#------------------------------------------------------------------------------
STRT        .FT                                            3470 :START DEPTH
STOP        .FT                                           12708 :STOP DEPTH
STEP        .FT                                             0.5 :STEP      
NULL        .                                           -999.25 :NULL      
COMP        .                                     INEXCO OIL CO :COMPANY   
WELL        .                                     ST TR 00794-L :WELL      
FLD         .                                       BLOCK 794-L :FIELD     
LOC         .                                                   :LOCATION  
CNTY        .                        MUSTANG ISLAND LARGE BLOCK :LOCATION  
STAT        .                                             TEXAS :STATE     
CTRY        .                                     UNITED STATES :COUNTRY   
SRVC        .                                                   :SERVICE COMPANY
DATE        .                             9/13/2023 11:18:55 AM :LOG DATE  
API         .                                    42702301710000 :API NUMBER
UWI         .                                    42702301710000 :UNIQUE WELL ID
XCOORD      .                                  319607.894357718 :SURFACE X 
YCOORD      .                                   10038241.944616 :SURFACE Y 
LAT         .                                        27.6026524 :LATITUDE  
LON         .                                       -97.0775955 :LONGITUDE 
ELEV        .FT                                               0 :ELEVATION VALUE
ELEV_TYPE   .                                                GL :ELEVATION REFERENCE TYPE
~Curve Information Section
#MNEM       .UNIT                                      API CODE :CURVE DESCRIPTION
#------------------------------------------------------------------------------
DEPT        .FT                                                 :DEPTH     
ASFL        .OHMM                                               :          
CILD        .MMHO                                               :          
DT          .US/F                                               :          
GR          .GAPI                                               :          
GR_NORM     .GAPI                                               :GammaRay Normalized
ILD         .OHMM                                               :          
ILM         .OHMM                                               :          
SP          .MV                                                 :          
SP_NORM     .MV                                                 :SP Normalized
VSH_GR      .V/V                                                :Volume of Shale from GR
VSH_SP      .V/V                                                :Volume of Shale from SP
~A        DEPTH           ASFL           CILD             DT             GR        GR_NORM            ILD            ILM             SP        SP_NORM         VSH_GR         VSH_SP
# ...
      5360.0000         1.2988       1066.906        84.4369        39.3037       38.85952          0.973         1.3689       -73.8308      -22.09266      0.1246706      0.6704271
      5360.5000         1.2742       1118.748         84.175        40.4503       41.03358         0.9526         1.3357       -75.8217      -24.09451      0.1709272      0.6391484
      5361.0000         1.2521       1158.947        82.7878        41.2993       42.64314         0.9321          1.302       -80.1877      -28.47145      0.2051733      0.5707586
      5361.5000         1.2343       1187.838        82.0845        42.1483       44.25269         0.9116         1.2758       -81.1589      -29.45359      0.2394188      0.5554126
      5362.0000         1.2194       1215.922        82.5844        42.6684       45.23836         0.8911          1.249       -81.8961      -30.20175      0.2603906      0.5437227
      5362.5000         1.2046       1230.416        83.0947        42.7597       45.41061         0.8706         1.2223       -82.6176      -30.93419      0.2640556      0.5322783
      5363.0000         1.2033       1244.898        83.5758        42.1804       44.31082          0.854         1.1968       -85.5964      -33.92393      0.2406557      0.4855635
      5363.5000         1.2244       1259.393        83.7531        41.6005       43.20987         0.8447         1.1741       -87.6041      -35.94258      0.2172313      0.4540221
      5364.0000         1.2456       1271.254        83.6763        41.0211       42.10989         0.8354         1.1562       -89.1219      -37.47133      0.1938275      0.4301354
      5364.5000         1.3033       1280.035        83.1702        40.4279       40.98372         0.8261         1.1402       -89.5773      -37.93768      0.1698663      0.4228488
      5365.0000         1.4875       1288.816        82.7047        39.4911       39.20578         0.8168         1.1289        -89.469      -37.84032      0.1320379      0.4243699
      5365.5000          1.529       1288.352        82.6781        38.5544       37.42803         0.8075         1.1158       -88.8177      -37.19997     0.09421337      0.4343754
      5366.0000         1.5079       1283.695        82.6879        37.6183       35.65142         0.7983         1.0991       -88.0249      -36.41812      0.0564132      0.4465919
      5366.5000         1.4753       1279.039         82.951        37.6057        35.6266          0.789         1.0875       -86.9401      -35.34426     0.05588507      0.4633709
      5367.0000         1.4427       1274.383        83.4053        39.1211       38.50025         0.7907         1.0828        -85.219      -33.63411      0.1170266       0.490092
      5367.5000         1.4121       1269.727        84.0483        40.6365        41.3739         0.7994         1.0809       -82.7856      -31.21165      0.1781681      0.5279429
      5368.0000         1.3839        1265.07        84.7584        42.4035       44.72481         0.8081          1.081       -81.7291      -30.16611      0.2494641      0.5442796
      5368.5000         1.3556       1249.814        85.4137         43.017       45.88762         0.8169         1.0856       -81.2426      -29.69055      0.2742047      0.5517102
      5369.0000         1.3145       1232.965        85.6885        43.1827       46.20104         0.8256         1.0904       -81.3757       -29.8346      0.2808731      0.5494594
      5369.5000         1.3541       1216.115        85.3644        43.3483       46.51424         0.8327          1.095       -81.6134      -30.08324      0.2875371      0.5455743
      5370.0000         1.4087       1186.824        84.1628        43.8137       47.39614         0.8367         1.0977          -81.9      -30.38079      0.3063009      0.5409251
      5370.5000         1.6921       1150.227        81.7148        44.3362       48.38636         0.8276          1.097       -81.9052      -30.39693      0.3273694       0.540673
      5371.0000         1.7458        1117.59         79.296        44.8587       49.37657         0.8185         1.0922       -81.5227      -30.02538      0.3484376      0.5464785
      5371.5000         1.4085       1087.658        79.2052        45.5124       50.61564         0.8095         1.0893       -80.5192      -29.03283      0.3748009       0.561987
      5372.0000         1.2789        1097.08        81.0157        46.2731       52.05772         0.7999         1.0972       -78.6276      -27.15218      0.4054833      0.5913723
      5372.5000         1.2733       1121.334        84.5404        46.8972       53.24065          0.774         1.1017       -77.5886      -26.12412      0.4306522      0.6074356
      5373.0000         1.2683       1145.588        89.7629        47.4324       54.25495         0.7481         1.1009       -76.7941      -25.34056      0.4522329      0.6196787
      5373.5000         1.2633       1188.998         94.072        48.0009       55.33241         0.7222         1.0978       -77.5438      -26.10122      0.4751576      0.6077935
      5374.0000         1.2582       1241.371        97.0535        48.6165       56.49923           0.69         1.0888       -79.9507      -28.51906      0.4999837      0.5700147
      5374.5000         1.2412       1320.172        99.4358        49.2441        57.6888         0.6532         1.0667       -84.2756       -32.8549      0.5252936      0.5022671
      5375.0000         1.2236       1453.426        99.5905        50.0297       59.17809         0.6165         1.0202         -88.47      -37.06025      0.5569806      0.4365585
      5375.5000         1.1891       1562.617        97.7087        50.8286        60.6926         0.5849         0.9703       -94.4689       -43.0701      0.5892043      0.3426546
      5376.0000         1.3326       1620.787        92.4375        50.7995       60.63649         0.5579         0.9112       -96.6024      -45.21455      0.5880104      0.3091477
      5376.5000         1.5539       1690.361        88.1139        49.2031       57.60735         0.5309         0.8572      -102.0062       -50.6293      0.5235606      0.2245423
      5377.0000         1.5591       1756.697        85.8997        47.1252       53.66485         0.5059         0.8161      -103.8252      -52.45924      0.4396777      0.1959493
      5377.5000         1.5319       1770.322        85.7992        45.0474       49.72253         0.5049         0.7957      -104.9724      -53.61738      0.3557986      0.1778534
      5378.0000         1.5046       1713.648        86.1807        43.5126       46.81026         0.5039         0.7935      -105.5522      -54.20813      0.2938353      0.1686229
      5378.5000         1.4774       1657.168        86.7084        44.0617       47.85093         0.5066         0.7983      -104.4529      -53.11978      0.3159771      0.1856284
      5379.0000         1.4545       1601.945        87.8435        44.8224       49.29298         0.5332         0.8043      -103.3535      -52.03133      0.3466591      0.2026355
      5379.5000         1.4809       1546.721        90.9005        45.7434        51.0391         0.5599         0.8113       -99.2341      -47.92287      0.3838107      0.2668301
      5380.0000         1.5113       1491.545        95.6432        46.6711       52.79794         0.5865         0.8264       -94.7688      -43.46852      0.4212328      0.3364294
      5380.5000         1.5617       1402.984       102.2688        47.5987        54.5566         0.6132         0.8436        -77.943      -26.65367       0.458651      0.5991614
      5381.0000         1.5821       1303.359       108.8456        48.5258        56.3143         0.6489          0.855         -73.71      -22.43161       0.496049      0.6651311
      5381.5000         1.0687       1216.682       113.9854        49.3131       57.80682         0.7001         0.8636       -70.6113      -19.34386      0.5278046      0.7133772
      5382.0000         1.0427       1175.471       117.3346        49.3143       57.80817         0.7514         0.8699       -67.9481       -16.6916      0.5278334      0.7548187
