#------------------------------------------------------------------------------
# Created by    : vladimir.rabinovich
# Created on    : 09/19/2023 17:22:50
#------------------------------------------------------------------------------
~Version Information Section
VERS.           2.0     :   CWLS log ASCII Standard - VERSION 2.0
WRAP.           NO      :   One line per depth step
~Well Information Section
#MNEM       .UNIT                                         VALUE :DESCRIPTION
#------------------------------------------------------------------------------
STRT        .FT                                            2472 :START DEPTH
STOP        .FT                                            8382 :STOP DEPTH
STEP        .FT                                             0.5 :STEP      
NULL        .                                           -999.25 :NULL      
COMP        .                                 EPL OIL & GAS LLC :COMPANY   
WELL        .                               OCS G07215 ST00BP00 :WELL      
FLD         .                                 BRAZOS BLOCK 0376 :FIELD     
LOC         .                                                   :LOCATION  
CNTY        .                                BRAZOS LARGE BLOCK :LOCATION  
STAT        .                                             TEXAS :STATE     
CTRY        .                                     UNITED STATES :COUNTRY   
SRVC        .                                                   :SERVICE COMPANY
DATE        .                             9/13/2023 11:19:08 AM :LOG DATE  
API         .                                    42704402290000 :API NUMBER
UWI         .                                    42704402290000 :UNIQUE WELL ID
XCOORD      .                                  871225.230552878 :SURFACE X 
YCOORD      .                                  10399792.7272756 :SURFACE Y 
LAT         .                                         28.636239 :LATITUDE  
LON         .                                        -95.398308 :LONGITUDE 
ELEV        .FT                                              95 :ELEVATION VALUE
ELEV_TYPE   .                                                KB :ELEVATION REFERENCE TYPE
~Curve Information Section
#MNEM       .UNIT                                      API CODE :CURVE DESCRIPTION
#------------------------------------------------------------------------------
DEPT        .FT                                                 :DEPTH     
DT          .US/F                                               :          
GR          .GAPI                                               :          
GR_NORM     .GAPI                                               :GammaRay Normalized
ILD         .OHMM                                               :          
ILM         .OHMM                                               :          
SFL         .OHMM                                               :          
SP          .MV                                                 :          
SP_NORM     .MV                                                 :SP Normalized
VSH_GR      .V/V                                                :Volume of Shale from GR
VSH_SP      .V/V                                                :Volume of Shale from SP
~A        DEPTH             DT             GR        GR_NORM            ILD            ILM            SFL             SP        SP_NORM         VSH_GR         VSH_SP
# ...
      4848.5000       116.1841        37.0355       43.04314         0.4933         0.5686         0.7702       -94.6793      -51.96548      0.2136838      0.1361784
      4849.0000       113.4268        38.0499       44.57849         0.5163         0.5819         0.7185        -94.348      -51.64463      0.2463509      0.1416165
      4849.5000       110.7645        38.6811       45.53366         0.5417         0.6025          0.733       -94.0861      -51.39317      0.2666737      0.1458784
      4850.0000        109.054        34.2763       38.86449         0.5735         0.6475         0.8294       -93.9047      -51.22222      0.1247763      0.1487759
      4850.5000       113.2853        32.0826       35.54285         0.6136         0.7042         0.9165       -93.7323      -51.06027     0.05410328      0.1515209
      4851.0000       115.3167        31.4867       34.64024          0.668         0.7583         0.9555        -93.494      -50.83242      0.0348988      0.1553827
      4851.5000       108.3121        31.8275       35.15577         0.7404          0.827         1.0381       -93.0764      -50.42526     0.04586743      0.1622837
      4852.0000       103.1195        33.3425       37.44902         0.8155          0.939         1.2517         -92.46      -49.81931     0.09465992      0.1725541
      4852.5000       100.5183        35.2149       40.28334         0.8781         1.1132         1.7661        -91.199      -48.56876      0.1549648      0.1937499
      4853.0000        94.4813        35.3718       40.52045         0.9314         1.2768         2.4407       -89.0221      -46.40231      0.1600096      0.2304694
      4853.5000        81.8802        34.3365        38.9526         0.9798         1.4227         2.8184       -87.0258      -44.41645       0.126651      0.2641279
      4854.0000         73.923        32.9454       36.84608         1.0056         1.5872         3.0182       -85.8405       -43.2416     0.08183159      0.2840407
      4854.5000         73.152         31.786       35.09034         0.9717         1.6135         2.9352       -85.2515      -42.66305     0.04447539      0.2938466
      4855.0000        73.3175        33.4147       37.55573         0.8757         1.4621         2.1746       -85.1115       -42.5335      0.0969304      0.2960424
      4855.5000        74.7941        35.2474       40.32995         0.7692         1.1553         1.2598       -85.5319      -42.96434      0.1559564      0.2887401
      4856.0000        82.5148        35.3232       40.44428         0.6877         0.9181         0.8914        -86.292      -43.73489      0.1583889      0.2756799
      4856.5000       108.0925        32.5194       36.19897          0.627         0.6982         0.7325       -86.7236      -44.17694     0.06806313      0.2681875
      4857.0000        122.797        29.5448       31.69508         0.5695         0.6098         0.6602       -86.6375      -44.10128              0      0.2694699
      4857.5000        130.708         27.794       29.04397         0.5184         0.5556         0.6447       -86.2322      -43.70643              0      0.2761622
      4858.0000       129.6733        26.9119       27.70807         0.4839         0.5202         0.6426       -85.4867      -42.97138              0      0.2886207
      4858.5000       127.4564        27.5521       28.67688         0.4688         0.5016         0.6446       -83.7407      -41.23582              0      0.3180369
      4859.0000       132.5332           28.8       30.56573          0.468         0.4959         0.6509       -80.7239      -38.22947              0      0.3689921
      4859.5000       136.8376        29.2789       31.29035         0.4851          0.511         0.6831       -77.0658      -34.58182              0      0.4308166
      4860.0000        131.396        31.3859       34.47986         0.5181         0.5435         0.7529       -73.0684      -30.59486     0.03148635      0.4983922
      4860.5000        119.371         36.399       42.06912         0.5604         0.5954         0.8281       -67.0276      -24.56451        0.19296      0.6006014
      4861.0000       106.4186         43.335       52.56961         0.6206         0.6688         0.9115       -61.1169      -18.66426      0.4163747      0.7006058
      4861.5000       100.2889        50.4298       63.31052         0.6883          0.758         0.9667       -56.6766      -14.23441      0.6449047      0.7756881
      4862.0000        98.9281        57.1637       73.50502         0.7605         0.8465         0.9909       -53.4083      -10.97655       0.861809      0.8309059
      4862.5000       100.3109        62.2755       81.24374          0.832         0.9085         0.9765       -51.3145      -8.893196              1       0.866217
      4863.0000       103.2854        62.8639       82.13411         0.8958         0.9481          0.943       -49.7706      -7.359745              1      0.8922077
      4863.5000       106.1917        61.0986       79.46107         0.9467         0.9656           0.91       -49.1082      -6.707794      0.9885335      0.9032577
      4864.0000       110.3424        60.9843       79.28757         0.9825         0.9644         0.8826       -48.7352      -6.345238      0.9848419      0.9094027
      4864.5000       113.5902        61.6293       80.26365         1.0051         0.9519         0.8612       -48.4611      -6.081589              1      0.9022771
      4865.0000       116.2476        62.1467       81.04655          1.007         0.9294         0.8513       -48.1455      -5.776436              1      0.9081455
      4865.5000       116.9562        60.9072       79.16956         0.9984         0.9042         0.8404       -47.8164      -5.457779      0.9823312      0.9142735
      4866.0000       117.1249        60.3476       78.32191         0.9883          0.887         0.8293       -47.4678      -5.119629       0.964296      0.9207764
      4866.5000       117.4652         61.563       80.16156         0.9765         0.8715         0.8197       -47.2653      -4.927578              1      0.9244696
      4867.0000       118.1533        63.3163       82.81557         0.9586          0.856         0.8153       -47.2509      -4.923622              1      0.9245457
      4867.5000       118.1521        65.0659       85.46399         0.9343         0.8371         0.8175       -47.4733      -5.156471              1      0.9200678
      4868.0000       119.0026        65.9583       86.81463         0.9085         0.8156         0.8165       -47.8712      -5.564816              1      0.9122151
      4868.5000       119.8376        64.5822       84.73083         0.8794         0.7916         0.7874       -48.3573      -6.061363              1      0.9026661
      4869.0000       120.5959        63.4764       83.05622         0.8514         0.7613         0.7496        -48.971      -6.685513              1      0.8906632
      4869.5000        122.082        62.8506       82.10836         0.8247         0.7264         0.7142       -49.5961      -7.321056              1      0.8784412
      4870.0000       125.9741        62.8866       82.16242         0.7991         0.6916         0.6592       -50.2622      -7.997604              1      0.8654307
      4870.5000       129.2415        64.2068       84.16074         0.7742         0.6609         0.6378       -50.4251      -8.170952              1      0.8620971
      4871.0000       131.7839        65.3872        85.9474         0.7553         0.6408         0.6267        -50.528      -8.284298              1      0.8599173
      4871.5000       134.1072        65.2705       85.77029         0.7383         0.6292         0.6189       -50.5684      -8.335148              1      0.8589395
      4872.0000       135.3633          64.51       84.61848         0.7255         0.6239         0.6179       -50.4853      -8.262493              1      0.8603367
      4872.5000       135.0349        64.1093       84.01139         0.7161         0.6212         0.6157       -50.2741      -8.061741              1      0.8641973
