#------------------------------------------------------------------------------
# Created by    : vladimir.rabinovich
# Created on    : 09/19/2023 17:20:36
#------------------------------------------------------------------------------
~Version Information Section
VERS.           2.0     :   CWLS log ASCII Standard - VERSION 2.0
WRAP.           NO      :   One line per depth step
~Well Information Section
#MNEM       .UNIT                                         VALUE :DESCRIPTION
#------------------------------------------------------------------------------
STRT        .FT                                             504 :START DEPTH
STOP        .FT                                            9762 :STOP DEPTH
STEP        .FT                                             0.5 :STEP      
NULL        .                                           -999.25 :NULL      
COMP        .                                      SHELL OIL CO :COMPANY   
WELL        .                                OCS 00703 ST00BP00 :WELL      
FLD         .                                           WILDCAT :FIELD     
LOC         .                                                   :LOCATION  
CNTY        .                             GALVESTON LARGE BLOCK :LOCATION  
STAT        .                                             TEXAS :STATE     
CTRY        .                                     UNITED STATES :COUNTRY   
SRVC        .                                                   :SERVICE COMPANY
DATE        .                             9/13/2023 11:19:25 AM :LOG DATE  
API         .                                    42706000420000 :API NUMBER
UWI         .                                    42706000420000 :UNIQUE WELL ID
XCOORD      .                                  1132503.99790541 :SURFACE X 
YCOORD      .                                  10523078.0194322 :SURFACE Y 
LAT         .                                         28.987276 :LATITUDE  
LON         .                                        -94.589113 :LONGITUDE 
ELEV        .FT                                              83 :ELEVATION VALUE
ELEV_TYPE   .                                                KB :ELEVATION REFERENCE TYPE
~Curve Information Section
#MNEM       .UNIT                                      API CODE :CURVE DESCRIPTION
#------------------------------------------------------------------------------
DEPT        .FT                                                 :DEPTH     
ASN         .OHMM                                               :          
CILD        .MMHO                                               :          
DT          .US/F                                               :          
ILD         .OHMM                                               :          
LAT         .OHMM                                               :          
LN          .OHMM                                               :          
SP          .MV                                                 :          
SP_NORM     .MV                                                 :SP Normalized
VSH_SP      .V/V                                                :Volume of Shale from SP
~A        DEPTH            ASN           CILD             DT            ILD            LAT             LN             SP        SP_NORM         VSH_SP
# ...
      3578.0000         0.8794       1297.668       137.8535         0.6718        -999.25         0.6718        -45.085      -2.199776      0.9939462
      3578.5000         0.8767       1298.258        139.011         0.6734        -999.25         0.6734       -44.8123      -1.928585              1
      3579.0000         0.8739       1296.121       140.1685         0.6786        -999.25         0.6786       -44.5556      -1.673389              1
      3579.5000         0.8713        1293.75       141.3261         0.6839        -999.25         0.6839        -44.427      -1.546295              1
      3580.0000         0.8742       1291.379       142.4836         0.6891        -999.25         0.6891        -44.403      -1.523804              1
      3580.5000         0.8772       1289.008       143.6412         0.6944        -999.25         0.6944       -44.6257      -1.748013              1
      3581.0000         0.8844       1286.432       144.7987         0.6996        -999.25         0.6996       -44.8484      -1.972221              1
      3581.5000         0.8993       1283.541       145.9563         0.7034        -999.25         0.7034       -44.9055      -2.030827      0.9990659
      3582.0000         0.9029       1280.652       147.1138         0.7046        -999.25         0.7046       -44.9552      -2.082035      0.9975141
      3582.5000         0.8959       1277.762       148.2713         0.7058        -999.25         0.7058       -45.0049      -2.133244      0.9959623
      3583.0000          0.889       1274.873       149.4289         0.7069        -999.25         0.7069       -44.9957      -2.125549      0.9961955
      3583.5000         0.8821       1273.453       150.5864         0.7081        -999.25         0.7081       -44.9454      -2.076756       0.997674
      3584.0000         0.8756       1275.648        151.744         0.7093        -999.25         0.7093       -44.8951      -2.027962      0.9991527
      3584.5000         0.8692       1277.844       152.9015         0.7087        -999.25         0.7087       -44.8177      -1.952068              1
      3585.0000         0.8637       1283.471       153.8026         0.7069        -999.25         0.7069       -44.7216      -1.857475              1
      3585.5000         0.8584        1289.59       154.2359          0.705        -999.25          0.705       -44.6255      -1.762882              1
      3586.0000         0.8527       1295.707       154.6692         0.7032        -999.25         0.7032       -44.6109       -1.74979              1
      3586.5000         0.8617       1300.217       155.1228         0.7013        -999.25         0.7013        -44.731      -1.871395              1
      3587.0000         0.8658       1297.557       155.2251            0.7        -999.25            0.7       -44.8513      -1.993202              1
      3587.5000         0.8699       1294.822       155.3052         0.6988        -999.25         0.6988       -44.9883       -2.13171      0.9960088
      3588.0000         0.8709       1288.666       155.3747         0.6976        -999.25         0.6976       -45.1252      -2.270115      0.9918147
      3588.5000         0.8686       1282.508       155.4442         0.6964        -999.25         0.6964       -45.2623      -2.408726      0.9876144
      3589.0000         0.8663       1276.352       155.5137         0.6995        -999.25         0.6995       -45.3993      -2.547234      0.9834172
      3589.5000         0.8642       1270.197       155.5832         0.7036        -999.25         0.7036        -45.136      -2.285442      0.9913502
      3590.0000         0.8621       1265.172       155.6527         0.7077        -999.25         0.7077       -44.8221      -1.973049              1
      3590.5000         0.8647       1265.074       155.7016         0.7118        -999.25         0.7118       -44.4581      -1.610554              1
      3591.0000         0.8689       1264.975       155.6157         0.7146        -999.25         0.7146       -44.0645       -1.21846              1
      3591.5000          0.874       1265.779       155.4243         0.7126        -999.25         0.7126        -43.671     -0.8264694              1
      3592.0000          0.881       1267.928        155.233         0.7106        -999.25         0.7106       -43.3347     -0.4916763              1
      3592.5000         0.8881       1270.078       154.8131         0.7086        -999.25         0.7086       -43.1141      -0.272583              1
      3593.0000         0.8968       1276.262       154.1412         0.7066        -999.25         0.7066       -42.8936    -0.05358887              1
      3593.5000         0.9068       1285.287       153.4693         0.7049        -999.25         0.7049       -42.8933    -0.05479431              1
      3594.0000         0.9177       1291.289       152.8192         0.7033        -999.25         0.7033       -43.1246     -0.2876015              1
      3594.5000         0.9351       1294.326       152.0518         0.7017        -999.25         0.7017       -43.3561      -0.520607              1
      3595.0000         0.9414       1296.795       151.0769         0.7001        -999.25         0.7001       -43.5873      -0.753315              1
      3595.5000         0.9323       1298.664       150.1019         0.6985        -999.25         0.6985       -43.8187     -0.9862213              1
      3596.0000         0.9243       1300.537        149.127         0.6967        -999.25         0.6967       -44.0105      -1.179535              1
      3596.5000         0.9163       1302.334        148.152         0.6945        -999.25         0.6945       -44.1785      -1.349041              1
      3597.0000         0.9083       1303.926       147.2502         0.6923        -999.25         0.6923       -44.0497      -1.221748              1
      3597.5000         0.9003       1305.518       145.9369         0.6902        -999.25         0.6902       -43.9308      -1.104355              1
      3598.0000         0.8931       1306.174       144.2217         0.6885        -999.25         0.6885       -43.8436      -1.018661              1
      3598.5000          0.886       1305.742       142.5065         0.6883        -999.25         0.6883       -43.7564     -0.9329681              1
      3599.0000         0.8791        1304.34       140.7914         0.6888        -999.25         0.6888       -43.6692     -0.8472748              1
      3599.5000         0.8722       1291.586       139.0762         0.6976        -999.25         0.6976        -43.582     -0.7615814              1
      3600.0000         0.8822       1252.826        137.361         0.7065        -999.25         0.7065       -43.7058     -0.8868866              1
      3600.5000          0.893        1222.98       137.4223         0.7288        -999.25         0.7288       -43.8756      -1.058193              1
      3601.0000         0.9037       1202.283       138.0851         0.7526        -999.25         0.7526       -44.0455      -1.229603              1
      3601.5000         0.9198       1185.084       138.7479         0.7716        -999.25         0.7716       -44.2155      -1.401108              1
      3602.0000         0.9378       1171.873       139.4632          0.778        -999.25          0.778       -44.4771      -1.664215              1
      3602.5000           0.96       1172.699       138.7029         0.7843        -999.25         0.7843       -44.7614       -1.95002              1
      3603.0000         0.9812        1177.07       137.8773         0.7852        -999.25         0.7852       -45.0458      -2.235928      0.9928507
      3603.5000         0.9947       1180.721       137.0518          0.785        -999.25          0.785       -45.1916       -2.38324      0.9883867
      3604.0000         1.0036       1175.072       136.2262         0.7847        -999.25         0.7847       -45.0125      -2.205647      0.9937683
