#------------------------------------------------------------------------------
# Created by    : vladimir.rabinovich
# Created on    : 09/19/2023 17:22:26
#------------------------------------------------------------------------------
~Version Information Section
VERS.           2.0     :   CWLS log ASCII Standard - VERSION 2.0
WRAP.           NO      :   One line per depth step
~Well Information Section
#MNEM       .UNIT                                         VALUE :DESCRIPTION
#------------------------------------------------------------------------------
STRT        .FT                                            3450 :START DEPTH
STOP        .FT                                            9344 :STOP DEPTH
STEP        .FT                                             0.5 :STEP      
NULL        .                                           -999.25 :NULL      
COMP        .                                  W&T OFFSHORE INC :COMPANY   
WELL        .                               OCS G04565 ST00BP00 :WELL      
FLD         .                              GALVESTON BLOCK 0303 :FIELD     
LOC         .                                                   :LOCATION  
CNTY        .                             GALVESTON LARGE BLOCK :LOCATION  
STAT        .                                             TEXAS :STATE     
CTRY        .                                     UNITED STATES :COUNTRY   
SRVC        .                                                   :SERVICE COMPANY
DATE        .                             9/13/2023 11:19:39 AM :LOG DATE  
API         .                                    42706403900000 :API NUMBER
UWI         .                                    42706403900000 :UNIQUE WELL ID
XCOORD      .                                  983096.827540607 :SURFACE X 
YCOORD      .                                  10485968.3003259 :SURFACE Y 
LAT         .                                        28.8789082 :LATITUDE  
LON         .                                       -95.0543314 :LONGITUDE 
ELEV        .FT                                              90 :ELEVATION VALUE
ELEV_TYPE   .                                                KB :ELEVATION REFERENCE TYPE
~Curve Information Section
#MNEM       .UNIT                                      API CODE :CURVE DESCRIPTION
#------------------------------------------------------------------------------
DEPT        .FT                                                 :DEPTH     
CDER        .MMHO                                               :          
DCAL        .IN                                                 :          
DPHI        .DEC                                                :          
DRHO        .G/CC                                               :          
DTLN        .US/F                                               :          
GR          .GAPI                                               :          
GR_NORM     .GAPI                                               :GammaRay Normalized
IDER        .OHMM                                               :          
IMER        .OHMM                                               :          
NPOR        .DEC                                                :          
RWA         .OHMM                                               :          
SFLA        .OHMM                                               :          
SP          .MV                                                 :          
SP_NORM     .MV                                                 :SP Normalized
TENS        .LB                                                 :          
VSH_GR      .V/V                                                :Volume of Shale from GR
VSH_SP      .V/V                                                :Volume of Shale from SP
~A        DEPTH           CDER           DCAL           DPHI           DRHO           DTLN             GR        GR_NORM           IDER           IMER           NPOR            RWA           SFLA             SP        SP_NORM           TENS         VSH_GR         VSH_SP
# ...
      8925.0000       1485.443           0.89            0.2         -0.001        -999.25         87.843       71.95098          0.673          0.688          0.359          0.069           0.72            1.7      -8.139688           1880      0.8287443      0.8837187
      8925.5000       1533.507            0.9            0.2         -0.001        -999.25         90.874       75.53394          0.652          0.668          0.364           0.07          0.716            2.1      -7.753128           1880      0.9049774       0.889241
      8926.0000       1579.031           0.95          0.198              0        -999.25         91.864       76.71107          0.633          0.648          0.364          0.068          0.713            2.8      -7.066568           1880      0.9300229       0.899049
      8926.5000       1614.205           0.94          0.196          0.002        -999.25         91.563       76.36645          0.619          0.627          0.358          0.069          0.717            3.6      -6.280009           1880      0.9226904      0.9102856
      8927.0000        1635.59           0.98          0.197          0.005        -999.25           91.5       76.30237          0.611          0.609          0.359          0.072          0.736            4.4      -5.493449           1880       0.921327      0.9215221
      8927.5000       1620.746           1.02          0.199          0.007        -999.25         91.463       76.26892          0.617          0.608          0.374          0.077          0.773              5       -4.90689           1880      0.9206153      0.9299016
      8928.0000       1555.694           0.98          0.197          0.008        -999.25          91.11       75.86301          0.643          0.627          0.389          0.075          0.824            5.6       -4.32033           1880      0.9119788       0.938281
      8928.5000       1456.664            0.9          0.195           0.01        -999.25         89.231        73.6583          0.687          0.666          0.375          0.065          0.869          5.946       -3.98777           1880      0.8650703      0.9430318
      8929.0000       1357.036           0.78          0.192          0.013        -999.25         84.684       68.30871          0.737          0.723          0.325          0.056          0.914          5.807      -4.140211           1880      0.7512491      0.9408541
      8929.5000       1256.755           0.62          0.192          0.015        -999.25         78.909       61.51159          0.796          0.795          0.272          0.051          0.939          5.139      -4.821651           1880      0.6066296      0.9311193
      8930.0000       1220.852           0.58          0.191          0.017        -999.25         76.168       58.29081          0.819          0.848          0.267          0.052          0.929          4.422      -5.552092           1880      0.5381024      0.9206844
      8930.5000       1296.176          0.717          0.192           0.02        -999.25         77.122       59.42552          0.771          0.805          0.299           0.06            0.9            3.9      -6.087533       1884.996      0.5622451      0.9130353
      8931.0000       1372.495          0.843          0.196          0.023        -999.25         79.673       62.44268          0.729           0.76          0.331          0.069          0.864           4.08      -5.920973       1889.998        0.62644      0.9154147
      8931.5000        1392.37          0.884          0.201          0.027        -999.25         80.962       63.97227          0.718           0.74          0.339          0.076           0.83              4      -6.014413       1895.002      0.6589845      0.9140798
      8932.0000       1397.819           0.99          0.206          0.023        -999.25         81.666       64.81228          0.715          0.735          0.341          0.078          0.801          3.709      -6.318854       1899.996       0.676857      0.9097307
      8932.5000       1402.328           1.07          0.207           0.02        -999.25         82.265       65.52853          0.713          0.733           0.35          0.078          0.788            3.7      -6.341294           1900      0.6920965      0.9094101
      8933.0000       1406.272          1.145          0.205          0.019        -999.25         82.865       66.24596          0.711          0.731          0.362          0.079           0.79          3.609      -6.445735           1900      0.7073608      0.9079181
      8933.5000       1405.877           1.18          0.202          0.019        -999.25         82.786       66.16302          0.711          0.731          0.367          0.079          0.797            3.5      -6.568175           1900      0.7055961      0.9061689
      8934.0000       1405.284           1.09          0.206          0.018        -999.25         81.416        64.5583          0.712           0.73           0.36           0.08          0.806          3.491      -6.590615           1900      0.6714533      0.9058483
      8934.5000       1403.903           1.01          0.214          0.018        -999.25         79.588       62.41372          0.712           0.73          0.354          0.082          0.822            3.7      -6.395057           1900      0.6258238      0.9086421
      8935.0000       1391.982          0.955          0.219           0.02        -999.25         77.469       59.92612          0.718          0.731          0.348          0.083          0.841           4.08      -6.028497           1900      0.5728962      0.9138786
      8935.5000       1357.405          0.955          0.222          0.019        -999.25         75.772       57.93597          0.737          0.736          0.351          0.084          0.864          4.439      -5.682937           1900      0.5305526      0.9188152
      8936.0000       1327.845          0.935           0.22          0.021        -999.25         74.181       56.07075          0.753          0.753          0.358          0.082          0.887            4.3      -5.835378           1900       0.490867      0.9166375
      8936.5000       1301.575           0.85          0.215          0.023        -999.25         73.115       54.82438          0.768           0.78          0.343          0.079          0.909            4.3      -5.848818           1900      0.4643484      0.9164454
      8937.0000       1278.936          0.735          0.211          0.029        -999.25         72.358       53.94224          0.782          0.806          0.318          0.071          0.927            4.3      -5.862258           1900      0.4455795      0.9162534
      8937.5000       1264.223           0.66          0.212          0.034        -999.25         71.704       53.18152          0.791          0.814          0.315           0.07          0.939           4.06      -6.115699           1900       0.429394      0.9126329
      8938.0000       1261.671          0.685          0.216          0.035        -999.25          72.51       54.14177          0.793          0.805          0.334          0.076          0.941          3.809      -6.380139           1900      0.4498248      0.9088551
      8938.5000       1261.989           0.79           0.22          0.034        -999.25         73.961        55.8623          0.792          0.794          0.356          0.079          0.938          3.716      -6.486579           1900      0.4864319      0.9073346
      8939.0000       1259.129          0.875          0.221          0.031        -999.25         75.251       57.39307          0.794          0.797          0.343          0.076          0.931           4.05       -6.16602           1900      0.5190014       0.911914
      8939.5000       1251.408           0.89          0.218          0.026        -999.25         75.504       57.70145          0.799          0.818          0.323          0.071          0.929          4.464       -5.76546       1886.541      0.5255629      0.9176363
