#------------------------------------------------------------------------------
# Created by    : vladimir.rabinovich
# Created on    : 09/19/2023 17:19:58
#------------------------------------------------------------------------------
~Version Information Section
VERS.           2.0     :   CWLS log ASCII Standard - VERSION 2.0
WRAP.           NO      :   One line per depth step
~Well Information Section
#MNEM       .UNIT                                         VALUE :DESCRIPTION
#------------------------------------------------------------------------------
STRT        .FT                                             782 :START DEPTH
STOP        .FT                                            8251 :STOP DEPTH
STEP        .FT                                             0.5 :STEP      
NULL        .                                           -999.25 :NULL      
COMP        .                                     TALOS ERT LLC :COMPANY   
WELL        .                               OCS G06037 ST00BP00 :WELL      
FLD         .                       MATAGORDA ISLAND BLOCK 0619 :FIELD     
LOC         .                                                   :LOCATION  
CNTY        .                      MATAGORDA ISLAND LARGE BLOCK :LOCATION  
STAT        .                                             TEXAS :STATE     
CTRY        .                                     UNITED STATES :COUNTRY   
SRVC        .                                                   :SERVICE COMPANY
DATE        .                             9/13/2023 11:18:52 AM :LOG DATE  
API         .                                    42703402240000 :API NUMBER
UWI         .                                    42703402240000 :UNIQUE WELL ID
XCOORD      .                                  606760.800591327 :SURFACE X 
YCOORD      .                                  10227689.0556145 :SURFACE Y 
LAT         .                                        28.1463556 :LATITUDE  
LON         .                                       -96.2076889 :LONGITUDE 
ELEV        .FT                                              77 :ELEVATION VALUE
ELEV_TYPE   .                                                KB :ELEVATION REFERENCE TYPE
~Curve Information Section
#MNEM       .UNIT                                      API CODE :CURVE DESCRIPTION
#------------------------------------------------------------------------------
DEPT        .FT                                                 :DEPTH     
ASFL        .OHMM                                               :          
CALI        .IN                                                 :          
CILD        .MMHO                                               :          
DRHO        .G/C3                                               :          
DT          .US/F                                               :          
GR          .GAPI                                               :          
GR_NORM     .GAPI                                               :GammaRay Normalized
ILD         .OHMM                                               :          
ILM         .OHMM                                               :          
NPHI        .%                                                  :          
RHOB        .G/C3                                               :          
SFL         .OHMM                                               :          
SP          .MV                                                 :          
SP_NORM     .MV                                                 :SP Normalized
VSH_GR      .V/V                                                :Volume of Shale from GR
VSH_SP      .V/V                                                :Volume of Shale from SP
~A        DEPTH           ASFL           CALI           CILD           DRHO             DT             GR        GR_NORM            ILD            ILM           NPHI           RHOB            SFL             SP        SP_NORM         VSH_GR         VSH_SP
# ...
      2782.0000         0.6111        17.1447       1857.869         0.0118       117.6613        50.1464        54.3341         0.5406         0.6086        38.8908         2.0297         0.6103       -67.8722      -13.97998       0.453917       0.251251
      2782.5000         0.6158        16.6794       1935.477         0.0382        111.714        47.4409       50.72811         0.5018         0.5981        38.4839         2.0718         0.6052       -69.2246      -15.33239      0.3771939      0.1667259
      2783.0000         0.6144         16.386       2306.652         0.0939       107.5636        43.5728         45.571         0.4686          0.572        36.8405         2.1066         0.6565       -70.2375      -16.34529       0.267468      0.1034195
      2783.5000         0.6129        16.3297       2377.625         0.1424       112.1779        38.0528       38.20993         0.4346         0.5299        36.1849            2.1         0.7236       -70.8477      -16.95549      0.1108495     0.06528211
      2784.0000         0.6032        18.6624       2628.332         0.1711       119.0626        35.9341       35.38685         0.4069         0.4772        36.4702         2.0047         0.6823       -71.0944      -17.20218     0.05078401     0.04986358
      2784.5000         0.5814        21.3862       2687.637           0.17       125.3395        34.3824       33.32025         0.3828         0.4381        38.5537         1.9613         0.6197       -71.1271      -17.23488    0.006813861     0.04781985
      2785.0000         0.5484        21.8008       2771.387         0.1454       132.7795        32.6279       30.98307          0.364          0.416        42.8418         1.9039         0.5446       -71.0194      -17.12719              0     0.05455089
      2785.5000          0.528        21.9852       2857.566         0.1124       135.0146        31.7953       29.87589         0.3482         0.4054        47.1299          1.816         0.4911       -70.6299      -16.73768              0     0.07889485
      2786.0000         0.5129        22.0369        2925.02         0.0828       137.1851        32.1736       30.38428         0.3382         0.3995        51.4179         1.7027         0.4874       -70.0012      -16.10898              0      0.1181886
      2786.5000         0.5013        21.6431       2973.383         0.0545       141.0815        35.0607       34.23986         0.3329         0.3994        55.3217         1.6275         0.4855       -69.0157      -15.12349     0.02638009      0.1797822
      2787.0000         0.4975        21.5755       2868.063         0.0271       146.3306        41.5405       42.88881         0.3399         0.4106        56.1066         1.6123          0.479       -67.6708      -13.77858      0.2104003      0.2638385
      2787.5000         0.4936        21.7463        2737.66        -0.0064       148.2632        52.0373       56.89719         0.3619         0.4264        55.1772          1.654         0.4699       -65.8884      -11.99618      0.5084509      0.3752387
      2788.0000         0.4898        20.8408       2575.211        -0.0058       145.3271        60.0363       67.57302         0.3924         0.4455        53.5731         1.8205         0.4656        -64.292      -10.39978      0.7355962      0.4750135
      2788.5000         0.4884        18.4982       2248.336         0.0127        142.019        68.5758       78.96999         0.4232         0.4659        49.9594         1.9633          0.466       -62.8031      -8.910885       0.978085      0.5680697
      2789.0000         0.4931        16.9309       2140.195         0.0294       139.4551        72.2268       83.84477         0.4507         0.4848        46.7789         1.9799         0.4701       -61.4699      -7.577682              1      0.6513948
      2789.5000         0.4977        16.5745       2076.949         0.0315       137.9651         71.304       82.61726         0.4767         0.5024        46.2094         1.9579          0.487       -60.8391      -6.946884              1      0.6908197
      2790.0000         0.5041        16.4938       2000.803         0.0222       137.4124        68.2455        78.5403         0.5059         0.5196        48.1057         1.9481          0.518       -60.4618      -6.569584      0.9689425       0.714401
      2790.5000         0.5181        16.9379       1927.652         0.0174       136.5027        65.0995        74.3466         0.5279          0.529        50.7005         1.9561         0.5374       -60.6846      -6.792385       0.879715      0.7004759
      2791.0000         0.5261        18.0036        1886.99         0.0144       133.6816        63.1432       71.74018         0.5343         0.5325        53.0454         1.9671         0.5431       -61.1554      -7.263184      0.8242592       0.671051
      2791.5000         0.5329        19.3586        1857.59         0.0123       129.0137        62.6988       71.15092         0.5361         0.5323        53.4808         1.9732          0.542         -61.84      -7.947784      0.8117218      0.6282635
      2792.0000         0.5396        18.9947       1841.289         0.0115       127.0292        61.8445       70.01479         0.5361         0.5326        52.8898         1.9458         0.5403       -62.5233      -8.631084      0.7875488      0.5855572
      2792.5000          0.546        18.2596       1838.094         0.0114       129.1418        59.0001       66.22347         0.5351         0.5354        51.7046         1.9177         0.5392        -63.238      -9.345783      0.7068824      0.5408885
      2793.0000          0.552        18.3806       1866.758         0.0044       130.6958        57.0029        63.5625         0.5327         0.5403        50.6545         1.8999         0.5373       -63.8497      -9.957485      0.6502659      0.5026572
      2793.5000          0.558        18.8173        1911.58        -0.0056       130.4199        56.6656       63.11614         0.5305         0.5554        49.9913         1.9037         0.5401       -64.5273      -10.63508       0.640769      0.4603074
      2794.0000         0.5645        18.9179       2006.053        -0.0088       127.7772        56.8009       63.30032         0.5117         0.5663        49.4254         1.9538         0.5547       -65.2419      -11.34968      0.6446877      0.4156449
      2794.5000         0.5714        18.2869       2113.625        -0.0043        122.505        55.4223       61.46468         0.4767         0.5374        48.2319         1.9562         0.5905       -65.8984      -12.00618      0.6056316      0.3746135
      2795.0000         0.5743         17.858        2238.48         0.0095       122.7614        48.9638       52.85147         0.4391         0.5053        42.0635         1.9088         0.6784       -66.3419      -12.44969      0.4223717      0.3468945
      2795.5000         0.5677        17.8612       2422.969         0.0339       130.6641        42.3063       43.97277         0.4146         0.4494        39.6777         1.8508         0.6766       -66.5865      -12.69429      0.2334632      0.3316071
      2796.0000         0.5584        19.3357       2518.355         0.0382       139.2334        39.1039       39.70383         0.4007         0.4266        41.6149         1.7006         0.5695       -66.8972      -13.00499      0.1426346      0.3121884
      2796.5000         0.5344        21.7468       2609.633         0.0315       140.3618        41.3215       42.66617          0.395         0.4228        45.8005         1.6908          0.459       -67.2433      -13.35109      0.2056632      0.2905571
      2797.0000         0.5137        22.4939       2707.301         0.0186       137.6953        42.7631       44.59321         0.3842         0.4305        48.0322         1.7223         0.4352       -67.9069      -14.01468       0.246664      0.2490823
      2797.5000         0.4979        22.2047       2838.125         0.0147       131.4819        42.9719       44.87545         0.3709          0.438        48.3143         1.7603         0.4572        -68.261      -14.36879      0.2526692      0.2269509
