#------------------------------------------------------------------------------
# Created by    : vladimir.rabinovich
# Created on    : 09/19/2023 17:22:53
#------------------------------------------------------------------------------
~Version Information Section
VERS.           2.0     :   CWLS log ASCII Standard - VERSION 2.0
WRAP.           NO      :   One line per depth step
~Well Information Section
#MNEM       .UNIT                                         VALUE :DESCRIPTION
#------------------------------------------------------------------------------
STRT        .FT                                             411 :START DEPTH
STOP        .FT                                           10036 :STOP DEPTH
STEP        .FT                                             0.5 :STEP      
NULL        .                                           -999.25 :NULL      
COMP        .                          HUMBLE OIL & REFINING CO :COMPANY   
WELL        .                                     ST TR 00278-L :WELL      
FLD         .                                           WILDCAT :FIELD     
LOC         .                                                   :LOCATION  
CNTY        .                             GALVESTON LARGE BLOCK :LOCATION  
STAT        .                                             TEXAS :STATE     
CTRY        .                                     UNITED STATES :COUNTRY   
SRVC        .                                                   :SERVICE COMPANY
DATE        .                             9/13/2023 11:19:42 AM :LOG DATE  
API         .                                    42706000220000 :API NUMBER
UWI         .                                    42706000220000 :UNIQUE WELL ID
XCOORD      .                                  941560.719964966 :SURFACE X 
YCOORD      .                                  10497824.1170516 :SURFACE Y 
LAT         .                                        28.9094621 :LATITUDE  
LON         .                                       -95.1847519 :LONGITUDE 
ELEV        .FT                                              10 :ELEVATION VALUE
ELEV_TYPE   .                                                KB :ELEVATION REFERENCE TYPE
~Curve Information Section
#MNEM       .UNIT                                      API CODE :CURVE DESCRIPTION
#------------------------------------------------------------------------------
DEPT        .FT                                                 :DEPTH     
LAT         .OHMM                                               :          
LN          .OHMM                                               :          
SN          .OHMM                                               :          
SP          .MV                                                 :          
SP_NORM     .MV                                                 :SP Normalized
VSH_SP      .V/V                                                :Volume of Shale from SP
~A        DEPTH            LAT             LN             SN             SP        SP_NORM         VSH_SP
# ...
      4249.0000         0.4688         0.3548         1.1853       162.6616      -68.30263     0.06524128
      4249.5000         0.4516         0.3595         1.1828       163.3596      -68.99634     0.05560642
      4250.0000         0.4344         0.3625         1.1804       164.0571      -69.68954     0.04597855
      4250.5000         0.4173         0.3655         1.1779       164.7551      -70.38326     0.03634368
      4251.0000         0.4001         0.3686         1.1755       165.4526      -71.07648      0.0267156
      4251.5000         0.3829         0.3716         1.1435       165.6213      -71.24089     0.02443208
      4252.0000         0.3657         0.3746         1.1049       162.8994      -68.51469     0.06229602
      4252.5000         0.3485         0.3776         1.0663       160.1797       -65.7907      0.1001291
      4253.0000         0.3313         0.3807         1.0278       157.5598      -63.16651      0.1365762
      4253.5000         0.3141         0.3751         0.9892       156.5005      -62.10293      0.1513482
      4254.0000         0.3089         0.3691         0.9506       155.4419      -61.04003      0.1661107
      4254.5000         0.3071         0.3631          0.926       154.3831      -59.97695      0.1808757
      4255.0000         0.3053         0.3571           0.95       153.3245      -58.91405      0.1956382
      4255.5000         0.3035         0.3512          0.974       152.2659      -57.85117      0.2104005
      4256.0000         0.3017         0.3452          0.998       151.9907      -57.57169      0.2142821
      4256.5000         0.2999         0.3392          1.022       151.7344       -57.3111      0.2179014
      4257.0000         0.2981         0.3332         1.0298        151.364       -56.9364      0.2231055
      4257.5000         0.2963         0.3314         1.0183         150.02      -55.58812      0.2418317
      4258.0000         0.2945         0.3301         1.0067        148.676      -54.23981      0.2605581
      4258.5000         0.2927         0.3288         0.9952       147.3445      -52.90403      0.2791107
      4259.0000         0.2917         0.3275         0.9832       146.0164      -51.57165       0.297616
      4259.5000         0.3206         0.3275         0.9699       144.6882      -50.23916      0.3161228
      4260.0000         0.3496         0.3413         0.9565       142.5957      -48.14237      0.3452448
      4260.5000         0.3786         0.3552         0.9432       121.9432      -27.48558      0.6321447
      4261.0000         0.4075          0.369         0.9299       118.0986       -23.6367      0.6856015
      4261.5000         0.4365         0.3866         0.9166       119.2825       -24.8163      0.6692181
      4262.0000         0.4655         0.4087         0.9359       121.0624      -26.59191      0.6445568
      4262.5000         0.4945         0.4309         0.9967       124.2395      -29.76472      0.6004899
      4263.0000         0.5234         0.4531         1.0574       133.4424      -38.96333      0.4727315
      4263.5000         0.5423         0.4597         1.1219       138.3066      -43.82324      0.4052328
      4264.0000         0.5557         0.4202         1.2762       140.8281      -46.34045      0.3702715
      4264.5000          0.569         0.3807         1.4303       142.2527      -47.76077      0.3505449
      4265.0000         0.5824         0.3393         1.4295       144.0405      -49.54427       0.325774
      4265.5000         0.5957         0.2977         1.3435       145.9687      -51.46819      0.2990529
      4266.0000         0.6091         0.2561          1.254       145.9697       -51.4649      0.2990986
      4266.5000         0.5803         0.2145           1.13       142.7065      -48.19741      0.3444804
      4267.0000         0.5349         0.2347         1.0059       131.7939      -37.28053      0.4961038
      4267.5000         0.4894         0.2659         0.8818       115.0908      -20.57313       0.728151
      4268.0000         0.5193         0.2979         0.7577       108.5847      -14.06274       0.818573
      4268.5000         0.5981         0.3306         0.7596       104.5244      -9.998154      0.8750256
      4269.0000         0.6929         0.3632         0.7722       100.6499       -6.11937      0.9288976
      4269.5000         0.8173         0.3958         0.8291        96.9609      -2.426079      0.9801934
      4270.0000         0.9417         0.4374         0.9124        93.9401      0.5990067              1
      4270.5000         1.0661         0.5176         0.9958        92.1239       2.419495              1
      4271.0000         1.1904         0.5977         1.0791        90.5728       3.974892              1
      4271.5000         1.1453         0.6779         1.1624        89.5905       4.961479              1
      4272.0000         1.0798         0.9497         1.1661         88.713       5.843269              1
      4272.5000         1.0142         1.1007          1.164        88.1615       6.399055              1
      4273.0000         0.9488         1.1572         1.1618        87.6101       6.954742              1
      4273.5000         0.8833         1.1551         1.1491        88.3693       6.199829              1
      4274.0000         0.8032         1.1244         1.1347        93.5687       1.004723              1
      4274.5000         0.7198         1.0937         1.1203        96.8749      -2.297188      0.9819835
      4275.0000         0.6363          1.063         1.1059       100.1052      -5.523201      0.9371778
      4275.5000         0.5529         1.0648         1.0915        101.455      -6.868713      0.9184901
      4276.0000         0.4695         1.0668         1.0771       102.8022      -8.211624      0.8998386
      4276.5000         0.3861         1.0688         1.0627       104.1248      -9.529938      0.8815286
      4277.0000         0.3405         1.0708         1.0483       103.0662      -8.467041      0.8962911
      4277.5000         0.3284         1.0727         1.0339          99.35      -4.746552      0.9479645
      4278.0000         0.3163         1.0747         1.0336        95.6362      -1.028465      0.9996046
      4278.5000         0.3042         1.0767         1.0423          93.34       1.272026              1
      4279.0000         0.2921         1.0788          1.051        91.0868        3.52951              1
      4279.5000           0.28         1.0812         1.0597        88.8313       5.789299              1
      4280.0000         0.2902         1.0837         1.0684        88.1151       6.509789              1
      4280.5000         0.3077         1.0862          1.077        88.3441        6.28508              1
      4281.0000         0.3252         1.0887         1.0857        88.8542       5.779266              1
      4281.5000         0.3427         1.0912         1.0944        89.3646       5.273155              1
      4282.0000         0.3602         1.0937         1.1031        89.8746       4.767441              1
      4282.5000         0.3777         1.0494         1.1118        90.3743       4.272034              1
      4283.0000         0.3953         1.0048         1.1205        90.8668       3.783821              1
      4283.5000         0.4128         0.9601         1.1291        91.3596       3.295319              1
      4284.0000         0.4291         0.9155         1.1341        91.8522       2.806999              1
      4284.5000          0.439         0.8767         1.1388         92.345       2.318489              1
      4285.0000          0.449         0.8403         1.1434        90.9825        3.68528              1
      4285.5000         0.4589         0.8038         1.1481        89.3102       5.361862              1
      4286.0000         0.4688         0.7674         1.1528        87.3877       7.288651              1
      4286.5000         0.4788          0.731         1.1574        87.5892       7.091446              1
