#------------------------------------------------------------------------------
# Created by    : vladimir.rabinovich
# Created on    : 09/19/2023 17:19:45
#------------------------------------------------------------------------------
~Version Information Section
VERS.           2.0     :   CWLS log ASCII Standard - VERSION 2.0
WRAP.           NO      :   One line per depth step
~Well Information Section
#MNEM       .UNIT                                         VALUE :DESCRIPTION
#------------------------------------------------------------------------------
STRT        .FT                                            3127 :START DEPTH
STOP        .FT                                           13892 :STOP DEPTH
STEP        .FT                                             0.5 :STEP      
NULL        .                                           -999.25 :NULL      
COMP        .                                       MONSANTO CO :COMPANY   
WELL        .                                     ST TR 00010-L :WELL      
FLD         .                                           WILDCAT :FIELD     
LOC         .                                                   :LOCATION  
CNTY        .                           HIGH ISLAND LARGE BLOCK :LOCATION  
STAT        .                                             TEXAS :STATE     
CTRY        .                                     UNITED STATES :COUNTRY   
SRVC        .                                                   :SERVICE COMPANY
DATE        .                             9/13/2023 11:19:15 AM :LOG DATE  
API         .                                    42708300750000 :API NUMBER
UWI         .                                    42708300750000 :UNIQUE WELL ID
XCOORD      .                                  1327265.43976741 :SURFACE X 
YCOORD      .                                  10725214.5969587 :SURFACE Y 
LAT         .                                        29.5491158 :LATITUDE  
LON         .                                       -93.9851741 :LONGITUDE 
ELEV        .FT                                              54 :ELEVATION VALUE
ELEV_TYPE   .                                                KB :ELEVATION REFERENCE TYPE
~Curve Information Section
#MNEM       .UNIT                                      API CODE :CURVE DESCRIPTION
#------------------------------------------------------------------------------
DEPT        .FT                                                 :DEPTH     
ASFL        .OHMM                                               :          
CILD        .MMHO                                               :          
ILD         .OHMM                                               :          
SP          .MV                                                 :          
SP_NORM     .MV                                                 :SP Normalized
VSH_SP      .V/V                                                :Volume of Shale from SP
~A        DEPTH           ASFL           CILD            ILD             SP        SP_NORM         VSH_SP
# ...
     10271.0000         0.6962       2028.834        -999.25       -63.2215      -5.960945      0.9159162
     10271.5000         0.6841       2016.508        -999.25       -62.5154      -5.257748      0.9278348
     10272.0000         0.6718       2044.764        -999.25       -62.3087      -5.053951       0.931289
     10272.5000           0.66       2085.223        -999.25       -62.3989      -5.147053       0.929711
     10273.0000         0.6503       2127.223        -999.25       -62.4892      -5.240261      0.9281312
     10273.5000         0.6508       2172.402        -999.25       -62.5356      -5.289562      0.9272956
     10274.0000         0.6527       2212.316        -999.25       -62.5789      -5.335766      0.9265124
     10274.5000         0.6545       2246.266        -999.25       -62.3062      -5.065971      0.9310852
     10275.0000         0.6546       2273.305        -999.25       -61.3503      -4.112976      0.9472377
     10275.5000         0.6546       2295.871        -999.25       -60.5852       -3.35078      0.9601563
     10276.0000         0.6564       2289.758        -999.25       -60.3013      -3.069786      0.9649189
     10276.5000         0.6587       2247.109        -999.25       -60.3466      -3.117989      0.9641019
     10277.0000         0.6614       2178.418        -999.25       -61.2028      -3.977093      0.9495408
     10277.5000         0.6707       2191.938        -999.25       -61.9489      -4.726093      0.9368459
     10278.0000         0.6801       2220.965        -999.25       -61.5607      -4.340801      0.9433762
     10278.5000         0.6914       2250.043        -999.25       -60.8878      -3.670803      0.9547322
     10279.0000         0.7025       2280.363        -999.25       -61.3553      -4.141209      0.9467592
     10279.5000         0.7081       2208.242        -999.25       -62.2632      -5.052013      0.9313218
     10280.0000         0.7127        2168.18        -999.25       -63.4103      -6.202019      0.9118302
     10280.5000         0.7143       2109.828        -999.25       -63.1366      -5.931221        0.91642
     10281.0000         0.7097       2034.699        -999.25       -62.9908      -5.788322       0.918842
     10281.5000         0.7037       2017.576        -999.25       -63.2424      -6.042831      0.9145283
     10282.0000         0.7012       2000.652        -999.25        -63.494      -6.297333      0.9102147
     10282.5000         0.7177       1983.803        -999.25       -63.7391      -6.545338      0.9060112
     10283.0000         0.7305       1963.646        -999.25        -63.975      -6.784142      0.9019637
     10283.5000         0.7415       1970.879        -999.25       -64.3766      -7.188648      0.8951077
     10284.0000         0.7531       1987.307        -999.25       -64.8563      -7.671249       0.886928
     10284.5000          0.765       2012.059        -999.25        -65.421      -8.238853      0.8773076
     10285.0000         0.7649       2036.762        -999.25       -66.2612      -9.081959      0.8630176
     10285.5000         0.7477       2036.377        -999.25       -67.4164      -10.24006      0.8433889
     10286.0000         0.7304       2027.418        -999.25       -66.9871      -9.813663      0.8506159
     10286.5000         0.7179       2018.459        -999.25       -65.6609      -8.490368      0.8730446
     10287.0000         0.7054       2004.479        -999.25       -63.4958      -6.328175      0.9096919
     10287.5000         0.6959        2033.83        -999.25       -62.8248      -5.660076      0.9210157
     10288.0000         0.6962       2062.906        -999.25       -63.0517      -5.889885      0.9171206
     10288.5000         0.6966       2089.051        -999.25       -63.3242      -6.165287      0.9124528
     10289.0000         0.6969       2115.195        -999.25       -63.6404       -6.48439      0.9070442
     10289.5000         0.6973       2032.785        -999.25       -62.9681      -5.814999      0.9183899
     10290.0000          0.702       1966.082        -999.25       -62.4507      -5.300499      0.9271102
     10290.5000         0.7066       1936.781        -999.25       -62.9595      -5.812202      0.9184372
     10291.0000         0.7112        1919.51        -999.25       -63.8593      -6.714905      0.9031372
     10291.5000         0.7146       1906.734        -999.25       -63.6336      -6.492111      0.9069133
     10292.0000         0.7164       1894.309        -999.25       -63.2455      -6.106915      0.9134421
     10292.5000         0.7183       1882.803        -999.25       -62.6322      -5.496517      0.9237878
     10293.0000          0.722       1872.115        -999.25       -64.2363      -7.103523      0.8965505
     10293.5000          0.726       1861.404        -999.25       -64.5033      -7.373432      0.8919757
     10294.0000           0.73        1855.57        -999.25       -64.3855       -7.25853      0.8939232
     10294.5000         0.7335       1851.619        -999.25       -64.1472       -7.02314      0.8979129
     10295.0000         0.7369       1846.922        -999.25       -63.8231      -6.701942      0.9033569
     10295.5000         0.7404       1841.971        -999.25       -63.5748      -6.456543      0.9075162
     10296.0000         0.7443       1837.025        -999.25       -63.6893      -6.573948      0.9055263
     10296.5000         0.7483       1829.531        -999.25       -63.8029      -6.690453      0.9035516
     10297.0000         0.7518       1820.324        -999.25       -63.9078      -6.798256      0.9017245
     10297.5000         0.7536       1809.637        -999.25       -64.0177       -6.91106      0.8998125
     10298.0000         0.7551       1793.086        -999.25       -64.1573       -7.05357      0.8973971
     10298.5000          0.751       1777.105        -999.25        -64.297      -7.196167      0.8949802
     10299.0000         0.7468       1761.498        -999.25        -64.627      -7.529072      0.8893378
     10299.5000         0.7426       1760.854        -999.25       -64.9929      -7.897873      0.8830869
     10300.0000         0.7394       1800.574        -999.25        -65.163      -8.070885      0.8801545
     10300.5000         0.7298       1847.229        -999.25       -65.4807      -8.391483      0.8747206
     10301.0000         0.7234       1873.719        -999.25       -65.8158      -8.729492      0.8689917
     10301.5000         0.7199       1895.303        -999.25       -65.4734      -8.389992      0.8747459
     10302.0000         0.7164       1904.328        -999.25       -65.0861      -8.005596      0.8812611
     10302.5000         0.7076       1913.352        -999.25       -64.6989        -7.6213      0.8877746
     10303.0000         0.6978       1922.377        -999.25       -63.8316      -6.756908      0.9024253
     10303.5000         0.6907       1932.148        -999.25       -62.6084       -5.53661      0.9231083
     10304.0000         0.6979       1944.521        -999.25        -63.689      -6.620113      0.9047439
     10304.5000         0.7051       1946.414        -999.25       -64.8347      -7.768719       0.885276
     10305.0000         0.7129       1923.211        -999.25       -65.6265      -8.563427      0.8718063
     10305.5000          0.721       1899.959        -999.25       -66.1046      -9.044426      0.8636538
     10306.0000         0.7291       1868.939        -999.25       -66.3099      -9.252628      0.8601249
     10306.5000         0.7373       1831.346        -999.25       -66.6615      -9.607136      0.8541163
     10307.0000         0.7454       1828.533        -999.25        -67.495      -10.44354        0.83994
     10307.5000         0.7396        1836.35        -999.25        -68.422      -11.37344       0.824179
     10308.0000         0.7332       1844.168        -999.25       -69.5234      -12.47775      0.8054619
     10308.5000         0.7268       1851.984        -999.25       -69.0931      -12.05035      0.8127059
