#------------------------------------------------------------------------------
# Created by    : vladimir.rabinovich
# Created on    : 09/19/2023 17:21:45
#------------------------------------------------------------------------------
~Version Information Section
VERS.           2.0     :   CWLS log ASCII Standard - VERSION 2.0
WRAP.           NO      :   One line per depth step
~Well Information Section
#MNEM       .UNIT                                         VALUE :DESCRIPTION
#------------------------------------------------------------------------------
STRT        .FT                                            4296 :START DEPTH
STOP        .FT                                         10848.5 :STOP DEPTH
STEP        .FT                                             0.5 :STEP      
NULL        .                                           -999.25 :NULL      
COMP        .                                 CHEVRON U S A INC :COMPANY   
WELL        .                               OCS G07271 ST00BP00 :WELL      
FLD         .                                           WILDCAT :FIELD     
LOC         .                                                   :LOCATION  
CNTY        .                           HIGH ISLAND LARGE BLOCK :LOCATION  
STAT        .                                             TEXAS :STATE     
CTRY        .                                     UNITED STATES :COUNTRY   
SRVC        .                                                   :SERVICE COMPANY
DATE        .                             9/13/2023 11:19:59 AM :LOG DATE  
API         .                                    42708403180000 :API NUMBER
UWI         .                                    42708403180000 :UNIQUE WELL ID
XCOORD      .                                  1325118.04890174 :SURFACE X 
YCOORD      .                                  10672078.9744079 :SURFACE Y 
LAT         .                                          29.40291 :LATITUDE  
LON         .                                        -93.990507 :LONGITUDE 
ELEV        .FT                                              89 :ELEVATION VALUE
ELEV_TYPE   .                                                KB :ELEVATION REFERENCE TYPE
~Curve Information Section
#MNEM       .UNIT                                      API CODE :CURVE DESCRIPTION
#------------------------------------------------------------------------------
DEPT        .FT                                                 :DEPTH     
CALI        .IN                                                 :          
DRHO        .G/C3                                               :          
DTLN        .US/F                                               :          
GR          .GAPI                                               :          
GR_1        .GAPI                                               :          
GR_NORM     .GAPI                                               :GammaRay Normalized
ILD         .OHMM                                               :          
ILM         .OHMM                                               :          
NPHI        .%                                                  :          
RHOB        .G/C3                                               :          
SFL         .OHMM                                               :          
SP          .MV                                                 :          
SP_NORM     .MV                                                 :SP Normalized
VSH_GR      .V/V                                                :Volume of Shale from GR
VSH_SP      .V/V                                                :Volume of Shale from SP
~A        DEPTH           CALI           DRHO           DTLN             GR           GR_1        GR_NORM            ILD            ILM           NPHI           RHOB            SFL             SP        SP_NORM         VSH_GR         VSH_SP
# ...
      6642.0000        15.2992        -0.0024       122.2997        49.7116        56.5073       72.46252         0.5728          0.574         44.723         2.2966         0.6335       -35.5981      0.4381218      0.8396282              1
      6642.5000        15.2318         -0.004       122.6827        48.7155        56.1257       71.98885          0.563         0.5681        45.2136         2.2835         0.6175       -35.1563      0.9191322      0.8295499              1
      6643.0000        15.1609        -0.0043       122.5067         48.877        57.7318       73.96912         0.5504         0.5627        45.3126         2.2652         0.6008       -34.6323       1.482342      0.8716833              1
      6643.5000        15.1419        -0.0044       122.6367        49.0434        60.6788       77.60481         0.5398         0.5575        45.6984         2.2449         0.5846       -34.0698       2.084053      0.9490386              1
      6644.0000        15.1443        -0.0023        122.582        48.5863        62.9265       80.37717         0.5306         0.5506        46.8407         2.2346         0.5722       -33.5151       2.677967              1              1
      6644.5000        15.2084        -0.0002       122.1747         47.933        63.8786       81.55003         0.5262         0.5458        47.2528         2.2275         0.5678       -33.0942       3.138077              1              1
      6645.0000        15.1996         0.0022        121.198        47.0908        64.1749       81.91326         0.5246         0.5424         47.418         2.2254         0.5693       -32.8818       3.389687              1              1
      6645.5000        15.1672         0.0048       119.8835        46.4922        64.0117       81.70922         0.5289         0.5433        47.4727         2.2341         0.5737       -32.9053       3.405399              1              1
      6646.0000        15.1194         0.0073       118.6525        45.7941        63.4915       81.06444         0.5338         0.5457        47.3106         2.2493         0.5822       -33.1758       3.174107              1              1
      6646.5000        15.1986         0.0075       117.8057        44.8116        63.2604       80.77655          0.539         0.5496        46.7377         2.2665         0.5997       -33.5962       2.792919              1              1
      6647.0000        15.2894         0.0035       117.4047        44.0416        63.0498       80.51398         0.5424         0.5552        45.8882         2.2759         0.6157       -33.9985       2.429829              1              1
      6647.5000        15.3892        -0.0062       117.2854        43.8207        61.1328       78.14473         0.5452         0.5611        43.9891         2.2798         0.6274       -34.3296       2.137939      0.9605262              1
      6648.0000        15.3438         -0.013       117.4183        44.2701        57.8226        74.0555         0.5481         0.5673        42.6593         2.2833         0.6323       -34.5962       1.910553      0.8735214              1
      6648.5000        15.3099        -0.0116       118.2024        44.7358        57.4033       73.53527         0.5515         0.5716         42.938         2.2858         0.6331       -34.8921       1.653862      0.8624526              1
      6649.0000        15.3053        -0.0074        120.024         45.124        57.7882       74.00789          0.556         0.5736        44.1685         2.2878         0.6281       -35.2534       1.331776      0.8725083              1
      6649.5000        15.3451        -0.0023       122.1431        45.6171        58.2446       74.56878         0.5607         0.5731        45.2922         2.2713         0.6209        -35.626      0.9983864      0.8844421              1
      6650.0000         15.392        -0.0019       122.0472        46.4189        58.7992       75.25089         0.5628         0.5719        46.1854         2.2406         0.6091       -35.7622      0.9013977       0.898955              1
      6650.5000        15.1623        -0.0025       120.7018        48.4075        60.0433       76.78426         0.5642         0.5705        45.5383         2.2195         0.6036        -35.917      0.7858086      0.9315799              1
      6651.0000        15.0444        -0.0039        119.176        48.5229        61.4886         78.566         0.5633         0.5698        44.2664         2.2125         0.6111       -36.0332      0.7088203      0.9694894              1
      6651.5000        15.0297        -0.0049       118.6025        46.0028        62.0748       79.28714         0.5615         0.5699        43.0433         2.2128         0.6225       -36.0889      0.6923294      0.9848328              1
      6652.0000        15.0943        -0.0058       118.7579         43.392        60.8395       77.75951         0.5601         0.5715        41.8099         2.2178         0.6274       -36.0669      0.7535439      0.9523299              1
      6652.5000        15.1565         -0.006       118.9246        42.8032        60.3561       77.16014         0.5613         0.5742        42.7646         2.2261         0.6224       -35.8989      0.9607506      0.9395775              1
      6653.0000         15.197        -0.0059       118.9304        44.6961        61.7192       78.84042         0.5646         0.5783        45.0654         2.2329         0.6102       -35.6284       1.270462       0.975328              1
      6653.5000        15.1603        -0.0058       118.7238        46.1108        61.5721       78.65623         0.5695         0.5817        46.9556           2.24         0.5966       -35.1787       1.759373      0.9714093              1
      6654.0000        15.1654        -0.0057       118.5701        46.3425        61.4251       78.47218         0.5737         0.5851        47.8291         2.2538         0.5949       -34.6523       2.324982      0.9674932              1
      6654.5000        15.1908        -0.0058       119.0604        45.5022        60.8948       77.81493         0.5739         0.5885        47.9911         2.2717         0.6111       -34.2881       2.728394      0.9535091              1
      6655.0000        15.2425        -0.0061       120.5265        44.3446        59.6362       76.25853         0.5716         0.5849         47.896          2.279         0.6296       -34.0698       2.985905      0.9203942              1
      6655.5000        15.2892        -0.0065       121.9888        43.7652        60.0408       76.75546         0.5679         0.5801        47.5701         2.2789         0.6389       -33.8984       3.196518      0.9309673              1
      6656.0000        15.3315        -0.0068       122.0995          44.48        61.5278       78.58871         0.5644         0.5749        47.1713         2.2689         0.6332       -33.7798       3.354328      0.9699725              1
      6656.5000        15.3283        -0.0071       121.4161        45.8413        62.5634       79.86464         0.5605         0.5688        46.8746         2.2581         0.6221        -33.728       3.445339        0.99712              1
      6657.0000        15.3078        -0.0072       120.8606        47.4833        61.7033       78.80022         0.5565         0.5639        46.7397         2.2467         0.6098        -33.748        3.46455      0.9744727              1
      6657.5000        15.3217        -0.0067       121.0469        49.1017        60.9009       77.80704         0.5541           0.56        46.7761         2.2411         0.6007       -33.7158       3.535961      0.9533412              1
      6658.0000        15.3163        -0.0063       121.5001        48.7925        61.6579       78.73903         0.5523         0.5545        47.0119         2.2374          0.597        -33.646       3.644974      0.9731708              1
      6658.5000        15.2698        -0.0056       121.6262        46.8648         62.975        80.3625         0.5516         0.5488         47.249         2.2351         0.5984       -33.5596       3.770584              1              1
