#------------------------------------------------------------------------------
# Created by    : vladimir.rabinovich
# Created on    : 09/19/2023 17:20:35
#------------------------------------------------------------------------------
~Version Information Section
VERS.           2.0     :   CWLS log ASCII Standard - VERSION 2.0
WRAP.           NO      :   One line per depth step
~Well Information Section
#MNEM       .UNIT                                         VALUE :DESCRIPTION
#------------------------------------------------------------------------------
STRT        .FT                                             504 :START DEPTH
STOP        .FT                                            9361 :STOP DEPTH
STEP        .FT                                             0.5 :STEP      
NULL        .                                           -999.25 :NULL      
COMP        .                                      SHELL OIL CO :COMPANY   
WELL        .                                OCS 00704 ST00BP00 :WELL      
FLD         .                                           WILDCAT :FIELD     
LOC         .                                                   :LOCATION  
CNTY        .                             GALVESTON LARGE BLOCK :LOCATION  
STAT        .                                             TEXAS :STATE     
CTRY        .                                     UNITED STATES :COUNTRY   
SRVC        .                                                   :SERVICE COMPANY
DATE        .                             9/13/2023 11:19:25 AM :LOG DATE  
API         .                                    42706000430000 :API NUMBER
UWI         .                                    42706000430000 :UNIQUE WELL ID
XCOORD      .                                  1136254.96267488 :SURFACE X 
YCOORD      .                                  10526383.5552877 :SURFACE Y 
LAT         .                                         28.996505 :LATITUDE  
LON         .                                        -94.577519 :LONGITUDE 
ELEV        .FT                                              42 :ELEVATION VALUE
ELEV_TYPE   .                                                KB :ELEVATION REFERENCE TYPE
~Curve Information Section
#MNEM       .UNIT                                      API CODE :CURVE DESCRIPTION
#------------------------------------------------------------------------------
DEPT        .FT                                                 :DEPTH     
ASN         .OHMM                                               :          
DT          .US/F                                               :          
LN          .OHMM                                               :          
SP          .MV                                                 :          
SP_NORM     .MV                                                 :SP Normalized
VSH_SP      .V/V                                                :Volume of Shale from SP
~A        DEPTH            ASN             DT             LN             SP        SP_NORM         VSH_SP
# ...
      5786.0000         0.7723       127.6883        -999.25       -55.7791      -5.242104      0.8537205
      5786.5000         0.7632        127.852        -999.25       -55.6025      -5.068684      0.8597006
      5787.0000         0.7542       133.5192        -999.25       -55.6513      -5.120655      0.8579084
      5787.5000         0.7472       129.3028        -999.25       -56.0175      -5.490032      0.8451713
      5788.0000         0.7419       129.3014        -999.25       -56.8858      -6.361507      0.8151205
      5788.5000         0.7366       128.9446        -999.25       -57.7542      -7.233082      0.7850661
      5789.0000         0.7325       118.9003        -999.25        -66.814      -16.29606      0.4725497
      5789.5000          0.735       112.2193        -999.25       -68.1501      -17.63533      0.4263678
      5790.0000         0.7375       112.7993        -999.25       -66.3033      -15.79171      0.4899412
      5790.5000           0.74       115.9602        -999.25       -62.7582      -12.24978      0.6120765
      5791.0000         0.7414       117.7283        -999.25       -59.5773       -9.07206      0.7216531
      5791.5000         0.7409       121.4001        -999.25        -57.906      -7.403931      0.7791748
      5792.0000         0.7403       129.6015        -999.25       -56.8364      -6.337505      0.8159481
      5792.5000         0.7398       134.6679        -999.25       -55.5192      -5.023479      0.8612593
      5793.0000         0.7405       133.6751        -999.25       -53.7984      -3.305859      0.9204876
      5793.5000         0.7416       128.4153        -999.25       -52.7861       -2.29673      0.9552852
      5794.0000         0.7427       128.7481        -999.25       -52.1337      -1.647507      0.9776722
      5794.5000         0.7448       130.3024        -999.25        -51.814      -1.330982      0.9885868
      5795.0000         0.7485       129.5068        -999.25       -51.5258      -1.045956      0.9984154
      5795.5000         0.7523       127.8288        -999.25       -51.3922     -0.9155312              1
      5796.0000          0.756       129.5717        -999.25       -51.3919     -0.9184074              1
      5796.5000         0.7598       129.7886        -999.25       -51.3915     -0.9211807              1
      5797.0000         0.7636       129.8773        -999.25       -51.3912      -0.924057              1
      5797.5000          0.768       135.1639        -999.25       -51.3908     -0.9268341              1
      5798.0000         0.7735       133.4163        -999.25        -51.434     -0.9732056              1
      5798.5000          0.779       129.6412        -999.25       -51.5573      -1.099682      0.9965627
      5799.0000         0.7845       124.8989        -999.25       -51.6806      -1.226158      0.9922014
      5799.5000         0.7852       120.1566        -999.25       -51.8039      -1.352634      0.9878402
      5800.0000          0.782       117.6392        -999.25       -51.9272      -1.479107      0.9834791
      5800.5000         0.7787       117.2056        -999.25       -57.2198      -6.774883      0.8008661
      5801.0000         0.7668        118.149        -999.25       -59.5234      -9.081657      0.7213222
      5801.5000         0.7543       121.8541        -999.25        -62.558      -12.11943      0.6165714
      5802.0000         0.7418       120.6173        -999.25       -64.3282      -13.89281      0.5554203
      5802.5000         0.7279       118.2826        -999.25       -64.6978      -14.26558      0.5425661
      5803.0000         0.7086        118.362        -999.25       -64.9683      -14.53926      0.5331291
      5803.5000         0.6899        118.044        -999.25       -65.2388      -14.81293      0.5236919
      5804.0000         0.6874       117.0014        -999.25       -66.6948      -16.27211      0.4733755
      5804.5000         0.6849       115.9597        -999.25       -69.4222      -19.00269      0.3792177
      5805.0000         0.6824       115.5226        -999.25       -70.6056      -20.18926      0.3383014
      5805.5000         0.6799       115.4487        -999.25       -69.2643      -18.85113      0.3844437
      5806.0000         0.6782       120.8979        -999.25       -68.9204      -18.51041      0.3961928
      5806.5000         0.6774        121.696        -999.25       -68.7991      -18.39229      0.4002659
      5807.0000         0.6766       121.5493        -999.25       -68.7548      -18.35116      0.4016842
      5807.5000         0.6758       120.3491        -999.25       -68.7391      -18.33863      0.4021162
      5808.0000          0.675       116.9651        -999.25       -68.7598      -18.36251      0.4012926
      5808.5000         0.6752       115.2229        -999.25       -68.8497      -18.45559      0.3980833
      5809.0000         0.6823       117.2568        -999.25       -68.8076      -18.41666      0.3994255
      5809.5000         0.6893       116.2303        -999.25       -68.5248      -18.13704      0.4090676
      5810.0000         0.6964       115.9459        -999.25       -67.8488      -17.46421      0.4322686
      5810.5000         0.7068       115.4108        -999.25       -66.8759      -16.49448      0.4657075
      5811.0000         0.7201       109.0693        -999.25       -66.0756      -15.69736      0.4931945
      5811.5000         0.7334       103.9507        -999.25       -65.4957      -15.12063      0.5130817
      5812.0000         0.7455       104.1674        -999.25       -65.1685      -14.79661      0.5242547
      5812.5000         0.7461       105.0371        -999.25       -64.8809      -14.51218      0.5340626
      5813.0000         0.7389       109.9835        -999.25       -64.6471      -14.28156      0.5420151
      5813.5000         0.7318       116.9223        -999.25       -64.4135      -14.05113       0.549961
      5814.0000         0.7246       116.2263        -999.25       -64.1545      -13.79531      0.5587822
      5814.5000         0.7174       115.6437        -999.25       -63.8821      -13.52608      0.5680661
      5815.0000         0.7102       116.0056        -999.25       -63.6093      -13.25646      0.5773635
      5815.5000          0.703       117.2775        -999.25       -63.5947      -13.24504      0.5777574
      5816.0000         0.6958       119.4205        -999.25       -63.8649      -13.51841      0.5683307
      5816.5000         0.6893       121.5635        -999.25       -64.5886      -14.24529      0.5432661
      5817.0000         0.6837       122.9638        -999.25       -65.3732      -15.03306      0.5161013
      5817.5000          0.678        123.049        -999.25       -65.3344      -14.99743      0.5173299
      5818.0000         0.6724       122.1025        -999.25       -64.6973      -14.36351      0.5391892
      5818.5000         0.6707       119.2669        -999.25       -63.8413      -13.51069       0.568597
      5819.0000         0.6695       119.1205        -999.25       -62.9865      -12.65906      0.5979634
      5819.5000         0.6744       119.0465        -999.25       -63.4628      -13.13853      0.5814298
      5820.0000         0.6852       117.9551        -999.25       -64.0482      -13.72712      0.5611339
      5820.5000         0.6943       115.4828        -999.25       -65.3136      -14.99569      0.5173901
      5821.0000          0.689       115.7721        -999.25       -65.4957      -15.18096      0.5110015
      5821.5000          0.683       117.8139        -999.25        -65.025      -14.71344      0.5271227
      5822.0000         0.6753       120.8954        -999.25       -64.5543      -14.24591      0.5432445
      5822.5000         0.6676       123.6173        -999.25       -64.0573      -13.75208       0.560273
      5823.0000         0.6598       122.2351        -999.25       -63.5112      -13.20916      0.5789943
      5823.5000         0.6698       121.7981        -999.25       -62.8965      -12.59764      0.6000815
