#------------------------------------------------------------------------------
# Created by    : vladimir.rabinovich
# Created on    : 09/19/2023 17:20:57
#------------------------------------------------------------------------------
~Version Information Section
VERS.           2.0     :   CWLS log ASCII Standard - VERSION 2.0
WRAP.           NO      :   One line per depth step
~Well Information Section
#MNEM       .UNIT                                         VALUE :DESCRIPTION
#------------------------------------------------------------------------------
STRT        .FT                                             598 :START DEPTH
STOP        .FT                                           10008 :STOP DEPTH
STEP        .FT                                             0.5 :STEP      
NULL        .                                           -999.25 :NULL      
COMP        .                                        SUN OIL CO :COMPANY   
WELL        .                               OCS G01712 ST00BP00 :WELL      
FLD         .                                           WILDCAT :FIELD     
LOC         .                                                   :LOCATION  
CNTY        .                                BRAZOS LARGE BLOCK :LOCATION  
STAT        .                                             TEXAS :STATE     
CTRY        .                                     UNITED STATES :COUNTRY   
SRVC        .                                                   :SERVICE COMPANY
DATE        .                             9/13/2023 11:18:52 AM :LOG DATE  
API         .                                    42704300120000 :API NUMBER
UWI         .                                    42704300120000 :UNIQUE WELL ID
XCOORD      .                                   818594.06951761 :SURFACE X 
YCOORD      .                                  10373365.4427938 :SURFACE Y 
LAT         .                                         28.560597 :LATITUDE  
LON         .                                        -95.560517 :LONGITUDE 
ELEV        .FT                                              89 :ELEVATION VALUE
ELEV_TYPE   .                                                KB :ELEVATION REFERENCE TYPE
~Curve Information Section
#MNEM       .UNIT                                      API CODE :CURVE DESCRIPTION
#------------------------------------------------------------------------------
DEPT        .FT                                                 :DEPTH     
ASN         .OHMM                                               :          
CALI        .IN                                                 :          
CILD        .MMHO                                               :          
ILD         .OHMM                                               :          
SP          .MV                                                 :          
SP_NORM     .MV                                                 :SP Normalized
VSH_SP      .V/V                                                :Volume of Shale from SP
~A        DEPTH            ASN           CALI           CILD            ILD             SP        SP_NORM         VSH_SP
# ...
      5589.5000         0.9127        12.7848       1200.756         0.7678        -48.951       -1.39402      0.9919588
      5590.0000         0.9138        12.7313       1197.406         0.7711       -48.8497      -1.296387      0.9939513
      5590.5000          0.915        12.7512       1194.055         0.7745       -48.7484      -1.198753      0.9959438
      5591.0000         0.9184        12.7933       1190.705         0.7779        -48.647      -1.101021      0.9979383
      5591.5000         0.9218        12.8301       1187.354         0.7812       -48.5457      -1.003387      0.9999309
      5592.0000         0.9252        12.8754       1184.004         0.7846       -48.4366      -0.897953              1
      5592.5000         0.9286        12.9235       1180.656         0.7879       -48.3033     -0.7683182              1
      5593.0000         0.9319        12.9414       1177.303         0.7913       -48.1701     -0.6387901              1
      5593.5000         0.9353          12.93        1174.66         0.7947       -48.0369     -0.5092545              1
      5594.0000         0.9387        12.8921       1172.775         0.7961       -47.9036     -0.3796196              1
      5594.5000         0.9435        12.8326       1170.891         0.7948       -47.7704     -0.2500916              1
      5595.0000         0.9489        12.7616       1169.006         0.7935        -47.637     -0.1203575              1
      5595.5000         0.9544        12.7196       1167.121         0.7921       -47.5366    -0.02362061              1
      5596.0000         0.9598        12.7113       1165.799         0.7908       -47.4714     0.03791046              1
      5596.5000         0.9652        12.6946       1169.875         0.7895       -47.4062     0.09944153              1
      5597.0000         0.9707        12.6367       1173.955         0.7882        -47.341      0.1609764              1
      5597.5000         0.9776        12.5792       1178.031         0.7869       -47.2758      0.2225113              1
      5598.0000         0.9877        12.5478       1182.105         0.7855       -47.3937      0.1009407              1
      5598.5000         0.9979         12.528       1186.182         0.7843       -47.5796    -0.08862686              1
      5599.0000          1.008        12.5141        1173.74         0.7838       -47.8588     -0.3714905              1
      5599.5000         1.0182        12.5023       1160.904         0.7832       -48.2041      -0.720459              1
      5600.0000         1.0388        12.4961       1148.328         0.7827       -48.5494      -1.069427      0.9985831
      5600.5000         1.0619        12.4899       1136.324         0.7821       -48.8944      -1.418095      0.9914675
      5601.0000         1.0822        12.4684       1124.309         0.7816       -49.5634      -2.090759      0.9777396
      5601.5000         1.0796        12.4294       1112.291          0.781       -50.3814       -2.91243      0.9609708
      5602.0000         1.0689        12.3867       1100.287         0.7805       -51.3583      -3.892994      0.9409593
      5602.5000         1.0582        12.3073       1087.078           0.78       -52.1615       -4.69986      0.9244927
      5603.0000         1.0475        12.2595       1073.135         0.7794        -52.713      -5.255028      0.9131627
      5603.5000         1.0368        12.2649        1073.26         0.7789       -53.2645      -5.810196      0.9018328
      5604.0000         1.0261        12.3164       1083.736          0.777       -53.7808      -6.330162      0.8912212
      5604.5000         1.0116        12.3219       1107.979         0.7739       -54.2662      -6.819229      0.8812402
      5605.0000         0.9961         12.326       1135.068         0.7707       -54.7509      -7.307598      0.8712735
      5605.5000         0.9807        12.2992       1162.184         0.7676       -55.2205      -7.780865       0.861615
      5606.0000         0.9652         12.274       1189.299         0.7645       -55.6502       -8.21423      0.8527708
      5606.5000         0.9501        12.2515       1212.461         0.7614       -56.0771      -8.644794      0.8439838
      5607.0000         0.9378        12.2114       1231.896         0.7583       -55.9225      -8.493866       0.847064
      5607.5000         0.9254        12.2263       1251.307         0.7551       -54.8344      -7.409431      0.8691953
      5608.0000          0.913         12.248       1270.717          0.752       -53.7449      -6.323597      0.8913552
      5608.5000         0.9006        12.2742       1289.977         0.7487       -52.8638      -5.446163       0.909262
      5609.0000         0.8916        12.3385       1309.188          0.745       -52.0242      -4.610233      0.9263217
      5609.5000          0.885        12.4967       1328.375         0.7413       -51.1846        -3.7743      0.9433817
      5610.0000         0.8783        12.6154       1336.912         0.7375       -49.8571      -2.450466      0.9703987
      5610.5000         0.8716        12.6979       1343.355         0.7338       -49.0898      -1.686836       0.985983
      5611.0000          0.865        12.7559       1347.305         0.7301       -48.6996      -1.300301      0.9938714
      5611.5000         0.8583        12.8138         1348.6         0.7264       -48.4819      -1.086266      0.9982395
      5612.0000         0.8538        12.8714       1349.896         0.7227       -48.3849     -0.9929314              1
      5612.5000         0.8518        12.8892       1351.195          0.719        -48.288     -0.8997002              1
      5613.0000         0.8499        12.9026           1352         0.7171       -48.1911      -0.806469              1
      5613.5000         0.8479        12.8554       1349.332         0.7162       -48.0942     -0.7132339              1
      5614.0000         0.8459        12.8033        1346.66         0.7154       -47.9973     -0.6200027              1
      5614.5000          0.844        12.7895       1343.992         0.7146       -47.9005     -0.5268707              1
      5615.0000          0.842        12.8198        1341.32         0.7137       -47.8035     -0.4335365              1
      5615.5000          0.842        12.8893       1338.648         0.7129       -47.7094     -0.3431015              1
      5616.0000         0.8441        12.9217        1335.98         0.7121       -47.7044     -0.3417702              1
      5616.5000         0.8461        12.9436       1331.121         0.7112       -47.6995      -0.340538              1
      5617.0000         0.8481        12.9385       1321.678         0.7104       -47.6945     -0.3392029              1
      5617.5000         0.8501        12.9585       1312.232         0.7096       -47.6896     -0.3379745              1
      5618.0000         0.8522        13.0064       1302.775         0.7091       -47.6847     -0.3367386              1
      5618.5000         0.8542        13.0747       1293.332         0.7096       -47.6797     -0.3354034              1
      5619.0000         0.8562        13.0899        1281.08           0.71       -47.6748     -0.3341713              1
      5619.5000         0.8582        13.0815       1265.436         0.7104       -47.6699     -0.3329391              1
      5620.0000         0.8603        13.0318       1249.789         0.7108        -47.665      -0.331707              1
      5620.5000         0.8623        13.0147       1234.145         0.7113         -47.66     -0.3303719              1
      5621.0000         0.8643        13.0516       1221.855         0.7117       -47.6551     -0.3291435              1
      5621.5000         0.8663        13.0647       1210.734         0.7121       -47.6501     -0.3278084              1
      5622.0000         0.8679        13.0703         1199.6         0.7124       -47.6453     -0.3266754              1
      5622.5000         0.8694        13.0484       1188.479         0.7116       -47.6403     -0.3253403              1
