#------------------------------------------------------------------------------
# Created by    : vladimir.rabinovich
# Created on    : 09/19/2023 17:20:32
#------------------------------------------------------------------------------
~Version Information Section
VERS.           2.0     :   CWLS log ASCII Standard - VERSION 2.0
WRAP.           NO      :   One line per depth step
~Well Information Section
#MNEM       .UNIT                                         VALUE :DESCRIPTION
#------------------------------------------------------------------------------
STRT        .FT                                             530 :START DEPTH
STOP        .FT                                           15895 :STOP DEPTH
STEP        .FT                                             0.5 :STEP      
NULL        .                                           -999.25 :NULL      
COMP        .                                      SHELL OIL CO :COMPANY   
WELL        .                                OCS 00708 ST00BP00 :WELL      
FLD         .                                FEDERAL BLOCK 0288 :FIELD     
LOC         .                                                   :LOCATION  
CNTY        .                             GALVESTON LARGE BLOCK :LOCATION  
STAT        .                                             TEXAS :STATE     
CTRY        .                                     UNITED STATES :COUNTRY   
SRVC        .                                                   :SERVICE COMPANY
DATE        .                             9/13/2023 11:19:24 AM :LOG DATE  
API         .                                    42706000930000 :API NUMBER
UWI         .                                    42706000930000 :UNIQUE WELL ID
XCOORD      .                                  1077631.85251343 :SURFACE X 
YCOORD      .                                  10490946.9562601 :SURFACE Y 
LAT         .                                         28.896779 :LATITUDE  
LON         .                                        -94.759235 :LONGITUDE 
ELEV        .FT                                              76 :ELEVATION VALUE
ELEV_TYPE   .                                                KB :ELEVATION REFERENCE TYPE
~Curve Information Section
#MNEM       .UNIT                                      API CODE :CURVE DESCRIPTION
#------------------------------------------------------------------------------
DEPT        .FT                                                 :DEPTH     
ASN         .OHMM                                               :          
CILD        .MMHO                                               :          
SP          .MV                                                 :          
SP_NORM     .MV                                                 :SP Normalized
VSH_SP      .V/V                                                :Volume of Shale from SP
~A        DEPTH            ASN           CILD             SP        SP_NORM         VSH_SP
# ...
      5634.0000         0.7878        1758.75        -78.957      -18.28626      0.6913167
      5634.5000         0.7849       1708.125       -83.2734      -22.60669      0.6141662
      5635.0000         0.7821       1659.188       -78.1875      -17.52482      0.7049139
      5635.5000         0.7792       1607.125       -71.3633      -10.70465      0.8267027
      5636.0000         0.7798       1547.344       -68.9297      -8.275089      0.8700877
      5636.5000         0.7817       1505.906       -66.8516      -6.201019      0.9071246
      5637.0000         0.7836       1481.844       -65.5713      -4.924747      0.9299152
      5637.5000         0.7855       1488.375       -64.5381      -3.895584      0.9482931
      5638.0000         0.7874       1533.406       -65.3145      -4.676014      0.9343569
      5638.5000         0.7894           1580       -66.1992      -5.564747      0.9184867
      5639.0000         0.7913       1627.531       -68.1758      -7.545372      0.8831183
      5639.5000         0.7932       1673.969       -70.4355      -9.809109      0.8426945
      5640.0000         0.7951       1718.438       -73.6992      -13.07684      0.7843421
      5640.5000         0.7967       1718.938       -79.7676      -19.14927      0.6759058
      5641.0000         0.7982       1665.188       -81.5996      -20.98531      0.6431195
      5641.5000         0.7997       1624.531         -80.25      -19.63974      0.6671476
      5642.0000         0.8012       1583.844       -74.1855      -13.57927      0.7753702
      5642.5000         0.8028       1543.156       -72.3916       -11.7894      0.8073322
      5643.0000         0.8043       1508.625       -71.1396      -10.54143      0.8296173
      5643.5000         0.8058       1484.875       -70.1084      -9.514259      0.8479596
      5644.0000         0.8076       1461.656        -69.248      -8.657894      0.8632519
      5644.5000         0.8097       1444.313       -68.3877      -7.801628      0.8785424
      5645.0000         0.8117       1426.953        -67.729      -7.146954       0.890233
      5645.5000         0.8137       1409.609       -67.1011      -6.523083      0.9013735
      5646.0000         0.8158       1401.664       -66.4976      -5.923615      0.9120783
      5646.5000         0.8178       1413.938        -65.894      -5.324047      0.9227849
      5647.0000         0.8198       1444.094       -65.4023       -4.83638      0.9314932
      5647.5000         0.8219        1474.25       -65.4116      -4.849712      0.9312552
      5648.0000         0.8239           1517       -65.7896      -5.231743      0.9244332
      5648.5000          0.826       1578.063       -66.1675      -5.613682      0.9176129
      5649.0000         0.8255       1626.375       -66.5454      -5.995613      0.9107926
      5649.5000         0.8239       1666.156       -69.4326      -8.886841      0.8591636
      5650.0000         0.8222       1692.078       -70.7334      -10.19167      0.8358631
      5650.5000         0.8176       1707.641       -75.9414       -15.4037      0.7427911
      5651.0000         0.8118       1727.297       -80.6172      -20.08354      0.6592225
      5651.5000          0.806       1754.875       -81.7695      -21.23987      0.6385738
      5652.0000         0.7954       1807.625       -79.2187       -18.6931      0.6840519
      5652.5000         0.7809       1854.719        -77.999      -17.47743      0.7057601
      5653.0000         0.7669       1915.156        -76.957      -16.43946      0.7242953
      5653.5000         0.7535       1986.875       -76.1641      -15.65059      0.7383823
      5654.0000         0.7381           2264       -75.5403      -15.03082      0.7494496
      5654.5000         0.7202       2548.094       -75.2288      -14.72335      0.7549401
      5655.0000         0.7018       2611.375       -77.0469      -16.54549       0.722402
      5655.5000         0.6855       2645.656       -80.3828      -19.88542      0.6627604
      5656.0000         0.6733       2635.469       -89.2012      -28.70786      0.5052169
      5656.5000         0.6693       2581.188       -91.6289      -31.13958      0.4617932
      5657.0000         0.6792        2461.75       -94.8027      -34.31741      0.4050463
      5657.5000          0.689           2331       -91.5273      -31.04604      0.4634635
      5658.0000         0.6989        2200.25       -87.8633      -27.38607      0.5288201
      5658.5000         0.7087         2069.5       -84.1953      -23.72211      0.5942481
      5659.0000         0.7191           1999       -80.5312      -20.06204      0.6596065
      5659.5000         0.7321        1613.75       -76.8633      -16.39817      0.7250327
      5660.0000         0.7452       1545.281       -73.1992      -12.73811       0.790391
      5660.5000         0.7582       1521.813       -67.7129      -7.255833      0.8882887
      5661.0000         0.7693       1502.859       -67.1782      -6.725166      0.8977649
      5661.5000         0.7766       1493.406       -67.4326      -6.983601        0.89315
      5662.0000         0.7839       1484.625       -67.8213      -7.376328       0.886137
      5662.5000         0.7912       1477.461        -68.228       -7.78706      0.8788025
      5663.0000         0.7966       1470.297       -68.6372      -8.200294      0.8714233
      5663.5000         0.8006       1463.141        -68.126      -7.693123      0.8804799
      5664.0000         0.8014       1455.695       -67.1172      -6.688358      0.8984222
      5664.5000         0.7996       1444.172       -66.1084      -5.683586      0.9163646
      5665.0000         0.7978       1432.656       -64.8027      -4.381916      0.9396086
      5665.5000         0.7959       1421.211       -63.4531       -3.03635      0.9636366
      5666.0000         0.7979       1413.305       -62.1787      -1.765984      0.9863217
      5666.5000            0.8       1405.398       -61.2119      -0.803215              1
      5667.0000          0.802         1397.5       -60.6255     -0.2208443              1
      5667.5000         0.8041       1392.984       -60.4882    -0.08757782              1
      5668.0000         0.8069       1389.395       -60.6398     -0.2432098              1
      5668.5000         0.8099       1391.785       -60.7952     -0.4026413              1
      5669.0000         0.8113       1399.516       -60.9504     -0.5618744              1
      5669.5000         0.8067       1409.711       -60.9932     -0.6087036              1
      5670.0000          0.802       1421.609       -60.9086     -0.5281372              1
      5670.5000          0.797       1438.531        -60.824      -0.447567              1
      5671.0000         0.7914       1458.438       -60.7393     -0.3668976              1
      5671.5000         0.7859       1484.625       -60.6278     -0.2594299              1
      5672.0000         0.7803       1498.586       -60.5038     -0.1394615              1
      5672.5000         0.7748       1492.813       -60.3798     -0.0194931              1
      5673.0000           0.77       1475.234       -60.2557      0.1005745              1
      5673.5000         0.7709       1454.703       -60.2758     0.07644272              1
      5674.0000          0.775       1434.172       -60.4805     -0.1322899              1
      5674.5000         0.7857       1413.641       -60.9492     -0.6050186              1
      5675.0000         0.7963       1393.109        -61.418       -1.07785      0.9986098
      5675.5000         0.8069       1367.844       -61.9302      -1.594082      0.9893914
      5676.0000         0.8214       1341.781       -62.5117      -2.179615      0.9789354
      5676.5000          0.844       1313.625       -63.1797      -2.851646      0.9669349
      5677.0000         0.8665       1284.516       -64.0967      -3.772682      0.9504878
      5677.5000         0.8874       1262.563       -64.6528      -4.332813      0.9404855
