#------------------------------------------------------------------------------
# Created by    : vladimir.rabinovich
# Created on    : 09/19/2023 17:21:15
#------------------------------------------------------------------------------
~Version Information Section
VERS.           2.0     :   CWLS log ASCII Standard - VERSION 2.0
WRAP.           NO      :   One line per depth step
~Well Information Section
#MNEM       .UNIT                                         VALUE :DESCRIPTION
#------------------------------------------------------------------------------
STRT        .FT                                            2893 :START DEPTH
STOP        .FT                                           11505 :STOP DEPTH
STEP        .FT                                             0.5 :STEP      
NULL        .                                           -999.25 :NULL      
COMP        .                               SEAGULL ENERGY CORP :COMPANY   
WELL        .                               OCS G06105 ST00BP00 :WELL      
FLD         .                              GALVESTON BLOCK 0343 :FIELD     
LOC         .                                                   :LOCATION  
CNTY        .                             GALVESTON LARGE BLOCK :LOCATION  
STAT        .                                             TEXAS :STATE     
CTRY        .                                     UNITED STATES :COUNTRY   
SRVC        .                                                   :SERVICE COMPANY
DATE        .                             9/13/2023 11:19:54 AM :LOG DATE  
API         .                                    42706403720000 :API NUMBER
UWI         .                                    42706403720000 :UNIQUE WELL ID
XCOORD      .                                  915246.934514234 :SURFACE X 
YCOORD      .                                  10428990.3748243 :SURFACE Y 
LAT         .                                         28.718869 :LATITUDE  
LON         .                                        -95.262866 :LONGITUDE 
ELEV        .FT                                              96 :ELEVATION VALUE
ELEV_TYPE   .                                                KB :ELEVATION REFERENCE TYPE
~Curve Information Section
#MNEM       .UNIT                                      API CODE :CURVE DESCRIPTION
#------------------------------------------------------------------------------
DEPT        .FT                                                 :DEPTH     
CAL         .IN                                                 :          
CNCSS       .%                                                  :          
CORR        .G/CM3                                              :          
DT24        .US/FT                                              :          
GR_NORM     .GAPI                                               :GammaRay Normalized
GRR         .GAPI                                               :          
ILD         .OHMM                                               :          
ILM         .OHMM                                               :          
PORDSS      .%                                                  :          
RFOC        .OHMM                                               :          
SP          .MV                                                 :          
SP_NORM     .MV                                                 :SP Normalized
VSH_GR      .V/V                                                :Volume of Shale from GR
VSH_SP      .V/V                                                :Volume of Shale from SP
~A        DEPTH            CAL          CNCSS           CORR           DT24        GR_NORM            GRR            ILD            ILM         PORDSS           RFOC             SP        SP_NORM         VSH_GR         VSH_SP
# ...
     11443.0000         5.7694        39.8615        -0.1577          128.6        -999.25        -999.25         0.2831         0.2754        22.5935         0.4141         -7.244        -3.3224        -999.25              1
     11443.5000         5.7702        39.7446          -0.15          129.6        -999.25        -999.25         0.2804         0.2753        22.3595         0.4139        -7.2517        -3.3301        -999.25              1
     11444.0000         5.7709        39.7483        -0.1462          129.8        -999.25        -999.25         0.2803         0.2752        22.6054         0.4215        -7.2593        -3.3377        -999.25              1
     11444.5000         5.7716        38.9049        -0.1463            130        -999.25        -999.25         0.2776          0.275        23.0913         0.4213        -6.9695        -3.0479        -999.25              1
     11445.0000         5.7724          28.41        -0.1465       131.5834        -999.25        -999.25           0.28         0.2749        23.5771         0.4095        -6.6803        -2.7587        -999.25              1
     11445.5000         5.7732        25.0041        -0.1506       131.5852        -999.25        -999.25         0.2851         0.2799         23.823         0.4055        -6.0949        -2.1733        -999.25              1
     11446.0000          5.774        24.8923        -0.1507       130.3967        -999.25        -999.25         0.2903          0.285         23.349         0.4091        -5.5106         -1.589        -999.25              1
     11446.5000         5.7747        24.7804        -0.1509          128.4        -999.25        -999.25         0.2928         0.2875        22.9951         0.4244        -5.5199        -1.5983        -999.25              1
     11447.0000         5.7754        24.6686         -0.151            127        -999.25        -999.25         0.2954           0.29        22.6411         0.4444        -5.8251        -1.9035        -999.25              1
     11447.5000         5.8163        24.5568        -0.1432          126.8        -999.25        -999.25         0.3007         0.2925        22.2871          0.436        -5.8341        -1.9125        -999.25              1
     11448.0000          5.817        24.6803        -0.1394          127.4        -999.25        -999.25          0.306         0.2951         22.173         0.4199        -5.8431        -1.9215        -999.25              1
     11448.5000         5.8177        24.5684        -0.1395          127.6        -999.25        -999.25         0.3171          0.295        22.3001         0.4158         -5.852        -1.9304        -999.25              1
     11449.0000         5.8184         24.339        -0.1477          127.8        -999.25        -999.25          0.317         0.2976         22.546         0.4195         -5.861        -1.9394        -999.25              1
     11449.5000         5.8191        24.1095        -0.1518          128.2        -999.25        -999.25         0.3168         0.2974        23.0319         0.4154        -5.8699        -1.9483        -999.25              1
     11450.0000         5.8197        24.1153        -0.1599            128        -999.25        -999.25         0.3167         0.3028        23.5177         0.4152        -5.8788        -1.9572        -999.25              1
     11450.5000           5.82        -999.25          -0.16       127.6059        -999.25        -999.25         0.3138         0.3027             24         0.4229        -5.2972        -1.3756        -999.25              1
     11451.0000           5.82        -999.25        -0.1641       127.2158        -999.25        -999.25         0.3082         0.2972        24.4706         0.4309        -5.3024        -1.3808        -999.25              1
     11451.5000           5.82        -999.25        -0.1601       127.2257        -999.25        -999.25         0.3082         0.2918        24.4706         0.4309        -5.0127        -1.0911        -999.25              1
     11452.0000           5.82        -999.25        -0.1562       128.4356        -999.25        -999.25         0.3082         0.2865             24         0.4152        -5.0177        -1.0961        -999.25              1
     11452.5000           5.82        -999.25        -0.1562       129.6455        -999.25        -999.25         0.3082         0.2918          23.52            0.4        -4.7271        -0.8055        -999.25              1
     11453.0000           5.86        -999.25        -0.1602       129.6554        -999.25        -999.25         0.3082         0.2918          23.76            0.4         -4.436        -0.5144        -999.25              1
     11453.5000           5.86        -999.25        -0.1642       129.2653        -999.25        -999.25          0.311         0.2918          23.76         0.4075        -4.4404        -0.5188        -999.25              1
     11454.0000           5.86        -999.25        -0.1603       128.8752        -999.25        -999.25         0.3082         0.2918             24         0.4229        -4.7411        -0.8195        -999.25              1
     11454.5000           5.86        -999.25        -0.1564       128.4851        -999.25        -999.25         0.3054         0.2918          23.88         0.4431        -5.0424        -1.1208        -999.25              1
     11455.0000           5.86        -999.25        -0.1525        128.095        -999.25        -999.25            0.3         0.2918          23.52         0.4349        -4.7505        -0.8289        -999.25              1
     11455.5000           5.86        -999.25        -0.1485       128.7069        -999.25        -999.25         0.3027         0.2891          23.16         0.4075         -4.458        -0.5364        -999.25              1
     11456.0000           5.86        -999.25        -0.1486       129.1168        -999.25        -999.25         0.3054         0.2865          23.16         0.4037        -4.4624        -0.5408        -999.25              1
     11456.5000           5.86        -999.25        -0.1526       129.5267        -999.25        -999.25         0.3054         0.2839           23.4         0.4037        -4.4668        -0.5452        -999.25              1
     11457.0000           5.86        -999.25        -0.1605       129.5366        -999.25        -999.25         0.3027         0.2839          23.76            0.4        -4.1731        -0.2515        -999.25              1
     11457.5000           5.86        -999.25        -0.1645       129.5465        -999.25        -999.25            0.3         0.2839          23.76         0.4037        -3.8789         0.0427        -999.25              1
     11458.0000           5.86        -999.25        -0.1567       129.5564        -999.25        -999.25         0.2972         0.2839          23.64         0.4037        -3.5841         0.3375        -999.25              1
     11458.5000           5.86        -999.25        -0.1528       129.5663        -999.25        -999.25         0.2945         0.2813           23.4         0.4037        -3.5877         0.3339        -999.25              1
     11459.0000           5.86        -999.25        -0.1489       129.5762        -999.25        -999.25         0.2918         0.2787           23.4         0.3964        -3.5912         0.3304        -999.25              1
     11459.5000           5.86        -999.25        -0.1529       129.5861        -999.25        -999.25         0.2918         0.2787           23.4         0.3929        -3.5948         0.3268        -999.25              1
     11460.0000           5.86        -999.25        -0.1529        129.396        -999.25        -999.25         0.2918         0.2787           23.4         0.3894        -3.5984         0.3232        -999.25              1
     11460.5000         5.8592        -999.25        -0.1531        -999.25        -999.25        -999.25         0.2917         0.2786        23.7636         0.3928        -3.3083         0.6133        -999.25              1
