#------------------------------------------------------------------------------
# Created by    : vladimir.rabinovich
# Created on    : 09/19/2023 17:21:45
#------------------------------------------------------------------------------
~Version Information Section
VERS.           2.0     :   CWLS log ASCII Standard - VERSION 2.0
WRAP.           NO      :   One line per depth step
~Well Information Section
#MNEM       .UNIT                                         VALUE :DESCRIPTION
#------------------------------------------------------------------------------
STRT        .FT                                            4296 :START DEPTH
STOP        .FT                                         10848.5 :STOP DEPTH
STEP        .FT                                             0.5 :STEP      
NULL        .                                           -999.25 :NULL      
COMP        .                                 CHEVRON U S A INC :COMPANY   
WELL        .                               OCS G07271 ST00BP00 :WELL      
FLD         .                                           WILDCAT :FIELD     
LOC         .                                                   :LOCATION  
CNTY        .                           HIGH ISLAND LARGE BLOCK :LOCATION  
STAT        .                                             TEXAS :STATE     
CTRY        .                                     UNITED STATES :COUNTRY   
SRVC        .                                                   :SERVICE COMPANY
DATE        .                             9/13/2023 11:19:59 AM :LOG DATE  
API         .                                    42708403180000 :API NUMBER
UWI         .                                    42708403180000 :UNIQUE WELL ID
XCOORD      .                                  1325118.04890174 :SURFACE X 
YCOORD      .                                  10672078.9744079 :SURFACE Y 
LAT         .                                          29.40291 :LATITUDE  
LON         .                                        -93.990507 :LONGITUDE 
ELEV        .FT                                              89 :ELEVATION VALUE
ELEV_TYPE   .                                                KB :ELEVATION REFERENCE TYPE
~Curve Information Section
#MNEM       .UNIT                                      API CODE :CURVE DESCRIPTION
#------------------------------------------------------------------------------
DEPT        .FT                                                 :DEPTH     
CALI        .IN                                                 :          
DRHO        .G/C3                                               :          
DTLN        .US/F                                               :          
GR          .GAPI                                               :          
GR_1        .GAPI                                               :          
GR_NORM     .GAPI                                               :GammaRay Normalized
ILD         .OHMM                                               :          
ILM         .OHMM                                               :          
NPHI        .%                                                  :          
RHOB        .G/C3                                               :          
SFL         .OHMM                                               :          
SP          .MV                                                 :          
SP_NORM     .MV                                                 :SP Normalized
VSH_GR      .V/V                                                :Volume of Shale from GR
VSH_SP      .V/V                                                :Volume of Shale from SP
~A        DEPTH           CALI           DRHO           DTLN             GR           GR_1        GR_NORM            ILD            ILM           NPHI           RHOB            SFL             SP        SP_NORM         VSH_GR         VSH_SP
# ...
      8308.0000        15.3331        -0.0312        94.3208        25.5294        30.8705       39.25412          0.319         0.3274        29.6878          2.216         0.5768      -117.1166      -81.62811      0.1330663              0
      8308.5000        15.3532        -0.0339        94.3026        25.0951         32.522         41.293         0.2974         0.3186        29.0929         2.2169         0.5246        -117.99      -82.50256      0.1764469              0
      8309.0000        15.3553        -0.0367        95.6595        24.6623        33.7819       42.84844         0.2722         0.2974        28.5188         2.2199         0.4601      -117.5875      -82.10112      0.2095412              0
      8309.5000        15.3498        -0.0394        97.1849        24.7674        33.6943       42.74029         0.2481         0.2736        28.0806         2.2308         0.4126      -116.6167      -81.13138      0.2072403              0
      8310.0000        15.3159        -0.0441        98.4982        25.5651        32.1804       40.87128         0.2267          0.252        27.7729         2.2425         0.3481      -115.1935      -79.70923      0.1674741              0
      8310.5000        15.3297        -0.0517        99.5746        26.1104        30.8066       39.17523         0.2116         0.2365        27.6928         2.2474         0.2604      -113.4531      -77.96989      0.1313879              0
      8311.0000        15.3747        -0.0604        100.004        25.4955        29.9759       38.14967         0.1996          0.229         28.518         2.2403         0.2214      -111.4573      -75.97514      0.1095674              0
      8311.5000        15.4433        -0.0674       100.0107        25.3764        30.4429       38.72622         0.2041         0.2327        29.7493         2.2227         0.2053      -109.3571        -73.876      0.1218344              0
      8312.0000        15.4593        -0.0721         99.814        25.9556        31.9174       40.54659         0.2217          0.253        30.7079         2.1924         0.2225      -108.7535      -73.27345      0.1605656              0
      8312.5000        15.4515          -0.07        99.5176        26.6159        33.4841       42.48079         0.2469         0.2952        31.8265         2.1564         0.2822      -109.5342      -74.05521      0.2017188              0
      8313.0000         15.389        -0.0669        99.3811        27.2551        33.3503        42.3156         0.2692         0.3403        32.9615         2.1585         0.3857      -111.7706      -76.29266      0.1982042              0
      8313.5000        15.3264        -0.0619        99.5256        27.7189        31.8806       40.50115         0.2908         0.3553        33.7201         2.1662         0.7602      -114.9304      -79.45352       0.159599              0
      8314.0000        15.2897        -0.0569        100.873        27.9934        30.7329       39.08424         0.3084         0.3415        33.9427         2.1784          0.889      -118.9595      -83.48367       0.129452              0
      8314.5000        15.2618        -0.0527       102.4722        27.9984        30.5903        38.9082         0.3197         0.3265        33.4637         2.1871         0.7741      -122.3281      -86.85333      0.1257063              0
      8315.0000         15.252        -0.0495       102.4802        27.7929        31.4972       40.02782         0.3231         0.3093        31.9051         2.1856         0.5641       -124.809      -89.33528      0.1495281              0
      8315.5000        15.2814        -0.0511        101.787        27.5688        32.6007       41.39017         0.3183         0.2943        30.7983         2.1709         0.4687      -126.5511      -91.07845      0.1785142              0
      8316.0000        15.3063        -0.0543       101.0641        27.2551        32.2099        40.9077         0.3047          0.281        30.3175         2.1559         0.4351        -127.37       -91.8984      0.1682488              0
      8316.5000        15.3133        -0.0602       100.4874        26.6594        31.1335        39.5788         0.2808         0.2693        30.5257         2.1441         0.4338       -127.686      -92.21545      0.1399745              0
      8317.0000        15.3209        -0.0663        100.125        25.2107        30.0287       38.21486          0.252         0.2593        31.7962         2.1418         0.4323      -127.6339      -92.16441      0.1109544              0
      8317.5000        15.3416         -0.071       100.5122        24.3595        30.6923       39.03412         0.2318         0.2515        32.5129         2.1408         0.4128      -127.2655      -91.79707      0.1283855              0
      8318.0000        15.3623        -0.0741       101.4088        24.3465        32.3427       41.07165         0.2217         0.2424        32.1628         2.1457         0.3752      -126.6388      -91.17142      0.1717372              0
      8318.5000        15.4734        -0.0744       101.8342        25.9419         34.074       43.20906         0.2156         0.2321        31.6577         2.1487         0.3308      -125.6838      -90.21747       0.217214              0
      8319.0000        15.5127        -0.0673       100.9388        27.7127        35.0104        44.3651         0.2106         0.2212        31.4308         2.1496         0.2896      -124.3483      -88.88303      0.2418106              0
      8319.5000        15.4885        -0.0598       100.1836        29.5755        34.8952       44.22288         0.2036         0.2149        31.4402         2.1494           0.27       -122.649      -87.18478      0.2387847              0
      8320.0000        15.4424         -0.052        99.5424        30.6869        33.2397       42.17905         0.1916         0.2106        31.8088         2.1487         0.2557      -120.9871      -85.52394       0.195299              0
      8320.5000        15.3952        -0.0541        98.6805        30.3502        31.3669       39.86695         0.1792         0.2063         32.517         2.1484         0.2469      -118.9333      -83.47119      0.1461054              0
      8321.0000        15.4344        -0.0603        98.0121        29.4325        29.7129       37.82498         0.1703         0.2011        33.0596         2.1482         0.2434       -116.751      -81.28995      0.1026591              0
      8321.5000        15.4999         -0.067        97.9644        28.5048        28.8638       36.77671         0.1638         0.1948         33.133         2.1465         0.2428       -114.606      -79.14601     0.08035554              0
      8322.0000        15.5627        -0.0694        98.1039        28.8679        28.6021       36.45362         0.1581         0.1903        33.6252         2.1441         0.2363      -112.3042      -76.84526      0.0734813              0
      8322.5000        15.6186        -0.0665         98.161        29.9237        30.3974       38.67004         0.1543         0.1896        34.7572         2.1434          0.222      -110.3474      -74.88951      0.1206392              0
      8323.0000        15.6164        -0.0596        97.3809        30.5206        31.2293       39.69708         0.1523         0.1931        35.3802         2.1512        -999.25      -108.6277      -73.17087      0.1424911              0
      8323.5000        15.6141        -0.0501        93.4595        30.3794        31.7024       40.28115          0.156         0.1985        34.8069         2.1642        -999.25      -106.8463      -71.39052      0.1549182              0
      8324.0000        15.5641        -0.0372         87.239         29.951        31.3116       39.79868          0.173         0.2092        34.5385         2.1712        -999.25      -104.8915      -69.43678      0.1446528    0.008045959
      8324.5000        15.5137         -0.031        79.6195        28.6503        30.0423       38.23164         0.2036         0.2348        35.3484         2.1751        -999.25      -102.8882      -67.43453      0.1113116     0.03664954
