#------------------------------------------------------------------------------
# Created by    : vladimir.rabinovich
# Created on    : 09/19/2023 17:20:12
#------------------------------------------------------------------------------
~Version Information Section
VERS.           2.0     :   CWLS log ASCII Standard - VERSION 2.0
WRAP.           NO      :   One line per depth step
~Well Information Section
#MNEM       .UNIT                                         VALUE :DESCRIPTION
#------------------------------------------------------------------------------
STRT        .FT                                             309 :START DEPTH
STOP        .FT                                            9124 :STOP DEPTH
STEP        .FT                                             0.5 :STEP      
NULL        .                                           -999.25 :NULL      
COMP        .                         SONAT EXPLORATION GOM INC :COMPANY   
WELL        .                               OCS G03084 ST00BP00 :WELL      
FLD         .                                           WILDCAT :FIELD     
LOC         .                                                   :LOCATION  
CNTY        .                      MATAGORDA ISLAND LARGE BLOCK :LOCATION  
STAT        .                                             TEXAS :STATE     
CTRY        .                                     UNITED STATES :COUNTRY   
SRVC        .                                                   :SERVICE COMPANY
DATE        .                             9/13/2023 11:12:09 AM :LOG DATE  
API         .                                    42703400260000 :API NUMBER
UWI         .                                    42703400260000 :UNIQUE WELL ID
XCOORD      .                                  563826.313549269 :SURFACE X 
YCOORD      .                                  10238444.2560225 :SURFACE Y 
LAT         .                                         28.172716 :LATITUDE  
LON         .                                        -96.341662 :LONGITUDE 
ELEV        .FT                                              97 :ELEVATION VALUE
ELEV_TYPE   .                                                KB :ELEVATION REFERENCE TYPE
~Curve Information Section
#MNEM       .UNIT                                      API CODE :CURVE DESCRIPTION
#------------------------------------------------------------------------------
DEPT        .FT                                                 :DEPTH     
ASFL        .OHMM                                               :          
CILD        .MMHO                                               :          
DT          .US/F                                               :          
GR          .GAPI                                               :          
GR_NORM     .GAPI                                               :GammaRay Normalized
ILD         .OHMM                                               :          
SP          .MV                                                 :          
SP_NORM     .MV                                                 :SP Normalized
VSH_GR      .V/V                                                :Volume of Shale from GR
VSH_SP      .V/V                                                :Volume of Shale from SP
~A        DEPTH           ASFL           CILD             DT             GR        GR_NORM            ILD             SP        SP_NORM         VSH_GR         VSH_SP
# ...
      4425.0000         0.7862       1283.521       124.3645         51.562       82.04185         0.7185       -83.3292       2.168816              1              1
      4425.5000         0.7722       1312.713       124.1584        49.9503       79.02023         0.7068       -83.1609       2.327095      0.9791538              1
      4426.0000         0.7587       1341.877       124.2817        48.7997       76.85471         0.6957       -82.9926       2.485374       0.933079              1
      4426.5000         0.7489       1349.594       124.4854        48.0853       75.49897         0.6846       -82.8243       2.643646      0.9042334              1
      4427.0000         0.7662       1332.863       123.5587        47.5162       74.41307         0.6735       -82.5037       2.954224      0.8811291              1
      4427.5000         0.7837       1311.201        122.632        47.0446       73.50814         0.6624       -82.1324       3.315498      0.8618754              1
      4428.0000         0.8016       1289.539       117.1973        46.6391       72.72597         0.6513       -81.7612       3.676674      0.8452333              1
      4428.5000         0.8196       1267.865       112.3065         46.234        71.9445         0.6552       -81.3922        4.03566      0.8286065              1
      4429.0000          0.855       1246.205       105.0803        45.8003       71.10999         0.6624       -81.5695       3.848328      0.8108507              1
      4429.5000         0.8766       1224.543       105.1404        45.3184       70.18595         0.6696       -81.8779       3.529907      0.7911904              1
      4430.0000         0.8928       1202.881       109.0276        45.0815       69.71679         0.6768       -82.2218        3.17598      0.7812083              1
      4430.5000          0.885       1186.068       115.6229           46.3       71.94973          0.684       -82.5659       2.821854      0.8287176              1
      4431.0000         0.8698       1188.332       117.8994         47.608       74.34887         0.6912       -82.9097       2.468033      0.8797632              1
      4431.5000         0.8558         1190.6       116.5165        48.9795       76.86585          0.698       -83.3229       2.044815       0.933316              1
      4432.0000          0.843       1192.863       115.9108        49.4985       77.80011          0.694        -83.761       1.596687      0.9531938              1
      4432.5000         0.8303        1198.18       117.1548        49.4125        77.6111         0.6901       -84.1838       1.163864      0.9491723              1
      4433.0000         0.8218       1204.279       118.1078         50.025       78.71895         0.6861        -84.486      0.8516388      0.9727436              1
      4433.5000         0.8163       1210.385       117.7833        51.0884       80.66396         0.6822       -84.7881      0.5395126              1              1
      4434.0000         0.8107       1216.484       118.0984        52.0947       82.50294         0.6783       -84.9158      0.4017944              1              1
      4434.5000         0.8051       1222.582       122.3986         52.921       84.00771         0.6743       -84.8639      0.4436722              1              1
      4435.0000          0.814       1219.848       132.8359        53.7418        85.5023          0.673       -84.7482      0.5493469              1              1
      4435.5000         0.8271       1201.832       143.0281        54.4985       86.87786         0.6808       -84.6246      0.6629181              1              1
      4436.0000         0.8441       1183.816       128.0303        54.5079       86.86596         0.6885       -84.5012      0.7762985              1              1
      4436.5000          0.874       1165.352       116.8569        53.5272       85.01588         0.6963       -84.3779      0.8895721              1              1
      4437.0000         0.8978       1146.586       112.5067        52.5184       83.11359         0.7043       -84.2649      0.9925537              1              1
      4437.5000          0.917       1127.809       108.4393        51.2745        80.7748          0.718       -84.1774        1.07003              1              1
      4438.0000          0.933       1109.043       105.4408        49.6578        77.7439         0.7318       -84.0898       1.147606      0.9519979              1
      4438.5000         0.9492       1090.279       105.2026        48.1108       74.84239         0.7455       -84.0227       1.204681      0.8902637              1
      4439.0000         0.9531       1071.502       105.9789        48.2375       75.04828         0.7593       -83.9763       1.241051      0.8946442              1
      4439.5000         0.9405       1052.736       107.6509        48.4643       75.44003         0.7713       -84.2115      0.9958344      0.9029794              1
      4440.0000         0.9278       1032.734       112.4917        48.7661       75.97104          0.757       -84.4749      0.7224121      0.9142774              1
      4440.5000         0.9134       1011.523       116.4402        49.0679       76.50201         0.7426        -84.635      0.5522842      0.9255748              1
      4441.0000         0.8872       1016.492       118.2499        49.4332       77.15091         0.7283       -84.8481      0.3291626      0.9393811              1
      4441.5000          0.836       1043.734       120.2522        49.7502       77.71014          0.714        -85.205     -0.0377655      0.9512796              1
      4442.0000         0.7891       1094.523       122.6075        49.4042       77.03841         0.6997       -85.5696      -0.412384      0.9369875              1
      4442.5000         0.7491       1169.584       123.8252        49.0585       76.36726         0.6771       -86.3344      -1.187202      0.9227076      0.9969311
      4443.0000         0.7355       1327.994       123.6676        48.7129       75.69627         0.6529       -87.8801      -2.742928      0.9084314      0.9714274
      4443.5000         0.7189        1389.82       126.2706        48.3672       75.02511         0.6287       -90.0643      -4.937157      0.8941513      0.9354565
      4444.0000         0.7005       1584.887       125.1243         48.033       74.37532         0.6045       -91.7134      -6.596283       0.880326      0.9082577
      4444.5000         0.6905       1672.381       123.9569        47.7629        73.8445         0.5803       -92.7065      -7.599403      0.8690318       0.891813
      4445.0000         0.6955       1728.215       126.7262        47.9714       74.20229         0.5561       -92.7408      -7.643723      0.8766444      0.8910865
      4445.5000          0.705       1752.672       130.0876        48.5844       75.31106         0.5516       -91.8964      -6.809349      0.9002353      0.9047648
      4446.0000          0.714       1730.012        130.438        49.1973       76.41962         0.5526       -90.6985      -5.621475      0.9238218      0.9242381
      4446.5000          0.723        1707.34       122.0431        49.8102       77.52823         0.5535       -89.6873        -4.6203      0.9474091      0.9406508
      4447.0000          0.732        1684.68       111.3816        50.4232       78.63699         0.5545       -88.9144      -3.857422      0.9709998       0.953157
      4447.5000         0.7411       1662.006       110.0547        51.2944       80.22512         0.5554       -88.1744      -3.127441              1      0.9651239
      4448.0000         0.7402       1639.738       109.4465        52.2384       81.94846         0.5592       -87.4626      -2.425667              1      0.9766284
      4448.5000         0.7341       1634.596       112.1162        53.2894       83.87043         0.5638        -86.892      -1.865089              1      0.9858182
      4449.0000         0.7235       1629.451       131.1238        54.1986       85.52913         0.5684       -86.9888      -1.971916              1       0.984067
