#------------------------------------------------------------------------------
# Created by    : vladimir.rabinovich
# Created on    : 09/19/2023 17:20:25
#------------------------------------------------------------------------------
~Version Information Section
VERS.           2.0     :   CWLS log ASCII Standard - VERSION 2.0
WRAP.           NO      :   One line per depth step
~Well Information Section
#MNEM       .UNIT                                         VALUE :DESCRIPTION
#------------------------------------------------------------------------------
STRT        .FT                                             293 :START DEPTH
STOP        .FT                                            8505 :STOP DEPTH
STEP        .FT                                             0.5 :STEP      
NULL        .                                           -999.25 :NULL      
COMP        .                                        TEXACO USA :COMPANY   
WELL        .                                     ST TR 00058-L :WELL      
FLD         .                                           WILDCAT :FIELD     
LOC         .                                                   :LOCATION  
CNTY        .                           HIGH ISLAND LARGE BLOCK :LOCATION  
STAT        .                                             TEXAS :STATE     
CTRY        .                                     UNITED STATES :COUNTRY   
SRVC        .                                                   :SERVICE COMPANY
DATE        .                             9/13/2023 11:19:15 AM :LOG DATE  
API         .                                    42708000230000 :API NUMBER
UWI         .                                    42708000230000 :UNIQUE WELL ID
XCOORD      .                                  1179226.38702832 :SURFACE X 
YCOORD      .                                  10699123.4735792 :SURFACE Y 
LAT         .                                        29.4730929 :LATITUDE  
LON         .                                        -94.449778 :LONGITUDE 
ELEV        .FT                                              80 :ELEVATION VALUE
ELEV_TYPE   .                                                KB :ELEVATION REFERENCE TYPE
~Curve Information Section
#MNEM       .UNIT                                      API CODE :CURVE DESCRIPTION
#------------------------------------------------------------------------------
DEPT        .FT                                                 :DEPTH     
ASN         .OHMM                                               :          
CILD        .MMHO                                               :          
ILD         .OHMM                                               :          
LAT         .OHMM                                               :          
LN          .OHMM                                               :          
SP          .MV                                                 :          
SP_NORM     .MV                                                 :SP Normalized
VSH_SP      .V/V                                                :Volume of Shale from SP
~A        DEPTH            ASN           CILD            ILD            LAT             LN             SP        SP_NORM         VSH_SP
# ...
      3007.0000         0.6477        -999.25        -999.25         0.3024           0.53       -56.6247       -3.85601      0.9785997
      3007.5000         0.6599        -999.25        -999.25         0.3053         0.5401       -54.0649      -1.282272              1
      3008.0000          0.672        -999.25        -999.25         0.3093         0.5502       -53.2759     -0.4793358              1
      3008.5000         0.6864        -999.25        -999.25         0.3161         0.5615       -53.3942     -0.5836906              1
      3009.0000         0.7009        -999.25        -999.25         0.3229         0.5736       -53.6384     -0.8139534              1
      3009.5000         0.7154        -999.25        -999.25         0.3297         0.5857       -53.8826      -1.044209              1
      3010.0000         0.7498        -999.25        -999.25         0.3365         0.5984       -54.1268      -1.274471              1
      3010.5000         0.7964        -999.25        -999.25         0.3373         0.6138       -54.4579      -1.591633              1
      3011.0000         0.8351        -999.25        -999.25         0.3296         0.6293       -55.0558      -2.175591              1
      3011.5000         0.8678        -999.25        -999.25          0.322         0.6447       -55.6537      -2.759552              1
      3012.0000         0.8987        -999.25        -999.25         0.3143         0.6594       -57.6326       -4.72451      0.9568872
      3012.5000         0.9247        -999.25        -999.25         0.3066         0.6701       -60.4064      -7.484367      0.8878908
      3013.0000         0.9458        -999.25        -999.25          0.299         0.6809        -63.179      -10.24303      0.8189242
      3013.5000         0.9229        -999.25        -999.25         0.2746         0.6916       -65.9528      -13.00288      0.7499279
      3014.0000         0.8217        -999.25        -999.25         0.2435         0.7023       -69.8688      -16.90495      0.6523764
      3014.5000         0.7453        -999.25        -999.25         0.2124         0.7131       -74.3029      -21.32511      0.5418722
      3015.0000         0.7084        -999.25        -999.25         0.1813         0.7238       -79.1924      -26.20066      0.4199834
      3015.5000         0.6715        -999.25        -999.25          0.158         0.7332       -86.4735      -33.46783      0.2383042
      3016.0000         0.6351        -999.25        -999.25         0.1674          0.732       -82.5306      -29.51099      0.3372253
      3016.5000         0.6018        -999.25        -999.25         0.1769         0.7308       -72.5159      -19.48235      0.5879413
      3017.0000         0.6122        -999.25        -999.25         0.1864         0.7296       -65.3771      -12.32961      0.7667599
      3017.5000         0.6468        -999.25        -999.25         0.1958         0.7283        -58.865       -5.80357      0.9299108
      3018.0000         0.6814        -999.25        -999.25         0.2132         0.7271       -55.9777      -2.902325              1
      3018.5000          0.716        -999.25        -999.25          0.231         0.7259       -56.2117      -3.122387      0.9969403
      3019.0000         0.7423        -999.25        -999.25         0.2488         0.7193       -57.2426      -4.139343      0.9715164
      3019.5000          0.767        -999.25        -999.25         0.2665         0.7117       -58.5955      -5.478306      0.9380423
      3020.0000         0.7916        -999.25        -999.25         0.2843         0.7041       -59.9479      -6.816765      0.9045809
      3020.5000         0.8157        -999.25        -999.25         0.3021         0.6965       -61.3004      -8.155323      0.8711169
      3021.0000         0.8385        -999.25        -999.25         0.3199         0.6889       -62.6528      -9.493786      0.8376554
      3021.5000         0.8674        -999.25        -999.25         0.3376         0.6813       -64.0052      -10.83225      0.8041938
      3022.0000         0.9056        -999.25        -999.25          0.355         0.6733       -65.3904      -12.20351      0.7699124
      3022.5000          0.949        -999.25        -999.25         0.3723         0.6643       -66.7878      -13.58697      0.7353258
      3023.0000         0.9548        -999.25        -999.25         0.3897         0.6554       -68.1858      -14.97102      0.7007245
      3023.5000         0.9271        -999.25        -999.25         0.4071         0.6464       -69.5837      -16.35498      0.6661254
      3024.0000         0.8723        -999.25        -999.25         0.4245         0.6375       -70.9818      -17.73914      0.6315215
      3024.5000         0.8176        -999.25        -999.25         0.4418         0.6285       -72.4053       -19.1487      0.5962826
      3025.0000          0.746        -999.25        -999.25         0.4559         0.6201       -73.8811      -20.61057      0.5597359
      3025.5000         0.7635        -999.25        -999.25         0.4582         0.6188       -75.3568      -22.07232       0.523192
      3026.0000          0.781        -999.25        -999.25         0.4605         0.6174       -74.5295      -21.23108       0.544223
      3026.5000         0.7985        -999.25        -999.25         0.4628         0.6161       -69.6621      -16.34974      0.6662564
      3027.0000          0.815        -999.25        -999.25         0.4651         0.6148       -64.6213        -11.295      0.7926251
      3027.5000           0.83        -999.25        -999.25         0.4674         0.6134       -60.3919      -7.051659      0.8987085
      3028.0000         0.8046        -999.25        -999.25         0.4697         0.6117       -57.8049      -4.450722      0.9637319
      3028.5000         0.7652        -999.25        -999.25          0.472         0.6093       -62.6078      -9.239677      0.8440081
      3029.0000         0.7142        -999.25        -999.25         0.4636         0.6069       -72.6559      -19.27384      0.5931541
      3029.5000         0.7106        -999.25        -999.25         0.4309         0.6045       -76.0187       -22.6227      0.5094325
      3030.0000         0.7471        -999.25        -999.25         0.3981         0.6021       -79.3835      -25.97356      0.4256611
      3030.5000         0.7836        -999.25        -999.25         0.3653         0.5997       -82.7463      -29.32242      0.3419395
      3031.0000         0.8194        -999.25        -999.25         0.3326         0.5957       -87.2737      -33.83588      0.2291031
      3031.5000         0.8545        -999.25        -999.25         0.3086         0.5884       -88.0443      -34.59253      0.2101867
      3032.0000         0.8895        -999.25        -999.25         0.2998         0.5812        -87.392       -33.9263      0.2268426
      3032.5000         0.9297        -999.25        -999.25         0.2944         0.5739       -86.7396      -33.25996      0.2435011
      3033.0000         0.9761        -999.25        -999.25         0.2902         0.5666       -87.5492      -34.05562      0.2236095
      3033.5000         0.9343        -999.25        -999.25         0.2861         0.5593       -88.5088      -35.00127      0.1999681
      3034.0000         0.8559        -999.25        -999.25         0.2814         0.5521       -89.4684      -35.94693      0.1763267
      3034.5000         0.7643        -999.25        -999.25         0.2696         0.5448        -90.428       -36.8926      0.1526851
      3035.0000         0.7002        -999.25        -999.25         0.2579         0.5375       -91.3876      -37.83826      0.1290435
      3035.5000         0.6667        -999.25        -999.25         0.2462         0.5305       -92.3472      -38.78391      0.1054022
      3036.0000         0.6651        -999.25        -999.25         0.2345         0.5237       -93.2491      -39.67188     0.08320312
