#------------------------------------------------------------------------------
# Created by    : vladimir.rabinovich
# Created on    : 09/19/2023 17:22:56
#------------------------------------------------------------------------------
~Version Information Section
VERS.           2.0     :   CWLS log ASCII Standard - VERSION 2.0
WRAP.           NO      :   One line per depth step
~Well Information Section
#MNEM       .UNIT                                         VALUE :DESCRIPTION
#------------------------------------------------------------------------------
STRT        .FT                                             671 :START DEPTH
STOP        .FT                                           10000 :STOP DEPTH
STEP        .FT                                             0.5 :STEP      
NULL        .                                           -999.25 :NULL      
COMP        .                                    MOBIL OIL CORP :COMPANY   
WELL        .                                     ST TR 00565-L :WELL      
FLD         .                                           WILDCAT :FIELD     
LOC         .                                                   :LOCATION  
CNTY        .                      MATAGORDA ISLAND LARGE BLOCK :LOCATION  
STAT        .                                             TEXAS :STATE     
CTRY        .                                     UNITED STATES :COUNTRY   
SRVC        .                                                   :SERVICE COMPANY
DATE        .                             9/13/2023 11:12:05 AM :LOG DATE  
API         .                                    42703000150000 :API NUMBER
UWI         .                                    42703000150000 :UNIQUE WELL ID
XCOORD      .                                  584511.465629887 :SURFACE X 
YCOORD      .                                  10263641.5286434 :SURFACE Y 
LAT         .                                         28.243485 :LATITUDE  
LON         .                                       -96.2796592 :LONGITUDE 
ELEV        .FT                                              11 :ELEVATION VALUE
ELEV_TYPE   .                                                KB :ELEVATION REFERENCE TYPE
~Curve Information Section
#MNEM       .UNIT                                      API CODE :CURVE DESCRIPTION
#------------------------------------------------------------------------------
DEPT        .FT                                                 :DEPTH     
SP          .MV                                                 :          
SP_NORM     .MV                                                 :SP Normalized
VSH_SP      .V/V                                                :Volume of Shale from SP
~A        DEPTH             SP        SP_NORM         VSH_SP
# ...
      2519.0000        29.1761       -17.2768         0.1077
      2519.5000        28.7113       -16.8147      0.1365813
      2520.0000        28.3935       -16.4997      0.1562687
      2520.5000        28.0757       -16.1846      0.1759624
      2521.0000        27.7578       -15.8695      0.1956562
      2521.5000        27.6261       -15.7405      0.2037187
      2522.0000        27.8309       -15.9481      0.1907437
      2522.5000        28.3315       -16.4514      0.1592875
      2523.0000        28.8321       -16.9547      0.1278312
      2523.5000        29.1927       -17.3181      0.1051188
      2524.0000        29.5522       -17.6803     0.08248127
      2524.5000         29.347       -17.4779     0.09513128
      2525.0000        28.7747       -16.9083      0.1307312
      2525.5000        28.1679       -16.3043      0.1684812
      2526.0000        27.6182       -15.7573      0.2026687
      2526.5000        27.3271        -15.469      0.2206875
      2527.0000        27.0359       -15.1805      0.2387187
      2527.5000        26.4329       -14.5803      0.2762312
      2528.0000        25.7357       -13.8858      0.3196375
      2528.5000        25.0044       -13.1573      0.3651688
      2529.0000        24.2705       -12.4261      0.4108688
      2529.5000        23.5404       -11.6987      0.4563313
      2530.0000        22.8107       -10.9718      0.5017625
      2530.5000         21.673        -9.8368         0.5727
      2531.0000        20.4334           -8.6           0.65
      2531.5000         21.818        -9.9873      0.5632938
      2532.0000        23.0202       -11.1923      0.4879813
      2532.5000         24.225       -12.3998      0.4125125
      2533.0000        25.4361       -13.6137      0.3366438
      2533.5000         26.179       -14.3593      0.2900438
      2534.0000        26.7193       -14.9024         0.2561
      2534.5000        25.8437       -14.0295      0.3106562
      2535.0000        24.8249       -13.0134      0.3741625
      2535.5000         23.595       -11.7863      0.4508563
      2536.0000        22.9142       -11.1082      0.4932375
      2536.5000        22.2716       -10.4684       0.533225
      2537.0000        21.6169        -9.8164       0.573975
      2537.5000        20.9301        -9.1324       0.616725
      2538.0000         20.179         -8.384         0.6635
      2538.5000        19.2104        -7.4182      0.7238625
      2539.0000        18.1697        -6.3802      0.7887375
      2539.5000        16.0934        -4.3067      0.9183313
      2540.0000        14.9378        -3.1538      0.9903875
      2540.5000        18.3065        -6.5252       0.779675
      2541.0000        19.3993        -7.6208         0.7112
      2541.5000        20.0513        -8.2755      0.6702812
      2542.0000         20.435         -8.662       0.646125
      2542.5000        19.6318        -7.8615      0.6961563
      2543.0000        18.2733        -6.5058      0.7808875
      2543.5000        17.1375        -5.3727      0.8517063
      2544.0000        16.1586        -4.3966      0.9127125
      2544.5000        15.5855        -3.8262      0.9483625
      2545.0000        15.1705         -3.414       0.974125
      2545.5000        14.9482        -3.1944        0.98785
      2546.0000         14.923        -3.1719      0.9892563
      2546.5000        15.2691        -3.5208        0.96745
      2547.0000        15.6546         -3.909      0.9431875
      2547.5000        15.8454        -4.1026      0.9310875
      2548.0000        15.8834        -4.1433      0.9285437
      2548.5000        15.7771        -4.0398      0.9350125
      2549.0000        15.6668        -3.9322      0.9417375
      2549.5000        15.5566        -3.8248        0.94845
      2550.0000        15.4464        -3.7173      0.9551687
      2550.5000        15.5093         -3.783      0.9510625
      2551.0000        15.6202        -3.8966      0.9439625
      2551.5000         15.731        -4.0101      0.9368687
      2552.0000        15.8418        -4.1237      0.9297687
      2552.5000        15.9549        -4.2395      0.9225312
      2553.0000        16.0527        -4.3401      0.9162438
      2553.5000        15.8109         -4.101      0.9311875
      2554.0000        15.5691         -3.862       0.946125
      2554.5000        15.3699        -3.6655      0.9584063
      2555.0000        15.2083        -3.5067      0.9683312
      2555.5000        15.3674        -3.6685      0.9582188
      2556.0000        15.5265        -3.8304         0.9481
      2556.5000        15.6855        -3.9921      0.9379938
      2557.0000        15.6018        -3.9112        0.94305
      2557.5000        15.4868        -3.7989      0.9500688
      2558.0000        15.3725        -3.6873      0.9570438
      2558.5000        15.2641        -3.5817      0.9636437
      2559.0000        15.1558        -3.4761      0.9702438
      2559.5000        15.2865        -3.6096         0.9619
      2560.0000         15.659        -3.9848        0.93845
      2560.5000        16.1126        -4.4412       0.909925
      2561.0000         16.572        -4.9033      0.8810438
      2561.5000        16.8046        -5.1387      0.8663312
      2562.0000        16.9777        -5.3145      0.8553438
      2562.5000        16.6633        -5.0029      0.8748187
      2563.0000         16.278        -4.6203      0.8987313
      2563.5000        15.8929        -4.2379      0.9226313
      2564.0000        15.5076        -3.8554      0.9465375
      2564.5000        15.0837        -3.4342      0.9728625
      2565.0000        14.6488        -3.0021      0.9998688
      2565.5000        14.2571        -2.6131              1
      2566.0000        14.1148        -2.4736              1
      2566.5000        13.9724        -2.3339              1
      2567.0000        14.0462        -2.4105              1
      2567.5000        14.1925        -2.5595              1
      2568.0000        14.3388        -2.7086              1
      2568.5000        14.5651        -2.9376              1
      2569.0000        14.8465        -3.2217      0.9861438
      2569.5000        15.1504        -3.5284       0.966975
      2570.0000        15.5272        -3.9079      0.9432563
      2570.5000        15.9042        -4.2877      0.9195188
      2571.0000        16.2443        -4.6305      0.8980938
      2571.5000          16.58         -4.969      0.8769375
      2572.0000        16.8564        -5.2481      0.8594937
      2572.5000        17.1119        -5.5064        0.84335
      2573.0000        16.9223        -5.3195      0.8550313
      2573.5000        16.6032        -5.0032         0.8748
      2574.0000        16.2841        -4.6868       0.894575
      2574.5000        15.9004        -4.3058      0.9183875
      2575.0000        15.4955        -3.9037      0.9435188
      2575.5000        15.1174        -3.5283      0.9669812
      2576.0000         14.926        -3.3397      0.9787688
      2576.5000        14.7346         -3.151      0.9905625
      2577.0000        14.9079        -3.3271      0.9795563
      2577.5000        15.1119        -3.5338      0.9666375
      2578.0000         15.346        -3.7707      0.9518313
      2578.5000        15.6326          -4.06        0.93375
      2579.0000        15.6367        -4.0669      0.9333188
      2579.5000         15.258        -3.6909      0.9568188
      2580.0000        14.9389        -3.3746      0.9765875
      2580.5000        14.8683        -3.3067      0.9808313
      2581.0000        15.2437        -3.6848         0.9572
      2581.5000        15.7511         -4.195      0.9253125
      2582.0000         16.234        -4.6806      0.8949625
      2582.5000        16.3628        -4.8122      0.8867375
      2583.0000        16.4916        -4.9437      0.8785188
      2583.5000        16.5996        -5.0545      0.8715937
      2584.0000         16.524        -4.9816        0.87615
      2584.5000        16.4484        -4.9088         0.8807
