#------------------------------------------------------------------------------
# Created by    : vladimir.rabinovich
# Created on    : 09/19/2023 17:19:50
#------------------------------------------------------------------------------
~Version Information Section
VERS.           2.0     :   CWLS log ASCII Standard - VERSION 2.0
WRAP.           NO      :   One line per depth step
~Well Information Section
#MNEM       .UNIT                                         VALUE :DESCRIPTION
#------------------------------------------------------------------------------
STRT        .FT                                             816 :START DEPTH
STOP        .FT                                            7470 :STOP DEPTH
STEP        .FT                                             0.5 :STEP      
NULL        .                                           -999.25 :NULL      
COMP        .                                   KERR-MCGEE CORP :COMPANY   
WELL        .                               OCS G05003 ST00BP00 :WELL      
FLD         .                                 BRAZOS BLOCK 0412 :FIELD     
LOC         .                                                   :LOCATION  
CNTY        .                                BRAZOS LARGE BLOCK :LOCATION  
STAT        .                                             TEXAS :STATE     
CTRY        .                                     UNITED STATES :COUNTRY   
SRVC        .                                                   :SERVICE COMPANY
DATE        .                             9/13/2023 11:19:08 AM :LOG DATE  
API         .                                    42704401140000 :API NUMBER
UWI         .                                    42704401140000 :UNIQUE WELL ID
XCOORD      .                                  819493.037302503 :SURFACE X 
YCOORD      .                                  10380289.6446028 :SURFACE Y 
LAT         .                                         28.579682 :LATITUDE  
LON         .                                        -95.558179 :LONGITUDE 
ELEV        .FT                                              90 :ELEVATION VALUE
ELEV_TYPE   .                                                KB :ELEVATION REFERENCE TYPE
~Curve Information Section
#MNEM       .UNIT                                      API CODE :CURVE DESCRIPTION
#------------------------------------------------------------------------------
DEPT        .FT                                                 :DEPTH     
ASFL        .OHMM                                               :          
CALI        .IN                                                 :          
CILD        .MMHO                                               :          
GR          .GAPI                                               :          
GR_NORM     .GAPI                                               :GammaRay Normalized
ILD         .OHMM                                               :          
ILM         .OHMM                                               :          
RHOB        .G/C3                                               :          
SP          .MV                                                 :          
SP_NORM     .MV                                                 :SP Normalized
VSH_GR      .V/V                                                :Volume of Shale from GR
VSH_SP      .V/V                                                :Volume of Shale from SP
~A        DEPTH           ASFL           CALI           CILD             GR        GR_NORM            ILD            ILM           RHOB             SP        SP_NORM         VSH_GR         VSH_SP
# ...
      3050.5000         0.9707        -999.25       1148.268        73.9707       74.73392         0.8358         0.7936        -999.25       -66.9929      -2.421127      0.8879557              1
      3051.0000         0.9717        -999.25        1123.65         74.949       75.98695         0.8457         0.8032        -999.25       -66.9048      -2.301704      0.9146159              1
      3051.5000         0.9726        -999.25       1099.047        75.8721       77.16927         0.8555         0.8147        -999.25       -66.8284       -2.19397      0.9397718              1
      3052.0000         0.9789        -999.25       1075.381        76.9413       78.53873         0.8682         0.8265        -999.25       -66.7979      -2.132141      0.9689091              1
      3052.5000         0.9862        -999.25        1051.91        78.2289        80.1879         0.8921         0.8385        -999.25       -66.7673      -2.070221              1              1
      3053.0000         0.9936        -999.25       1028.393        79.3588        81.6357         0.9159         0.8555        -999.25       -66.7368      -2.008392              1              1
      3053.5000         1.0022        -999.25        1004.59        79.1143       81.32415         0.9397         0.8733        -999.25       -66.7063      -1.946564              1              1
      3054.0000         1.0111        -999.25       980.1338        74.9441       75.98447         0.9636         0.8928        -999.25        -66.854      -2.062935      0.9145631              1
      3054.5000         1.0204        -999.25       953.3887         71.715       71.85016         0.9874         0.9085        -999.25       -67.0255      -2.203102      0.8265991              1
      3055.0000         1.0332        -999.25       950.7197        71.9526       72.15608         1.0116         0.9242        -999.25        -67.197      -2.343277      0.8331081              1
      3055.5000         1.0472        -999.25       948.0508        73.8892       74.63813         1.0361         0.9405        -999.25       -67.3685      -2.483452      0.8859177              1
      3056.0000         1.0704        -999.25       959.8076        75.4387       76.62436         1.0448         0.9494        -999.25       -67.5724      -2.656029      0.9281778              1
      3056.5000         1.0836        -999.25       984.1152        77.1852       78.86293         1.0042         0.9423        -999.25       -67.7982      -2.850502       0.975807              1
      3057.0000         1.0658        -999.25       1008.423        79.0424       81.24326         0.9637         0.9244        -999.25       -68.0239      -3.044868              1      0.9970087
      3057.5000         1.0417        -999.25       1069.846        80.4508       83.04878         0.9253         0.9003        -999.25       -68.2498      -3.239441              1      0.9840373
      3058.0000         1.0207        -999.25       1142.918        78.4556       80.49488         0.8898         0.8732        -999.25       -68.4755      -3.433815              1       0.971079
      3058.5000         1.0017        -999.25       1199.102        76.4197       77.88885         0.8543         0.8444        -999.25       -68.5239       -3.45089       0.955082      0.9699407
      3059.0000         0.9791        -999.25       1237.893        78.2599       80.24742         0.8188         0.8136        -999.25       -68.5269      -3.422562              1      0.9718292
      3059.5000         0.9592        -999.25       1261.572        80.3177        82.8847         0.7834         0.7843        -999.25       -68.0964      -2.960732              1              1
      3060.0000         0.9424        -999.25        1285.25        81.3231       84.17403         0.7624         0.7597        -999.25        -67.666      -2.499001              1              1
      3060.5000         0.9272        -999.25       1297.621        78.0197       79.94457          0.754         0.7416        -999.25       -67.3982      -2.199875      0.9988207              1
      3061.0000         0.9056        -999.25       1294.229        76.0424        77.4136         0.7456         0.7294        -999.25       -67.3717      -2.142044      0.9449703              1
      3061.5000         0.8978        -999.25       1285.873        74.7708       75.78652         0.7372         0.7212        -999.25       -67.3453       -2.08432      0.9103515              1
      3062.0000         0.9064        -999.25       1277.521        73.8019       74.54714         0.7357         0.7174        -999.25       -67.3188      -2.026497      0.8839818              1
      3062.5000         0.9132        -999.25       1269.168        73.8297       74.58433         0.7453          0.715        -999.25       -67.2924      -1.968765       0.884773              1
      3063.0000         0.9177        -999.25        1261.52        74.8788       75.92964         0.7549         0.7166        -999.25       -67.2588      -1.903831      0.9133967              1
      3063.5000         0.9222        -999.25       1253.945        75.3208       76.49738         0.7646         0.7187        -999.25       -67.2107      -1.824409      0.9254761              1
      3064.0000         0.9237        -999.25       1246.371        75.7632       77.06561         0.7742         0.7217        -999.25       -67.1627      -1.745079      0.9375662              1
      3064.5000         0.9239        -999.25       1238.799         75.066       76.17422         0.7838         0.7275        -999.25       -67.1146      -1.665657      0.9186005              1
      3065.0000         0.9241        -999.25       1249.209        73.5493        74.2332         0.7876         0.7354        -999.25       -67.0665      -1.586227      0.8773021              1
      3065.5000         0.9242        -999.25        1262.17           71.9       72.12235         0.7863         0.7384        -999.25       -67.0167      -1.505104      0.8323905              1
      3066.0000         0.9235        -999.25       1275.131        70.3406       70.12664          0.785         0.7399        -999.25       -66.9412       -1.39827      0.7899285              1
      3066.5000         0.9226        -999.25       1286.828        69.7302       69.34642         0.7836         0.7347        -999.25       -66.8656      -1.291344      0.7733281              1
      3067.0000         0.9216        -999.25       1294.973        71.4995       71.61417         0.7823         0.7259        -999.25       -66.7899      -1.184319      0.8215781              1
      3067.5000         0.9206        -999.25       1303.119        73.8372       74.60995         0.7804          0.715        -999.25       -66.7144      -1.077492       0.885318              1
      3068.0000         0.9194        -999.25       1309.643         75.011       76.11498         0.7767         0.7023        -999.25       -66.6667     -0.9984665        0.91734              1
      3068.5000         0.9181        -999.25       1310.197        74.5825       75.56776         0.7731         0.6917        -999.25       -66.7552      -1.055634      0.9056969              1
      3069.0000          0.917        -999.25       1310.752        74.5896       75.57846         0.7694         0.6833        -999.25       -66.8437      -1.112801      0.9059247              1
      3069.5000         0.9159        -999.25       1300.912        74.7314       75.76167         0.7658         0.6791        -999.25       -66.9321      -1.169876      0.9098226              1
      3070.0000         0.9174        -999.25        1290.15        73.6588       74.38946         0.7621           0.68        -999.25       -67.0206      -1.227051      0.8806267              1
      3070.5000         0.9219        -999.25       1279.391        73.9722       74.79247         0.7586         0.6866        -999.25       -66.9655      -1.140625      0.8892015              1
