#------------------------------------------------------------------------------
# Created by    : vladimir.rabinovich
# Created on    : 09/19/2023 17:20:02
#------------------------------------------------------------------------------
~Version Information Section
VERS.           2.0     :   CWLS log ASCII Standard - VERSION 2.0
WRAP.           NO      :   One line per depth step
~Well Information Section
#MNEM       .UNIT                                         VALUE :DESCRIPTION
#------------------------------------------------------------------------------
STRT        .FT                                             994 :START DEPTH
STOP        .FT                                           14137 :STOP DEPTH
STEP        .FT                                             0.5 :STEP      
NULL        .                                           -999.25 :NULL      
COMP        .                                   MARATHON OIL CO :COMPANY   
WELL        .                                     ST TR 00841-L :WELL      
FLD         .                                           WILDCAT :FIELD     
LOC         .                                                   :LOCATION  
CNTY        .                        MUSTANG ISLAND LARGE BLOCK :LOCATION  
STAT        .                                             TEXAS :STATE     
CTRY        .                                     UNITED STATES :COUNTRY   
SRVC        .                                                   :SERVICE COMPANY
DATE        .                             9/13/2023 11:18:55 AM :LOG DATE  
API         .                                    42702301400000 :API NUMBER
UWI         .                                    42702301400000 :UNIQUE WELL ID
XCOORD      .                                  272565.632686387 :SURFACE X 
YCOORD      .                                  9953986.84876921 :SURFACE Y 
LAT         .                                         27.367086 :LATITUDE  
LON         .                                       -97.2136853 :LONGITUDE 
ELEV        .FT                                              88 :ELEVATION VALUE
ELEV_TYPE   .                                                KB :ELEVATION REFERENCE TYPE
~Curve Information Section
#MNEM       .UNIT                                      API CODE :CURVE DESCRIPTION
#------------------------------------------------------------------------------
DEPT        .FT                                                 :DEPTH     
ASFL        .OHMM                                               :          
CILD        .MMHO                                               :          
GR          .GAPI                                               :          
GR_NORM     .GAPI                                               :GammaRay Normalized
ILD         .OHMM                                               :          
SP          .MV                                                 :          
SP_NORM     .MV                                                 :SP Normalized
VSH_GR      .V/V                                                :Volume of Shale from GR
VSH_SP      .V/V                                                :Volume of Shale from SP
~A        DEPTH           ASFL           CILD             GR        GR_NORM            ILD             SP        SP_NORM         VSH_GR         VSH_SP
# ...
     10613.5000         1.6414       1551.879        67.1405       88.62901         0.6001       -50.1721     -0.1721001              1              1
     10614.0000         1.6344       1556.996        67.7421       89.61663         0.5974       -49.8807      0.1193008              1              1
     10614.5000         1.6261       1562.102        68.3423       90.60192         0.5945       -49.8502      0.1497993              1              1
     10615.0000         1.6139       1567.219        68.8225       91.39011         0.5882       -50.0759    -0.07590103              1              1
     10615.5000         1.6018       1590.115        68.8328       91.40644         0.5819       -50.3016     -0.3016014              1              1
     10616.0000         1.5896       1618.154         68.843       91.42259         0.5756       -50.5273     -0.5273018              1              1
     10616.5000         1.5774       1654.861        68.8466       91.42793         0.5693       -50.7531     -0.7531013              1              1
     10617.0000         1.5704       1694.902        68.8268       91.39481          0.563       -50.9788     -0.9788017              1              1
     10617.5000         1.5673       1734.945        68.8069       91.36155         0.5567       -51.1818      -1.181801              1      0.9946529
     10618.0000         1.5619       1763.385        69.1288        91.8897         0.5504       -51.0153      -1.015301              1        0.99955
     10618.5000         1.5565       1788.934        68.9033       91.51871         0.5397       -50.6541     -0.6540985              1              1
     10619.0000         1.5511       1814.533        68.5416         90.924         0.5273       -50.1877     -0.1876984              1              1
     10619.5000         1.5373        1837.99        68.1798       90.32909          0.515       -49.7213      0.2787018              1              1
     10620.0000         1.5197        1858.26         67.818       89.73422         0.5027        -49.768      0.2319984              1              1
     10620.5000         1.5022       1878.531        67.6552       89.46619         0.4903        -49.986     0.01399994              1              1
     10621.0000         1.4728       1898.752        67.8268       89.74747         0.4931        -50.212     -0.2120018              1              1
     10621.5000         1.4399       1919.021         67.998       90.02813         0.5166       -50.4377     -0.4376984              1              1
     10622.0000         1.4004       1936.453        68.1696       90.30939         0.5401       -50.6634     -0.6633987              1              1
     10622.5000         1.3553       1952.465        68.3292       90.57097         0.5636       -50.6285     -0.6285019              1              1
     10623.0000         1.3357       1911.551         68.488       90.83122         0.5871        -49.966      0.0340004              1              1
     10623.5000         1.3178       1822.701        67.4644       89.14926         0.6106       -49.3595      0.6404991              1              1
     10624.0000         1.3017       1737.436        66.0098       86.75932         0.6342       -48.7879       1.212101              1              1
     10624.5000         1.2927       1655.359        64.9536       85.02382         0.6577       -48.7393         1.2607              1              1
     10625.0000         1.3636       1573.281        63.9225       83.32951         0.6812        -49.144       0.855999              1              1
     10625.5000         1.4531       1493.496        62.8914       81.63522         0.7049       -49.5482      0.4518013              1              1
     10626.0000         1.5425       1417.992        61.8577       79.93668         0.7353       -49.9648     0.03519821      0.9986528              1
     10626.5000         1.6318        1342.49        61.0208       78.56139         0.7656        -50.415     -0.4150009      0.9693912              1
     10627.0000         1.7213       1267.086        60.3508       77.46026         0.7961       -50.8652        -0.8652       0.945963              1
     10627.5000         1.8106        1192.68        59.6808       76.35912         0.8264       -51.3154      -1.315399      0.9225345      0.9907236
     10628.0000         1.9001       1118.172         59.012       75.25996         0.8568       -51.7656      -1.765598       0.899148      0.9774824
     10628.5000         2.0033       1099.695        59.4311       75.94777         0.8872       -52.0729      -2.072899      0.9137823      0.9684442
     10629.0000         1.9984        1126.49        59.9149       76.74189         0.8869       -51.9872      -1.987202      0.9306785      0.9709647
     10629.5000          1.868       1153.234        60.3987       77.53599         0.8693       -51.8416      -1.841599      0.9475742      0.9752471
     10630.0000         1.7908       1184.063        60.8826       78.33026         0.8516        -51.627      -1.626999      0.9644737      0.9815589
     10630.5000         1.7652       1216.336        61.3564       79.10793          0.834       -51.4128        -1.4128      0.9810199      0.9878588
     10631.0000         1.7481       1248.609        61.8228       79.87346         0.8164       -51.1986      -1.198601      0.9973077      0.9941588
     10631.5000         1.7341       1280.832        62.2892       80.63898         0.7987       -50.9841     -0.9841003              1              1
     10632.0000         1.7161       1313.105        62.7556       81.40451          0.781       -50.7699     -0.7699013              1              1
     10632.5000         1.6981       1342.266         63.222       82.17004         0.7634       -50.5554     -0.5554008              1              1
     10633.0000         1.6733       1356.734        63.6884       82.93555         0.7391       -50.3412     -0.3412018              1              1
     10633.5000         1.6485       1371.201        63.9618       83.38409         0.7131       -50.0339    -0.03390121              1              1
     10634.0000         1.6236       1385.695        64.1962       83.76851          0.687       -49.6603      0.3396988              1              1
     10634.5000         1.5984       1400.162        64.4309       84.15343          0.661       -49.2867      0.7132988              1              1
     10635.0000         1.5758       1414.605        64.6654       84.53806         0.6819       -49.2568      0.7431984              1              1
     10635.5000         1.5567       1428.924        64.9001       84.92298         0.7069       -49.5494      0.4505997              1              1
     10636.0000         1.5366       1398.469        65.1345       85.30741          0.732       -49.8421      0.1579018              1              1
     10636.5000         1.5861        1357.73        65.0911       85.23555         0.7572       -50.0535    -0.05350113              1              1
     10637.0000         1.6415        1316.99        64.8746       84.87932         0.7739       -49.9629     0.03710175              1              1
     10637.5000         1.6969       1279.389         64.392         84.086         0.7888       -49.8723      0.1277008              1              1
     10638.0000         1.7469       1242.932        63.9095       83.29285         0.8038       -49.7816       0.218399              1              1
     10638.5000         1.7914       1206.475        63.4269       82.49956         0.8187       -49.8984      0.1016006              1              1
     10639.0000          1.836       1180.826        62.9449       81.70723         0.8245       -50.0641    -0.06409836              1              1
     10639.5000         1.8872       1184.834        63.5988       82.78073         0.8147       -50.2294     -0.2294006              1              1
