#------------------------------------------------------------------------------
# Created by    : vladimir.rabinovich
# Created on    : 09/19/2023 17:20:49
#------------------------------------------------------------------------------
~Version Information Section
VERS.           2.0     :   CWLS log ASCII Standard - VERSION 2.0
WRAP.           NO      :   One line per depth step
~Well Information Section
#MNEM       .UNIT                                         VALUE :DESCRIPTION
#------------------------------------------------------------------------------
STRT        .FT                                             507 :START DEPTH
STOP        .FT                                            6530 :STOP DEPTH
STEP        .FT                                             0.5 :STEP      
NULL        .                                           -999.25 :NULL      
COMP        .                                      SHELL OIL CO :COMPANY   
WELL        .                                ST TR 00692-L SE/4 :WELL      
FLD         .                                           WILDCAT :FIELD     
LOC         .                                                   :LOCATION  
CNTY        .                      MATAGORDA ISLAND LARGE BLOCK :LOCATION  
STAT        .                                             TEXAS :STATE     
CTRY        .                                     UNITED STATES :COUNTRY   
SRVC        .                                                   :SERVICE COMPANY
DATE        .                             9/13/2023 11:12:05 AM :LOG DATE  
API         .                                    42703000180000 :API NUMBER
UWI         .                                    42703000180000 :UNIQUE WELL ID
XCOORD      .                                  399042.886430441 :SURFACE X 
YCOORD      .                                  10159669.4462586 :SURFACE Y 
LAT         .                                        27.9430215 :LATITUDE  
LON         .                                       -96.8445442 :LONGITUDE 
ELEV        .FT                                              84 :ELEVATION VALUE
ELEV_TYPE   .                                                DF :ELEVATION REFERENCE TYPE
~Curve Information Section
#MNEM       .UNIT                                      API CODE :CURVE DESCRIPTION
#------------------------------------------------------------------------------
DEPT        .FT                                                 :DEPTH     
ASN         .OHMM                                               :          
CILD        .MMHO                                               :          
ILD         .OHMM                                               :          
SP          .MV                                                 :          
SP_NORM     .MV                                                 :SP Normalized
VSH_SP      .V/V                                                :Volume of Shale from SP
~A        DEPTH            ASN           CILD            ILD             SP        SP_NORM         VSH_SP
# ...
      2521.0000         1.0552       904.9629         1.0296       -48.4624        -5.3255      0.9691744
      2521.5000          1.052       915.1133         1.0276       -49.5566        -6.4245      0.9436163
      2522.0000         1.0484       932.4785         1.0255       -49.9587        -6.8313      0.9341558
      2522.5000          1.044       952.0723           1.02       -50.3608        -7.2381      0.9246954
      2523.0000         1.0383       959.0049         0.9971       -50.7628        -7.6449      0.9152349
      2523.5000         1.0327       958.6123         0.9742       -51.0732          -7.96      0.9079069
      2524.0000          1.027       958.2197         0.9513       -51.3233        -8.2148      0.9019814
      2524.5000         1.0214       957.8262         0.9284       -51.5734        -8.4697      0.8960535
      2525.0000         1.0157       960.5537         0.9055       -51.8235        -8.7245      0.8901279
      2525.5000           1.01        967.499         0.8826       -51.7834        -8.6891      0.8909512
      2526.0000         1.0066       995.4355         0.8597       -51.7375         -8.648       0.891907
      2526.5000         1.0118       1037.225         0.8305       -51.6917        -8.6069      0.8928628
      2527.0000         1.0238       1053.275         0.7586       -51.6331         -8.553      0.8941163
      2527.5000         1.0317       1057.625         0.6867       -51.5548        -8.4795      0.8958256
      2528.0000         1.0396       1189.273         0.6325       -51.4766         -8.406      0.8975349
      2528.5000         1.0475       1333.395         0.5869       -52.0048        -8.9389      0.8851418
      2529.0000         1.0554       1477.467         0.5412       -58.0019       -14.9408      0.7455628
      2529.5000         1.0632       1621.537         0.5111       -63.3217       -20.2653      0.6217372
      2530.0000         1.0711        1765.66          0.484       -66.5381       -23.4864      0.5468279
      2530.5000         1.0746        1909.73          0.457       -69.4198       -26.3729         0.4797
      2531.0000         1.0773       2004.139           0.43       -72.8073       -29.7651      0.4008116
      2531.5000         1.0745       2000.494         0.4032       -75.2391       -32.2016      0.3441488
      2532.0000         1.0584        1996.85         0.3765       -77.5991       -34.5664      0.2891535
      2532.5000         1.0057       1993.203         0.3497       -79.5767       -36.5487      0.2430535
      2533.0000         0.9949       1989.559         0.3301       -80.8464       -37.8231      0.2134162
      2533.5000         0.9879           2042         0.3106       -82.3617       -39.3432      0.1780651
      2534.0000         0.9818       2143.465         0.2911        -83.934       -40.9202      0.1413907
      2534.5000         0.9813       2244.977           0.28       -84.7263       -41.7172      0.1228558
      2535.0000         0.9807       2346.492         0.2714       -85.5509       -42.5466      0.1035674
      2535.5000         0.9757       2448.004         0.2627       -86.5391       -43.5395     0.08047672
      2536.0000          0.962        2549.52         0.2561       -87.5079        -44.513      0.0578372
      2536.5000         0.9304       2650.984         0.2588       -88.2463       -45.2561     0.04055582
      2537.0000         0.8969         2752.5         0.2615       -88.7355       -45.7501     0.02906746
      2537.5000         0.8635       2854.012         0.2643       -89.0557        -46.075     0.02151161
      2538.0000         0.8286       2955.527          0.267       -89.3757       -46.3997     0.01396046
      2538.5000         0.7768       3056.992         0.2697       -89.6567       -46.6855    0.007313928
      2539.0000         0.7243       3158.504         0.2724       -89.3793       -46.4128     0.01365582
      2539.5000         0.6822        3260.02         0.2752       -88.9956       -46.0338     0.02246981
      2540.0000          0.664       3361.535         0.2772       -88.6121       -45.6551      0.0312767
      2540.5000         0.6597       3359.156          0.279       -88.2284       -45.2761      0.0400907
      2541.0000         0.6662        3259.82         0.2808       -87.8408       -44.8932     0.04899535
      2541.5000         0.7048       3160.488         0.2826       -87.4525       -44.5097     0.05791394
      2542.0000         0.7436       3061.203         0.2844       -87.3059       -44.3678     0.06121391
      2542.5000          0.764       2961.867         0.2862       -87.7794        -44.846     0.05009301
      2543.0000         0.7834       2862.535          0.288       -88.5154       -45.5868     0.03286513
      2543.5000         0.8024       2763.199         0.2898       -89.3068       -46.3829     0.01435116
      2544.0000         0.8169       2663.867         0.2917       -90.2448       -47.3256              0
      2544.5000         0.8315       2564.531         0.2912       -90.8882       -47.9738              0
      2545.0000         0.8406       2547.078         0.2905       -90.9561       -48.0464              0
      2545.5000         0.8478       2611.746         0.2897       -90.7727       -47.8677              0
      2546.0000         0.8443       2684.723          0.289       -90.5895       -47.6893              0
      2546.5000         0.8378       2757.727         0.2901       -90.4063       -47.5108              0
      2547.0000         0.8307       2830.703         0.3134        -90.322       -47.4312              0
      2547.5000         0.8208        2903.68         0.3366       -90.5422       -47.6562              0
      2548.0000          0.811       2976.656         0.3618       -90.7625       -47.8812              0
      2548.5000         0.8066       3049.633         0.3877       -90.9827       -48.1061              0
      2549.0000         0.8064       3122.637         0.3925       -91.2029       -48.3311              0
      2549.5000         0.8141       3195.613         0.3896       -91.4857       -48.6186              0
      2550.0000         0.8219       3215.133         0.3868       -91.8547       -48.9923              0
      2550.5000         0.8328       3107.973          0.384       -91.0573       -48.1997              0
      2551.0000          0.849       3000.809         0.3811        -88.111       -45.2581     0.04050934
      2551.5000         0.8653       2893.648         0.3783       -85.3346       -42.4864      0.1049674
      2552.0000         0.8816       2786.484         0.3754       -83.4463       -40.6029      0.1487697
      2552.5000          0.892       2679.324         0.3735       -80.3314       -37.4927         0.2211
      2553.0000         0.9017        2572.16         0.3716       -80.0433       -37.2093      0.2276907
      2553.5000         0.9004       2493.563         0.3697       -81.0219       -38.1926      0.2048233
      2554.0000         0.8742       2507.766         0.3678        -81.981       -39.1565      0.1824069
      2554.5000         0.8423       2529.652          0.366        -82.806       -39.9862      0.1631117
      2555.0000         0.8103       2544.176         0.3643        -83.631       -40.8159      0.1438163
      2555.5000         0.7879       2557.563         0.3626       -83.0081       -40.1978      0.1581907
      2556.0000          0.784       2566.355         0.3608       -81.8573       -39.0517      0.1848442
      2556.5000          0.791       2572.336          0.353        -80.707       -37.9061       0.211486
      2557.0000         0.8076       2578.316         0.3408       -82.4602       -39.6641      0.1706023
      2557.5000         0.8243       2583.621         0.3285       -85.4561       -42.6647      0.1008209
      2558.0000          0.841       2585.902         0.3175       -86.2382       -43.4515     0.08252326
      2558.5000         0.8604       2588.184         0.3084       -87.0205       -44.2386     0.06421857
