#------------------------------------------------------------------------------
# Created by    : vladimir.rabinovich
# Created on    : 09/19/2023 17:20:48
#------------------------------------------------------------------------------
~Version Information Section
VERS.           2.0     :   CWLS log ASCII Standard - VERSION 2.0
WRAP.           NO      :   One line per depth step
~Well Information Section
#MNEM       .UNIT                                         VALUE :DESCRIPTION
#------------------------------------------------------------------------------
STRT        .FT                                             495 :START DEPTH
STOP        .FT                                            6623 :STOP DEPTH
STEP        .FT                                             0.5 :STEP      
NULL        .                                           -999.25 :NULL      
COMP        .                                      SHELL OIL CO :COMPANY   
WELL        .                                     ST TR 00691-L :WELL      
FLD         .                                           WILDCAT :FIELD     
LOC         .                                                   :LOCATION  
CNTY        .                      MATAGORDA ISLAND LARGE BLOCK :LOCATION  
STAT        .                                             TEXAS :STATE     
CTRY        .                                     UNITED STATES :COUNTRY   
SRVC        .                                                   :SERVICE COMPANY
DATE        .                             9/13/2023 11:12:05 AM :LOG DATE  
API         .                                    42703000200000 :API NUMBER
UWI         .                                    42703000200000 :UNIQUE WELL ID
XCOORD      .                                  411465.852171861 :SURFACE X 
YCOORD      .                                  10158718.0598508 :SURFACE Y 
LAT         .                                        27.9414781 :LATITUDE  
LON         .                                       -96.8060481 :LONGITUDE 
ELEV        .FT                                              11 :ELEVATION VALUE
ELEV_TYPE   .                                                KB :ELEVATION REFERENCE TYPE
~Curve Information Section
#MNEM       .UNIT                                      API CODE :CURVE DESCRIPTION
#------------------------------------------------------------------------------
DEPT        .FT                                                 :DEPTH     
ASN         .OHMM                                               :          
CILD        .OHMM                                               :          
ILD         .OHMM                                               :          
SP          .MV                                                 :          
SP_NORM     .MV                                                 :SP Normalized
VSH_SP      .V/V                                                :Volume of Shale from SP
~A        DEPTH            ASN           CILD            ILD             SP        SP_NORM         VSH_SP
# ...
      6575.0000         2.5736       845.3203         2.5185       -45.1914         0.0916              1
      6575.5000         2.8888        720.875         2.6472       -45.1519         0.1311              1
      6576.0000          3.204       507.6563         2.8856       -45.1124         0.1706              1
      6576.5000         4.0443       329.6133         3.4652        -45.073           0.21              1
      6577.0000         4.2339       282.5742         3.6154       -45.0335         0.2495              1
      6577.5000         4.3901       272.7109         3.7535       -45.0132         0.2698              1
      6578.0000         3.9167       264.6719         3.1748       -45.0773         0.2057              1
      6578.5000         2.6145       260.0117         2.9316       -45.1414         0.1416              1
      6579.0000         2.4478       262.0703         2.6882       -45.2056         0.0774              1
      6579.5000         2.3444       270.3315          2.445       -45.2697         0.0133              1
      6580.0000          2.281       278.9648         2.2016       -45.3292        -0.0462              1
      6580.5000         2.2198       306.2344         1.9584       -45.3857        -0.1027              1
      6581.0000         2.1657       420.0859         1.7149       -45.4423        -0.1593              1
      6581.5000         2.1188       468.4883         1.5226       -45.3787        -0.0957              1
      6582.0000          2.061       526.9687         1.4301        -45.254          0.029              1
      6582.5000         1.8109       585.4453         1.3474       -45.1292         0.1538              1
      6583.0000         1.7275       643.9219         1.2711       -45.0043         0.2787              1
      6583.5000         1.6441       702.3516         1.2129       -44.9155         0.3675              1
      6584.0000         1.5607       760.8281         1.1546       -44.8484         0.4346              1
      6584.5000         1.4772       819.3086         1.1049       -44.7813         0.5017              1
      6585.0000         1.4117       877.7852         1.0572       -44.7141         0.5689              1
      6585.5000         1.3894       924.5391         1.0116       -44.6469         0.6361              1
      6586.0000         1.3621            964         0.9806       -44.5797         0.7033              1
      6586.5000         1.3391       992.8203         0.9497       -44.7999         0.4831              1
      6587.0000         1.3219       1016.785         0.9262       -45.4408        -0.1578              1
      6587.5000         1.3043       1042.676         0.9134       -46.1194        -0.8364              1
      6588.0000          1.286       1078.934         0.9007       -46.9917        -1.7087              1
      6588.5000          1.268       1099.578         0.8985       -47.7157        -2.4327      0.9918358
      6589.0000         1.2869       1083.293         0.8982        -48.377         -3.094      0.9793585
      6589.5000         1.3181        1058.66         0.8884        -48.921         -3.638      0.9690943
      6590.0000         1.3206        1039.73         0.8737        -48.931         -3.648      0.9689057
      6590.5000         1.2959       1027.465          0.859       -47.8181        -2.5351      0.9899037
      6591.0000         1.1918       1025.039         0.8228       -46.6865        -1.4035              1
      6591.5000         1.0553        1040.73         0.7843       -46.1157        -0.8327              1
      6592.0000         1.0379       1056.395         0.7448       -45.6442        -0.3612              1
      6592.5000         1.0236       1110.367         0.7017       -45.1734         0.1096              1
      6593.0000         0.9984       1245.945         0.6587        -44.726          0.557              1
      6593.5000          0.971       1349.301         0.6126       -44.5551         0.7279              1
      6594.0000         0.9362        1452.66         0.5924       -44.3842         0.8988              1
      6594.5000         0.9158        1556.02         0.5737       -44.2132         1.0698              1
      6595.0000         0.8931       1648.492         0.5535       -44.1358         1.1472              1
      6595.5000         0.8546       1715.836         0.5329       -44.1834         1.0996              1
      6596.0000         0.8346       1835.254         0.5124       -44.2311         1.0519              1
      6596.5000         0.8233       1877.426         0.4918       -44.2787         1.0043              1
      6597.0000         0.8184       1896.516         0.4836       -44.3262         0.9568              1
      6597.5000         0.8196        1907.23         0.4771       -44.3721         0.9109              1
      6598.0000         0.8307       1896.195         0.4784       -44.3969         0.8861              1
      6598.5000         0.8675       1883.055         0.4976       -44.4216         0.8614              1
      6599.0000         0.9074       1857.129         0.5168       -44.4464         0.8366              1
      6599.5000         0.9252       1822.102         0.5374       -44.4711         0.8119              1
      6600.0000         0.9459       1702.438         0.5622       -44.4958         0.7872              1
      6600.5000         0.9718       1484.289         0.5869       -44.4904         0.7926              1
      6601.0000         0.9952       1390.586         0.6116       -44.4428         0.8402              1
      6601.5000         1.0115       1362.258         0.6367       -44.3953         0.8877              1
      6602.0000         1.0197        1345.73         0.6643       -44.3478         0.9352              1
      6602.5000         1.0221       1330.152         0.6913       -44.3003         0.9827              1
      6603.0000         1.0133       1315.828         0.7128       -44.2676         1.0154              1
      6603.5000         0.9787       1306.023         0.7343       -44.2569         1.0261              1
      6604.0000         0.9545       1307.934         0.7321       -44.2462         1.0368              1
      6604.5000         0.9368       1345.164          0.721       -44.2355         1.0475              1
      6605.0000         0.9244       1396.008         0.7052       -44.2588         1.0242              1
      6605.5000         0.9131       1436.648         0.6861       -44.2963         0.9867              1
      6606.0000         0.9028        1484.98          0.667       -44.3339         0.9491              1
      6606.5000         0.8892        1531.09         0.6479       -44.3714         0.9116              1
      6607.0000         0.8701       1570.355         0.6289       -44.4352         0.8478              1
      6607.5000         0.8594       1603.141         0.6125       -44.5281         0.7549              1
      6608.0000         0.8653       1609.523         0.6071       -44.6211         0.6619              1
      6608.5000         0.8746       1595.457         0.6016       -44.7141         0.5689              1
      6609.0000         0.8838       1581.699         0.5962       -44.6484         0.6346              1
      6609.5000          0.879        1567.93         0.5908       -44.4832         0.7998              1
      6610.0000         0.8672       1573.398         0.5854       -44.2729         1.0101              1
      6610.5000         0.8558       1584.309         0.5814       -44.0626         1.2204              1
      6611.0000         0.8462       1595.777         0.5799       -43.8523         1.4307              1
      6611.5000         0.8388       1611.762         0.5785       -43.7706         1.5124              1
      6612.0000         0.8314       1627.773          0.577       -43.7363         1.5467              1
      6612.5000         0.8283       1643.785         0.5756        -43.702          1.581              1
