#------------------------------------------------------------------------------
# Created by    : vladimir.rabinovich
# Created on    : 09/19/2023 17:21:45
#------------------------------------------------------------------------------
~Version Information Section
VERS.           2.0     :   CWLS log ASCII Standard - VERSION 2.0
WRAP.           NO      :   One line per depth step
~Well Information Section
#MNEM       .UNIT                                         VALUE :DESCRIPTION
#------------------------------------------------------------------------------
STRT        .FT                                            4296 :START DEPTH
STOP        .FT                                         10848.5 :STOP DEPTH
STEP        .FT                                             0.5 :STEP      
NULL        .                                           -999.25 :NULL      
COMP        .                                 CHEVRON U S A INC :COMPANY   
WELL        .                               OCS G07271 ST00BP00 :WELL      
FLD         .                                           WILDCAT :FIELD     
LOC         .                                                   :LOCATION  
CNTY        .                           HIGH ISLAND LARGE BLOCK :LOCATION  
STAT        .                                             TEXAS :STATE     
CTRY        .                                     UNITED STATES :COUNTRY   
SRVC        .                                                   :SERVICE COMPANY
DATE        .                             9/13/2023 11:19:59 AM :LOG DATE  
API         .                                    42708403180000 :API NUMBER
UWI         .                                    42708403180000 :UNIQUE WELL ID
XCOORD      .                                  1325118.04890174 :SURFACE X 
YCOORD      .                                  10672078.9744079 :SURFACE Y 
LAT         .                                          29.40291 :LATITUDE  
LON         .                                        -93.990507 :LONGITUDE 
ELEV        .FT                                              89 :ELEVATION VALUE
ELEV_TYPE   .                                                KB :ELEVATION REFERENCE TYPE
~Curve Information Section
#MNEM       .UNIT                                      API CODE :CURVE DESCRIPTION
#------------------------------------------------------------------------------
DEPT        .FT                                                 :DEPTH     
CALI        .IN                                                 :          
DRHO        .G/C3                                               :          
DTLN        .US/F                                               :          
GR          .GAPI                                               :          
GR_1        .GAPI                                               :          
GR_NORM     .GAPI                                               :GammaRay Normalized
ILD         .OHMM                                               :          
ILM         .OHMM                                               :          
NPHI        .%                                                  :          
RHOB        .G/C3                                               :          
SFL         .OHMM                                               :          
SP          .MV                                                 :          
SP_NORM     .MV                                                 :SP Normalized
VSH_GR      .V/V                                                :Volume of Shale from GR
VSH_SP      .V/V                                                :Volume of Shale from SP
~A        DEPTH           CALI           DRHO           DTLN             GR           GR_1        GR_NORM            ILD            ILM           NPHI           RHOB            SFL             SP        SP_NORM         VSH_GR         VSH_SP
# ...
      9549.0000        15.2204        -0.0135        -999.25        -999.25        60.2891       76.98846         0.8904         0.9095        40.1082         2.3126         0.9106       -25.3989       4.536688      0.9359248              1
      9549.5000        15.1599        -0.0132        -999.25        -999.25         61.489       78.46983         0.8761          0.891        39.8359         2.3037         0.9276        -25.564       4.365591      0.9674431              1
      9550.0000        15.1375        -0.0123        -999.25        -999.25        61.8358       78.89797         0.8611         0.8574        37.3726         2.2942         0.9491       -25.6558       4.267792      0.9765526              1
      9550.5000        15.2303        -0.0103        -999.25        -999.25        61.4976       78.48044         0.8464          0.825        39.9377         2.2841         0.9471       -25.7478       4.169794      0.9676689              1
      9551.0000        15.3845        -0.0083        -999.25        -999.25        60.6935       77.48773         0.8151         0.7926        41.9732         2.2729         0.9129       -25.6844       4.227196      0.9465475              1
      9551.5000         15.436        -0.0079        -999.25        -999.25        60.2224       76.90613         0.7823         0.7614        43.8105         2.2652         0.8554       -25.5721       4.333498      0.9341729              1
      9552.0000        15.4268        -0.0084        -999.25        -999.25        60.1987       76.87686         0.7508         0.7333        43.2247         2.2625         0.7906       -25.4594       4.440201      0.9335502              1
      9552.5000        15.4078        -0.0099        -999.25        -999.25        60.3865       77.10871         0.7259         0.7121        42.8278         2.2599           0.74       -25.2189       4.674702      0.9384832              1
      9553.0000        15.3891        -0.0117        -999.25        -999.25        60.4246       77.15575         0.7022         0.6988         42.847         2.2549         0.7152       -24.9781       4.909504      0.9394841              1
      9553.5000         15.389         -0.014        -999.25        -999.25        60.2654       76.95921         0.6862         0.6875        42.7202         2.2493          0.698        -24.793       5.088608      0.9353024              1
      9554.0000        15.4425        -0.0168        -999.25        -999.25        60.5964       77.36785         0.6923         0.6897        42.7391         2.2459         0.6884       -24.6665       5.209108      0.9439968              1
      9554.5000        15.6079        -0.0184        -999.25        -999.25        61.0261       77.89835         0.6984         0.6918        43.8164          2.248         0.6928         -24.54       5.329611      0.9552839              1
      9555.0000        15.6473        -0.0193        -999.25        -999.25        61.1038       77.99426         0.7097         0.6947        46.1256         2.2578          0.722       -24.5071       5.356514      0.9573247              1
      9555.5000        15.6292        -0.0196        -999.25        -999.25        60.6382       77.41946         0.7267         0.7129        45.5975         2.2886         0.7887       -24.5449       5.312714      0.9450948              1
      9556.0000        15.5678        -0.0172        -999.25        -999.25        60.0198       76.65599         0.7442         0.7316        43.5945         2.3156         0.8411       -24.5827       5.268917      0.9288509              1
      9556.5000        15.5129        -0.0133        -999.25        -999.25         59.978        76.6044          0.753         0.7433         41.343         2.3142          0.867       -24.6317       5.213919      0.9277532              1
      9557.0000        15.5254        -0.0143        -999.25        -999.25        60.2885       76.98774         0.7558         0.7519        40.3474         2.2924         0.8594       -24.6848       5.154821      0.9359093              1
      9557.5000        15.6483        -0.0171        -999.25        -999.25        60.8214       77.64564         0.7586         0.7562        40.2624          2.286         0.8277        -24.738       5.095623      0.9499072              1
      9558.0000        15.8177        -0.0175        -999.25        -999.25        61.5258       78.51525         0.7523         0.7471        41.2646           2.29         0.7926       -24.6946       5.133026      0.9684096              1
      9558.5000        15.9246        -0.0173        -999.25        -999.25        62.2585       79.41982         0.7392         0.7382        41.9946         2.2971         0.7917       -24.5912       5.230429      0.9876558              1
      9559.0000        15.9502        -0.0182        -999.25        -999.25        62.7275       79.99884         0.7263         0.7247         42.056         2.2932         0.7947       -24.4877        5.32793      0.9999753              1
      9559.5000          15.95        -0.0203        -999.25        -999.25        62.0508       79.16341          0.714          0.704        41.6093         2.2772         0.7907       -24.2112       5.598431      0.9822003              1
      9560.0000         15.928        -0.0219        -999.25        -999.25        60.5546       77.31625          0.704          0.684        41.4022         2.2605         0.7666        -23.828       5.975636      0.9428989              1
      9560.5000        15.8522        -0.0219        -999.25        -999.25        60.0552        76.6997         0.6941         0.6748        43.6389         2.2565         0.7256       -23.7839       6.013737      0.9297808              1
      9561.0000        15.7346         -0.022        -999.25        -999.25        60.5534       77.31477         0.6848          0.673        46.7454         2.2569         0.7105        -24.208       5.583639      0.9428673              1
      9561.5000        15.5987        -0.0227        -999.25        -999.25        62.3151        79.4897         0.6911         0.6713        50.1508         2.2588         0.7024       -24.7939       4.991741      0.9891425              1
      9562.0000        15.4927        -0.0232        -999.25        -999.25        63.8039       81.32773         0.6975         0.6845        49.3786         2.2637         0.7129       -25.3008       4.478842              1              1
      9562.5000         15.413        -0.0239        -999.25        -999.25        64.1444        81.7481         0.7179         0.7011         46.778         2.2737         0.7292       -25.1345       4.639145              1              1
      9563.0000        15.3594        -0.0249        -999.25        -999.25        63.7399       81.24871         0.7423         0.7251        44.8193         2.2856         0.7685       -24.9376       4.830048              1              1
      9563.5000        15.3271        -0.0256        -999.25        -999.25        62.3004       79.47155         0.7682         0.7523        42.0649         2.2993         0.8101       -24.6544       5.107248      0.9887564              1
      9564.0000        15.3145        -0.0248        -999.25        -999.25        60.3677        77.0855         0.7963         0.7766        40.1588         2.3109         0.8544       -24.5856       5.170052      0.9379894              1
      9564.5000        15.3143        -0.0191        -999.25        -999.25        58.5778       74.87575           0.81         0.8003        40.7794         2.3213         0.8858       -24.9185       4.831152      0.8909733              1
      9565.0000        15.3291        -0.0141        -999.25        -999.25        57.7283       73.82698         0.8222         0.8189        41.8208         2.3248         0.8921       -25.2747       4.468956      0.8686591              1
      9565.5000        15.3625        -0.0102        -999.25        -999.25        59.4949       76.00797         0.8211         0.8174        42.4481         2.3218         0.8782       -25.7082       4.029457      0.9150633              1
