#------------------------------------------------------------------------------
# Created by    : vladimir.rabinovich
# Created on    : 09/19/2023 17:21:20
#------------------------------------------------------------------------------
~Version Information Section
VERS.           2.0     :   CWLS log ASCII Standard - VERSION 2.0
WRAP.           NO      :   One line per depth step
~Well Information Section
#MNEM       .UNIT                                         VALUE :DESCRIPTION
#------------------------------------------------------------------------------
STRT        .FT                                            6712 :START DEPTH
STOP        .FT                                           10254 :STOP DEPTH
STEP        .FT                                             0.5 :STEP      
NULL        .                                           -999.25 :NULL      
COMP        .                                SHELL OFFSHORE INC :COMPANY   
WELL        .                               OCS G17145 ST00BP00 :WELL      
FLD         .                                           WILDCAT :FIELD     
LOC         .                                                   :LOCATION  
CNTY        .                           HIGH ISLAND LARGE BLOCK :LOCATION  
STAT        .                                             TEXAS :STATE     
CTRY        .                                     UNITED STATES :COUNTRY   
SRVC        .                                                   :SERVICE COMPANY
DATE        .                             9/13/2023 11:19:48 AM :LOG DATE  
API         .                                    42708404610000 :API NUMBER
UWI         .                                    42708404610000 :UNIQUE WELL ID
XCOORD      .                                  1236256.25309123 :SURFACE X 
YCOORD      .                                  10648843.7308139 :SURFACE Y 
LAT         .                                         29.336637 :LATITUDE  
LON         .                                        -94.268822 :LONGITUDE 
ELEV        .FT                                             110 :ELEVATION VALUE
ELEV_TYPE   .                                                KB :ELEVATION REFERENCE TYPE
~Curve Information Section
#MNEM       .UNIT                                      API CODE :CURVE DESCRIPTION
#------------------------------------------------------------------------------
DEPT        .FT                                                 :DEPTH     
CALI        .IN                                                 :          
CPCHM       .MMHO                                               :          
CPCM        .MMHO                                               :          
DFL         .OHMM                                               :          
DPHI        .%                                                  :          
DRHO        .G/C3                                               :          
DT          .US/F                                               :          
GR          .GAPI                                               :          
GR_NORM     .GAPI                                               :GammaRay Normalized
GRAM        .GAPI                                               :          
HDCN        .MMHO                                               :          
HDRS        .OHMM                                               :          
HMRS        .OHMM                                               :          
NPHI        .%                                                  :          
PE          .G/C3                                               :          
RACHM       .OHMM                                               :          
RACM        .OHMM                                               :          
RHOB        .G/C3                                               :          
ROPS        .F/HR                                               :          
RPCHM       .OHMM                                               :          
RPCM        .OHMM                                               :          
RPTHM       .MINS                                               :          
RPTM        .MINS                                               :          
SP01        .MV                                                 :          
TENS        .LBS                                                :          
VSH_GR      .V/V                                                :Volume of Shale from GR
~A        DEPTH           CALI          CPCHM           CPCM            DFL           DPHI           DRHO             DT             GR        GR_NORM           GRAM           HDCN           HDRS           HMRS           NPHI             PE          RACHM           RACM           RHOB           ROPS          RPCHM           RPCM          RPTHM           RPTM           SP01           TENS         VSH_GR
# ...
      9992.0000         9.0262       2161.434        -999.25         0.5302        20.1542        -0.0429       129.6592        58.0914       75.93814         80.064       2233.465         0.4477         0.4598        37.5673         7.5372          0.461        -999.25         2.3175         40.271          0.463        -999.25       134.7925        -999.25       477.6602       4609.148      0.9135774
      9992.5000         9.0343       2215.273        -999.25         0.5382        20.2752        -0.0376       130.9592        60.6191       75.02609        79.4139        2243.57         0.4457         0.4576         37.039         7.4715          0.458        -999.25         2.3155         21.798          0.451        -999.25       136.2861        -999.25       477.9678       4612.273      0.8941722
      9993.0000         9.0506       2212.891        -999.25         0.5304         19.709        -0.0384       133.2358        61.6489       73.25073        78.1499       2266.711         0.4412         0.4528         38.041         7.5039          0.455        -999.25         2.3248         21.798          0.452        -999.25       137.9897        -999.25       478.1743       4621.984      0.8563986
      9993.5000         9.0262       2210.156        -999.25         0.5007        19.7317        -0.0346       132.2295        60.4787       73.57632        78.3799       2302.898         0.4342         0.4456        38.8279         7.2195          0.457        -999.25         2.3244         26.646          0.452        -999.25       138.9294        -999.25       478.2656       4624.578      0.8633261
      9994.0000         9.0588       2209.566        -999.25         0.5099        20.7474        -0.0373       129.2217        61.2277       73.44487        78.2849       2325.512           0.43         0.4414        39.1364         7.3316          0.457        -999.25         2.3077         26.646          0.453        -999.25       139.6484        -999.25       478.2734       4635.172      0.8605291
      9994.5000         9.0099       2240.844        -999.25         0.5125        22.7494        -0.0528       127.4015        60.7595       73.24467         78.141       2316.801         0.4316         0.4434         37.976         8.0833          0.454        -999.25         2.2746         25.236          0.446        -999.25       140.1145        -999.25       478.3066       4642.664      0.8562697
      9995.0000         8.9774       2270.145        -999.25         0.5143        24.1595         -0.062        127.228        59.7297        73.7037        78.4659       2280.941         0.4384         0.4508        36.8019         8.9742          0.453        -999.25         2.2514         25.236          0.441        -999.25       140.5134        -999.25       478.3506       4638.055      0.8660363
      9995.5000         8.9937       2240.414        -999.25         0.5364        25.9114        -0.0773       128.3718        62.1638       73.87193         78.584       2238.039         0.4468         0.4597        36.6368         9.9256          0.457        -999.25         2.2225         32.217          0.446        -999.25       140.6262        -999.25       478.2295        4626.75      0.8696156
      9996.0000         8.9937       2166.602        -999.25         0.5512        26.2651        -0.0901        131.364        58.7935       76.41926        80.3939       2213.168         0.4518          0.465         37.431        10.3469          0.461        -999.25         2.2166         32.217          0.462        -999.25       140.7314        -999.25       478.1172       4608.539       0.923814
      9996.5000         9.0588       2207.348        -999.25         0.5382        24.2536        -0.0813        133.739        58.2318       77.23563        80.9729        2211.98         0.4521         0.4653        38.2534          10.84           0.46        -999.25         2.2498         24.578          0.453        -999.25        140.803        -999.25       478.1299       4601.414      0.9411837
      9997.0000         9.0913       2238.457        -999.25           0.55         22.234        -0.0725       130.0906        58.0446       77.55138        81.1959       2217.797         0.4509         0.4639        38.3434        10.3564          0.459        -999.25         2.2831         24.578          0.447        -999.25       140.9648        -999.25        478.123       4603.484      0.9479018
      9997.5000         9.0669       2159.492        -999.25         0.5398        20.7863        -0.0664        128.478        58.7935       77.40319         81.089       2223.598         0.4497         0.4622        38.3795        10.0495          0.469        -999.25          2.307         25.868          0.463        -999.25       141.1716        -999.25       478.0737       4611.633      0.9447488
      9998.0000         9.0506       2034.709        -999.25         0.5487        18.5927        -0.0434       128.4766        58.6531       76.05254         80.127        2234.52         0.4475         0.4597        38.4861         8.7377          0.473        -999.25         2.3432         25.868          0.491        -999.25       141.4338        -999.25       478.2598       4621.055      0.9160116
      9998.5000         9.1076       2137.129        -999.25         0.5185        19.8387        -0.0385       129.5515        59.6829       76.14188         80.189       2247.383          0.445         0.4571        37.3688         8.4499          0.471        -999.25         2.3227          47.89          0.468        -999.25       141.7573        -999.25       478.4033       4621.781      0.9179124
      9999.0000          9.132       2172.258        -999.25         0.5397        20.5526        -0.0437       127.7234        59.9637       78.54012        81.8929       2252.051          0.444         0.4562        38.1648         8.9254           0.46        -999.25         2.3109          47.89           0.46        -999.25       141.6914        -999.25       478.3403       4624.789      0.9689388
      9999.5000          9.132       2267.949        -999.25         0.5177        20.5788        -0.0409       125.8156        60.1042       79.19353         82.356       2242.508         0.4459         0.4579        38.0796         8.4827          0.454        -999.25         2.3104         28.366          0.441        -999.25       141.6255        -999.25       478.1699       4633.813       0.982841
     10000.0000         9.1076       2268.773        -999.25         0.5369        19.5896        -0.0338       127.8828        57.5764       78.67943        81.9889       2227.547         0.4489         0.4601        38.5292         7.9027          0.454        -999.25         2.3268         28.366          0.441        -999.25       141.4136        -999.25       477.9624       4648.445      0.9719027
     10000.5000         9.1401       2210.043        -999.25         0.5383        19.2412        -0.0265       129.2046        57.8573       73.54263         81.631       2221.359         0.4502         0.4614        37.6049          8.224          0.458        -999.25         2.3325          24.61          0.452        -999.25       141.1123        -999.25       477.6987       4669.227      0.8626092
     10001.0000         9.0994       2206.488        -999.25         0.5367        20.0638        -0.0426       128.6904        56.4062       72.12009         80.365       2212.816         0.4519         0.4642         38.076         9.0102          0.464        -999.25         2.3189          24.61          0.453        -999.25       140.5515        -999.25       477.3931       4693.633      0.8323424
     10001.5000         8.9286       2195.148        -999.25         0.5447        21.1858        -0.0494       130.6467        55.6104       71.92146        80.1869       2184.934         0.4577         0.4712        38.1773          8.426          0.461        -999.25         2.3004         15.922          0.456        -999.25        140.062        -999.25       477.1533       4714.617      0.8281162
