#------------------------------------------------------------------------------
# Created by    : vladimir.rabinovich
# Created on    : 09/19/2023 17:20:06
#------------------------------------------------------------------------------
~Version Information Section
VERS.           2.0     :   CWLS log ASCII Standard - VERSION 2.0
WRAP.           NO      :   One line per depth step
~Well Information Section
#MNEM       .UNIT                                         VALUE :DESCRIPTION
#------------------------------------------------------------------------------
STRT        .FT                                             325 :START DEPTH
STOP        .FT                                           10896 :STOP DEPTH
STEP        .FT                                             0.5 :STEP      
NULL        .                                           -999.25 :NULL      
COMP        .                                      GETTY OIL CO :COMPANY   
WELL        .                               OCS G03737 ST00BP00 :WELL      
FLD         .                                           WILDCAT :FIELD     
LOC         .                                                   :LOCATION  
CNTY        .                             GALVESTON LARGE BLOCK :LOCATION  
STAT        .                                             TEXAS :STATE     
CTRY        .                                     UNITED STATES :COUNTRY   
SRVC        .                                                   :SERVICE COMPANY
DATE        .                             9/13/2023 11:10:15 AM :LOG DATE  
API         .                                    42706400540000 :API NUMBER
UWI         .                                    42706400540000 :UNIQUE WELL ID
XCOORD      .                                  1098214.74516992 :SURFACE X 
YCOORD      .                                   10573216.961531 :SURFACE Y 
LAT         .                                         29.123847 :LATITUDE  
LON         .                                        -94.698615 :LONGITUDE 
ELEV        .FT                                              99 :ELEVATION VALUE
ELEV_TYPE   .                                                KB :ELEVATION REFERENCE TYPE
~Curve Information Section
#MNEM       .UNIT                                      API CODE :CURVE DESCRIPTION
#------------------------------------------------------------------------------
DEPT        .FT                                                 :DEPTH     
ASFL        .OHMM                                               :          
DT          .US/F                                               :          
DTL         .US/F                                               :          
GR          .GAPI                                               :          
GR_1        .GAPI                                               :          
GR_NORM     .GAPI                                               :GammaRay Normalized
ILD         .OHMM                                               :          
RHOB        .G/CC                                               :          
SP          .MV                                                 :          
SP_NORM     .MV                                                 :SP Normalized
VSH_GR      .V/V                                                :Volume of Shale from GR
VSH_SP      .V/V                                                :Volume of Shale from SP
~A        DEPTH           ASFL             DT            DTL             GR           GR_1        GR_NORM            ILD           RHOB             SP        SP_NORM         VSH_GR         VSH_SP
# ...
     10882.5000         0.3465       116.1824       117.2343        61.5615        74.7175        91.6631          0.284         2.3685       -42.4561        -3.4028              1         0.9384
     10883.0000          0.345       116.4907       117.4283        61.2618        74.7101        91.1714         0.2844         2.3638       -42.4719        -3.4186              1          0.938
     10883.5000         0.3434       116.4738       117.2637        60.2413        74.7025        89.4973         0.2846         2.3455       -42.4595        -3.4062              1         0.9383
     10884.0000         0.3418       116.3499       116.8039        60.1928        74.6951        89.4177         0.2848         2.3222        -42.447        -3.3937              1         0.9386
     10884.5000         0.3405       116.2244       116.6343        60.8032        74.6876        90.4191          0.285          2.321       -42.4344        -3.3811              1         0.9389
     10885.0000         0.3417       116.2335       116.7989        61.3928        74.6792        91.3863         0.2851          2.339       -42.4219        -3.3686              1         0.9393
     10885.5000          0.343       116.3805       116.9969        60.9803        74.6709        90.7096         0.2853         2.3643       -42.4058        -3.3525              1         0.9397
     10886.0000         0.3443       116.5492       117.1997        60.1055        74.6625        89.2745         0.2855        -999.25       -42.3878        -3.3345              1         0.9401
     10886.5000         0.3456       116.6326       117.1401        59.4302        74.6542        88.1667         0.2857        -999.25       -42.3699        -3.3166              1         0.9406
     10887.0000         0.3469       116.4199       116.6775         59.283        74.6459        87.9252         0.2859        -999.25       -42.3519        -3.2986              1         0.9411
     10887.5000         0.3476       116.3528       116.5051        59.0972        74.6375        87.6204         0.2861        -999.25        -42.334        -3.2807              1         0.9415
     10888.0000         0.3481       116.4384       116.4621        57.1388        74.6292        84.4076         0.2863        -999.25       -42.3394        -3.2861              1         0.9414
     10888.5000         0.3485       116.6105       116.6534        55.9412        74.6207         82.443         0.2864        -999.25       -42.3697        -3.3164              1         0.9406
     10889.0000          0.349       116.7915       116.8637        56.2214        74.6124        82.9026         0.2878        -999.25       -42.4001        -3.3468              1         0.9398
     10889.5000         0.3495       116.9515       117.1676        57.0745        74.6246        84.3021         0.2896        -999.25       -42.4304        -3.3771              1          0.939
     10890.0000           0.35       117.0688       117.4184        57.8838        74.6414        85.6298         0.2914        -999.25       -42.4601        -3.4068              1         0.9383
     10890.5000         0.3505       117.1522       117.6525        58.2035         74.658        86.1543         0.2931        -999.25       -42.4842        -3.4309              1         0.9377
     10891.0000          0.351       117.2081       117.8192        58.3992        74.6747        86.4753         0.2949        -999.25       -42.5082        -3.4549              1         0.9371
     10891.5000         0.3514       117.2073       117.8273        58.5284        74.6914        86.6873         0.2966        -999.25       -42.5322        -3.4789              1         0.9364
     10892.0000         0.3504       117.2372       117.8356        58.6425         74.708        86.8744         0.2987        -999.25       -42.5563         -3.503              1         0.9358
     10892.5000         0.3483       117.2385       117.8005        57.0175        74.7247        84.2086         0.3008        -999.25       -42.5803         -3.527              1         0.9352
     10893.0000         0.3463       117.2291        -999.25        55.1003        74.7413        81.0635          0.303        -999.25       -42.6206        -3.5673              1         0.9342
     10893.5000         0.3442       117.2302        -999.25        54.0162        74.7581         79.285         0.3052        -999.25       -42.6967        -3.6434         0.9848         0.9322
     10894.0000         0.3421       117.2313        -999.25        54.7606        74.7743        80.5062         0.3075        -999.25       -42.9965        -3.9432              1         0.9245
     10894.5000         0.3392       117.2296        -999.25        58.8763        74.7903         87.258         0.3098        -999.25        -43.384        -4.3307              1         0.9146
     10895.0000         0.3357       117.2185        -999.25        62.5771        74.8063        93.3292         0.3121        -999.25       -43.7015        -4.6482              1         0.9065
     10895.5000         0.3323       117.1959        -999.25         63.924        74.8223        95.5388         0.3145        -999.25        -43.955        -4.9017              1            0.9
     10896.0000         0.3289       117.1733        -999.25         61.701        74.8383        91.8919         0.3168        -999.25       -44.1636        -5.1103              1         0.8946
