#------------------------------------------------------------------------------
# Created by    : vladimir.rabinovich
# Created on    : 09/19/2023 17:21:34
#------------------------------------------------------------------------------
~Version Information Section
VERS.           2.0     :   CWLS log ASCII Standard - VERSION 2.0
WRAP.           NO      :   One line per depth step
~Well Information Section
#MNEM       .UNIT                                         VALUE :DESCRIPTION
#------------------------------------------------------------------------------
STRT        .FT                                            4500 :START DEPTH
STOP        .FT                                            8225 :STOP DEPTH
STEP        .FT                                             0.5 :STEP      
NULL        .                                           -999.25 :NULL      
COMP        .                             WALTER OIL & GAS CORP :COMPANY   
WELL        .                               OCS G08132 ST00BP00 :WELL      
FLD         .                              GALVESTON BLOCK 0385 :FIELD     
LOC         .                                                   :LOCATION  
CNTY        .                             GALVESTON LARGE BLOCK :LOCATION  
STAT        .                                             TEXAS :STATE     
CTRY        .                                     UNITED STATES :COUNTRY   
SRVC        .                                                   :SERVICE COMPANY
DATE        .                             9/13/2023 11:19:34 AM :LOG DATE  
API         .                                    42706402490000 :API NUMBER
UWI         .                                    42706402490000 :UNIQUE WELL ID
XCOORD      .                                  1009947.10754335 :SURFACE X 
YCOORD      .                                  10405011.8756564 :SURFACE Y 
LAT         .                                         28.657556 :LATITUDE  
LON         .                                        -94.966279 :LONGITUDE 
ELEV        .FT                                             101 :ELEVATION VALUE
ELEV_TYPE   .                                                KB :ELEVATION REFERENCE TYPE
~Curve Information Section
#MNEM       .UNIT                                      API CODE :CURVE DESCRIPTION
#------------------------------------------------------------------------------
DEPT        .FT                                                 :DEPTH     
CALI        .IN                                                 :          
DPHI        .%                                                  :          
DRHO        .G/C3                                               :          
GR          .GAPI                                               :          
GR_NORM     .GAPI                                               :GammaRay Normalized
ILD         .OHMM                                               :          
ILM         .OHMM                                               :          
NPHI        .%                                                  :          
SFL         .OHMM                                               :          
SP          .MV                                                 :          
SP_NORM     .MV                                                 :SP Normalized
VSH_GR      .V/V                                                :Volume of Shale from GR
VSH_SP      .V/V                                                :Volume of Shale from SP
~A        DEPTH           CALI           DPHI           DRHO             GR        GR_NORM            ILD            ILM           NPHI            SFL             SP        SP_NORM         VSH_GR         VSH_SP
# ...
      5336.0000        10.3091        23.7505        -0.0095        92.2906       85.85827         0.7051         0.6689        41.6359         0.7395       -80.4377      -1.846745              1      0.9692209
      5336.5000        10.2882        24.1792        -0.0107        91.0065       84.52066          0.698         0.6624        41.6732         0.7325        -80.588      -2.028662              1       0.966189
      5337.0000        10.2672        24.5891        -0.0122        88.6619       82.07838          0.691         0.6565        41.6979         0.7281       -80.4578      -1.883336              1      0.9686111
      5337.5000         10.242          24.98        -0.0135        87.6128       80.98556         0.6841         0.6506        41.8356         0.7236       -80.1171      -1.492424              1      0.9751263
      5338.0000        10.2166        25.1472        -0.0136        87.9663       81.35379         0.6777          0.648         42.179         0.7194       -80.1154      -1.496999              1        0.97505
      5338.5000        10.2091        25.0286        -0.0138        87.5775       80.94878         0.6716         0.6486        42.8171         0.7258       -80.1556      -1.550467              1      0.9741589
      5339.0000        10.2353         24.579        -0.0138        86.4059       79.72837         0.6656         0.6492        44.1262         0.7323       -80.1958      -1.603935      0.9942207      0.9732677
      5339.5000         10.272        24.4435        -0.0139        84.5634        77.8091         0.6606         0.6498        44.4777          0.742       -80.2819      -1.710951      0.9533851      0.9714841
      5340.0000        10.3112        24.3677        -0.0139        82.1575       75.30296         0.6622         0.6508        43.2899         0.7582       -80.3997      -1.854951      0.9000629      0.9690841
      5340.5000        10.2972         24.343        -0.0142        81.9126       75.04784         0.6638         0.6537        42.0421         0.7664       -80.4303      -1.897222       0.894635      0.9683796
      5341.0000        10.2723        24.2985        -0.0146        85.9774       79.28202         0.6654         0.6566        40.8729         0.7662        -80.174      -1.604781      0.9847239      0.9732537
      5341.5000        10.2498        23.8927        -0.0149        87.8936       81.27806         0.6668         0.6596        39.7859         0.7641       -80.1262      -1.555576              1      0.9740737
      5342.0000        10.2282        23.5003        -0.0153         86.527       79.85452         0.6663         0.6622        39.0169          0.773       -80.3125      -1.779498      0.9969046      0.9703417
      5342.5000         10.209        23.1237        -0.0153        85.2654       78.54035         0.6658         0.6648        38.5853         0.7832       -80.5283       -2.03783      0.9689437      0.9660361
      5343.0000        10.1897        23.0344        -0.0153        84.7588       78.01263         0.6652         0.6673        39.5959         0.7768       -80.7966      -2.357419      0.9577156      0.9607097
      5343.5000         10.173        23.1414        -0.0153        85.3722        78.6516         0.6622         0.6696        41.9957         0.7522       -80.7941      -2.361069      0.9713106      0.9606488
      5344.0000        10.1585        23.2849        -0.0151        86.3734       79.69451         0.6589         0.6678        44.1187         0.7243       -80.6228      -2.167793      0.9935002      0.9638701
      5344.5000        10.1436        23.6413         -0.015        87.1991       80.55462         0.6556          0.666        45.5864         0.7049       -80.7742      -2.350993              1      0.9608168
      5345.0000        10.1201        23.9903        -0.0149         87.038       80.38681         0.6568         0.6644        46.6165          0.715       -80.8898      -2.492429              1      0.9584595
      5345.5000        10.0982        24.2501        -0.0149        85.9762       79.28076         0.6589         0.6643         47.185         0.7292       -80.7123      -2.291917       0.984697      0.9618014
      5346.0000        10.0819        24.3284        -0.0149         85.068       78.33472          0.661         0.6642        46.8775         0.7513        -80.507      -2.058961      0.9645686       0.965684
      5346.5000        10.0682        24.1852        -0.0151         85.163       78.43369          0.664         0.6645        45.0927         0.7695       -80.4048      -1.946293      0.9666741      0.9675618
      5347.0000        10.0602        24.1523        -0.0152        85.4771       78.76086          0.667         0.6681        43.1537           0.78       -80.5557      -2.128914      0.9736354      0.9645181
      5347.5000        10.0521        24.1693        -0.0154        86.1147       79.42504         0.6701         0.6718        41.3135         0.7873       -80.7089      -2.314214      0.9877669      0.9614298
      5348.0000        10.0589        24.3466        -0.0156         86.838       80.17847         0.6737         0.6754        40.2505         0.7795         -80.87      -2.508736              1      0.9581878
      5348.5000        10.0688        24.4092        -0.0155        87.8324        81.2143         0.6774         0.6741        40.0635         0.7706       -81.0311      -2.703248              1      0.9549459
      5349.0000        10.0874        24.2441        -0.0155        89.0092       82.44014         0.6802         0.6719        40.0742         0.7674       -81.1118      -2.803972              1      0.9532672
      5349.5000        10.1084        24.2648        -0.0149        90.3182       83.80368         0.6807         0.6697        40.2164         0.7712       -81.1637      -2.871085              1      0.9521486
      5350.0000        10.1093        23.8591         -0.008        91.6818        85.2241         0.6631         0.6726        41.6361         0.7652       -79.9053      -1.409521              1       0.976508
      5350.5000        10.0861        23.9256        -0.0076        92.3212       85.89014         0.6591         0.6659        42.8358         0.7554       -80.2233       -1.78709              1      0.9702151
      5351.0000        10.0765        24.0862         -0.007        92.2302       85.79535          0.655         0.6605        43.7087         0.7412       -80.4429      -2.049865              1      0.9658356
      5351.5000         10.085        24.3645        -0.0064        92.1545        85.7165         0.6511         0.6575        44.0886         0.7305       -80.3484      -1.946177              1      0.9675637
      5352.0000        10.1172        24.5443        -0.0059        92.3156       85.88431         0.6471         0.6616         43.827         0.7323       -80.2479      -1.835503              1      0.9694083
      5352.5000        10.1508        24.6591        -0.0056        92.0911       85.65046         0.6415         0.6714        43.4262         0.7384       -80.2047      -1.791665              1      0.9701389
      5353.0000         10.186        24.6843        -0.0057        91.0879       84.60545         0.6354          0.679        43.9671          0.745       -80.2219      -1.818306              1      0.9696949
      5353.5000        10.2139        24.7313        -0.0059        90.6229       84.12108         0.6314         0.6826        44.8453         0.7424       -80.0349      -1.606703              1      0.9732216
      5354.0000        10.2349        24.8265        -0.0062        91.7747       85.32087         0.6303         0.6846        45.8331         0.7345       -79.8162      -1.358117              1      0.9773647
      5354.5000         10.249        24.9664        -0.0064        93.6052       87.22765         0.6346         0.6839        46.6053          0.724       -79.5004     -0.9962489              1      0.9833959
