#------------------------------------------------------------------------------
# Created by    : vladimir.rabinovich
# Created on    : 09/19/2023 17:21:32
#------------------------------------------------------------------------------
~Version Information Section
VERS.           2.0     :   CWLS log ASCII Standard - VERSION 2.0
WRAP.           NO      :   One line per depth step
~Well Information Section
#MNEM       .UNIT                                         VALUE :DESCRIPTION
#------------------------------------------------------------------------------
STRT        .FT                                            4185 :START DEPTH
STOP        .FT                                            8075 :STOP DEPTH
STEP        .FT                                             0.5 :STEP      
NULL        .                                           -999.25 :NULL      
COMP        .                                         HESS CORP :COMPANY   
WELL        .                               OCS G07236 ST00BP00 :WELL      
FLD         .                              GALVESTON BLOCK 0210 :FIELD     
LOC         .                                                   :LOCATION  
CNTY        .                             GALVESTON LARGE BLOCK :LOCATION  
STAT        .                                             TEXAS :STATE     
CTRY        .                                     UNITED STATES :COUNTRY   
SRVC        .                                                   :SERVICE COMPANY
DATE        .                             9/13/2023 11:19:34 AM :LOG DATE  
API         .                                    42706402930000 :API NUMBER
UWI         .                                    42706402930000 :UNIQUE WELL ID
XCOORD      .                                   1127714.7472722 :SURFACE X 
YCOORD      .                                  10563055.4663979 :SURFACE Y 
LAT         .                                         29.097041 :LATITUDE  
LON         .                                        -94.605794 :LONGITUDE 
ELEV        .FT                                              89 :ELEVATION VALUE
ELEV_TYPE   .                                                KB :ELEVATION REFERENCE TYPE
~Curve Information Section
#MNEM       .UNIT                                      API CODE :CURVE DESCRIPTION
#------------------------------------------------------------------------------
DEPT        .FT                                                 :DEPTH     
CALI        .IN                                                 :          
DRHO        .G/CC                                               :          
DT          .US/F                                               :          
ILD         .OHMM                                               :          
ILM         .OHMM                                               :          
NPHI        .%                                                  :          
RFOC        .OHMM                                               :          
RHOB        .G/CC                                               :          
SP          .MV                                                 :          
SP_NORM     .MV                                                 :SP Normalized
VSH_SP      .V/V                                                :Volume of Shale from SP
~A        DEPTH           CALI           DRHO             DT            ILD            ILM           NPHI           RFOC           RHOB             SP        SP_NORM         VSH_SP
# ...
      4500.0000        13.3421         0.0041       132.4348         0.7476         0.7464        44.4424         0.9602         2.2044        -74.261       1.210701              1
      4500.5000         13.321         0.0037       134.0889         0.7504         0.7486        45.1406         0.9572         2.2022       -73.8815       1.590202              1
      4501.0000        13.2903         0.0033       135.7544         0.7519         0.7491         44.888         0.9352         2.2022       -74.5342         0.9375              1
      4501.5000        13.2645         0.0031       137.4993         0.7518         0.7488         44.082         0.9084         2.2064        -74.984      0.4877014              1
      4502.0000         13.266         0.0035       138.6155         0.7494         0.7472        42.2786         0.8964         2.2121       -74.8645      0.6072006              1
      4502.5000        13.2709         0.0042       138.5771         0.7469         0.7464        40.8333         0.9026         2.2184        -74.924       0.547699              1
      4503.0000        13.2703         0.0046       136.7896         0.7431         0.7449        40.2222         0.9214          2.225        -75.542    -0.07029724      0.9989958
      4503.5000        13.2711         0.0045       133.9875         0.7406         0.7427         39.138         0.9581         2.2321        -76.698      -1.226295      0.9824815
      4504.0000        13.2805         0.0044       131.2725         0.7393         0.7404        37.7673         1.0073         2.2409       -77.8521      -2.380394      0.9659944
      4504.5000        13.2944         0.0041       129.5898         0.7345         0.7383        37.5397         1.0474          2.242       -78.4911      -3.019394      0.9568658
      4505.0000        13.2995         0.0036        128.543         0.7277         0.7345        38.5566         1.0667         2.2405       -78.1866      -2.714897      0.9612157
      4505.5000        13.2915         0.0032       128.6052         0.7159         0.7232        40.2191         1.0404         2.2349       -76.5287      -1.056999         0.9849
      4506.0000        13.2171         0.0031         130.04         0.7053         0.7116        42.0638         0.9985         2.2284       -74.3463       1.125404              1
      4506.5000         13.086         0.0034       131.5305         0.6997         0.7014        43.1725         0.9511         2.2216       -73.1678       2.303902              1
      4507.0000        12.9628         0.0044        132.573         0.6918         0.6915        42.7698         0.9325         2.2159       -73.0101       2.461601              1
      4507.5000         12.843         0.0044       133.2161         0.6822         0.6797        41.6894         0.9424         2.2091       -74.2103       1.261406              1
      4508.0000        12.7626         0.0034       133.6584          0.671         0.6674        40.8784         0.9587         2.1926       -76.9032      -1.431496      0.9795501
      4508.5000        12.7144         0.0029       133.9209         0.6588          0.654        40.5583         0.9735         2.1837       -80.4346      -4.962898      0.9291015
      4509.0000        12.6762         0.0026       134.0828         0.6447         0.6427        40.5922         0.9844          2.179       -83.1119      -7.640198      0.8908543
      4509.5000        12.6422         0.0026        134.207         0.6315         0.6318        41.2473         0.9912         2.1753       -83.7273        -8.2556      0.8820629
      4510.0000         12.618         0.0031       134.3857         0.6212         0.6247        42.2031         0.9894         2.1714       -82.4606      -6.988899      0.9001586
      4510.5000        12.6075         0.0038       134.9619          0.614         0.6247        43.3216         0.9782         2.1684       -80.6371      -5.165398      0.9262086
      4511.0000        12.5981         0.0042       135.8621         0.6112         0.6298        43.5395         0.9531         2.1689       -80.6044      -5.132698      0.9266757
      4511.5000        12.5865          0.004       136.6807         0.6123         0.6361        43.5204         0.9279         2.1767       -81.3815      -5.909798      0.9155743
      4512.0000        12.5731         0.0033       137.2498         0.6135         0.6431        43.9217         0.9104         2.1832       -81.3539      -5.882195      0.9159687
      4512.5000        12.5597         0.0029       137.8313         0.6145         0.6494        45.6286         0.8987          2.184       -80.6749      -5.203194      0.9256687
      4513.0000        12.5531         0.0026       138.4956         0.6158          0.655        46.2516         0.8929         2.1789       -79.8055      -4.333794      0.9380887
      4513.5000         12.564         0.0025       139.2458         0.6158         0.6601        46.7545         0.8915         2.1678       -79.0134      -3.541695      0.9494044
      4514.0000        12.5953         0.0024       141.0498         0.6143         0.6604        46.7595         0.8953         2.1612       -79.1779        -3.7062      0.9470543
      4514.5000        12.6262         0.0023        143.761          0.611         0.6595        46.1774         0.8987         2.1635       -80.1486      -4.676895      0.9331872
      4515.0000        12.6448         0.0021       145.1738         0.6083         0.6574        45.6327         0.9063         2.1714       -82.4194      -6.947701      0.9007471
      4515.5000        12.6564         0.0018       145.3313         0.6063          0.656        45.4554         0.9531         2.1787       -85.6996       -10.2279      0.8538872
      4516.0000        12.6773         0.0013       144.0659         0.6051         0.6549        45.6004         1.0108         2.1706       -89.9182       -14.4465      0.7936215
      4516.5000        12.7285         0.0011       141.6362         0.6064         0.6544        46.0732         1.0303         2.1609       -95.2089       -19.7372        0.71804
      4517.0000        12.7872         0.0021       138.2944         0.6122         0.6568        44.6946         1.0373         2.1583        -99.384       -23.9123      0.6583957
      4517.5000        12.8494         0.0042       134.8152         0.6232          0.666        42.4732         0.9848         2.1571       -99.8546       -24.3829      0.6516729
      4518.0000        12.9134         0.0068       132.0652         0.6384         0.6849        37.3345         0.8947          2.161        -98.176       -22.7043      0.6756529
      4518.5000        12.9521         0.0071       128.1526         0.6588         0.7254        33.3027         0.8877         2.1951       -97.5128       -22.0411      0.6851271
      4519.0000        12.9872         0.0054       120.0293         0.6807         0.7801        30.0555         0.9459          2.244       -98.2466      -22.77489      0.6746444
      4519.5000        13.0192        -0.0008       113.9634         0.7068         0.8445        26.7755         1.1542         2.2785      -100.9355       -25.4638      0.6362314
      4520.0000        13.0722        -0.0055       106.3357         0.7386         0.8976        24.3891         1.4974         2.2717      -105.4723       -30.0006      0.5714201
      4520.5000        13.1231        -0.0042        98.3745         0.7961         0.9279        22.4215           1.58         2.2513      -111.8914       -36.4197      0.4797186
      4521.0000        13.1511        -0.0005       105.9309         0.9522         0.9473        21.4206         1.5639         2.2405      -116.0459      -40.57486      0.4203591
      4521.5000          13.13         0.0028       136.5249          1.045         0.9897        21.2678         1.5729         2.2512      -119.0079      -43.54195      0.3779721
      4522.0000          13.06          0.005       154.2686         1.1019         1.0778        20.7177         1.7481         2.3161       -119.281      -43.82015      0.3739978
