#------------------------------------------------------------------------------
# Created by    : vladimir.rabinovich
# Created on    : 09/19/2023 17:21:04
#------------------------------------------------------------------------------
~Version Information Section
VERS.           2.0     :   CWLS log ASCII Standard - VERSION 2.0
WRAP.           NO      :   One line per depth step
~Well Information Section
#MNEM       .UNIT                                         VALUE :DESCRIPTION
#------------------------------------------------------------------------------
STRT        .FT                                            4500 :START DEPTH
STOP        .FT                                           11014 :STOP DEPTH
STEP        .FT                                             0.5 :STEP      
NULL        .                                           -999.25 :NULL      
COMP        .                              FIELDWOOD ENERGY LLC :COMPANY   
WELL        .                               OCS G06156 ST00BP00 :WELL      
FLD         .                            HIGH ISLAND BLOCK 0116 :FIELD     
LOC         .                                                   :LOCATION  
CNTY        .                           HIGH ISLAND LARGE BLOCK :LOCATION  
STAT        .                                             TEXAS :STATE     
CTRY        .                                     UNITED STATES :COUNTRY   
SRVC        .                                                   :SERVICE COMPANY
DATE        .                             9/13/2023 11:19:57 AM :LOG DATE  
API         .                                    42708404240000 :API NUMBER
UWI         .                                    42708404240000 :UNIQUE WELL ID
XCOORD      .                                  1333979.30181128 :SURFACE X 
YCOORD      .                                  10635798.2403082 :SURFACE Y 
LAT         .                                         29.303317 :LATITUDE  
LON         .                                        -93.961735 :LONGITUDE 
ELEV        .FT                                             101 :ELEVATION VALUE
ELEV_TYPE   .                                                KB :ELEVATION REFERENCE TYPE
~Curve Information Section
#MNEM       .UNIT                                      API CODE :CURVE DESCRIPTION
#------------------------------------------------------------------------------
DEPT        .FT                                                 :DEPTH     
AT10        .OHMM                                               :          
AT20        .OHMM                                               :          
AT30        .OHMM                                               :          
AT60        .OHMM                                               :          
AT90        .OHMM                                               :          
CALI        .IN                                                 :          
DCAL        .IN                                                 :          
DPHI        .DEC                                                :          
DRHO        .G/C3                                               :          
DT2R        .US/F                                               :          
DT4P        .US/F                                               :          
GR          .GAPI                                               :          
GR_NORM     .GAPI                                               :GammaRay Normalized
NPOR        .DEC                                                :          
SP          .MV                                                 :          
SP_NORM     .MV                                                 :SP Normalized
TENS        .LBF                                                :          
VSH_GR      .V/V                                                :Volume of Shale from GR
VSH_SP      .V/V                                                :Volume of Shale from SP
~A        DEPTH           AT10           AT20           AT30           AT60           AT90           CALI           DCAL           DPHI           DRHO           DT2R           DT4P             GR        GR_NORM           NPOR             SP        SP_NORM           TENS         VSH_GR         VSH_SP
# ...
      9711.0000         8.7849         56.387        63.5977        63.8033       186.1934        -999.25         0.1996         0.3311        -0.0824        189.012       104.1453        27.9554       37.79707         0.1736       -65.6671      -26.25687       3666.664      0.1020654      0.6249018
      9711.5000         7.5482        31.0504        53.8213        41.5355       230.0984        -999.25         0.2196         0.3305        -0.0764       185.8149       103.1465         26.252       35.65508          0.182       -66.4192      -27.35654       3646.703     0.05649112      0.6091922
      9712.0000         6.5456        23.2121        13.4782        33.5048       212.4568        -999.25         0.1996         0.3245        -0.0703       182.6953       102.2667        24.7489       33.76495          0.188        -66.901      -28.06204       3646.703     0.01627561      0.5991137
      9712.5000         5.8874        16.6242        10.5549         32.938       116.2251        -999.25         0.1796         0.3126        -0.0673       180.7163       101.4728        22.5451       30.99372          0.188       -67.6617      -29.17425       3616.766              0       0.583225
      9713.0000         5.8553        14.3802         9.9345        38.7957        67.5284        -999.25         0.1198         0.3042        -0.0673       179.1387       100.6785        22.8459       31.37196         0.1838       -68.2703      -30.06466       3596.805              0      0.5705048
      9713.5000         6.2486        13.6195         9.6807        31.2514        50.9667        -999.25         0.0798          0.297        -0.0693       178.3596        99.5854        24.1474       33.00858         0.1778       -68.2777      -30.07831       3586.766   0.0001826185      0.5703098
      9714.0000         6.9767        12.6269         9.2947        20.7901        39.0549        -999.25         0.0399         0.2898        -0.0733       179.5784        97.3922        26.9561       36.54047         0.1778       -67.6826      -29.21332       3566.863     0.07532915      0.5826668
      9714.5000         7.3041         8.3711         8.0754         9.9603        22.0842        -999.25           0.02         0.2773        -0.0703        181.594        95.9982         29.259       39.43633         0.1868       -66.6377      -27.69237       3566.863      0.1369431      0.6043947
      9715.0000         4.8703         6.0396         4.0983         4.7939        11.9817        -999.25         0.0599         0.2551        -0.0613        184.812        94.5046        32.9659       44.09768          0.197       -65.1407      -25.51211       3566.863      0.2361209      0.6355413
      9715.5000         2.8942         3.5427         2.2946         2.7479         6.4946        -999.25         0.0799          0.215        -0.0483       189.6284        93.8103        37.3735       49.64016          0.203       -63.0418      -22.45408       3576.887       0.354046      0.6792274
      9716.0000         1.8359         2.6643         1.7217         2.0419         3.5236        -999.25         0.1389         0.1797        -0.0373       194.0437        94.0151        42.9885       56.70092         0.2215       -60.6422      -18.95752       3586.797      0.5042749      0.7291782
      9716.5000         1.6953         1.7513         1.3984         1.5485         1.9117        -999.25         0.2794         0.1491        -0.0263       199.6582        94.6199        48.5966       63.75301         0.2449       -58.3928      -15.68001       3616.766      0.6543193      0.7759998
      9717.0000         1.6179           1.28         1.2554         1.2644         1.3623        -999.25         0.3992         0.1347        -0.0192       201.6763         95.324        50.4011       66.02214         0.2587       -56.1445       -12.4041       3626.746      0.7025988      0.8227986
      9717.5000         1.4659         1.1589         1.1488         1.1504         1.2013        -999.25          0.499         0.1263        -0.0142       204.4934        96.3281        52.5048        68.6675         0.2641       -54.6466      -10.22252       3626.746      0.7588831      0.8539639
      9718.0000         1.3362         1.1043         1.1107         1.0956         1.1355        -999.25         0.6188         0.1198        -0.0092       205.3125         96.433         54.209        70.8105         0.2671       -52.8495      -7.604613       3626.746      0.8044788      0.8913627
      9718.5000          1.317          1.073         1.0913         1.0757         1.0992        -999.25         0.7385         0.1144        -0.0052       206.1318         96.438        56.1124       73.20399         0.2737       -51.3516      -5.423044       3626.746      0.8554041       0.922528
      9719.0000         1.2861         1.0559          1.081         1.0613         1.0725        -999.25         0.7784         0.1102        -0.0032       206.5513        96.3431        56.9138       74.21173         0.2695       -50.6069      -4.339886       3616.766      0.8768454      0.9380016
      9719.5000         1.1899         1.0426         1.0708         1.0537         1.0523        -999.25         0.8184         0.1066        -0.0052       206.9709        96.1483        55.0096       71.81724         0.2539       -50.3134      -3.914726       3606.785      0.8258987      0.9440753
      9720.0000         1.1111         1.0261         1.0374         1.0515         1.0377        -999.25         0.8383         0.1078        -0.0072        206.991        95.8536        53.0056       69.29724         0.2545       -50.1705      -3.709197       3596.805      0.7722817      0.9470115
      9720.5000         1.0739         0.9973         0.9994         0.9997         1.0065        -999.25         0.8782          0.112        -0.0102       208.2097         95.459        51.8036       67.78575         0.2563       -49.7266      -3.064701       3606.785      0.7401224      0.9562185
      9721.0000         1.0468          0.969         0.9566         0.9543         0.9696        -999.25         0.8982         0.1192        -0.0152       210.2292        95.8635         52.505       68.66776         0.2617       -49.1323      -2.200879       3586.824      0.7588884      0.9685588
      9721.5000          1.027         0.9163          0.918          0.924         0.9394        -999.25         0.8982         0.1216        -0.0182       213.4463        96.6677        55.4119       72.32313         0.2677        -48.538      -1.337052       3566.863      0.8366623      0.9808993
      9722.0000         0.9974         0.8736         0.9062         0.9005         0.9167        -999.25         0.9182          0.121        -0.0212       216.5835        96.8531        58.2174         75.851         0.2695       -48.3651       -1.08777       3566.863      0.9117234      0.9844604
      9722.5000         0.9717         0.8491         0.8864         0.8635          0.896        -999.25         0.9581         0.1204        -0.0263       218.5825        97.5524        59.7194       77.73974         0.2713       -48.5155      -1.309965       3566.863      0.9519093      0.9812862
      9723.0000         0.9261         0.8193         0.8453         0.7973         0.8557        -999.25         1.0181         0.1258        -0.0303       224.5796        98.2522        59.4179        77.3606         0.2802       -48.8164      -1.751637       3566.863      0.9438426      0.9749766
      9723.5000         0.8537         0.7825         0.7953         0.7516         0.8024        -999.25         1.1179         0.1263        -0.0303       232.5637       100.5485        57.9163       75.47237         0.2916       -48.5155       -1.31569       3586.824      0.9036674      0.9812045
      9724.0000         0.7979         0.7398         0.7577         0.7368         0.7648        -999.25         1.1178         0.1204        -0.0283       240.5576       102.7456        58.0165       75.59836         0.2916       -48.2146     -0.8797376       3606.785       0.906348      0.9874323
