#------------------------------------------------------------------------------
# Created by    : vladimir.rabinovich
# Created on    : 09/19/2023 17:20:04
#------------------------------------------------------------------------------
~Version Information Section
VERS.           2.0     :   CWLS log ASCII Standard - VERSION 2.0
WRAP.           NO      :   One line per depth step
~Well Information Section
#MNEM       .UNIT                                         VALUE :DESCRIPTION
#------------------------------------------------------------------------------
STRT        .FT                                             627 :START DEPTH
STOP        .FT                                            8077 :STOP DEPTH
STEP        .FT                                             0.5 :STEP      
NULL        .                                           -999.25 :NULL      
COMP        .                                    MOBIL OIL CORP :COMPANY   
WELL        .                               OCS G02338 ST00BP00 :WELL      
FLD         .                                           WILDCAT :FIELD     
LOC         .                                                   :LOCATION  
CNTY        .                             GALVESTON LARGE BLOCK :LOCATION  
STAT        .                                             TEXAS :STATE     
CTRY        .                                     UNITED STATES :COUNTRY   
SRVC        .                                                   :SERVICE COMPANY
DATE        .                             9/13/2023 11:18:53 AM :LOG DATE  
API         .                                    42706400220000 :API NUMBER
UWI         .                                    42706400220000 :UNIQUE WELL ID
XCOORD      .                                  948421.875172236 :SURFACE X 
YCOORD      .                                   10402667.405867 :SURFACE Y 
LAT         .                                         28.648189 :LATITUDE  
LON         .                                        -95.157922 :LONGITUDE 
ELEV        .FT                                              76 :ELEVATION VALUE
ELEV_TYPE   .                                                KB :ELEVATION REFERENCE TYPE
~Curve Information Section
#MNEM       .UNIT                                      API CODE :CURVE DESCRIPTION
#------------------------------------------------------------------------------
DEPT        .FT                                                 :DEPTH     
ASFL        .OHMM                                               :          
CALI        .IN                                                 :          
CILD        .MMHO                                               :          
DT          .US/F                                               :          
DT_1        .US/F                                               :          
GR          .GAPI                                               :          
GR_NORM     .GAPI                                               :GammaRay Normalized
ILD         .OHMM                                               :          
SFL         .OHMM                                               :          
SP          .MV                                                 :          
SP_NORM     .MV                                                 :SP Normalized
VSH_GR      .V/V                                                :Volume of Shale from GR
VSH_SP      .V/V                                                :Volume of Shale from SP
~A        DEPTH           ASFL           CALI           CILD             DT           DT_1             GR        GR_NORM            ILD            SFL             SP        SP_NORM         VSH_GR         VSH_SP
# ...
      2641.0000         0.9957        -999.25        1165.33        -999.25       158.9565        61.8423        78.9884         0.8305          0.957        -66.537      -1.848351      0.9784766              1
      2641.5000         0.9977        -999.25       1154.762        -999.25       159.9229        61.2778       78.41431         0.8286         0.9317        -67.119      -2.427406      0.9662619      0.9857531
      2642.0000         0.9986        -999.25       1144.197        -999.25       158.1326        60.5106       77.63753         0.8269         0.9087       -67.1204      -2.425865      0.9497346      0.9858045
      2642.5000         0.9996        -999.25       1133.629        -999.25       154.2825        59.7433       76.86064         0.8253         0.9084       -67.1458      -2.448318      0.9332051       0.985056
      2643.0000         1.0006        -999.25       1129.936        -999.25       151.8855        59.3195       76.42725         0.8247         0.9074       -67.3096      -2.609184      0.9239839      0.9796938
      2643.5000         1.0015        -999.25       1129.445        -999.25       151.8704        59.0238       76.12196         0.8263         0.8974       -68.1685      -3.465141      0.9174886       0.951162
      2644.0000          1.001        -999.25       1128.957        -999.25       151.1575        60.7607       77.84927          0.828         0.8885       -67.8842      -3.177895      0.9542398      0.9607369
      2644.5000         1.0004        -999.25       1128.467        -999.25       150.1003         61.582       78.66098         0.8354         0.8902        -67.759      -3.049759      0.9715102       0.965008
      2645.0000         0.9997        -999.25       1127.979        -999.25       149.2878        60.7595        77.8289          0.846          0.903       -68.0062      -3.294014      0.9538063      0.9568662
      2645.5000          0.999        -999.25       1127.488        -999.25       148.9963        60.5935       77.65331         0.8572         0.9161       -68.2812      -3.566071      0.9500703      0.9477977
      2646.0000         0.9983        -999.25           1127        -999.25       148.4646        60.9244       77.97462         0.8714         0.9223       -68.3835      -3.665428      0.9569069      0.9444857
      2646.5000         1.0018        -999.25       1126.512        -999.25       146.8984        59.7571       76.79773         0.8858         0.9458       -68.2015      -3.480484      0.9318666      0.9506505
      2647.0000         1.0057        -999.25       1122.488        -999.25       145.2029        58.5978       75.62885         0.8983         0.9786       -67.6613      -2.937347      0.9069967      0.9687551
      2647.5000         1.0096        -999.25           1117        -999.25       143.3437        57.5338       74.55525         0.9103         0.9782       -67.0302      -2.303299      0.8841543        0.98989
      2648.0000         1.0135        -999.25       1111.516        -999.25       141.3149        58.4343       75.44617         0.9214         0.9832       -67.1326      -2.402763      0.9031099      0.9865745
      2648.5000         1.0194        -999.25       1106.027        -999.25       140.4548        60.1933       77.19558         0.9324         0.9976       -66.9705      -2.237717      0.9403315      0.9920761
      2649.0000         1.0255        -999.25       1100.543        -999.25       142.0266        61.7595       78.75219         0.9368         0.9689       -66.7936      -2.057877      0.9734508      0.9980708
      2649.5000         1.0316        -999.25       1095.227        -999.25       143.6082        62.4993       79.48241         0.9399         0.9417       -67.3387      -2.600037      0.9889874      0.9799988
      2650.0000         1.0377        -999.25       1090.342        -999.25       145.3184        62.5421       79.51561         0.9169         0.9549       -66.7965      -2.054893      0.9896938      0.9981702
      2650.5000         1.0424        -999.25       1085.459        -999.25        146.323        61.5543       78.51823         0.9111         0.9344       -66.2506      -1.506058      0.9684729              1
      2651.0000         1.0411        -999.25       1080.574        -999.25       147.2478        60.9437       77.89804         0.9094         0.9266       -67.0881      -2.340607      0.9552774      0.9886464
      2651.5000          1.039        -999.25       1075.689        -999.25       148.0037        61.4241       78.36885         0.9106         0.9533       -68.0327      -3.282265      0.9652947      0.9572579
      2652.0000          1.036        -999.25       1070.807        -999.25        148.666        62.4042       79.33937         0.9182         0.9512       -68.4304      -3.677025       0.985944      0.9440992
      2652.5000         1.0329        -999.25       1065.922        -999.25        149.062        62.8513       79.77687         0.9259         0.9453       -68.2567      -3.500381      0.9952525      0.9499873
      2653.0000         1.0299        -999.25       1061.037        -999.25       147.3721        61.8928       78.80879         0.9263         0.9427       -67.6359      -2.876648      0.9746552      0.9707784
      2653.5000         1.0268        -999.25       1056.154        -999.25       145.0242         61.096        78.0024         0.9266          0.951       -67.0813      -2.319099      0.9574978      0.9893634
      2654.0000         1.0273        -999.25        1051.27        -999.25        143.259        60.4766       77.37341          0.927         0.9793       -67.5845      -2.819366      0.9441152      0.9726878
      2654.5000         1.0299        -999.25       1046.516        -999.25       142.2356        59.8572       76.74443         0.9256         1.0098       -68.3654      -3.597321      0.9307325       0.946756
      2655.0000         1.0325        -999.25       1044.521        -999.25       142.4521        59.7881       76.66574         0.9155         0.9875       -67.4915      -2.720474      0.9290583      0.9759842
      2655.5000         1.0351        -999.25       1042.529        -999.25         145.26        59.7812       76.64925         0.9056         0.9558        -66.618      -1.844032      0.9287074              1
      2656.0000         1.0349        -999.25       1040.535        -999.25       148.3198        60.0847       76.94316         0.8927         0.9304       -66.9471      -2.170189      0.9349609       0.994327
      2656.5000         1.0346        -999.25       1041.078        -999.25       151.4856        60.6255       77.47437         0.8799         0.9157       -67.8676      -3.087753      0.9462633      0.9637415
      2657.0000         1.0343        -999.25       1049.316        -999.25       153.3235        61.3388       78.17809         0.8632          0.911       -67.4321      -2.649307      0.9612359      0.9783564
      2657.5000         1.0289        -999.25       1057.551        -999.25       152.8484        62.5632        79.3929         0.8439         0.9101       -66.8268      -2.041061       0.987083      0.9986313
      2658.0000         1.0224        -999.25       1065.787        -999.25       151.9604        63.8003       80.62041         0.8268         0.9056       -67.2437      -2.455025              1      0.9848325
      2658.5000         1.0158        -999.25       1074.023        -999.25       151.0491        65.0895       81.90002         0.8107          0.899       -68.3984      -3.606781              1      0.9464406
      2659.0000         1.0092        -999.25        1087.65        -999.25       150.5745        66.2167       83.01763          0.792          0.878       -68.8846      -4.090042              1      0.9303319
      2659.5000         1.0022        -999.25       1106.143        -999.25       151.3533        67.0884       83.87975         0.7742         0.8613       -68.2982      -3.500702              1      0.9499766
