#------------------------------------------------------------------------------
# Created by    : vladimir.rabinovich
# Created on    : 09/19/2023 17:22:52
#------------------------------------------------------------------------------
~Version Information Section
VERS.           2.0     :   CWLS log ASCII Standard - VERSION 2.0
WRAP.           NO      :   One line per depth step
~Well Information Section
#MNEM       .UNIT                                         VALUE :DESCRIPTION
#------------------------------------------------------------------------------
STRT        .FT                                            1126 :START DEPTH
STOP        .FT                                            9906 :STOP DEPTH
STEP        .FT                                             0.5 :STEP      
NULL        .                                           -999.25 :NULL      
COMP        .                                        EXXON CORP :COMPANY   
WELL        .                               OCS G06053 ST00BP00 :WELL      
FLD         .                                           WILDCAT :FIELD     
LOC         .                                                   :LOCATION  
CNTY        .                      MATAGORDA ISLAND LARGE BLOCK :LOCATION  
STAT        .                                             TEXAS :STATE     
CTRY        .                                     UNITED STATES :COUNTRY   
SRVC        .                                                   :SERVICE COMPANY
DATE        .                             9/13/2023 11:12:11 AM :LOG DATE  
API         .                                    42703402640000 :API NUMBER
UWI         .                                    42703402640000 :UNIQUE WELL ID
XCOORD      .                                  440255.018680432 :SURFACE X 
YCOORD      .                                  10152284.9344853 :SURFACE Y 
LAT         .                                         27.926249 :LATITUDE  
LON         .                                        -96.716438 :LONGITUDE 
ELEV        .FT                                              94 :ELEVATION VALUE
ELEV_TYPE   .                                                KB :ELEVATION REFERENCE TYPE
~Curve Information Section
#MNEM       .UNIT                                      API CODE :CURVE DESCRIPTION
#------------------------------------------------------------------------------
DEPT        .FT                                                 :DEPTH     
GR          .GAPI                                               :          
GR_NORM     .GAPI                                               :GammaRay Normalized
ILD         .OHMM                                               :          
SP          .MV                                                 :          
SP_NORM     .MV                                                 :SP Normalized
VSH_GR      .V/V                                                :Volume of Shale from GR
VSH_SP      .V/V                                                :Volume of Shale from SP
~A        DEPTH             GR        GR_NORM            ILD             SP        SP_NORM         VSH_GR         VSH_SP
# ...
      6955.0000        54.2203        67.5833           0.37      -101.2443      -51.83086      0.7358149      0.3565714
      6955.5000         54.763       68.87614         0.4286       -88.7006      -39.28783      0.7633221      0.5153439
      6956.0000        55.1989       69.91502         0.5183       -77.5919      -28.17981      0.7854259      0.6559518
      6956.5000        55.1036       69.69077           0.61       -74.3358      -24.92438      0.7806546      0.6971598
      6957.0000        53.0117       64.71854         0.7028       -73.9744      -24.56366      0.6748625      0.7017259
      6957.5000        49.6852       56.81046         0.8169       -75.4648      -26.05472      0.5066055      0.6828516
      6958.0000         48.249       53.39756         0.9152       -77.6483       -28.2389      0.4339906      0.6552038
      6958.5000        49.4363       56.22323         0.9827       -79.5806      -30.17187      0.4941112      0.6307358
      6959.0000        51.3727       60.83031         1.0192       -81.4781      -32.07005      0.5921342      0.6067082
      6959.5000        53.4391       65.74651         1.0235        -83.068      -33.66062      0.6967342      0.5865744
      6960.0000        54.9245       69.28107         0.9978         -84.42      -35.01329      0.7719376       0.569452
      6960.5000        53.6503       66.25336         0.9697       -85.0193      -35.61327      0.7075184      0.5618573
      6961.0000         50.807       59.49439         0.9546       -82.7493      -33.34394      0.5637104       0.590583
      6961.5000        47.8447       52.45236         0.9544       -79.8975      -30.49281      0.4138801      0.6266733
      6962.0000        46.8862       50.17538         0.9552        -76.623      -27.21899      0.3654337      0.6681141
      6962.5000        46.7866       49.94086         0.9568       -73.2832      -23.87987      0.3604439      0.7103814
      6963.0000        47.2802       51.11697         0.9627       -69.9761      -20.57343      0.3854674      0.7522351
      6963.5000        47.9345        52.6752         0.9721       -68.0566      -18.65461      0.4186212      0.7765239
      6964.0000        48.3317       53.62206         0.9703       -69.1202      -19.71888      0.4387671      0.7630521
      6964.5000        48.2429       53.41323         0.9586       -75.5377      -26.13705      0.4343241      0.6818094
      6965.0000        47.5066       51.66463         0.9287       -80.2871      -30.88713      0.3971199      0.6216819
      6965.5000        46.9851       50.42684         0.8927       -83.1899      -33.79061      0.3707839       0.584929
      6966.0000        47.6152       51.92753          0.854       -83.7048      -34.30618      0.4027134      0.5784028
      6966.5000        48.7151       54.54539         0.7921       -83.4249      -34.02695      0.4584126      0.5819373
      6967.0000        50.0955       57.83029         0.7253       -83.0146      -33.61733      0.5283041      0.5871224
      6967.5000        49.8163       57.16868         0.6507       -87.4768       -38.0802      0.5142272      0.5306304
      6968.0000        48.7686       54.67959          0.588       -95.7664      -46.37048      0.4612679      0.4256902
      6968.5000        47.5132       51.69655         0.5364      -101.0366      -51.64135       0.397799      0.3589703
      6969.0000        46.2336       48.65604         0.5046      -104.5551      -55.16052      0.3331072      0.3144238
      6969.5000        44.8787       45.43642         0.4868      -106.5983      -57.20439      0.2646046       0.288552
      6970.0000         43.468       42.08408         0.4764        -99.059      -49.66577      0.1932784      0.3839776
      6970.5000        42.7001       40.26037         0.4704       -85.7432      -36.35064      0.1544759      0.5525235
      6971.0000        46.4072       49.07814         0.4703       -76.9218      -27.52991      0.3420882      0.6641783
      6971.5000        49.3962       56.18827         0.4913       -74.1018      -24.71059      0.4933675      0.6998659
      6972.0000        52.6086       63.82966         0.5314       -75.4867      -26.09616      0.6559502       0.682327
      6972.5000        54.2233       67.67173         0.5832       -79.6316      -30.24174      0.7376964      0.6298514
      6973.0000        55.1242       69.81638         0.6343       -84.5631      -35.17392      0.7833272      0.5674188
      6973.5000        54.1019       67.38768         0.5775       -89.5237      -40.13518      0.7316528      0.5046179
      6974.0000        52.5406       63.67723         0.4826       -94.4989      -45.11106       0.652707      0.4416322
      6974.5000        50.3359        58.4368         0.4205      -104.7991      -55.41193      0.5412084      0.3112413
      6975.0000        48.5282       54.14042         0.3744      -112.1854      -62.79891      0.4497961      0.2177353
      6975.5000        47.3566       51.35672         0.3351      -118.0056      -68.61978      0.3905684      0.1440534
      6976.0000        45.4578       46.84372         0.3281      -122.0193      -72.63416      0.2945471     0.09323854
      6976.5000        41.3568       37.09388         0.3227      -125.2972      -75.91273     0.08710374     0.05173753
      6977.0000        38.0339       29.19438           0.32      -116.1044       -66.7206              0      0.1680937
      6977.5000        37.0198       26.78518          0.329           -110      -60.61687              0       0.245356
      6978.0000        38.1322       29.43279         0.3726       -98.2867      -48.90425              0      0.3936171
      6978.5000        40.0358       33.96185         0.4237        -89.684      -40.30222     0.02046496      0.5025036
      6979.0000        43.4644       42.11737         0.4838       -82.2684       -32.8873      0.1939865      0.5963633
      6979.5000        47.6893       52.16643         0.5378       -76.3463      -26.96587      0.4077964      0.6713181
      6980.0000        51.1129       60.31009         0.5741       -71.7134      -22.33364      0.5810657      0.7299539
      6980.5000        53.8445       66.80809         0.5877       -84.2134      -34.83432      0.7193211      0.5717174
      6981.0000        55.3203       70.31986         0.5651       -97.2378      -47.85939      0.7940396      0.4068432
      6981.5000        52.9631       64.71678         0.5072      -105.4692      -56.09146      0.6748251      0.3026397
      6982.0000        48.0244       52.97493         0.4344      -114.1958      -64.81874      0.4249986      0.1921678
      6982.5000          43.78       42.88411         0.3753      -121.9537      -72.57731      0.2103001     0.09395812
      6983.0000        40.8626       35.94888         0.3345      -127.7448      -78.36908     0.06274203     0.02064456
      6983.5000        39.9764       33.84383         0.3004      -132.3958      -83.02075     0.01795383              0
      6984.0000        40.8189       35.84961         0.2814      -135.5791      -86.20473     0.06063007              0
      6984.5000        41.8387         38.277         0.2723      -137.2043      -87.83061      0.1122765              0
      6985.0000        43.0759       41.22137         0.2692      -136.7583      -87.38528      0.1749227              0
      6985.5000        43.6786        42.6569         0.2702      -134.2388      -84.86646       0.205466              0
      6986.0000        43.3393       41.85237         0.2768      -131.8276      -82.45593      0.1883483              0
      6986.5000        43.3342       41.84258         0.2856      -129.8608      -80.48979      0.1881399              0
      6987.0000        43.6483       42.59182         0.2966      -128.6516      -79.28127      0.2040814    0.009097812
      6987.5000        44.5109        44.6454         0.3167      -127.8503      -78.48065      0.2477744     0.01923225
      6988.0000        44.9549       45.70353         0.3401      -126.6466      -77.27762      0.2702879     0.03446053
