#------------------------------------------------------------------------------
# Created by    : vladimir.rabinovich
# Created on    : 09/19/2023 17:20:45
#------------------------------------------------------------------------------
~Version Information Section
VERS.           2.0     :   CWLS log ASCII Standard - VERSION 2.0
WRAP.           NO      :   One line per depth step
~Well Information Section
#MNEM       .UNIT                                         VALUE :DESCRIPTION
#------------------------------------------------------------------------------
STRT        .FT                                            2110 :START DEPTH
STOP        .FT                                            6746 :STOP DEPTH
STEP        .FT                                             0.5 :STEP      
NULL        .                                           -999.25 :NULL      
COMP        .                       HOUSTON OIL & MINERALS CORP :COMPANY   
WELL        .                                ST TR 00694-L NE/4 :WELL      
FLD         .                                           WILDCAT :FIELD     
LOC         .                                                   :LOCATION  
CNTY        .                      MATAGORDA ISLAND LARGE BLOCK :LOCATION  
STAT        .                                             TEXAS :STATE     
CTRY        .                                     UNITED STATES :COUNTRY   
SRVC        .                                                   :SERVICE COMPANY
DATE        .                             9/13/2023 11:12:01 AM :LOG DATE  
API         .                                    42703302070000 :API NUMBER
UWI         .                                    42703302070000 :UNIQUE WELL ID
XCOORD      .                                  400461.464340365 :SURFACE X 
YCOORD      .                                  10145980.2526086 :SURFACE Y 
LAT         .                                        27.9055609 :LATITUDE  
LON         .                                       -96.8388291 :LONGITUDE 
ELEV        .FT                                              25 :ELEVATION VALUE
ELEV_TYPE   .                                                KB :ELEVATION REFERENCE TYPE
~Curve Information Section
#MNEM       .UNIT                                      API CODE :CURVE DESCRIPTION
#------------------------------------------------------------------------------
DEPT        .FT                                                 :DEPTH     
ASN         .OHMM                                               :          
CILD        .MMHO                                               :          
ILD         .OHMM                                               :          
SP          .MV                                                 :          
SP_NORM     .MV                                                 :SP Normalized
VSH_SP      .V/V                                                :Volume of Shale from SP
~A        DEPTH            ASN           CILD            ILD             SP        SP_NORM         VSH_SP
# ...
      2414.0000           1.39        992.625         0.8904       -50.2012       -18.9214      0.5971095
      2414.5000         1.3869       1047.402         0.8303       -54.7928       -23.5109      0.4878357
      2415.0000         1.3815       1102.205         0.7823       -59.3845       -28.1005      0.3785595
      2415.5000         1.3736       1156.982         0.7342       -62.0741       -30.7879      0.3145738
      2416.0000         1.3573       1211.762         0.6862       -62.9154       -31.6271      0.2945929
      2416.5000         1.3409       1266.564         0.6456       -64.9342       -33.6438      0.2465762
      2417.0000         1.3246       1329.387         0.6086       -69.0079       -37.7154      0.1496333
      2417.5000         1.3023       1418.184         0.5716       -70.2909       -38.9962      0.1191381
      2418.0000         1.2647       1505.764         0.5347       -71.2798        -39.983     0.09564282
      2418.5000         1.2289       1590.639         0.5103       -72.1685       -40.8696     0.07453337
      2419.0000         1.2003       1639.395         0.4919       -72.7494       -41.4483     0.06075478
      2419.5000         1.1714        1680.23         0.4735       -73.1211       -41.8179     0.05195472
      2420.0000         1.1424       1758.623         0.4552       -73.4928       -42.1875     0.04315476
      2420.5000          1.118         1835.4         0.4368       -73.6587       -42.3513     0.03925478
      2421.0000         1.0826       1875.789         0.4241       -73.7775       -42.4679     0.03647859
      2421.5000         1.0688       1888.471         0.4179       -73.8961       -42.5844     0.03370476
      2422.0000         1.0758       1894.152         0.4117        -73.905       -42.5912     0.03354282
      2422.5000         1.0858       1899.832         0.4088       -73.8879        -42.572     0.03400003
      2423.0000         1.1002       1884.367         0.4161       -73.7372       -42.4191     0.03764043
      2423.5000         1.1173       1771.088         0.4234       -73.3806       -42.0604       0.046181
      2424.0000         1.1301       1662.078         0.4307       -72.8881       -41.5658     0.05795715
      2424.5000         1.1364       1570.723         0.4401       -71.6642       -40.3397     0.08715003
      2425.0000         1.1361       1506.037         0.4524       -71.0822       -39.7556      0.1010571
      2425.5000         1.1253       1522.531         0.4646       -70.7872       -39.4585       0.108131
      2426.0000         1.1149        1539.02         0.4769       -70.4923       -39.1615      0.1152024
      2426.5000         1.1045       1579.613         0.4858       -70.2802       -38.9472      0.1203047
      2427.0000         1.0817       1622.521         0.4803       -70.0828       -38.7477      0.1250548
      2427.5000         1.0559       1676.529         0.4748       -69.8853       -38.5481      0.1298072
      2428.0000         1.0462       1823.656         0.4693       -69.6877       -38.3483      0.1345643
      2428.5000         1.0265       1891.371         0.4556       -69.4852       -38.1437      0.1394357
      2429.0000         1.0068       1950.096         0.4357       -69.2747       -37.9311      0.1444976
      2429.5000         0.9907        1987.17         0.4157       -69.0642       -37.7185      0.1495596
      2430.0000          0.979       2024.242         0.3958       -69.0242       -37.6763      0.1505643
      2430.5000         0.9682       2062.383          0.382        -69.288        -37.938      0.1443333
      2431.0000         0.9597       2101.008          0.373       -69.5416       -38.1895      0.1383453
      2431.5000         0.9572       2111.629         0.3639       -69.7952       -38.4409      0.1323595
      2432.0000         0.9576       2118.066         0.3549       -70.0488       -38.6924      0.1263714
      2432.5000          0.958        2110.34         0.3475       -70.3024       -38.9439      0.1203833
      2433.0000         0.9584       2095.152         0.3499       -70.4556        -39.095      0.1167857
      2433.5000         0.9605        2079.77         0.3523       -70.5793       -39.2165      0.1138929
      2434.0000         0.9629       2059.012         0.3546        -70.703       -39.3381      0.1109976
      2434.5000         0.9652       2038.248          0.357       -70.6888       -39.3218      0.1113857
      2435.0000         0.9701       2017.488         0.3609       -70.5698       -39.2007      0.1142691
      2435.5000         0.9754       1978.578          0.377       -70.0457       -38.6744         0.1268
      2436.0000         0.9808       1868.674          0.393       -69.1887       -37.8153      0.1472548
      2436.5000         0.9981        1758.82         0.4091       -67.4012       -36.0257      0.1898643
      2437.0000         1.0144       1648.967         0.4499        -63.259       -31.8813      0.2885405
      2437.5000         1.0284       1539.063         0.4941       -57.0513       -25.6715      0.4363929
      2438.0000         1.0433       1429.209         0.5383       -50.8461       -19.4642      0.5841857
      2438.5000         1.0595       1319.355         0.5958       -44.6384       -13.2544      0.7320381
      2439.0000         1.0763       1183.775         0.6611       -34.7067        -3.3205      0.9685595
      2439.5000         1.0875       1104.117         0.7263       -33.8262        -2.4379      0.9895738
      2440.0000         1.0956        1052.99         0.7827       -33.5078        -2.1174      0.9972048
      2440.5000         1.1038       1022.894         0.8326       -33.4084        -2.0159      0.9996215
      2441.0000         1.1099       997.3926         0.8824       -33.3895        -1.9948              1
      2441.5000         1.1122       983.8535         0.9043       -33.5597        -2.1629      0.9961214
      2442.0000         1.1094       991.4395          0.924       -33.7298        -2.3309      0.9921215
      2442.5000         1.1069       1002.273         0.9278       -34.0146        -2.6135      0.9853929
      2443.0000         1.1047       1013.111         0.9161       -34.4154        -3.0122         0.9759
      2443.5000         1.1025       1023.943         0.9044       -34.8162        -3.4109      0.9664071
      2444.0000         1.1003       1034.631         0.8931       -35.3047        -3.8973      0.9548262
      2444.5000         1.1031       1041.186         0.8855       -35.8279        -4.4183      0.9424214
      2445.0000         1.1074       1047.744         0.8779        -36.351        -4.9393      0.9300166
      2445.5000         1.1118       1045.342         0.8702       -36.7061        -5.2923      0.9216119
      2446.0000         1.1161       1037.436         0.8626       -37.0056        -5.5896      0.9145333
      2446.5000         1.1168       1029.529         0.8549        -37.305        -5.8869      0.9074548
      2447.0000         1.1162       1021.352         0.8539       -37.6044        -6.1842      0.9003762
      2447.5000         1.1155       1013.102         0.8539       -37.8589        -6.4366      0.8943667
      2448.0000         1.1148       1004.852         0.8539          -38.1        -6.6755      0.8886786
      2448.5000         1.1142       996.6016         0.8539        -38.341        -6.9144      0.8829905
      2449.0000         1.1141       992.1777         0.8528       -38.5821        -7.1534         0.8773
      2449.5000         1.1141       1007.294         0.8483       -39.1453        -7.7145      0.8639405
      2450.0000         1.1255        1022.41         0.8437       -39.7161        -8.2831      0.8504024
      2450.5000         1.1375       1040.201         0.8392       -40.5512        -9.1161       0.830569
      2451.0000         1.1476       1058.887         0.8346       -41.5576       -10.1204      0.8066571
      2451.5000         1.1577       1077.572         0.8301       -42.6276       -11.1882      0.7812333
