#------------------------------------------------------------------------------
# Created by    : vladimir.rabinovich
# Created on    : 09/19/2023 17:20:45
#------------------------------------------------------------------------------
~Version Information Section
VERS.           2.0     :   CWLS log ASCII Standard - VERSION 2.0
WRAP.           NO      :   One line per depth step
~Well Information Section
#MNEM       .UNIT                                         VALUE :DESCRIPTION
#------------------------------------------------------------------------------
STRT        .FT                                            2110 :START DEPTH
STOP        .FT                                            6746 :STOP DEPTH
STEP        .FT                                             0.5 :STEP      
NULL        .                                           -999.25 :NULL      
COMP        .                       HOUSTON OIL & MINERALS CORP :COMPANY   
WELL        .                                ST TR 00694-L NE/4 :WELL      
FLD         .                                           WILDCAT :FIELD     
LOC         .                                                   :LOCATION  
CNTY        .                      MATAGORDA ISLAND LARGE BLOCK :LOCATION  
STAT        .                                             TEXAS :STATE     
CTRY        .                                     UNITED STATES :COUNTRY   
SRVC        .                                                   :SERVICE COMPANY
DATE        .                             9/13/2023 11:12:01 AM :LOG DATE  
API         .                                    42703302070000 :API NUMBER
UWI         .                                    42703302070000 :UNIQUE WELL ID
XCOORD      .                                  400461.464340365 :SURFACE X 
YCOORD      .                                  10145980.2526086 :SURFACE Y 
LAT         .                                        27.9055609 :LATITUDE  
LON         .                                       -96.8388291 :LONGITUDE 
ELEV        .FT                                              25 :ELEVATION VALUE
ELEV_TYPE   .                                                KB :ELEVATION REFERENCE TYPE
~Curve Information Section
#MNEM       .UNIT                                      API CODE :CURVE DESCRIPTION
#------------------------------------------------------------------------------
DEPT        .FT                                                 :DEPTH     
ASN         .OHMM                                               :          
CILD        .MMHO                                               :          
ILD         .OHMM                                               :          
SP          .MV                                                 :          
SP_NORM     .MV                                                 :SP Normalized
VSH_SP      .V/V                                                :Volume of Shale from SP
~A        DEPTH            ASN           CILD            ILD             SP        SP_NORM         VSH_SP
# ...
      3022.0000          1.179       869.8096         0.9842       -37.2827        -3.4155      0.9692283
      3022.5000         1.1717       890.8906         0.9766       -38.2918        -4.4225       0.947337
      3023.0000         1.1644         911.96          0.969       -39.2386        -5.3672         0.9268
      3023.5000         1.1571        932.918         0.9613       -40.1039        -6.2303      0.9080369
      3024.0000         1.1498       952.8203         0.9537       -40.9698        -7.0941      0.8892587
      3024.5000         1.1425       972.7227         0.9456       -41.5129        -7.6351      0.8774979
      3025.0000         1.1372        992.625         0.9322       -41.9278        -8.0478      0.8685261
      3025.5000         1.1331        1002.57         0.9188       -42.3428        -8.4607        0.85955
      3026.0000         1.1392       1009.517         0.9054       -42.7119        -8.8277      0.8515717
      3026.5000         1.1453       999.9756         0.8919       -42.8499        -8.9636      0.8486174
      3027.0000         1.1509       990.4277         0.8785       -42.9879        -9.0994      0.8456652
      3027.5000         1.1558       978.8311         0.8666        -42.978        -9.0874      0.8459261
      3028.0000         1.1608       949.4434         0.8666       -42.8588        -8.9661      0.8485631
      3028.5000         1.1658       918.2803         0.8665       -42.7396        -8.8447      0.8512022
      3029.0000         1.1708       871.7959         0.8664       -42.6204        -8.7234      0.8538391
      3029.5000         1.1648       885.8506         0.8664       -42.1732        -8.2741      0.8636065
      3030.0000         1.1564       925.7041         0.8641       -41.4586        -7.5574      0.8791869
      3030.5000          1.148       965.5586         0.8609       -40.7436        -6.8402      0.8947783
      3031.0000         1.1396       986.9258         0.8577       -40.5717        -6.6662      0.8985609
      3031.5000         1.1312       1006.506         0.8545        -40.478        -6.5704      0.9006435
      3032.0000         1.1233       1026.072         0.8512       -40.3843        -6.4746      0.9027261
      3032.5000         1.1154       1045.639          0.848       -40.3199         -6.408      0.9041739
      3033.0000         1.1075       1061.904         0.8448       -40.2903        -6.3763      0.9048631
      3033.5000         1.1003       1053.676         0.8416       -40.2606        -6.3445      0.9055544
      3034.0000         1.0976       1045.447         0.8384        -40.231        -6.3127      0.9062456
      3034.5000         1.0949       1037.219         0.8352       -40.2014         -6.281      0.9069348
      3035.0000         1.0934       1028.986          0.832       -40.1718        -6.2493      0.9076239
      3035.5000         1.1003       1020.759         0.8288       -40.1422        -6.2176       0.908313
      3036.0000         1.1072       1013.646         0.8256       -40.0963        -6.1695      0.9093587
      3036.5000         1.1209       1008.869         0.8223       -40.0411        -6.1122      0.9106044
      3037.0000         1.1376       1004.096         0.8191       -39.9859        -6.0549        0.91185
      3037.5000         1.1543       999.3184          0.822       -39.9308        -5.9977      0.9130934
      3038.0000         1.1619       994.5449         0.8304       -39.8756        -5.9403      0.9143413
      3038.5000         1.1676       989.7715         0.8389       -39.8205        -5.8831      0.9155848
      3039.0000         1.1716       983.9531         0.8473       -39.4422        -5.5027      0.9238544
      3039.5000         1.1746       975.9971         0.8578       -38.9921        -5.0504       0.933687
      3040.0000         1.1775       968.0449         0.8728       -38.5066        -4.5628      0.9442869
      3040.5000         1.1804       960.0898         0.8878       -38.0107        -4.0648      0.9551131
      3041.0000         1.1833       951.5293         0.9027       -37.5668        -3.6188      0.9648087
      3041.5000         1.1896       941.7393         0.9177       -37.4814        -3.5312      0.9667131
      3042.0000         1.1959       931.9492         0.9327       -37.3961        -3.4438       0.968613
      3042.5000         1.2022       925.6855         0.9477       -37.3107        -3.3563      0.9705152
      3043.0000         1.2085         920.71         0.9526       -37.2253        -3.2687      0.9724196
      3043.5000          1.219       915.7383         0.9525       -37.1995        -3.2408      0.9730261
      3044.0000         1.2298       911.1299         0.9524       -37.1799        -3.2191      0.9734978
      3044.5000         1.2357       906.8438         0.9524       -37.1602        -3.1979      0.9739587
      3045.0000         1.2368       902.5566         0.9523       -37.1406        -3.1783      0.9743848
      3045.5000         1.2379       898.2705         0.9523        -37.121        -3.1587      0.9748109
      3046.0000          1.239       893.9844         0.9522       -37.1013         -3.139      0.9752392
      3046.5000         1.2394        890.084         0.9532       -37.1641        -3.2018      0.9738739
      3047.0000         1.2396       886.9414         0.9543       -37.2635        -3.3012      0.9717131
      3047.5000         1.2399       883.7969         0.9554        -37.363        -3.4007        0.96955
      3048.0000         1.2408       880.6543         0.9565       -37.4624        -3.5001      0.9673891
      3048.5000         1.2419       877.5117         0.9576       -37.5619        -3.5996      0.9652261
      3049.0000         1.2429       874.3691         0.9587       -37.8291        -3.8668      0.9594174
      3049.5000         1.2442       871.2266         0.9601       -38.1144        -4.1521      0.9532152
      3050.0000          1.249        868.082         0.9654       -38.3997        -4.4374       0.947013
      3050.5000         1.2538       865.2266         0.9707        -38.648        -4.6857      0.9416152
      3051.0000         1.2599       862.4697         0.9761       -38.6649        -4.7026      0.9412478
      3051.5000         1.2694       859.7139         0.9814       -38.6818        -4.7195      0.9408804
      3052.0000         1.2789       856.9561         0.9867       -38.6987        -4.7364       0.940513
      3052.5000         1.2884       854.1992          0.992       -38.7156        -4.7533      0.9401457
      3053.0000         1.2967       845.4248         0.9973       -38.7874        -4.8251      0.9385848
      3053.5000         1.3034       831.6934         1.0126       -38.9069        -4.9446      0.9359869
      3054.0000           1.31       812.9707         1.0332       -39.0263         -5.064      0.9333913
      3054.5000         1.3166       784.8984         1.0538       -39.1458        -5.1835      0.9307935
      3055.0000         1.3232       756.8262         1.0744       -39.2653         -5.303      0.9281957
      3055.5000         1.3291       732.9824         1.0952       -39.3472        -5.3849      0.9264152
      3056.0000         1.3336        717.084          1.127       -39.3982        -5.4359      0.9253065
      3056.5000          1.338       701.1797         1.1587       -39.4492        -5.4869      0.9241979
      3057.0000         1.3416       685.2813         1.1905       -39.5002        -5.5379      0.9230891
      3057.5000         1.3433       690.7568         1.2108       -39.5513         -5.589      0.9219782
      3058.0000         1.3304       703.4141         1.2124       -39.6023          -5.64      0.9208696
      3058.5000         1.3164       716.0723          1.214       -39.5098        -5.5475      0.9228804
      3059.0000         1.3029       728.7295         1.2156       -39.1526        -5.1903      0.9306456
      3059.5000         1.2894        755.709         1.2172       -38.7973         -4.835      0.9383696
