#------------------------------------------------------------------------------
# Created by    : vladimir.rabinovich
# Created on    : 09/19/2023 17:20:09
#------------------------------------------------------------------------------
~Version Information Section
VERS.           2.0     :   CWLS log ASCII Standard - VERSION 2.0
WRAP.           NO      :   One line per depth step
~Well Information Section
#MNEM       .UNIT                                         VALUE :DESCRIPTION
#------------------------------------------------------------------------------
STRT        .FT                                             880 :START DEPTH
STOP        .FT                                           10998 :STOP DEPTH
STEP        .FT                                             0.5 :STEP      
NULL        .                                           -999.25 :NULL      
COMP        .                        HUGHES TEXAS PETROLEUM LTD :COMPANY   
WELL        .                                ST TR 00564-L NE/4 :WELL      
FLD         .                       MATAGORDA ISLAND BLOCK 0565 :FIELD     
LOC         .                                                   :LOCATION  
CNTY        .                      MATAGORDA ISLAND LARGE BLOCK :LOCATION  
STAT        .                                             TEXAS :STATE     
CTRY        .                                     UNITED STATES :COUNTRY   
SRVC        .                                                   :SERVICE COMPANY
DATE        .                             9/13/2023 11:12:01 AM :LOG DATE  
API         .                                    42703303560000 :API NUMBER
UWI         .                                    42703303560000 :UNIQUE WELL ID
XCOORD      .                                  580856.659723482 :SURFACE X 
YCOORD      .                                  10268633.8274002 :SURFACE Y 
LAT         .                                         28.256926 :LATITUDE  
LON         .                                       -96.2914173 :LONGITUDE 
ELEV        .FT                                              25 :ELEVATION VALUE
ELEV_TYPE   .                                                KB :ELEVATION REFERENCE TYPE
~Curve Information Section
#MNEM       .UNIT                                      API CODE :CURVE DESCRIPTION
#------------------------------------------------------------------------------
DEPT        .FT                                                 :DEPTH     
ASFL        .OHMM                                               :          
GR          .GAPI                                               :          
GR_NORM     .GAPI                                               :GammaRay Normalized
ILD         .OHMM                                               :          
SP          .MV                                                 :          
SP_NORM     .MV                                                 :SP Normalized
VSH_GR      .V/V                                                :Volume of Shale from GR
VSH_SP      .V/V                                                :Volume of Shale from SP
~A        DEPTH           ASFL             GR        GR_NORM            ILD             SP        SP_NORM         VSH_GR         VSH_SP
# ...
      8963.0000          0.614        54.9829       78.34314         0.5161       -42.4605     -0.5443306      0.9647477              1
      8963.5000          0.616        55.4739       79.25131         0.5184       -42.5806     -0.6644325      0.9840705              1
      8964.0000         0.6172        56.2873       80.75808         0.5207       -42.7006     -0.7844315              1              1
      8964.5000         0.6161        58.0377       84.00449          0.523        -42.671     -0.7548332              1              1
      8965.0000          0.615        59.5048       86.72491         0.5253       -42.5239     -0.6077309              1              1
      8965.5000         0.6139        60.8926       89.29809         0.5276       -42.3765      -0.460331              1              1
      8966.0000         0.6136        59.7665       87.20395         0.5299       -42.2356     -0.3194313              1              1
      8966.5000         0.6144         54.316       77.08108         0.5324       -42.1284     -0.2122307      0.9378952              1
      8967.0000         0.6151        53.6605       75.86065          0.536       -42.1406     -0.2244301      0.9119287              1
      8967.5000         0.6168        54.9355       78.22441         0.5397       -42.3726     -0.4564323      0.9622215              1
      8968.0000         0.6214        56.3281       80.80648         0.5433       -42.5364     -0.6202316              1              1
      8968.5000          0.626        57.7375       83.41979          0.547        -42.584     -0.6678314              1              1
      8969.0000         0.6306        59.1518       86.04215         0.5506       -42.6315      -0.715332              1              1
      8969.5000         0.6432         60.578       88.68668         0.5543       -42.7643     -0.8481331              1              1
      8970.0000         0.6578        57.3798       82.74545         0.5579       -42.8989     -0.9827309              1              1
      8970.5000         0.6704        54.7434       77.84725         0.5612        -43.231      -1.314831      0.9541969      0.9937034
      8971.0000         0.6817        53.3706       75.29509         0.5637       -43.5659      -1.649731      0.8998955      0.9870054
      8971.5000         0.6876        53.0555       74.70665         0.5661       -44.2136      -2.297432      0.8873755      0.9740514
      8972.0000         0.6932        52.7404        74.1182         0.5686       -44.9556      -3.039433      0.8748553      0.9592113
      8972.5000         0.7099        52.3279       73.34894          0.571       -46.0961      -4.179932       0.858488      0.9364014
      8973.0000         0.7327        51.7577       72.28687         0.5734       -47.1393      -5.223133      0.8358908      0.9155374
      8973.5000         0.7699        51.1514       71.15779         0.5759       -47.3056      -5.389431      0.8118679      0.9122114
      8974.0000         0.8068        49.2666       67.65504         0.5784       -46.5211      -4.604931      0.7373412      0.9279014
      8974.5000         0.8371        50.9594        70.7945         0.5809       -45.6362      -3.720032      0.8041384      0.9455994
      8975.0000         0.8451        52.4576       73.57267         0.5835       -44.7502       -2.83403      0.8632483      0.9633194
      8975.5000         0.7769        53.1732       74.89785          0.586       -43.9555      -2.039333      0.8914436      0.9792134
      8976.0000          0.719        53.8887       76.22285         0.5885       -43.1763      -1.260132      0.9196351      0.9947973
      8976.5000         0.6921        54.6042       77.54782         0.5916       -42.3984     -0.4822311       0.947826              1
      8977.0000         0.6683        55.3029       78.84161         0.5947       -42.8666     -0.9504318      0.9753533              1
      8977.5000         0.6473        55.9644       80.06636         0.5978        -43.653      -1.736832              1      0.9852633
      8978.0000         0.6267        56.6259       81.29109         0.6009       -44.4393      -2.523132              1      0.9695374
      8978.5000         0.6062         57.812       83.48985          0.604       -44.9016      -2.985432              1      0.9602914
      8979.0000         0.6317        59.5696       86.74957          0.606       -45.0459       -3.12973              1      0.9574054
      8979.5000          0.653        61.3776       90.10294         0.6075       -44.7905      -2.874332              1      0.9625133
      8980.0000         0.6722        60.3355       88.16473         0.6089        -44.535      -2.618832              1      0.9676234
      8980.5000         0.7026        59.2935       86.22672         0.6003       -44.2706      -2.354431              1      0.9729114
      8981.0000         0.7711         57.812       83.47274         0.5898       -44.0056      -2.089432              1      0.9782113
      8981.5000         0.7399        55.2465       78.70621         0.5794       -43.6302      -1.714031      0.9724725      0.9857194
      8982.0000         0.7027         54.283       76.91391          0.578       -42.9374      -1.021233      0.9343385      0.9995754
      8982.5000         0.6646        54.0471       76.47253         0.5817       -42.6649     -0.7487335      0.9249474              1
      8983.0000         0.6144        53.6761       75.78032         0.5854       -42.9554       -1.03923      0.9102196      0.9992154
      8983.5000         0.6227        53.0903       74.68928         0.5891        -43.246       -1.32983      0.8870059      0.9934034
      8984.0000         0.6365        52.5045       73.59826         0.5928       -43.5365      -1.620331      0.8637927      0.9875934
      8984.5000         0.6531        51.9174       72.50484         0.5965       -43.8265      -1.910332      0.8405286      0.9817933
      8985.0000         0.6699        51.4576       71.64776         0.6002       -44.0884      -2.172234      0.8222927      0.9765553
      8985.5000         0.6951        51.9246       72.51138         0.6016       -44.1458      -2.229633      0.8406675      0.9754074
      8986.0000         0.7342        53.2788        75.0222         0.6029        -43.716      -1.799831      0.8940894      0.9840034
      8986.5000         0.7703        54.9883       78.19267         0.6043       -43.2592      -1.343033      0.9615462      0.9931393
      8987.0000         0.7608        56.7003       81.36774         0.6057       -43.0053       -1.08913              1      0.9982174
      8987.5000         0.7514        56.4914       80.97649          0.607       -43.3402       -1.42403              1      0.9915194
      8988.0000         0.7419        54.3593       77.01458         0.6044       -43.6576      -1.741432      0.9364804      0.9851714
      8988.5000         0.7289        52.4937       73.54749         0.5859       -43.7729      -1.856731      0.8627124      0.9828654
      8989.0000         0.7111         50.981       70.73558         0.5695       -43.8864       -1.97023      0.8028847      0.9805954
      8989.5000         0.6933        49.4707        67.9281         0.5561       -43.9822      -2.066032      0.7431511      0.9786794
      8990.0000         0.6746        54.0279       76.38565         0.5427       -43.9873      -2.071133      0.9230989      0.9785774
      8990.5000          0.656        55.7567       79.59196         0.5293       -43.9015      -1.985332      0.9913184      0.9802933
      8991.0000         0.6398        56.4998       80.96819         0.5159         -43.89      -1.973831              1      0.9805233
      8991.5000          0.627        57.2441       82.34668         0.5025       -43.9109      -1.994732              1      0.9801053
      8992.0000         0.6219        58.1385       84.00381         0.4978       -43.8715       -1.95533              1      0.9808934
