#------------------------------------------------------------------------------
# Created by    : vladimir.rabinovich
# Created on    : 09/19/2023 17:20:24
#------------------------------------------------------------------------------
~Version Information Section
VERS.           2.0     :   CWLS log ASCII Standard - VERSION 2.0
WRAP.           NO      :   One line per depth step
~Well Information Section
#MNEM       .UNIT                                         VALUE :DESCRIPTION
#------------------------------------------------------------------------------
STRT        .FT                                            2124 :START DEPTH
STOP        .FT                                            8264 :STOP DEPTH
STEP        .FT                                             0.5 :STEP      
NULL        .                                           -999.25 :NULL      
COMP        .                               SUPERIOR OIL CO THE :COMPANY   
WELL        .                                     ST TR 00009-L :WELL      
FLD         .                                           WILDCAT :FIELD     
LOC         .                                                   :LOCATION  
CNTY        .                           HIGH ISLAND LARGE BLOCK :LOCATION  
STAT        .                                             TEXAS :STATE     
CTRY        .                                     UNITED STATES :COUNTRY   
SRVC        .                                                   :SERVICE COMPANY
DATE        .                             9/13/2023 11:19:15 AM :LOG DATE  
API         .                                    42708300270000 :API NUMBER
UWI         .                                    42708300270000 :UNIQUE WELL ID
XCOORD      .                                  1318170.30554107 :SURFACE X 
YCOORD      .                                  10738395.6931535 :SURFACE Y 
LAT         .                                        29.5851559 :LATITUDE  
LON         .                                       -94.0141459 :LONGITUDE 
ELEV        .FT                                              72 :ELEVATION VALUE
ELEV_TYPE   .                                                KB :ELEVATION REFERENCE TYPE
~Curve Information Section
#MNEM       .UNIT                                      API CODE :CURVE DESCRIPTION
#------------------------------------------------------------------------------
DEPT        .FT                                                 :DEPTH     
ASN         .OHMM                                               :          
CILD        .MMHO                                               :          
ILD         .OHMM                                               :          
SN          .OHMM                                               :          
SP          .MV                                                 :          
SP_NORM     .MV                                                 :SP Normalized
VSH_SP      .V/V                                                :Volume of Shale from SP
~A        DEPTH            ASN           CILD            ILD             SN             SP        SP_NORM         VSH_SP
# ...
      6579.5000         0.9857       1078.311          1.016         1.0146       -45.7563     -0.5370827              1
      6580.0000         1.0059       1056.945         1.0273         1.0493       -50.4045      -5.193871      0.9455342
      6580.5000         1.0228       1011.253         1.0611         1.0886        -53.733      -8.530964      0.9021953
      6581.0000         1.0503       974.4336         1.1071         1.1357        -56.037      -10.84355      0.8721617
      6581.5000         1.0812       950.7119         1.1639         1.1706       -57.2515      -12.06664      0.8562774
      6582.0000         1.1001         960.71         1.2199         1.1726       -56.2595      -11.08323       0.869049
      6582.5000         1.1067       1056.145         1.1645         1.1093       -54.3916      -9.223923      0.8931958
      6583.0000          1.075       1179.926         1.0161         1.0502       -53.6375      -8.478413      0.9028777
      6583.5000         1.0141       1315.506         0.8501         0.9995       -55.4123       -10.2618      0.8797169
      6584.0000         0.9347       1621.059         0.7328         0.9467       -57.9639      -12.82199      0.8464677
      6584.5000          0.866       1846.422         0.6332         0.8896       -60.1711      -15.03778      0.8176911
      6585.0000         0.8197       2079.094         0.5579         0.8407       -65.9757      -20.85097      0.7421952
      6585.5000         0.7935       2304.461         0.5059         0.8064       -73.5275      -28.41135      0.6440084
      6586.0000         0.7775       2591.617         0.4762         0.7885       -89.0031      -43.89555       0.442915
      6586.5000         0.7649       2725.297         0.4638         0.7801       -97.3794      -52.28044      0.3340203
      6587.0000         0.7691        2831.18         0.4609         0.7857      -100.4993      -55.40893      0.2933905
      6587.5000         0.7924       2883.621         0.4621         0.8026       -101.149      -56.06722      0.2848413
      6588.0000         0.8063       2917.215         0.4633         0.8212      -100.1492      -55.07601      0.2977142
      6588.5000         0.8175       2961.457         0.4604         0.8328       -99.4591       -54.3945       0.306565
      6589.0000         0.8351       3063.344         0.4485         0.8594       -98.9714      -53.91539      0.3127872
      6589.5000         0.8236       3291.109         0.4368          0.832       -99.4635      -54.41608      0.3062847
      6590.0000         0.7829       3507.473          0.422         0.7812      -102.0403      -57.00146      0.2727082
      6590.5000         0.7404       3755.234         0.3995          0.729      -105.9669      -60.93666      0.2216018
      6591.0000         0.7001           4050         0.3736         0.6858      -109.5769      -64.55524      0.1746072
      6591.5000          0.662       4326.352         0.3429         0.6599      -112.9883      -67.97523      0.1301918
      6592.0000         0.6385       4527.023         0.3111         0.6446      -114.6764      -69.67192      0.1081569
      6592.5000         0.6277       4707.594         0.2962         0.6423      -115.6593      -70.66342     0.09528024
      6593.0000         0.6279       4782.438         0.2932         0.6486      -116.2507      -71.26341     0.08748815
      6593.5000         0.6405       4782.188         0.2936         0.6666       -116.562       -71.5833      0.0833338
      6594.0000         0.6512       4703.695         0.2968         0.6849      -117.4454      -72.47528      0.0717496
      6594.5000         0.6521       4569.016         0.3054         0.6783      -119.1926      -74.23107     0.04894712
      6595.0000         0.6712       4473.031          0.313          0.679      -120.2535      -75.30057     0.03505756
      6595.5000         0.7043       4399.242         0.3189         0.6954      -120.9241      -75.97976     0.02623689
      6596.0000         0.7367       4368.945         0.3266         0.7285      -121.4313      -76.49554     0.01953838
      6596.5000         0.7719       4347.992         0.3316         0.7769      -121.6409      -76.71373     0.01670481
      6597.0000         0.7989        4351.32         0.3362          0.807      -121.2286      -76.31003     0.02194769
      6597.5000         0.7881       4346.398         0.3487         0.7715      -120.9562      -76.04622     0.02537378
      6598.0000         0.7534       4345.797         0.3549         0.7157      -120.5785      -75.67711     0.03016742
      6598.5000         0.7085       4362.672         0.3541         0.6632      -120.3638      -75.47099     0.03284425
      6599.0000         0.6472       4404.047         0.3443         0.6152      -120.5408      -75.65659     0.03043395
      6599.5000         0.6016       4468.086         0.3333         0.5862      -120.4458      -75.57018     0.03155617
      6600.0000         0.5663       4501.828         0.3318         0.5845       -120.142      -75.27496     0.03539009
      6600.5000         0.5762       4517.023          0.336         0.6004      -120.0883      -75.22986     0.03597587
      6601.0000         0.5803        4475.93         0.3396         0.6154      -120.8418      -75.99194     0.02607866
      6601.5000         0.5944       4385.547         0.3433          0.617      -121.5734      -76.73213     0.01646582
      6602.0000         0.6117       4267.563         0.3462         0.6038      -121.9269      -77.09422     0.01176334
      6602.5000          0.597       4177.281         0.3502         0.5917      -121.9304      -77.10631     0.01160639
      6603.0000         0.5946       4156.078          0.353         0.5915      -121.5708       -76.7553      0.0161649
      6603.5000         0.6006       4222.273         0.3538         0.6032      -121.0435       -76.2366     0.02290136
      6604.0000         0.6088       4281.461          0.352         0.6114      -120.2937      -75.49538     0.03252748
      6604.5000         0.6053       4413.039         0.3448         0.6147      -119.3535      -74.56377     0.04462631
      6605.0000         0.5848       4525.227         0.3348          0.601      -118.3668      -73.58566     0.05732905
      6605.5000         0.5691       4587.117         0.3252         0.5831      -117.6943      -72.92175     0.06595126
      6606.0000         0.5457       4696.102         0.3158         0.5647      -118.2261      -73.46214     0.05893321
      6606.5000         0.5275       4731.844         0.3132         0.5526      -119.2115      -74.45613     0.04602427
      6607.0000         0.5329       4771.734         0.3162         0.5501         -120.3      -75.55322     0.03177633
      6607.5000         0.5546       4769.938         0.3235         0.5636      -121.2528      -76.51461     0.01929078
      6608.0000         0.5689       4717.742         0.3308          0.578      -121.9064       -77.1768     0.01069086
      6608.5000         0.5697       4644.109         0.3373         0.5835      -122.5116      -77.79059    0.002719631
      6609.0000         0.5716       4533.625          0.343         0.5753      -122.8525      -78.14008              0
      6609.5000         0.5684       4419.344         0.3472         0.5725      -122.0912      -77.38737     0.00795617
      6610.0000         0.5548       4375.297         0.3489         0.5769      -119.9543      -75.25906     0.03559658
      6610.5000         0.5498       4376.344          0.347         0.5782       -117.345      -72.65836     0.06937201
      6611.0000         0.5532       4504.828          0.343         0.5873      -116.0333      -71.35524     0.08629559
      6611.5000         0.5492       4566.367         0.3372         0.5768       -115.969      -71.29953     0.08701909
      6612.0000         0.5359       4658.352         0.3312         0.5486      -116.2286      -71.56772     0.08353613
      6612.5000         0.5249       4672.422         0.3249         0.5479      -116.4012      -71.74891       0.081183
