#------------------------------------------------------------------------------
# Created by    : vladimir.rabinovich
# Created on    : 09/19/2023 17:22:21
#------------------------------------------------------------------------------
~Version Information Section
VERS.           2.0     :   CWLS log ASCII Standard - VERSION 2.0
WRAP.           NO      :   One line per depth step
~Well Information Section
#MNEM       .UNIT                                         VALUE :DESCRIPTION
#------------------------------------------------------------------------------
STRT        .FT                                            2180 :START DEPTH
STOP        .FT                                            6738 :STOP DEPTH
STEP        .FT                                             0.5 :STEP      
NULL        .                                           -999.25 :NULL      
COMP        .                          SEAGULL ENERGY E & P INC :COMPANY   
WELL        .                               OCS G08131 ST00BP00 :WELL      
FLD         .                              GALVESTON BLOCK 0384 :FIELD     
LOC         .                                                   :LOCATION  
CNTY        .                             GALVESTON LARGE BLOCK :LOCATION  
STAT        .                                             TEXAS :STATE     
CTRY        .                                     UNITED STATES :COUNTRY   
SRVC        .                                                   :SERVICE COMPANY
DATE        .                             9/13/2023 11:19:36 AM :LOG DATE  
API         .                                    42706401890000 :API NUMBER
UWI         .                                    42706401890000 :UNIQUE WELL ID
XCOORD      .                                  986765.057424596 :SURFACE X 
YCOORD      .                                  10402321.6077632 :SURFACE Y 
LAT         .                                          28.64909 :LATITUDE  
LON         .                                        -95.038398 :LONGITUDE 
ELEV        .FT                                             100 :ELEVATION VALUE
ELEV_TYPE   .                                                KB :ELEVATION REFERENCE TYPE
~Curve Information Section
#MNEM       .UNIT                                      API CODE :CURVE DESCRIPTION
#------------------------------------------------------------------------------
DEPT        .FT                                                 :DEPTH     
CALN        .IN                                                 :          
DRHO        .G/CM3                                              :          
GR          .GAPI                                               :          
GR_NORM     .GAPI                                               :GammaRay Normalized
ILD         .OHMM                                               :          
ILM         .OHMM                                               :          
NPSS        .V/V                                                :Neutron Porosity Sandstone
RHOB        .G/CM3                                              :          
SFL         .OHMM                                               :          
SP          .MV                                                 :          
SP_NORM     .MV                                                 :SP Normalized
TENN        .LB                                                 :          
VSH_GR      .V/V                                                :Volume of Shale from GR
VSH_SP      .V/V                                                :Volume of Shale from SP
~A        DEPTH           CALN           DRHO             GR        GR_NORM            ILD            ILM           NPSS           RHOB            SFL             SP        SP_NORM           TENN         VSH_GR         VSH_SP
# ...
      6716.0000           3.66         0.0054        -999.25        -999.25            0.8         0.7781         0.5115         1.5902          0.868          -29.4      -1.119753       3085.025        -999.25      0.9840035
      6716.5000           3.66         0.0054        -999.25        -999.25            0.8          0.778         0.5115         1.5902          0.868          -36.4     -0.5219931       3086.958        -999.25       0.992543
      6717.0000           3.66         0.0053        -999.25        -999.25            0.8         0.7779         0.5114         1.5901         0.8759       -43.3333      0.9654644       3252.168        -999.25              1
      6717.5000           3.66        -999.25        -999.25        -999.25            0.8        -999.25         0.5114          1.589        -999.25       -46.0784    -0.09998856       3172.463        -999.25      0.9985716
      6718.0000           3.66        -999.25        -999.25        -999.25            0.8        -999.25         0.5114          1.589        -999.25       -46.8627       3.278769       3052.328        -999.25              1
      6718.5000           3.66        -999.25        -999.25        -999.25            0.8        -999.25         0.5113          1.589        -999.25       -47.2549     -0.2551746       2931.809        -999.25      0.9963546
      6719.0000           3.66        -999.25        -999.25        -999.25            0.8        -999.25         0.5113         1.5889        -999.25       -47.2549       2.950466        2852.11        -999.25              1
      6719.5000           3.66        -999.25        -999.25        -999.25            0.8        -999.25         0.5113         1.5888        -999.25       -47.2549       3.610591       2731.982        -999.25              1
      6720.0000           3.66        -999.25        -999.25        -999.25            0.8        -999.25         0.5112         1.5888        -999.25       -47.2549      0.5934073        2611.47        -999.25              1
      6720.5000           3.66        -999.25        -999.25        -999.25            0.8        -999.25         0.5112         1.5888        -999.25        -47.451       1.331101       2489.499        -999.25              1
      6721.0000           3.66        -999.25        -999.25        -999.25            0.8        -999.25         0.5112         1.5888        -999.25        -47.451       2.863881       2407.504        -999.25              1
      6721.5000           3.66        -999.25        -999.25        -999.25            0.8        -999.25         0.5112         1.5888        -999.25        -47.451       2.571343       2284.966        -999.25              1
      6722.0000           3.66        -999.25        -999.25        -999.25            0.8        -999.25         0.5112         1.5888        -999.25        -47.451       2.773854       2203.342        -999.25              1
      6722.5000           3.66        -999.25        -999.25        -999.25            0.8        -999.25         0.5112         1.5888        -999.25        -47.451      0.1497201       2121.883        -999.25              1
      6723.0000           3.66        -999.25        -999.25        -999.25            0.8        -999.25         0.5112         1.5888        -999.25        -47.451     -0.7262138       2081.173        -999.25      0.9896255
      6723.5000           3.66        -999.25        -999.25        -999.25            0.8        -999.25         0.5112         1.5888        -999.25       -47.6471       3.611906       2081.092        -999.25              1
      6724.0000           3.66        -999.25        -999.25        -999.25            0.8        -999.25         0.5112         1.5889        -999.25       -47.6471       3.408676        2081.01        -999.25              1
      6724.5000           3.66        -999.25        -999.25        -999.25            0.8        -999.25         0.5112         1.5889        -999.25       -47.6471       2.926938       2080.929        -999.25              1
      6725.0000           3.66        -999.25        -999.25        -999.25            0.8        -999.25         0.5112         1.5889        -999.25       -47.8431       3.088181       2080.848        -999.25              1
      6725.5000           3.66        -999.25        -999.25        -999.25            0.8        -999.25         0.5112         1.5889        -999.25       -47.8431      0.3038383       2040.376        -999.25              1
      6726.0000           3.66        -999.25        -999.25        -999.25            0.8        -999.25         0.5112         1.5889        -999.25       -48.0392       1.634439       2040.335        -999.25              1
      6726.5000           3.66        -999.25        -999.25        -999.25            0.8        -999.25         0.5112         1.5879        -999.25       -48.0392       2.331729       2040.295        -999.25              1
      6727.0000           3.66        -999.25        -999.25        -999.25            0.8        -999.25         0.5112         1.5879        -999.25       -48.0392     0.04128531           2000        -999.25              1
      6727.5000           3.66        -999.25        -999.25        -999.25            0.8        -999.25         0.5112         1.5879        -999.25       -48.2353     -0.4851066           2000        -999.25      0.9930699
      6728.0000           3.66        -999.25        -999.25        -999.25         0.7924        -999.25         0.5118         1.5879        -999.25       -48.2353     -0.4384044           2000        -999.25      0.9937371
      6728.5000           3.66        -999.25        -999.25        -999.25         0.7924        -999.25         0.5118          1.588        -999.25       -48.2353      0.2436112           2000        -999.25              1
      6729.0000           3.66        -999.25        -999.25        -999.25         0.7924        -999.25         0.5118          1.588        -999.25       -48.2353     -0.1245128           2000        -999.25      0.9982212
      6729.5000           3.66        -999.25        -999.25        -999.25            0.8        -999.25         0.5118          1.588        -999.25       -48.4314       3.192973           2000        -999.25              1
      6730.0000           3.66        -999.25        -999.25        -999.25         0.7924        -999.25         0.5118          1.588        -999.25       -48.2353    -0.03417752       1960.016        -999.25      0.9995118
      6730.5000         3.6602        -999.25        -999.25        -999.25            0.7        -999.25         0.5118          1.588        -999.25       -48.4314       1.451759           1960        -999.25              1
      6731.0000         3.6605        -999.25        -999.25        -999.25         0.6569        -999.25         0.5118          1.588        -999.25       -48.4314      0.2500913           1920        -999.25              1
      6731.5000         3.6609        -999.25        -999.25        -999.25         0.6451        -999.25         0.5123          1.588        -999.25       -48.4314      0.5885082           1920        -999.25              1
      6732.0000         3.6612        -999.25        -999.25        -999.25         0.6451        -999.25         0.5123          1.588        -999.25       -48.6275     -0.1217277           1920        -999.25       0.998261
      6732.5000         3.6616        -999.25        -999.25        -999.25         0.6451        -999.25         0.5123         1.5881        -999.25       -48.8235        3.37829           1880        -999.25              1
      6733.0000         3.6619        -999.25        -999.25        -999.25         0.6451        -999.25         0.5122         1.5881        -999.25       -49.0196      0.3017597           1880        -999.25              1
      6733.5000         3.6622        -999.25        -999.25        -999.25         0.6451        -999.25         0.5122         1.5881        -999.25       -49.0196      0.5143371           1880        -999.25              1
