#------------------------------------------------------------------------------
# Created by    : vladimir.rabinovich
# Created on    : 09/19/2023 17:21:23
#------------------------------------------------------------------------------
~Version Information Section
VERS.           2.0     :   CWLS log ASCII Standard - VERSION 2.0
WRAP.           NO      :   One line per depth step
~Well Information Section
#MNEM       .UNIT                                         VALUE :DESCRIPTION
#------------------------------------------------------------------------------
STRT        .FT                                            1005 :START DEPTH
STOP        .FT                                            8973 :STOP DEPTH
STEP        .FT                                             0.5 :STEP      
NULL        .                                           -999.25 :NULL      
COMP        .                            MARITECH RESOURCES INC :COMPANY   
WELL        .                               OCS G06113 ST00BP00 :WELL      
FLD         .                              GALVESTON BLOCK 0343 :FIELD     
LOC         .                                                   :LOCATION  
CNTY        .                             GALVESTON LARGE BLOCK :LOCATION  
STAT        .                                             TEXAS :STATE     
CTRY        .                                     UNITED STATES :COUNTRY   
SRVC        .                                                   :SERVICE COMPANY
DATE        .                             9/13/2023 11:19:36 AM :LOG DATE  
API         .                                    42706402140000 :API NUMBER
UWI         .                                    42706402140000 :UNIQUE WELL ID
XCOORD      .                                  914498.553138379 :SURFACE X 
YCOORD      .                                  10427492.1426863 :SURFACE Y 
LAT         .                                         28.714711 :LATITUDE  
LON         .                                        -95.265111 :LONGITUDE 
ELEV        .FT                                              84 :ELEVATION VALUE
ELEV_TYPE   .                                                KB :ELEVATION REFERENCE TYPE
~Curve Information Section
#MNEM       .UNIT                                      API CODE :CURVE DESCRIPTION
#------------------------------------------------------------------------------
DEPT        .FT                                                 :DEPTH     
CALI        .IN                                                 :          
DPHI        .%                                                  :          
DRHO        .G/C3                                               :          
DT          .US/F                                               :          
GR          .GAPI                                               :          
ILD         .OHMM                                               :          
ILM         .OHMM                                               :          
NPHI        .%                                                  :          
SGRD        .OHMM                                               :          
SP          .MV                                                 :          
SP_NORM     .MV                                                 :SP Normalized
VSH_SP      .V/V                                                :Volume of Shale from SP
~A        DEPTH           CALI           DPHI           DRHO             DT             GR            ILD            ILM           NPHI           SGRD             SP        SP_NORM         VSH_SP
# ...
      2050.5000        -999.25        -999.25        -999.25        -999.25        -999.25         0.8332         0.6746        -999.25         0.5884      -100.6808    -0.07473755              1
      2051.0000        -999.25        -999.25        -999.25        -999.25        -999.25         0.8199         0.6704        -999.25         0.5826      -100.4197      0.1863632              1
      2051.5000        -999.25        -999.25        -999.25        -999.25        -999.25         0.8053         0.6662        -999.25         0.5835       -100.282      0.3240662              1
      2052.0000        -999.25        -999.25        -999.25        -999.25        -999.25         0.7927         0.6608        -999.25         0.5844      -100.3367      0.2693634              1
      2052.5000        -999.25        -999.25        -999.25        -999.25        -999.25         0.7873          0.665        -999.25         0.5862      -100.4185       0.187561              1
      2053.0000        -999.25        -999.25        -999.25        -999.25        -999.25         0.7869         0.6644        -999.25          0.588      -100.5236     0.08246613              1
      2053.5000        -999.25        -999.25        -999.25        -999.25        -999.25         0.7886         0.6643        -999.25          0.588      -100.6398    -0.03373718              1
      2054.0000        -999.25        -999.25        -999.25        -999.25        -999.25         0.7917         0.6662        -999.25         0.5879      -100.7588     -0.1527328              1
      2054.5000        -999.25        -999.25        -999.25        -999.25        -999.25         0.7947         0.6668        -999.25         0.5876      -101.0598     -0.4537354              1
      2055.0000        -999.25        -999.25        -999.25        -999.25        -999.25         0.7976         0.6669        -999.25         0.5871      -101.3715     -0.7654343              1
      2055.5000        -999.25        -999.25        -999.25        -999.25        -999.25         0.8001         0.6649        -999.25         0.5866       -101.759      -1.152939              1
      2056.0000        -999.25        -999.25        -999.25        -999.25        -999.25         0.8028         0.6642        -999.25         0.5863      -102.1494      -1.543335              1
      2056.5000        -999.25        -999.25        -999.25        -999.25        -999.25          0.806         0.6646        -999.25         0.5861      -102.4451      -1.839035              1
      2057.0000        -999.25        -999.25        -999.25        -999.25        -999.25          0.804         0.6702        -999.25         0.5886      -102.7135      -2.107437      0.9940313
      2057.5000        -999.25        -999.25        -999.25        -999.25        -999.25         0.7999         0.6726        -999.25         0.5934      -102.7389      -2.132835      0.9926202
      2058.0000        -999.25        -999.25        -999.25        -999.25        -999.25         0.7891         0.6715        -999.25         0.5975      -102.6223      -2.016235      0.9990981
      2058.5000        -999.25        -999.25        -999.25        -999.25        -999.25         0.7806         0.6669        -999.25         0.5971      -102.3378      -1.731735              1
      2059.0000        -999.25        -999.25        -999.25        -999.25        -999.25         0.7766         0.6609        -999.25         0.5939      -101.8062      -1.200134              1
      2059.5000        -999.25        -999.25        -999.25        -999.25        -999.25         0.7773         0.6581        -999.25         0.5879      -101.2738     -0.6677399              1
      2060.0000        -999.25        -999.25        -999.25        -999.25        -999.25         0.7858         0.6675        -999.25         0.5758      -100.7404     -0.1343384              1
      2060.5000        -999.25        -999.25        -999.25        -999.25        -999.25         0.8007         0.6844        -999.25         0.5625      -100.2772      0.3288651              1
      2061.0000        -999.25        -999.25        -999.25        -999.25        -999.25         0.8207         0.6974        -999.25         0.5472       -99.8767      0.7293625              1
      2061.5000        -999.25        -999.25        -999.25        -999.25        -999.25         0.8454         0.7087        -999.25         0.5414       -99.6481       0.957962              1
      2062.0000        -999.25        -999.25        -999.25        -999.25        -999.25         0.8658         0.7177        -999.25         0.5851       -99.4641        1.14196              1
      2062.5000        -999.25        -999.25        -999.25        -999.25        -999.25         0.8859         0.7192        -999.25         0.6365       -99.4764       1.129662              1
      2063.0000        -999.25        -999.25        -999.25        -999.25        -999.25         0.9007          0.718        -999.25         0.6996       -99.7036      0.9024658              1
      2063.5000        -999.25        -999.25        -999.25        -999.25        -999.25         0.9053         0.7148        -999.25         0.7522      -100.3046      0.3014603              1
      2064.0000        -999.25        -999.25        -999.25        -999.25        -999.25         0.8997         0.7089        -999.25          0.768      -101.0713     -0.4652328              1
      2064.5000        -999.25        -999.25        -999.25        -999.25        -999.25         0.8796         0.6996        -999.25         0.7269      -101.8638      -1.257736              1
      2065.0000        -999.25        -999.25        -999.25        -999.25        -999.25         0.8637         0.6873        -999.25         0.6389      -102.6235      -2.017433      0.9990315
      2065.5000        -999.25        -999.25        -999.25        -999.25        -999.25         0.8473         0.6717        -999.25         0.5521      -103.1082      -2.502136      0.9721035
      2066.0000        -999.25        -999.25        -999.25        -999.25        -999.25         0.8222         0.6533        -999.25         0.5148      -103.3573      -2.751236      0.9582646
      2066.5000        -999.25        -999.25        -999.25        -999.25        -999.25         0.7951         0.6386        -999.25         0.5271       -103.415      -2.808937      0.9550591
      2067.0000        -999.25        -999.25        -999.25        -999.25        -999.25         0.7748         0.6235        -999.25         0.5466      -103.2792      -2.673134      0.9626037
      2067.5000        -999.25        -999.25        -999.25        -999.25        -999.25         0.7567         0.6123        -999.25         0.5593      -103.0876      -2.481537      0.9732479
      2068.0000        -999.25        -999.25        -999.25        -999.25        -999.25         0.7544         0.6069        -999.25          0.561      -102.8062      -2.200134      0.9888814
      2068.5000        -999.25        -999.25        -999.25        -999.25        -999.25          0.752         0.6009        -999.25         0.5528      -102.4623      -1.856239              1
      2069.0000        -999.25        -999.25        -999.25        -999.25        -999.25         0.7538         0.5989        -999.25         0.5503      -101.9985      -1.392433              1
      2069.5000        -999.25        -999.25        -999.25        -999.25        -999.25         0.7598         0.5993        -999.25         0.5489      -101.4441     -0.8380356              1
      2070.0000        -999.25        -999.25        -999.25        -999.25        -999.25         0.7658         0.6052        -999.25         0.5493       -100.855     -0.2489395              1
      2070.5000        -999.25        -999.25        -999.25        -999.25        -999.25         0.7708         0.6114        -999.25         0.5537      -100.2495      0.3565674              1
