#------------------------------------------------------------------------------
# Created by    : vladimir.rabinovich
# Created on    : 09/19/2023 17:20:45
#------------------------------------------------------------------------------
~Version Information Section
VERS.           2.0     :   CWLS log ASCII Standard - VERSION 2.0
WRAP.           NO      :   One line per depth step
~Well Information Section
#MNEM       .UNIT                                         VALUE :DESCRIPTION
#------------------------------------------------------------------------------
STRT        .FT                                            2010 :START DEPTH
STOP        .FT                                            7000 :STOP DEPTH
STEP        .FT                                             0.5 :STEP      
NULL        .                                           -999.25 :NULL      
COMP        .                                    TEXAS GULF INC :COMPANY   
WELL        .                                ST OF TEX TR 693-L :WELL      
FLD         .                                           WILDCAT :FIELD     
LOC         .                                                   :LOCATION  
CNTY        .                      MATAGORDA ISLAND LARGE BLOCK :LOCATION  
STAT        .                                             TEXAS :STATE     
CTRY        .                                     UNITED STATES :COUNTRY   
SRVC        .                                                   :SERVICE COMPANY
DATE        .                             9/13/2023 11:12:01 AM :LOG DATE  
API         .                                    42703300330000 :API NUMBER
UWI         .                                    42703300330000 :UNIQUE WELL ID
XCOORD      .                                  377893.250269135 :SURFACE X 
YCOORD      .                                  10151490.3803449 :SURFACE Y 
LAT         .                                        27.9187241 :LATITUDE  
LON         .                                       -96.9091122 :LONGITUDE 
ELEV        .FT                                              70 :ELEVATION VALUE
ELEV_TYPE   .                                                KB :ELEVATION REFERENCE TYPE
~Curve Information Section
#MNEM       .UNIT                                      API CODE :CURVE DESCRIPTION
#------------------------------------------------------------------------------
DEPT        .FT                                                 :DEPTH     
ASN         .OHMM                                               :          
CILD        .MMHO                                               :          
ILD         .OHMM                                               :          
SP          .MV                                                 :          
SP_NORM     .MV                                                 :SP Normalized
VSH_SP      .V/V                                                :Volume of Shale from SP
~A        DEPTH            ASN           CILD            ILD             SP        SP_NORM         VSH_SP
# ...
      4974.0000         0.9926       1527.689          0.766       -47.1912        -1.1426              1
      4974.5000         0.9703       1556.174         0.7629       -47.3073        -1.2534              1
      4975.0000         0.9481        1584.66         0.7557        -46.738        -0.6789              1
      4975.5000         0.9584       1607.229         0.7473       -46.1452        -0.0808              1
      4976.0000         0.9628        1611.75          0.739       -46.3397          -0.27              1
      4976.5000         0.9503       1616.273         0.7306        -46.917         -0.842              1
      4977.0000         0.9378       1620.799         0.7223       -47.5234        -1.4432              1
      4977.5000         0.9253       1600.176         0.7139       -47.2544        -1.1689              1
      4978.0000         0.9444       1577.602         0.7056       -45.9234         0.1674              1
      4978.5000         1.0074       1555.053         0.6972       -44.5937         1.5024              1
      4979.0000         1.0363       1532.504         0.6889       -44.3271         1.7743              1
      4979.5000         1.0613        1509.93         0.6806       -44.7114         1.3952              1
      4980.0000         1.0811       1478.799          0.673       -45.0954         1.0165              1
      4980.5000         1.0782       1484.373         0.6654       -45.4797         0.6375              1
      4981.0000         1.0655       1504.965         0.6578       -45.6411         0.4814              1
      4981.5000         1.0527       1531.131         0.6502       -45.6011         0.5266              1
      4982.0000           1.04       1557.297         0.6425       -45.5612         0.5718              1
      4982.5000         1.0272       1583.463         0.6349       -45.5212         0.6171              1
      4983.0000         1.0103       1609.629         0.6273       -45.4524         0.6912              1
      4983.5000         0.9933        1635.82         0.6286        -45.124         1.0249              1
      4984.0000         0.9764       1661.986         0.6322       -44.7956         1.3585              1
      4984.5000         0.9594       1644.451         0.6359       -44.4672         1.6922              1
      4985.0000         0.9483       1626.678         0.6415       -44.1388         2.0259              1
      4985.5000         0.9468       1605.588         0.6472       -44.3809         1.7891              1
      4986.0000         0.9477       1573.785         0.6529       -44.8857         1.2895              1
      4986.5000         0.9583       1541.957         0.6586       -45.3909         0.7896              1
      4987.0000         0.9689       1510.152         0.6644       -45.8958           0.29              1
      4987.5000         0.9795        1478.35         0.6667       -46.4006        -0.2095              1
      4988.0000         1.0014       1443.803         0.6687       -46.9058        -0.7094              1
      4988.5000         1.0275       1455.525         0.6708       -47.3684        -1.1668              1
      4989.0000         1.0448       1477.951         0.6729       -47.7975        -1.5906              1
      4989.5000         1.0012       1500.375         0.6749       -48.2262         -2.014      0.9997941
      4990.0000         0.9576       1522.801          0.677       -48.6553        -2.4378      0.9935617
      4990.5000         0.9437       1545.225         0.6786       -48.0504        -1.8277              1
      4991.0000         0.9618       1560.229         0.6803       -47.3936        -1.1656              1
      4991.5000         0.9799       1568.248         0.6819       -48.0367        -1.8034              1
      4992.0000          0.998       1576.268         0.6835       -48.6804        -2.4418      0.9935029
      4992.5000         1.0161       1571.266         0.6851       -49.3242        -3.0803      0.9841132
      4993.0000         1.0341       1536.844         0.6867       -49.9679        -3.7188      0.9747235
      4993.5000         1.0484       1507.484         0.6884       -50.4948        -4.2404      0.9670529
      4994.0000          1.061       1475.307         0.6925       -50.6642        -4.4045      0.9646397
      4994.5000         1.0654       1446.908         0.6979       -50.6226        -4.3576      0.9653294
      4995.0000         1.0461       1435.746         0.7033        -50.581        -4.3108      0.9660177
      4995.5000         1.0486       1424.584         0.7086       -50.5292        -4.2537      0.9668574
      4996.0000         1.0562       1413.408          0.714       -50.3659        -4.0851      0.9693367
      4996.5000         1.0639       1399.988         0.7194       -50.2026        -3.9165      0.9718162
      4997.0000         1.0744       1385.408         0.7247       -50.0436        -3.7522      0.9742324
      4997.5000         1.0849        1370.83         0.7301       -50.2847        -3.9881      0.9707632
      4998.0000         1.0985       1344.426         0.7354       -50.5222        -4.2203      0.9673485
      4998.5000         1.1124       1291.744         0.7383        -50.758        -4.4508      0.9639588
      4999.0000         1.1262       1245.424         0.7412       -50.9938        -4.6813      0.9605691
      4999.5000         1.1197       1213.297         0.7442       -51.2296        -4.9118      0.9571794
      5000.0000         1.0992       1224.359         0.7304       -51.4656        -5.1426      0.9537853
      5000.5000         1.0786       1321.328         0.7051       -50.6862        -4.3579       0.965325
      5001.0000         1.0513       1446.248          0.681       -49.7094        -3.3758      0.9797676
      5001.5000         1.0239       1565.379         0.6579       -48.7326        -2.3937      0.9942103
      5002.0000         0.9965       1673.834         0.6348       -47.7869        -1.4428              1
      5002.5000         0.9706       1718.834         0.6117        -47.808        -1.4586              1
      5003.0000         0.9575       1763.883         0.5886       -48.6587         -2.304      0.9955294
      5003.5000         0.9433       1808.881         0.5655       -49.5093        -3.1493      0.9830985
      5004.0000         0.9182       1853.879         0.5425       -50.1838        -3.8186      0.9732559
      5004.5000         0.9241       1890.098         0.5195       -50.6669        -4.2964      0.9662294
      5005.0000         0.9338       1925.693         0.5051       -51.0627        -4.6869      0.9604868
      5005.5000         0.9435       1961.264         0.4907       -50.2873        -3.9062      0.9719676
      5006.0000         0.9905       1992.543         0.4763       -49.5125        -3.1261      0.9834397
      5006.5000         1.0479       2018.584         0.5258        -48.737        -2.3454      0.9949206
      5007.0000          1.076       2040.584         0.5824       -47.9615        -1.5646              1
      5007.5000         1.1042       1915.291         0.6391        -47.186        -0.7838              1
      5008.0000         1.1356       1667.848         0.6957       -46.2241         0.1834              1
      5008.5000         1.1713       1448.342         0.7524       -44.8372         1.5756              1
      5009.0000         1.2068       1301.523         0.8079       -44.9491         1.4689              1
      5009.5000         1.2463       1227.189         0.8611       -46.1011         0.3222              1
      5010.0000         1.2931       1184.137         0.9071       -47.2531        -0.8245              1
      5010.5000         1.3398       1268.248         0.8532       -48.4064        -1.9725              1
      5011.0000         1.3982       1352.258         0.7972       -49.6255        -3.1864      0.9825529
      5011.5000          1.419       1436.369         0.7294       -51.2088        -4.7644      0.9593471
