#------------------------------------------------------------------------------
# Created by    : vladimir.rabinovich
# Created on    : 09/19/2023 17:19:48
#------------------------------------------------------------------------------
~Version Information Section
VERS.           2.0     :   CWLS log ASCII Standard - VERSION 2.0
WRAP.           NO      :   One line per depth step
~Well Information Section
#MNEM       .UNIT                                         VALUE :DESCRIPTION
#------------------------------------------------------------------------------
STRT        .FT                                             130 :START DEPTH
STOP        .FT                                            9502 :STOP DEPTH
STEP        .FT                                             0.5 :STEP      
NULL        .                                           -999.25 :NULL      
COMP        .            MOBIL PRODUCING TEXAS & NEW MEXICO INC :COMPANY   
WELL        .                               OCS G07243 ST00BP00 :WELL      
FLD         .                                           WILDCAT :FIELD     
LOC         .                                                   :LOCATION  
CNTY        .                             GALVESTON LARGE BLOCK :LOCATION  
STAT        .                                             TEXAS :STATE     
CTRY        .                                     UNITED STATES :COUNTRY   
SRVC        .                                                   :SERVICE COMPANY
DATE        .                             9/13/2023 11:19:36 AM :LOG DATE  
API         .                                    42706401330000 :API NUMBER
UWI         .                                    42706401330000 :UNIQUE WELL ID
XCOORD      .                                  993943.906145108 :SURFACE X 
YCOORD      .                                  10496155.9223708 :SURFACE Y 
LAT         .                                         28.907432 :LATITUDE  
LON         .                                        -95.020991 :LONGITUDE 
ELEV        .FT                                              92 :ELEVATION VALUE
ELEV_TYPE   .                                                KB :ELEVATION REFERENCE TYPE
~Curve Information Section
#MNEM       .UNIT                                      API CODE :CURVE DESCRIPTION
#------------------------------------------------------------------------------
DEPT        .FT                                                 :DEPTH     
ASFL        .OHMM                                               :          
CILD        .MMHO                                               :          
DT          .US/F                                               :          
GR          .GAPI                                               :          
GR_NORM     .GAPI                                               :GammaRay Normalized
ILD         .OHMM                                               :          
SP          .MV                                                 :          
SP_NORM     .GAPI                                               :SP Normalized
VSH_GR      .V/V                                                :Volume of Shale from GR
VSH_SP      .V/V                                                :Volume of Shale from SP
~A        DEPTH           ASFL           CILD             DT             GR        GR_NORM            ILD             SP        SP_NORM         VSH_GR         VSH_SP
# ...
      6990.0000         1.1461       1214.828       110.7175        89.4817       89.16955         0.8031         88.842        1.79369              1              1
      6990.5000         1.1585       1210.576       112.5558        89.0001       88.53704         0.7937        88.6257       1.541939              1              1
      6991.0000          1.172       1206.322       111.9664        88.6692       88.10243         0.7983        88.4097       1.290541              1              1
      6991.5000         1.1859       1202.063       110.7744        88.3385       87.66811         0.8029        88.1932       1.038559              1              1
      6992.0000         1.1999       1195.123       106.9391        88.0074       87.23325         0.8076        87.9855      0.7967798              1              1
      6992.5000         1.2108       1185.297       104.8451        87.6765       86.79866         0.8159        87.9216      0.7217817              1              1
      6993.0000         1.1965       1175.469        105.859        87.2836       86.28264         0.8244        87.8829      0.6760007              1              1
      6993.5000         1.1822       1165.652       107.8992        86.8871       85.76189          0.833        88.0619      0.8827056              1              1
      6994.0000         1.1661       1155.691       115.1541        86.4899       85.24021         0.8416         88.241       1.089526              1              1
      6994.5000         1.1497       1143.807       114.9338        86.0933       84.71933         0.8502        88.3906       1.262138              1              1
      6995.0000         1.1496       1131.912       110.3687        85.6967       84.19845         0.8588        88.2561       1.105258              1              1
      6995.5000         1.1641       1120.027       107.2063         85.397       83.80485         0.8671        88.1216      0.9483776              1              1
      6996.0000         1.1787       1108.131       105.4446        87.2383       86.22314         0.8753        87.9871      0.7914974              1              1
      6996.5000         1.1921       1096.223       103.0902        88.6982       88.14053         0.8835        87.8138      0.5896147              1              1
      6997.0000          1.198       1084.303       106.4541        88.0449        87.2825         0.8917        87.6307      0.3763709              1              1
      6997.5000         1.2039       1072.369       106.5333        86.8141       85.66602            0.9        87.4476      0.1631271              1              1
      6998.0000         1.2099       1060.449       102.2723        86.3789       85.09443         0.9082        87.2645    -0.05011673              1      0.9991647
      6998.5000         1.2143       1051.014       101.6074        87.2971       86.30036         0.9168        87.0815     -0.2632544              1      0.9956124
      6999.0000         1.1988       1043.279       101.4889        88.1541       87.42593         0.9256        86.8984     -0.4764982              1      0.9920583
      6999.5000         1.1834       1035.543       103.7817        89.0109       88.55123         0.9343        86.6511     -0.7642004              1      0.9872633
      7000.0000         1.1662       1028.488       109.6708        89.6294       89.36354          0.943        86.2054      -1.190423              1      0.9801596
      7000.5000         1.1488       1024.283       117.9427        89.0439       88.59456         0.9517        85.7605      -1.670376              1      0.9721604
      7001.0000         1.1555       1020.087       119.1075        88.4592       87.82663         0.9605        85.3148      -2.151192              1      0.9641468
      7001.5000         1.1849       1015.883       118.4203        87.8739       87.05792         0.9678        84.8981       -2.60077              1      0.9566538
      7002.0000         1.2113       1011.685       111.7988        87.3541       86.37524          0.971        84.9194       -2.57866              1      0.9570223
      7002.5000         1.2329        1014.42       104.9398        87.4172       86.45811         0.9743          85.34      -2.126544              1      0.9645576
      7003.0000         1.2254       1018.318        98.1847        88.9889       88.52232         0.9776        85.7611      -1.673876              1       0.972102
      7003.5000         1.2067       1022.223        97.3394        90.0836       89.96008         0.9808        86.1586       -1.24663              1      0.9792228
      7004.0000          1.182       1026.127         98.927        91.0704        91.2561         0.9774        86.4473     -0.9365481              1      0.9843909
      7004.5000         1.1572       1030.023       102.5941        91.8936       92.33727         0.9713        86.7357     -0.6267865              1      0.9895536
      7005.0000         1.1398       1033.928       110.7397         92.322       92.89992         0.9651         87.024     -0.3171398              1      0.9947143
      7005.5000         1.1248       1037.832       115.6481        91.7067        92.0918         0.9589        87.3127   -0.007065993              1      0.9998822
      7006.0000         1.1298       1047.709       115.6415        91.0907       91.28276         0.9467        87.5355      0.2320439              1              1
      7006.5000         1.1398       1069.102       110.5022        90.3655       90.33031         0.9328        87.6727      0.3789673              1              1
      7007.0000         1.1502       1090.496       106.2363        89.5148       89.21303         0.9188        87.8098      0.5257838              1              1
      7007.5000         1.1606       1107.164       102.9989        88.6652       88.09719         0.9049        87.7495      0.4600126              1              1
      7008.0000           1.17       1121.691       102.6646        87.8145        86.9799         0.8928        87.5549      0.2496185              1              1
      7008.5000          1.168       1134.947       105.4396        87.1028       86.04517         0.8826          87.36     0.03890404              1              1
      7009.0000         1.1574       1142.363        107.507        88.1478       87.41765          0.886        87.1654     -0.1714982              1      0.9971417
      7009.5000         1.1468       1149.779       107.7899        89.5582       89.27002         0.8906        86.9705     -0.3822209              1      0.9936296
      7010.0000         1.1387       1157.197       107.9851        89.0011       88.53835         0.8951        86.7802     -0.5879892              1      0.9902002
      7010.5000         1.1359       1164.613       108.4275        88.3789       87.72118         0.8997        86.6189     -0.7625275              1      0.9872912
      7011.0000         1.1356        1173.67        109.158        87.7286       86.86709         0.9043        86.4576     -0.9370575              1      0.9843824
      7011.5000         1.1395       1182.996       109.5477        87.0782       86.01287         0.9034        86.3657      -1.036861              1       0.982719
      7012.0000          1.143       1188.771       109.8177         86.428       85.15892         0.9024        86.5883     -0.7979642              1      0.9867006
      7012.5000          1.145        1171.59       109.3943        85.7825       84.31114         0.9013        86.8108      -0.559183              1      0.9906803
      7013.0000         1.1566       1154.406        108.876        85.1505       83.48109         0.9002        87.0332     -0.3204921              1      0.9946585
      7013.5000         1.1686       1137.248       109.9095        86.0529       84.66628         0.9004         87.246     -0.0921537              1      0.9984641
      7014.0000         1.1807       1120.064       110.9896        87.2898       86.29079         0.9015        87.4491      0.1257336              1              1
