#------------------------------------------------------------------------------
# Created by    : vladimir.rabinovich
# Created on    : 09/19/2023 17:20:45
#------------------------------------------------------------------------------
~Version Information Section
VERS.           2.0     :   CWLS log ASCII Standard - VERSION 2.0
WRAP.           NO      :   One line per depth step
~Well Information Section
#MNEM       .UNIT                                         VALUE :DESCRIPTION
#------------------------------------------------------------------------------
STRT        .FT                                            2110 :START DEPTH
STOP        .FT                                            6746 :STOP DEPTH
STEP        .FT                                             0.5 :STEP      
NULL        .                                           -999.25 :NULL      
COMP        .                       HOUSTON OIL & MINERALS CORP :COMPANY   
WELL        .                                ST TR 00694-L NE/4 :WELL      
FLD         .                                           WILDCAT :FIELD     
LOC         .                                                   :LOCATION  
CNTY        .                      MATAGORDA ISLAND LARGE BLOCK :LOCATION  
STAT        .                                             TEXAS :STATE     
CTRY        .                                     UNITED STATES :COUNTRY   
SRVC        .                                                   :SERVICE COMPANY
DATE        .                             9/13/2023 11:12:01 AM :LOG DATE  
API         .                                    42703302070000 :API NUMBER
UWI         .                                    42703302070000 :UNIQUE WELL ID
XCOORD      .                                  400461.464340365 :SURFACE X 
YCOORD      .                                  10145980.2526086 :SURFACE Y 
LAT         .                                        27.9055609 :LATITUDE  
LON         .                                       -96.8388291 :LONGITUDE 
ELEV        .FT                                              25 :ELEVATION VALUE
ELEV_TYPE   .                                                KB :ELEVATION REFERENCE TYPE
~Curve Information Section
#MNEM       .UNIT                                      API CODE :CURVE DESCRIPTION
#------------------------------------------------------------------------------
DEPT        .FT                                                 :DEPTH     
ASN         .OHMM                                               :          
CILD        .MMHO                                               :          
ILD         .OHMM                                               :          
SP          .MV                                                 :          
SP_NORM     .MV                                                 :SP Normalized
VSH_SP      .V/V                                                :Volume of Shale from SP
~A        DEPTH            ASN           CILD            ILD             SP        SP_NORM         VSH_SP
# ...
      3630.0000         1.4134         1014.8         0.9272       -44.0027       -11.1534      0.8010131
      3630.5000          1.404       1057.584         0.9011       -46.3441       -13.4913      0.7501891
      3631.0000         1.3945       1100.467         0.8682       -55.0593        -22.203      0.5608044
      3631.5000         1.3821       1153.482         0.8352         -61.78       -28.9203      0.4147761
      3632.0000         1.3646       1234.979         0.8023       -66.0031       -33.1399      0.3230456
      3632.5000          1.347       1369.168         0.7528       -73.4209       -40.5542      0.1618652
      3633.0000         1.3292       1503.355         0.7001       -75.8636       -42.9934      0.1088391
      3633.5000         1.3045       1637.545         0.6473       -78.3096       -45.4359     0.05574127
      3634.0000         1.2797       1771.732         0.6012       -79.1326       -46.2555     0.03792389
      3634.5000         1.2495       1905.922          0.556       -79.7169       -46.8363     0.02529783
      3635.0000         1.2172       2040.109         0.5107       -80.0402       -47.1561     0.01834563
      3635.5000         1.1702       2174.297         0.4745       -80.2284       -47.3408     0.01433041
      3636.0000         1.1206       2155.352         0.4462       -80.2834       -47.3923     0.01321088
      3636.5000         1.0779       2102.063          0.418       -80.3074       -47.4129     0.01276307
      3637.0000         1.0573       2048.801         0.3932       -80.2621       -47.3641     0.01382388
      3637.5000         1.0529       1995.514          0.371       -80.2168       -47.3153     0.01488478
      3638.0000         1.0486       1942.225         0.3699       -80.0735       -47.1685     0.01807611
      3638.5000          1.044       1888.938         0.3843       -79.8894       -46.9809     0.02215435
      3639.0000         1.0388       1835.674         0.3987       -79.7052       -46.7933     0.02623259
      3639.5000         1.0335       1782.385         0.4131       -79.3311       -46.4157     0.03444133
      3640.0000         1.0251       1833.115         0.4273       -78.8701       -45.9512     0.04453916
      3640.5000          1.015       1978.529         0.4275       -78.4092       -45.4868     0.05463476
      3641.0000         1.0048       2123.941         0.4175       -77.8555       -44.9296     0.06674783
      3641.5000         0.9961       2269.254         0.4074       -77.2839       -44.3546     0.07924785
      3642.0000         1.0007        2135.66         0.4029       -76.7128         -43.78     0.09173916
      3642.5000         1.0526       1925.887         0.3998       -75.9757       -43.0394      0.1078392
      3643.0000         1.1909       1716.012         0.4109       -75.1895       -42.2497      0.1250066
      3643.5000         1.3234       1506.137         0.4772       -74.4039       -41.4607      0.1421587
      3644.0000         1.4559       1296.262         0.5434       -73.3898       -40.4431      0.1642804
      3644.5000         1.5884       1098.705         0.6274       -72.2606       -39.3104      0.1889044
      3645.0000           1.72       1037.568         0.7118       -71.1559       -38.2022      0.2129956
      3645.5000         1.7823       976.3857         0.7723       -71.1234       -38.1662      0.2137783
      3646.0000         1.8156       922.1533         0.8315       -71.0908       -38.1302      0.2145609
      3646.5000         1.8166       940.2803         0.8854       -71.1064       -38.1423      0.2142978
      3647.0000         1.8448       958.4199         0.9276       -71.1237       -38.1561      0.2139978
      3647.5000         1.9548       976.5469         0.9699       -70.7012       -37.7301      0.2232587
      3648.0000         1.9826       946.8613         1.0159       -69.9486        -36.974      0.2396957
      3648.5000         1.9892       842.9414         1.0708        -68.498         -35.52      0.2713043
      3649.0000         1.9462       714.1162         1.1269       -66.7526       -33.7711      0.3093239
      3649.5000         1.9032       665.5713         1.1843       -62.5842       -29.5992      0.4000174
      3650.0000         1.8602       635.7236          1.239       -58.4159       -25.4274      0.4907087
      3650.5000         1.8172       618.0127          1.286       -54.2475       -21.2556         0.5814
      3651.0000         1.7742       623.6563          1.322       -50.0767       -17.0813      0.6721457
      3651.5000         1.7312       640.4795         1.3255       -45.9083       -12.9094      0.7628391
      3652.0000         1.6882       661.5361         1.2909       -41.7399        -8.7375      0.8535326
      3652.5000         1.6451       682.5928         1.2437       -40.2649         -7.259      0.8856739
      3653.0000         1.6021       725.2656         1.1964       -40.6071        -7.5978      0.8783087
      3653.5000         1.5591       774.0596         1.0592       -40.9717        -7.9589      0.8704587
      3654.0000         1.5161       874.8252         0.8924       -42.0082        -8.9919      0.8480021
      3654.5000         1.4731        1059.67         0.7508       -50.8062       -17.7864      0.6568174
      3655.0000         1.3967       1169.424         0.6341       -57.1609       -24.1376      0.5187478
      3655.5000         1.3378       1279.178         0.5675       -63.8218       -30.7951      0.3740196
      3656.0000         1.2554       1388.934         0.5009        -70.144       -37.1138      0.2366565
      3656.5000          1.185       1498.688         0.4661       -74.7823       -41.7486         0.1359
      3657.0000         1.1597       1608.441         0.4358       -75.9633       -42.9261      0.1103021
      3657.5000         1.1335       1718.197         0.4056       -76.3051       -43.2644      0.1029478
      3658.0000         1.1238       1827.951         0.4014       -76.6174       -43.5733     0.09623262
      3658.5000         1.1354       1937.705         0.4081       -76.7733       -43.7257     0.09291956
      3659.0000         1.1469       2047.461         0.4147       -74.5365       -41.4854      0.1416217
      3659.5000         1.1814       2157.215         0.4589       -68.7745       -35.7199      0.2669587
      3660.0000         1.2203       1698.432         0.5181       -63.0125       -29.9544      0.3922957
      3660.5000         1.3184       1094.533         0.6553       -57.2505        -24.189      0.5176305
      3661.0000         1.4006       844.2334          0.846       -51.4885       -18.4235      0.6429674
      3661.5000         1.4599         759.21         1.2201       -45.7265        -12.658      0.7683043
      3662.0000         1.4568       719.5791         1.4004       -38.6566        -5.5846      0.9220739
      3662.5000         1.4537       679.9238         1.4092       -37.7708        -4.6954      0.9414043
      3663.0000         1.4506       646.1133         1.3973       -36.9272        -3.8483      0.9598196
      3663.5000         1.4475       639.1445         1.3831        -36.503        -3.4206      0.9691174
      3664.0000          1.437       640.3555         1.3689       -36.0788        -2.9929      0.9784152
      3664.5000         1.4259       647.4814         1.3547       -35.8239        -2.7345      0.9840326
      3665.0000         1.4109       658.3457         1.3405       -35.7204        -2.6276      0.9863565
      3665.5000         1.3928       671.9717         1.3263       -35.6926        -2.5963      0.9870369
      3666.0000         1.3737       685.5977         1.3118       -35.6647        -2.5649      0.9877196
      3666.5000         1.3507       699.2236         1.2956       -35.6368        -2.5335      0.9884022
      3667.0000         1.3278       718.1025         1.2794       -35.6102        -2.5034      0.9890565
      3667.5000         1.2969       737.1973         1.2631       -35.5874        -2.4772      0.9896261
