#------------------------------------------------------------------------------
# Created by    : vladimir.rabinovich
# Created on    : 09/19/2023 17:22:56
#------------------------------------------------------------------------------
~Version Information Section
VERS.           2.0     :   CWLS log ASCII Standard - VERSION 2.0
WRAP.           NO      :   One line per depth step
~Well Information Section
#MNEM       .UNIT                                         VALUE :DESCRIPTION
#------------------------------------------------------------------------------
STRT        .FT                                             671 :START DEPTH
STOP        .FT                                           10000 :STOP DEPTH
STEP        .FT                                             0.5 :STEP      
NULL        .                                           -999.25 :NULL      
COMP        .                                    MOBIL OIL CORP :COMPANY   
WELL        .                                     ST TR 00565-L :WELL      
FLD         .                                           WILDCAT :FIELD     
LOC         .                                                   :LOCATION  
CNTY        .                      MATAGORDA ISLAND LARGE BLOCK :LOCATION  
STAT        .                                             TEXAS :STATE     
CTRY        .                                     UNITED STATES :COUNTRY   
SRVC        .                                                   :SERVICE COMPANY
DATE        .                             9/13/2023 11:12:05 AM :LOG DATE  
API         .                                    42703000150000 :API NUMBER
UWI         .                                    42703000150000 :UNIQUE WELL ID
XCOORD      .                                  584511.465629887 :SURFACE X 
YCOORD      .                                  10263641.5286434 :SURFACE Y 
LAT         .                                         28.243485 :LATITUDE  
LON         .                                       -96.2796592 :LONGITUDE 
ELEV        .FT                                              11 :ELEVATION VALUE
ELEV_TYPE   .                                                KB :ELEVATION REFERENCE TYPE
~Curve Information Section
#MNEM       .UNIT                                      API CODE :CURVE DESCRIPTION
#------------------------------------------------------------------------------
DEPT        .FT                                                 :DEPTH     
SP          .MV                                                 :          
SP_NORM     .MV                                                 :SP Normalized
VSH_SP      .V/V                                                :Volume of Shale from SP
~A        DEPTH             SP        SP_NORM         VSH_SP
# ...
      6215.0000        25.2397       -16.0363      0.3897261
      6215.5000        22.4609       -13.2592      0.5104696
      6216.0000        20.6613       -11.4613      0.5886391
      6216.5000        19.4471       -10.2487      0.6413609
      6217.0000        18.7926        -9.5959      0.6697435
      6217.5000        18.2134        -9.0184      0.6948522
      6218.0000        17.7698        -8.5765      0.7140652
      6218.5000        17.9882        -8.7966      0.7044956
      6219.0000        19.9007       -10.7108      0.6212696
      6219.5000        25.5356       -16.3474         0.3762
      6220.0000        28.2338       -19.0473       0.258813
      6220.5000        31.1101       -21.9253      0.1336826
      6221.0000        31.7056       -22.5225      0.1077174
      6221.5000        32.2039       -23.0225      0.0859783
      6222.0000        32.6481       -23.4684     0.06659134
      6222.5000        33.0478       -23.8698      0.0491391
      6223.0000        33.9978       -24.8215    0.007760836
      6223.5000        34.4142       -25.2396              0
      6224.0000        32.6349        -23.462     0.06686957
      6224.5000        31.3097       -22.1385       0.124413
      6225.0000        29.7799       -20.6104      0.1908522
      6225.5000        27.4406       -18.2728      0.2924869
      6226.0000        23.2892        -14.123       0.472913
      6226.5000        21.4305        -12.266      0.5536522
      6227.0000        20.8559       -11.6931      0.5785609
      6227.5000        20.7312       -11.5701      0.5839087
      6228.0000         21.472       -12.3126      0.5516261
      6228.5000        24.2279       -15.0702      0.4317304
      6229.0000        24.6775       -15.5215      0.4121087
      6229.5000        24.8717       -15.7174      0.4035913
      6230.0000          23.51       -14.3574      0.4627217
      6230.5000        21.9282       -12.7773      0.5314217
      6231.0000        22.0317       -12.8825      0.5268478
      6231.5000         23.879       -14.7315      0.4464565
      6232.0000        29.0043       -19.8585      0.2235435
      6232.5000        29.9656       -20.8215      0.1816739
      6233.0000         30.519       -21.3766      0.1575391
      6233.5000        30.8372       -21.6965      0.1436304
      6234.0000        30.9285       -21.7895       0.139587
      6234.5000        30.5956       -21.4583       0.153987
      6235.0000        28.8161       -19.6805      0.2312826
      6235.5000        27.3904       -18.2565      0.2931956
      6236.0000        25.8041       -16.6718      0.3620956
      6236.5000        24.1325       -15.0019         0.4347
      6237.0000        22.4483       -13.3194      0.5078522
      6237.5000        20.7918       -11.6646         0.5798
      6238.0000        19.5343       -10.4088         0.6344
      6238.5000         18.209        -9.0852      0.6919478
      6239.0000        17.2954        -8.1733      0.7315956
      6239.5000         16.555        -7.4346      0.7637131
      6240.0000        16.0593        -6.9406      0.7851913
      6240.5000        15.5673        -6.4503      0.8065087
      6241.0000         15.098        -5.9827      0.8268391
      6241.5000        14.6292        -5.5156      0.8471478
      6242.0000        14.2675        -5.1556         0.8628
      6242.5000        14.0998        -4.9896      0.8700174
      6243.0000        13.9323        -4.8238      0.8772261
      6243.5000        13.7965        -4.6897      0.8830565
      6244.0000         13.755        -4.6499       0.884787
      6244.5000        13.7134          -4.61      0.8865218
      6245.0000        13.6719        -4.5702      0.8882522
      6245.5000        13.6303        -4.5302      0.8899913
      6246.0000        13.5388        -4.4404      0.8938956
      6246.5000        13.4455        -4.3488      0.8978782
      6247.0000        13.3522        -4.2572      0.9018609
      6247.5000        13.2589        -4.1656      0.9058435
      6248.0000        13.1656         -4.074      0.9098261
      6248.5000        12.9667        -3.8768         0.9184
      6249.0000        12.7468        -3.6586       0.927887
      6249.5000        12.5269        -3.4404      0.9373739
      6250.0000         12.655        -3.5702      0.9317304
      6250.5000         12.832        -3.7489      0.9239609
      6251.0000        13.0262        -3.9448      0.9154435
      6251.5000        13.2204        -4.1407      0.9069261
      6252.0000        13.4146        -4.3366      0.8984087
      6252.5000        13.6086        -4.5323         0.8899
      6253.0000        13.8367        -4.7621      0.8799087
      6253.5000         14.094        -5.0211      0.8686478
      6254.0000        14.3516        -5.2804      0.8573739
      6254.5000        14.6066        -5.5371       0.846213
      6255.0000        14.8504        -5.7826      0.8355392
      6255.5000        15.0942         -6.028      0.8248696
      6256.0000        15.3145          -6.25      0.8152174
      6256.5000        15.4439        -6.3811      0.8095174
      6257.0000        15.5731         -6.512      0.8038261
      6257.5000        15.3352        -6.2758      0.8140956
      6258.0000        14.6317         -5.574      0.8446087
      6258.5000        14.1567        -5.1007       0.865187
      6259.0000        13.6811        -4.6268      0.8857913
      6259.5000        13.3248        -4.2722      0.9012087
      6260.0000        13.2575        -4.2066      0.9040608
      6260.5000        13.1902         -4.141       0.906913
      6261.0000        13.1702        -4.1227      0.9077087
      6261.5000        13.1782        -4.1324      0.9072869
      6262.0000        13.1861         -4.142      0.9068695
      6262.5000         13.194        -4.1516      0.9064522
      6263.0000         13.202        -4.1613      0.9060304
      6263.5000        13.2003        -4.1613      0.9060304
      6264.0000        13.1436        -4.1063      0.9084218
      6264.5000         13.087        -4.0514      0.9108087
      6265.0000        13.0302        -3.9963      0.9132044
      6265.5000        12.9735        -3.9412         0.9156
      6266.0000        12.9072        -3.8766      0.9184087
      6266.5000          12.81        -3.7811      0.9225609
      6267.0000        12.7128        -3.6856       0.926713
      6267.5000        12.6613        -3.6358      0.9288782
      6268.0000        12.6889        -3.6651      0.9276043
      6268.5000        12.7273        -3.7052      0.9258609
      6269.0000        12.8349        -3.8145      0.9211087
      6269.5000        12.9427         -3.924      0.9163478
      6270.0000        13.0465        -4.0295      0.9117609
      6270.5000        13.1423         -4.127      0.9075217
      6271.0000        13.2382        -4.2246      0.9032783
      6271.5000         13.334        -4.3221      0.8990391
      6272.0000          13.43        -4.4198      0.8947913
      6272.5000        13.5299        -4.5214      0.8903739
      6273.0000        13.6304        -4.6236      0.8859304
      6273.5000        13.7308        -4.7257      0.8814913
      6274.0000        13.8312        -4.8278      0.8770522
      6274.5000        13.9399        -4.9382      0.8722522
      6275.0000        14.1596        -5.1595      0.8626304
      6275.5000        14.3792        -5.3808      0.8530087
      6276.0000        14.5988        -5.6021      0.8433869
      6276.5000        14.7729        -5.7779      0.8357435
      6277.0000        14.9003         -5.907      0.8301305
      6277.5000        15.0277        -6.0361      0.8245174
      6278.0000        15.0515        -6.0616      0.8234087
      6278.5000        14.9651        -5.9769      0.8270913
      6279.0000        14.8197        -5.8332      0.8333392
      6279.5000         14.641        -5.6562      0.8410348
      6280.0000        14.4623        -5.4792      0.8487304
      6280.5000        14.2836        -5.3022      0.8564261
