#------------------------------------------------------------------------------
# Created by    : vladimir.rabinovich
# Created on    : 09/19/2023 17:21:25
#------------------------------------------------------------------------------
~Version Information Section
VERS.           2.0     :   CWLS log ASCII Standard - VERSION 2.0
WRAP.           NO      :   One line per depth step
~Well Information Section
#MNEM       .UNIT                                         VALUE :DESCRIPTION
#------------------------------------------------------------------------------
STRT        .FT                                            2957 :START DEPTH
STOP        .FT                                            7390 :STOP DEPTH
STEP        .FT                                             0.5 :STEP      
NULL        .                                           -999.25 :NULL      
COMP        .                              DEVON LOUISIANA CORP :COMPANY   
WELL        .                               OCS G09039 ST00BP00 :WELL      
FLD         .                              GALVESTON BLOCK 0273 :FIELD     
LOC         .                                                   :LOCATION  
CNTY        .                             GALVESTON LARGE BLOCK :LOCATION  
STAT        .                                             TEXAS :STATE     
CTRY        .                                     UNITED STATES :COUNTRY   
SRVC        .                                                   :SERVICE COMPANY
DATE        .                             9/13/2023 11:19:54 AM :LOG DATE  
API         .                                    42706403330000 :API NUMBER
UWI         .                                    42706403330000 :UNIQUE WELL ID
XCOORD      .                                  1020560.14583294 :SURFACE X 
YCOORD      .                                  10500181.0477632 :SURFACE Y 
LAT         .                                        28.9197225 :LATITUDE  
LON         .                                       -94.9380297 :LONGITUDE 
ELEV        .FT                                              98 :ELEVATION VALUE
ELEV_TYPE   .                                                KB :ELEVATION REFERENCE TYPE
~Curve Information Section
#MNEM       .UNIT                                      API CODE :CURVE DESCRIPTION
#------------------------------------------------------------------------------
DEPT        .FT                                                 :DEPTH     
CALI        .IN                                                 :          
DCAL        .IN                                                 :          
DPHI        .%                                                  :          
DRHO        .G/C3                                               :          
GR          .GAPI                                               :          
GR_NORM     .GAPI                                               :GammaRay Normalized
ILD         .OHMM                                               :          
ILM         .OHMM                                               :          
LL3         .OHMM                                               :          
NPHI        .%                                                  :          
SP          .MV                                                 :          
SP_NORM     .MV                                                 :SP Normalized
VSH_GR      .V/V                                                :Volume of Shale from GR
VSH_SP      .V/V                                                :Volume of Shale from SP
~A        DEPTH           CALI           DCAL           DPHI           DRHO             GR        GR_NORM            ILD            ILM            LL3           NPHI             SP        SP_NORM         VSH_GR         VSH_SP
# ...
      5909.0000         9.7459        -0.2121        32.7496         0.0363        38.1711       37.87693         0.1455         0.2068         0.7308        34.4755       -83.7191      -87.52191      0.1037645              0
      5909.5000         9.7398        -0.2104         32.245         0.0331        39.0134       38.84245         0.1507           0.21         0.7541        36.3549       -83.1372       -86.9215      0.1243075              0
      5910.0000         9.7341        -0.2088        31.7664         0.0367        41.3765       41.55182         0.1595         0.2176         0.7018        38.1712       -81.3488      -85.11459      0.1819535              0
      5910.5000         9.7387        -0.1969        31.3619         0.0418        44.9014       45.59339         0.1718         0.2284         0.5954        39.3332       -77.0573      -80.80458      0.2679444              0
      5911.0000         9.7501        -0.1708        31.0749         0.0426        48.7169       49.96817         0.1892         0.2408         0.5264        39.5349       -70.6479      -74.37669       0.361025              0
      5911.5000         9.7632        -0.1347        30.9135         0.0378        50.6241       52.15478          0.215         0.2547         0.6382        38.9299       -64.6123      -68.32257      0.4075485     0.02396327
      5912.0000         9.7748        -0.1103        30.5823         0.0353         51.554       53.22075         0.2506         0.2732         0.8073        37.8485       -60.1841      -63.87587      0.4302286     0.08748763
      5912.5000         9.7942         -0.096        28.9576         0.0412        53.3865       55.32169         0.2917         0.2999         0.8048        36.8142       -55.4938      -59.16706      0.4749295      0.1547563
      5913.0000         9.8129        -0.0842        27.0507         0.0581        57.0765       59.55257         0.3275         0.3336         0.6541        36.3359       -47.8607      -51.51545      0.5649483      0.2640651
      5913.5000         9.8324        -0.0858        25.1436         0.0702        62.2705       65.50803         0.3477         0.3654         0.6608        36.5264        -37.463      -41.09924      0.6916601       0.412868
      5914.0000         9.8389        -0.0961        23.5048         0.0663        65.0287       68.67046          0.349         0.3817          0.683        37.0468       -27.8293      -31.44703      0.7589459      0.5507567
      5914.5000         9.8297        -0.1119        23.1797         0.0513        64.2643       67.79361         0.3353         0.3734         0.6776        37.3068       -24.3079      -27.90712      0.7402896      0.6013268
      5915.0000         9.8073        -0.1373        24.6311         0.0401        58.7898       61.51587         0.3111         0.3447         0.6701        36.8715       -29.4027      -32.98342      0.6067207      0.5288083
      5915.5000         9.7837        -0.1705        28.0399         0.0369        53.5614       55.52032          0.279         0.3078         0.7375        35.9076       -40.8899      -44.45211      0.4791557      0.3649698
      5916.0000         9.7615        -0.2017        30.2702         0.0423        48.9729       50.25853          0.242         0.2727         0.7236        35.1121       -54.3307       -57.8744      0.3672027      0.1732228
      5916.5000         9.7397        -0.2168        31.9902         0.0463        46.0092       46.85983         0.2055         0.2451         0.7245        34.9528       -66.3386      -69.86379        0.29489    0.001945823
      5917.0000         9.7277        -0.1994        32.5344          0.042        44.2775       44.87383          0.174         0.2259         0.7383        35.3275       -74.8843      -78.39098      0.2526346              0
      5917.5000         9.7437        -0.1653         32.772         0.0341        42.9826       43.38869         0.1494         0.2134         0.7511        35.8391       -79.5485      -83.03668      0.2210359              0
      5918.0000         9.7803        -0.1273        32.9163         0.0271        42.2275       42.52252         0.1322         0.2053         0.7285        36.0292       -81.5066      -84.97627      0.2026069              0
      5918.5000         9.8167        -0.0914         32.952         0.0254        41.8106       42.04416         0.1215         0.2003          0.607        35.6558       -81.8552      -85.30637      0.1924288              0
      5919.0000         9.8517        -0.0691        32.4536         0.0297         41.931        42.1819         0.1165         0.1983         0.6147        34.5807       -81.3633      -84.79595      0.1953595              0
      5919.5000          9.873         -0.062        30.8736          0.043        43.0786       43.49749         0.1173         0.1999         0.6321        32.6648       -80.6068      -84.02094      0.2233509              0
      5920.0000         9.8963        -0.0398        27.9177         0.0557        43.8614       44.39478         0.1238         0.2063         0.6626        29.9415       -79.7117      -83.10734       0.242442              0
      5920.5000         9.9193        -0.0034        24.9619         0.0575        44.4301       45.04657         0.1354         0.2181          0.656        27.3085       -78.4421      -81.81923      0.2563101              0
      5921.0000         9.9465         0.0211        21.6366         0.0431        45.2682       46.00727         0.1519          0.235         0.6672        25.2661       -76.5253      -79.88393      0.2767504              0
      5921.5000         9.9786         0.0267        18.9817         0.0281        47.6535        48.7421         0.1735         0.2557         1.1604        23.9861       -73.6769      -77.01702      0.3349383              0
      5922.0000        10.0035          0.041         18.376         0.0217        51.3951       53.03214         0.2029         0.2797          1.014        23.8678       -69.8212      -73.14281      0.4262157              0
      5922.5000         10.018         0.0774        19.9799         0.0375        54.6814       56.80012         0.2436         0.3077         0.8955        24.9958       -65.0894       -68.3925      0.5063855     0.02296426
      5923.0000        10.0287         0.1083         22.456         0.0583        58.0537       60.66669         0.2953         0.3413         0.9501        27.1137       -59.4404      -62.72499      0.5886531      0.1039287
      5923.5000        10.0416         0.1478        23.2389         0.0667        60.6754        63.6726         0.3528         0.3801         0.9577        29.9637       -52.3414      -55.60749      0.6526085      0.2056073
      5924.0000        10.0576         0.1652        23.3838         0.0676        62.9646       66.29722          0.408         0.4216         0.8076        33.5121       -43.6884      -46.93598      0.7084514       0.329486
      5924.5000        10.0716         0.1454        22.9796         0.0728        68.8135       73.00365         0.4557         0.4625         0.7363        36.5233       -34.3723      -37.60137      0.8511414      0.4628376
      5925.0000        10.0654         0.1003        22.4142         0.0798        74.6621       79.70972         0.4988         0.5015         0.8106         38.881       -24.5511      -27.76166      0.9938239      0.6034048
      5925.5000        10.0343         0.0686        21.7639         0.0825         80.511       86.41615         0.5409         0.5385         0.7053        40.4946        -15.276      -18.46805              1      0.7361706
      5926.0000        10.0019         0.0512        21.4447          0.085        86.0988       92.82316         0.5755         0.5696         0.6315        41.2075        -7.7934      -10.96695              1      0.8433294
      5926.5000        10.0045         0.0703        21.1769         0.0838        87.4207       94.33862         0.5903         0.5865         0.6087        41.0078        -2.8274      -5.982438              1      0.9145366
