#------------------------------------------------------------------------------
# Created by    : vladimir.rabinovich
# Created on    : 09/19/2023 17:21:26
#------------------------------------------------------------------------------
~Version Information Section
VERS.           2.0     :   CWLS log ASCII Standard - VERSION 2.0
WRAP.           NO      :   One line per depth step
~Well Information Section
#MNEM       .UNIT                                         VALUE :DESCRIPTION
#------------------------------------------------------------------------------
STRT        .FT                                            3102 :START DEPTH
STOP        .FT                                            8740 :STOP DEPTH
STEP        .FT                                             0.5 :STEP      
NULL        .                                           -999.25 :NULL      
COMP        .                          SEAGULL ENERGY E & P INC :COMPANY   
WELL        .                               OCS G13314 ST00BP00 :WELL      
FLD         .                              GALVESTON BLOCK 0330 :FIELD     
LOC         .                                                   :LOCATION  
CNTY        .                             GALVESTON LARGE BLOCK :LOCATION  
STAT        .                                             TEXAS :STATE     
CTRY        .                                     UNITED STATES :COUNTRY   
SRVC        .                                                   :SERVICE COMPANY
DATE        .                             9/13/2023 11:19:54 AM :LOG DATE  
API         .                                    42706403240000 :API NUMBER
UWI         .                                    42706403240000 :UNIQUE WELL ID
XCOORD      .                                  980373.867630971 :SURFACE X 
YCOORD      .                                  10452895.3513713 :SURFACE Y 
LAT         .                                         28.787844 :LATITUDE  
LON         .                                        -95.061044 :LONGITUDE 
ELEV        .FT                                              95 :ELEVATION VALUE
ELEV_TYPE   .                                                KB :ELEVATION REFERENCE TYPE
~Curve Information Section
#MNEM       .UNIT                                      API CODE :CURVE DESCRIPTION
#------------------------------------------------------------------------------
DEPT        .FT                                                 :DEPTH     
CALI        .IN                                                 :          
DRHO        .G/C3                                               :          
DT          .US/F                                               :          
GR          .GAPI                                               :          
GR_1        .GAPI                                               :          
GR_NORM     .GAPI                                               :GammaRay Normalized
ILD         .OHMM                                               :          
ILM         .OHMM                                               :          
NPHI        .%                                                  :          
RFOC        .OHMM                                               :          
RHOB        .G/C3                                               :          
SP          .MV                                                 :          
SP_NORM     .MV                                                 :SP Normalized
VSH_GR      .V/V                                                :Volume of Shale from GR
VSH_SP      .V/V                                                :Volume of Shale from SP
~A        DEPTH           CALI           DRHO             DT             GR           GR_1        GR_NORM            ILD            ILM           NPHI           RFOC           RHOB             SP        SP_NORM         VSH_GR         VSH_SP
# ...
      7250.0000        -999.25        -999.25       107.0386        33.9489        -999.25        40.2216         0.2506         0.2603        -999.25         0.4624        -999.25      -116.7493       -87.3221       0.153651              0
      7250.5000        -999.25        -999.25       106.5802        33.0543        -999.25       39.21115         0.2512         0.2615        -999.25         0.4119        -999.25      -118.7999      -89.37296      0.1321521              0
      7251.0000        -999.25        -999.25       106.0924        32.2375        -999.25       38.28857         0.2519         0.2627        -999.25         0.3769        -999.25      -118.8529      -89.42623      0.1125229              0
      7251.5000        -999.25        -999.25       105.5823        31.5907        -999.25       37.55801         0.2545         0.2631        -999.25         0.3955        -999.25      -120.0057       -90.5793     0.09697886              0
      7252.0000        -999.25        -999.25         105.25        31.6738        -999.25       37.65187         0.2554         0.2639        -999.25         0.4276        -999.25      -121.1234      -91.69727     0.09897605              0
      7252.5000        -999.25        -999.25       105.0574        31.9824        -999.25       38.00043         0.2536         0.2633        -999.25         0.4375        -999.25      -121.0483      -91.62244      0.1063922              0
      7253.0000        -999.25        -999.25       104.9425        32.8763        -999.25        39.0101         0.2517         0.2649        -999.25         0.4006        -999.25      -119.6665       -90.2409      0.1278744              0
      7253.5000        -999.25        -999.25       104.9834        34.0403        -999.25       40.32483         0.2499         0.2688        -999.25          0.375        -999.25      -117.0995      -87.67417      0.1558475              0
      7254.0000        -999.25        -999.25        105.265        34.1917        -999.25       40.49584         0.2478           0.27        -999.25         0.3857        -999.25      -115.8494      -86.42434      0.1594859              0
      7254.5000        -999.25        -999.25       105.6069        33.9804        -999.25       40.25718         0.2453         0.2684        -999.25         0.4334        -999.25      -116.3842       -86.9594       0.154408              0
      7255.0000        -999.25        -999.25       105.8202        33.6873        -999.25       39.92612         0.2439         0.2676        -999.25          0.469        -999.25      -119.3514      -89.92687      0.1473642              0
      7255.5000        -999.25        -999.25       105.5857        33.3162        -999.25       39.50695         0.2407         0.2677        -999.25         0.4536        -999.25      -119.4794      -90.05514      0.1384458              0
      7256.0000        -999.25        -999.25       105.0647        32.7924        -999.25       38.91533         0.2365         0.2673        -999.25         0.4093        -999.25      -117.8947       -88.4707      0.1258581              0
      7256.5000        -999.25        -999.25       105.0496        32.2579        -999.25       38.31161         0.2333         0.2664        -999.25         0.3972        -999.25      -116.2733      -86.84957       0.113013              0
      7257.0000        -999.25        -999.25        105.255        31.8293        -999.25       37.82751         0.2306         0.2684        -999.25         0.4178        -999.25        -117.27      -87.84653       0.102713              0
      7257.5000        -999.25        -999.25       105.5499        31.8916        -999.25       37.89788         0.2305         0.2716        -999.25         0.4767        -999.25      -118.4164       -88.9932      0.1042102              0
      7258.0000        -999.25        -999.25       105.7063        32.3994        -999.25       38.47144         0.2343         0.2787        -999.25         0.4712        -999.25      -118.5007      -89.07777      0.1164135              0
      7258.5000        -999.25        -999.25       104.4506        32.7691        -999.25       38.88901         0.2452         0.2887        -999.25         0.4322        -999.25      -115.1998      -85.77715      0.1252981              0
      7259.0000        -999.25        -999.25        95.3243        32.3525        -999.25       38.41846         0.2636         0.3025        -999.25         0.4113        -999.25      -109.4912      -80.06882      0.1152865              0
      7259.5000        -999.25        -999.25        84.0032        32.0707        -999.25       38.10017         0.2793         0.3168        -999.25         0.5162        -999.25      -105.7241      -76.30197      0.1085143     0.04622536
      7260.0000        -999.25        -999.25        75.7614        32.7071        -999.25       38.81898         0.2846          0.324        -999.25           0.84        -999.25      -106.8649      -77.44304      0.1238082     0.03196201
      7260.5000        -999.25        -999.25        75.3229        33.2044        -999.25       39.38068         0.2834         0.3201        -999.25         0.9941        -999.25      -110.8627      -81.44112      0.1357591              0
      7261.0000        -999.25        -999.25        83.0365        33.2356        -999.25       39.41592         0.2782         0.3047        -999.25         0.7535        -999.25       -115.563      -86.14169       0.136509              0
      7261.5000        -999.25        -999.25        93.1517        33.0824        -999.25       39.24289         0.2679         0.2952        -999.25         0.5079        -999.25      -118.8547      -89.43365      0.1328274              0
      7262.0000        -999.25        -999.25         97.193        33.4324        -999.25       39.63821         0.2555         0.2849        -999.25          0.457        -999.25      -119.7787      -90.35792      0.1412385              0
      7262.5000        -999.25        -999.25        99.1986        34.2318        -999.25       40.54113         0.2417         0.2744        -999.25         0.4535        -999.25      -119.3125      -89.89198      0.1604497              0
      7263.0000        -999.25        -999.25        100.889        34.6848        -999.25       41.05279         0.2279         0.2697        -999.25         0.4519        -999.25        -118.13      -88.70975       0.171336              0
      7263.5000        -999.25        -999.25       101.9177        34.6136        -999.25       40.97238         0.2219         0.2705        -999.25         0.4411        -999.25      -116.4712      -87.05122      0.1696251              0
      7264.0000        -999.25        -999.25       100.4368        33.8265        -999.25       40.08335         0.2232         0.2771        -999.25         0.4233        -999.25      -114.1619      -84.74219      0.1507095              0
      7264.5000        -999.25        -999.25        94.1085        32.4871        -999.25        38.5705         0.2346         0.2949        -999.25           0.43        -999.25      -111.6782      -82.25875      0.1185212              0
      7265.0000        -999.25        -999.25        84.7456        32.1538        -999.25       38.19404         0.2673         0.3353        -999.25         0.5238        -999.25       -108.494      -79.07482      0.1105115     0.01156473
      7265.5000        -999.25        -999.25        80.7742        33.0963        -999.25       39.25859         0.3055         0.3803        -999.25         0.8396        -999.25      -104.4424      -75.02348      0.1331614     0.06220646
      7266.0000        -999.25        -999.25        81.9478        39.9713        -999.25       47.02389         0.3727         0.4317        -999.25         0.9896        -999.25       -94.8119      -65.39325      0.2983806      0.1825844
      7266.5000        -999.25        -999.25        86.7637        46.6042        -999.25       54.51573         0.4533         0.4854        -999.25         0.8613        -999.25       -82.7869      -53.36852      0.4577815      0.3328935
