#------------------------------------------------------------------------------
# Created by    : vladimir.rabinovich
# Created on    : 09/19/2023 17:20:32
#------------------------------------------------------------------------------
~Version Information Section
VERS.           2.0     :   CWLS log ASCII Standard - VERSION 2.0
WRAP.           NO      :   One line per depth step
~Well Information Section
#MNEM       .UNIT                                         VALUE :DESCRIPTION
#------------------------------------------------------------------------------
STRT        .FT                                             530 :START DEPTH
STOP        .FT                                           15895 :STOP DEPTH
STEP        .FT                                             0.5 :STEP      
NULL        .                                           -999.25 :NULL      
COMP        .                                      SHELL OIL CO :COMPANY   
WELL        .                                OCS 00708 ST00BP00 :WELL      
FLD         .                                FEDERAL BLOCK 0288 :FIELD     
LOC         .                                                   :LOCATION  
CNTY        .                             GALVESTON LARGE BLOCK :LOCATION  
STAT        .                                             TEXAS :STATE     
CTRY        .                                     UNITED STATES :COUNTRY   
SRVC        .                                                   :SERVICE COMPANY
DATE        .                             9/13/2023 11:19:24 AM :LOG DATE  
API         .                                    42706000930000 :API NUMBER
UWI         .                                    42706000930000 :UNIQUE WELL ID
XCOORD      .                                  1077631.85251343 :SURFACE X 
YCOORD      .                                  10490946.9562601 :SURFACE Y 
LAT         .                                         28.896779 :LATITUDE  
LON         .                                        -94.759235 :LONGITUDE 
ELEV        .FT                                              76 :ELEVATION VALUE
ELEV_TYPE   .                                                KB :ELEVATION REFERENCE TYPE
~Curve Information Section
#MNEM       .UNIT                                      API CODE :CURVE DESCRIPTION
#------------------------------------------------------------------------------
DEPT        .FT                                                 :DEPTH     
ASN         .OHMM                                               :          
CILD        .MMHO                                               :          
SP          .MV                                                 :          
SP_NORM     .MV                                                 :SP Normalized
VSH_SP      .V/V                                                :Volume of Shale from SP
~A        DEPTH            ASN           CILD             SP        SP_NORM         VSH_SP
# ...
     15842.0000         1.0815       1207.188       -42.4161        -2.4161      0.9636897
     15842.5000         1.0887        1196.25        -42.408      -2.408001      0.9638974
     15843.0000         1.1011           1186       -42.3998      -2.399799      0.9641077
     15843.5000         1.1133       1177.438       -42.3917      -2.391701      0.9643154
     15844.0000         1.1221       1182.891       -42.3835      -2.383499      0.9645256
     15844.5000          1.131       1190.375       -42.3754      -2.375401      0.9647333
     15845.0000         1.1378       1190.766       -42.3673      -2.367298      0.9649411
     15845.5000         1.1333       1186.609       -42.3592        -2.3592      0.9651487
     15846.0000         1.1221       1178.875       -42.3605        -2.3605      0.9651154
     15846.5000         1.1086       1171.125       -42.3634        -2.3634       0.965041
     15847.0000         1.1041       1163.516       -42.3663      -2.366299      0.9649667
     15847.5000         1.1072       1156.594       -42.3693      -2.369301      0.9648897
     15848.0000         1.1103       1149.672       -42.3906      -2.390598      0.9643436
     15848.5000         1.1134           1150       -42.4149      -2.414902      0.9637204
     15849.0000         1.1172        1196.25       -42.4391      -2.439098         0.9631
     15849.5000         1.1076        1245.75       -42.4634      -2.463402      0.9624768
     15850.0000         1.0928       1282.125       -42.4877      -2.487701      0.9618538
     15850.5000         1.0774       1277.125       -42.5006      -2.500599      0.9615231
     15851.0000         1.0715       1252.688        -42.484      -2.484001      0.9619487
     15851.5000         1.0749       1238.523       -42.4675      -2.467499      0.9623718
     15852.0000         1.0782       1240.813       -42.4509      -2.450901      0.9627974
     15852.5000         1.0816       1243.109       -42.4343      -2.434299      0.9632231
     15853.0000          1.085       1245.398       -42.4177      -2.417702      0.9636487
     15853.5000         1.0884       1241.984       -42.4012      -2.401199      0.9640718
     15854.0000         1.0915       1237.219       -42.3846      -2.384602      0.9644974
     15854.5000         1.0947       1227.063        -42.368         -2.368      0.9649231
     15855.0000         1.0978       1216.906       -42.3515      -2.351501      0.9653461
     15855.5000         1.1004       1206.719       -42.3359      -2.335899      0.9657462
     15856.0000         1.1029       1198.703       -42.3309      -2.330898      0.9658744
     15856.5000         1.1055       1193.375       -42.3259      -2.325901      0.9660025
     15857.0000         1.1085       1194.891       -42.3208      -2.320801      0.9661333
     15857.5000         1.1119       1199.219       -42.3158        -2.3158      0.9662616
     15858.0000         1.1153       1195.211       -42.3083        -2.3083      0.9664539
     15858.5000         1.1137       1190.875       -42.2791      -2.279099      0.9672026
     15859.0000         1.1051       1186.391       -42.2498      -2.249802      0.9679538
     15859.5000         1.0919       1181.922       -42.2205      -2.220501      0.9687051
     15860.0000         1.0764       1177.438       -42.1912        -2.1912      0.9694564
     15860.5000         1.0583       1172.953       -42.1619        -2.1619      0.9702077
     15861.0000         1.0463       1176.781       -42.1326      -2.132599       0.970959
     15861.5000         1.0654       1183.641       -42.1032      -2.103199      0.9717128
     15862.0000         1.0842       1199.188       -42.0835        -2.0835       0.972218
     15862.5000         1.1012       1214.938       -42.0678      -2.067799      0.9726205
     15863.0000         1.1053       1229.063       -42.0521      -2.052101      0.9730231
     15863.5000         1.1039       1238.938       -42.0364        -2.0364      0.9734256
     15864.0000         1.1024       1248.781       -42.0206      -2.020599      0.9738308
     15864.5000          1.101       1238.313       -42.0049      -2.004902      0.9742333
     15865.0000         1.0996       1221.188       -42.0054      -2.005402      0.9742205
     15865.5000         1.0982       1213.969       -42.0416      -2.041599      0.9732924
     15866.0000         1.0968       1207.438       -42.0778      -2.077801      0.9723641
     15866.5000         1.0958       1200.313       -42.1139      -2.113899      0.9714385
     15867.0000         1.0948       1200.266       -42.1285      -2.128502       0.971064
     15867.5000         1.0938       1206.438       -42.1352      -2.135201      0.9708923
     15868.0000         1.0928       1201.359       -42.1418        -2.1418      0.9707231
     15868.5000         1.0918       1196.031       -42.1484      -2.148399      0.9705539
     15869.0000         1.0899       1190.688        -42.155      -2.154999      0.9703847
     15869.5000         1.0878       1181.625       -42.1616      -2.161598      0.9702154
     15870.0000         1.0858         1183.5       -42.1683      -2.168301      0.9700436
     15870.5000         1.0832       1193.063       -42.1749        -2.1749      0.9698744
     15871.0000         1.0803       1202.625       -42.1815      -2.181499      0.9697052
     15871.5000         1.0774       1209.766       -42.1881      -2.188099      0.9695359
     15872.0000          1.077        1214.25       -42.1947      -2.194698      0.9693667
     15872.5000         1.0803        1212.25       -42.1698        -2.1698      0.9700052
     15873.0000         1.0876       1196.844       -42.1432        -2.1432      0.9706872
     15873.5000         1.0949       1181.438       -42.1168      -2.116798      0.9713641
     15874.0000         1.1022       1166.031       -42.0902      -2.090199      0.9720462
     15874.5000         1.1174       1152.375       -42.0637      -2.063702      0.9727256
     15875.0000         1.1232       1143.188       -42.0601      -2.060101       0.972818
     15875.5000           1.11       1145.813       -42.0747      -2.074699      0.9724436
     15876.0000         1.0903        1178.75       -42.0894      -2.089401      0.9720666
     15876.5000         1.0616         1215.5       -42.1048      -2.104801      0.9716718
     15877.0000         1.0333       1248.125       -42.1243      -2.124298      0.9711719
     15877.5000         1.0054       1270.813       -42.1439      -2.143902      0.9706692
     15878.0000         0.9829       1292.625       -42.2434      -2.243401       0.968118
     15878.5000         0.9683       1312.813       -42.3667      -2.366699      0.9649564
     15879.0000         0.9697       1329.781       -42.5005        -2.5005      0.9615256
     15879.5000         0.9738         1338.5       -42.6372      -2.637199      0.9580205
     15880.0000          0.977       1343.758       -42.7739      -2.773899      0.9545154
     15880.5000         0.9803       1345.938       -42.9106      -2.910599      0.9510103
     15881.0000         0.9835       1348.125       -43.0469      -3.046902      0.9475154
     15881.5000         0.9868       1350.875       -43.1492        -3.1492      0.9448923
     15882.0000           0.99       1356.063       -43.2075        -3.2075      0.9433974
     15882.5000         0.9867       1361.266        -43.266      -3.265999      0.9418975
     15883.0000         0.9689       1366.469       -43.3243      -3.324299      0.9404026
     15883.5000         0.9456       1376.875       -43.3168      -3.316799      0.9405949
     15884.0000         0.9303        1393.25       -43.2988      -3.298801      0.9410564
     15884.5000         0.9154       1409.625       -43.2808        -3.2808      0.9415179
     15885.0000         0.9016       1431.063       -43.2642      -3.264198      0.9419436
     15885.5000         0.8878       1452.625       -43.2672        -3.2672      0.9418666
