#------------------------------------------------------------------------------
# Created by    : vladimir.rabinovich
# Created on    : 09/19/2023 17:20:45
#------------------------------------------------------------------------------
~Version Information Section
VERS.           2.0     :   CWLS log ASCII Standard - VERSION 2.0
WRAP.           NO      :   One line per depth step
~Well Information Section
#MNEM       .UNIT                                         VALUE :DESCRIPTION
#------------------------------------------------------------------------------
STRT        .FT                                            2010 :START DEPTH
STOP        .FT                                            7000 :STOP DEPTH
STEP        .FT                                             0.5 :STEP      
NULL        .                                           -999.25 :NULL      
COMP        .                                    TEXAS GULF INC :COMPANY   
WELL        .                                ST OF TEX TR 693-L :WELL      
FLD         .                                           WILDCAT :FIELD     
LOC         .                                                   :LOCATION  
CNTY        .                      MATAGORDA ISLAND LARGE BLOCK :LOCATION  
STAT        .                                             TEXAS :STATE     
CTRY        .                                     UNITED STATES :COUNTRY   
SRVC        .                                                   :SERVICE COMPANY
DATE        .                             9/13/2023 11:12:01 AM :LOG DATE  
API         .                                    42703300330000 :API NUMBER
UWI         .                                    42703300330000 :UNIQUE WELL ID
XCOORD      .                                  377893.250269135 :SURFACE X 
YCOORD      .                                  10151490.3803449 :SURFACE Y 
LAT         .                                        27.9187241 :LATITUDE  
LON         .                                       -96.9091122 :LONGITUDE 
ELEV        .FT                                              70 :ELEVATION VALUE
ELEV_TYPE   .                                                KB :ELEVATION REFERENCE TYPE
~Curve Information Section
#MNEM       .UNIT                                      API CODE :CURVE DESCRIPTION
#------------------------------------------------------------------------------
DEPT        .FT                                                 :DEPTH     
ASN         .OHMM                                               :          
CILD        .MMHO                                               :          
ILD         .OHMM                                               :          
SP          .MV                                                 :          
SP_NORM     .MV                                                 :SP Normalized
VSH_SP      .V/V                                                :Volume of Shale from SP
~A        DEPTH            ASN           CILD            ILD             SP        SP_NORM         VSH_SP
# ...
      2998.0000         1.2028       1095.137         0.9904       -55.8327        -6.6497        0.91546
      2998.5000         1.1673       1154.979          0.973       -56.3202        -7.1396      0.9065527
      2999.0000         1.1655       1213.396         0.9556       -56.8077        -7.6294      0.8976473
      2999.5000         1.1228       1271.789         0.9382       -57.2948        -8.1189      0.8887473
      3000.0000         1.0933       1318.922         0.9208       -57.7823        -8.6087      0.8798418
      3000.5000         1.1266       1323.947         0.9034       -58.2698        -9.0986      0.8709345
      3001.0000         1.1634       1310.277          0.886       -58.7572        -9.5883      0.8620309
      3001.5000         1.1422       1296.604         0.8686       -59.2447       -10.0782      0.8531236
      3002.0000         1.1209       1277.352         0.8512       -59.2034       -10.0392      0.8538327
      3002.5000         1.1285       1249.516         0.8626       -58.6516        -9.4898      0.8638218
      3003.0000         1.1559       1221.666         0.8768       -57.7319        -8.5724      0.8805018
      3003.5000         1.2317       1193.828         0.8924       -56.8123        -7.6552      0.8971782
      3004.0000          1.237        1165.99         0.9127       -55.8927        -6.7379      0.9138564
      3004.5000         1.2131       1138.152          0.933       -54.9731        -5.8207      0.9305328
      3005.0000         1.1895       1112.561         0.9534       -54.0534        -4.9033      0.9472128
      3005.5000          1.166       1096.516         0.9737       -53.4016        -4.2539        0.95902
      3006.0000          1.227       1080.465          0.994       -53.0203        -3.8749      0.9659109
      3006.5000         1.2795        1064.42         1.0143       -52.7585        -3.6155      0.9706272
      3007.0000         1.2368       1103.967         0.9859       -53.2444        -4.1037      0.9617509
      3007.5000         1.1775       1146.297         0.9558       -53.7303         -4.592      0.9528728
      3008.0000         1.1124       1188.627         0.9258       -54.2162        -5.0802      0.9439964
      3008.5000         1.0472       1230.957         0.8957       -54.7021        -5.5685      0.9351182
      3009.0000         1.0095       1272.014         0.8657       -54.6387        -5.5074      0.9362291
      3009.5000         0.9743       1312.299         0.8427       -53.7502        -4.6212      0.9523418
      3010.0000         0.9366       1352.582         0.8197       -52.4199        -3.2933      0.9764854
      3010.5000         0.9643       1392.867         0.7968       -51.0895        -1.9652              1
      3011.0000         0.9864       1433.152         0.7738         -50.06        -0.9381              1
      3011.5000          0.966        1473.41         0.7509       -49.8336         -0.714              1
      3012.0000         0.9436       1512.561         0.7279       -49.8307        -0.7135              1
      3012.5000         0.9213       1539.662          0.705        -50.173        -1.0581              1
      3013.0000         0.9066       1566.764          0.682        -50.515        -1.4025              1
      3013.5000         0.8944       1593.865         0.6664       -50.8572         -1.747              1
      3014.0000         0.8823       1620.967         0.6592       -51.1993        -2.0915      0.9983364
      3014.5000         0.8701       1648.068         0.6642       -51.5415         -2.436      0.9920727
      3015.0000         0.8579        1675.17         0.6692       -51.8837        -2.7806      0.9858073
      3015.5000         0.8481       1702.271         0.6759       -52.2258         -3.125      0.9795455
      3016.0000         0.8439       1708.033         0.6847       -52.5681        -3.4697      0.9732782
      3016.5000          0.843       1690.186         0.6934       -52.6914        -3.5953      0.9709945
      3017.0000         0.8605       1672.326         0.7021       -52.2232        -3.1295      0.9794636
      3017.5000          0.878       1654.479         0.7109       -51.7546        -2.6632      0.9879418
      3018.0000         0.8954       1636.631         0.7196       -51.2867        -2.1977      0.9964055
      3018.5000         0.9195       1618.783         0.7284       -51.0757         -1.989              1
      3019.0000         0.9481       1600.924         0.7371       -50.8646        -1.7803              1
      3019.5000         0.9768       1580.533         0.7459       -50.6534        -1.5714              1
      3020.0000         0.9519       1559.967         0.7546       -50.4423        -1.3627              1
      3020.5000         0.9604       1539.387         0.7634       -50.2313         -1.154              1
      3021.0000         0.9748        1518.82         0.7721       -50.0202        -0.9453              1
      3021.5000         0.9972       1498.256         0.7808       -49.8995        -0.8269              1
      3022.0000         1.0197       1477.676         0.7896       -49.7823        -0.7121              1
      3022.5000         1.0426       1457.109         0.7983        -49.665        -0.5971              1
      3023.0000         1.0508       1436.545         0.8071       -49.5479        -0.4824              1
      3023.5000          1.038       1415.979         0.8158       -49.4307        -0.3675              1
      3024.0000          1.059       1391.246         0.8246       -49.3135        -0.2527              1
      3024.5000         1.1423       1366.582         0.8333       -49.1272        -0.0687              1
      3025.0000         1.1475       1351.916         0.8421       -48.6661         0.3905              1
      3025.5000         1.1527       1327.189         0.8508       -48.4924         0.5642              1
      3026.0000         1.1579       1299.578         0.8595       -49.2148        -0.1582              1
      3026.5000         1.1695       1271.965         0.8683       -49.9368        -0.8802              1
      3027.0000         1.1784        1236.77          0.877       -50.6592        -1.6026              1
      3027.5000         1.1588       1194.289         0.8858       -51.4005        -2.3439      0.9947093
      3028.0000         1.1392       1141.508         0.8945       -52.1868        -3.1302      0.9826123
      3028.5000         1.1282       1088.727         0.9025       -52.9731        -3.9165      0.9705154
      3029.0000         1.1605        1073.76         0.9019       -53.7595        -4.7029      0.9584169
      3029.5000         1.2004       1111.477         0.9014       -54.5458        -5.4892        0.94632
      3030.0000         1.2301       1149.166         0.8821       -55.1418        -6.0852      0.9371508
      3030.5000          1.202       1186.881         0.8534       -54.6068        -5.5502      0.9453815
      3031.0000         1.1739       1224.596         0.8247       -54.0718        -5.0152      0.9536123
      3031.5000         1.2214       1262.311          0.796       -53.5666          -4.51      0.9613846
      3032.0000         1.2489       1300.025         0.7673       -53.0922        -4.0356      0.9686831
      3032.5000         1.2408       1337.842         0.8202       -52.7268        -3.6702      0.9743046
      3033.0000         1.2403        1375.83         0.9059       -53.3584        -4.3018      0.9645877
      3033.5000         1.2536       1399.602         0.9918       -53.9904        -4.9338      0.9548646
      3034.0000         1.2767       1292.693         1.0655        -54.622        -5.5654      0.9451477
      3034.5000         1.2998       1177.104         1.0562       -55.2536         -6.197      0.9354308
      3035.0000         1.3298         1067.6         1.0468       -55.8722        -6.8156      0.9259139
      3035.5000         1.3135        997.957         1.0375       -54.8966          -5.84      0.9409231
