#------------------------------------------------------------------------------
# Created by    : vladimir.rabinovich
# Created on    : 09/19/2023 17:20:33
#------------------------------------------------------------------------------
~Version Information Section
VERS.           2.0     :   CWLS log ASCII Standard - VERSION 2.0
WRAP.           NO      :   One line per depth step
~Well Information Section
#MNEM       .UNIT                                         VALUE :DESCRIPTION
#------------------------------------------------------------------------------
STRT        .FT                                             242 :START DEPTH
STOP        .FT                                            8116 :STOP DEPTH
STEP        .FT                                             0.5 :STEP      
NULL        .                                           -999.25 :NULL      
COMP        .                                       HUNT OIL CO :COMPANY   
WELL        .                                     ST TR 00005-L :WELL      
FLD         .                                           WILDCAT :FIELD     
LOC         .                                                   :LOCATION  
CNTY        .                           HIGH ISLAND LARGE BLOCK :LOCATION  
STAT        .                                             TEXAS :STATE     
CTRY        .                                     UNITED STATES :COUNTRY   
SRVC        .                                                   :SERVICE COMPANY
DATE        .                             9/13/2023 11:19:33 AM :LOG DATE  
API         .                                    42708000010000 :API NUMBER
UWI         .                                    42708000010000 :UNIQUE WELL ID
XCOORD      .                                  1328371.56215902 :SURFACE X 
YCOORD      .                                  10754892.1390607 :SURFACE Y 
LAT         .                                        29.6307718 :LATITUDE  
LON         .                                       -93.9824852 :LONGITUDE 
ELEV        .FT                                              11 :ELEVATION VALUE
ELEV_TYPE   .                                                KB :ELEVATION REFERENCE TYPE
~Curve Information Section
#MNEM       .UNIT                                      API CODE :CURVE DESCRIPTION
#------------------------------------------------------------------------------
DEPT        .FT                                                 :DEPTH     
ASN         .OHMM                                               :          
LAT         .OHMM                                               :          
LN          .OHMM                                               :          
SN          .OHMM                                               :          
SP          .MV                                                 :          
SP_NORM     .MV                                                 :SP Normalized
VSH_SP      .V/V                                                :Volume of Shale from SP
~A        DEPTH            ASN            LAT             LN             SN             SP        SP_NORM         VSH_SP
# ...
      2319.0000         0.5468          0.135         0.3831         0.5342       -67.7998      -23.77464              0
      2319.5000         0.5422         0.1306         0.3852         0.5337       -67.8235      -23.79834              0
      2320.0000         0.5376         0.1295         0.3872         0.5333       -67.5896      -23.56444              0
      2320.5000          0.533         0.1285         0.3893         0.5328       -67.2284      -23.20324              0
      2321.0000         0.5284         0.1274         0.3913         0.5324       -66.8673      -22.84214    0.007516952
      2321.5000         0.5238         0.1263         0.3934          0.532        -66.506      -22.48084     0.02472196
      2322.0000         0.5204         0.1252         0.3952         0.5308       -66.1449      -22.11974     0.04191716
      2322.5000         0.5172         0.1252         0.3931         0.5271       -66.0786      -22.05344     0.04507428
      2323.0000          0.514         0.1282         0.3911         0.5235        -66.048      -22.02284     0.04653149
      2323.5000         0.5108         0.1312          0.389         0.5199       -66.0175      -21.99234     0.04798362
      2324.0000         0.5076         0.1342         0.3869         0.5162       -65.8701      -21.84494     0.05500267
      2324.5000         0.5045         0.1534         0.3848         0.5126       -65.4983      -21.47314     0.07270759
      2325.0000         0.5072         0.1881         0.3801         0.5109       -65.1263      -21.10114     0.09042195
      2325.5000         0.5116         0.2228         0.3753         0.5127       -64.7546      -20.72944      0.1081218
      2326.0000          0.516         0.2575         0.3705         0.5146       -64.7566      -20.73144      0.1080266
      2326.5000         0.5204         0.2719         0.3646         0.5164       -64.7747      -20.74954      0.1071648
      2327.0000         0.5247         0.2853         0.3551         0.5183       -65.0417      -21.01654     0.09445027
      2327.5000         0.5277         0.2986         0.3456         0.5201       -65.3116      -21.28644     0.08159801
      2328.0000         0.5303         0.3119          0.336          0.518       -65.5817      -21.55655     0.06873594
      2328.5000          0.533         0.3254         0.3265         0.5115        -65.552      -21.52684     0.07015029
      2329.0000          0.534         0.3479         0.3176          0.505       -64.9854      -20.96024     0.09713145
      2329.5000         0.5242         0.3704         0.3089         0.4985       -63.4169      -19.39174      0.1718218
      2330.0000         0.5144          0.393         0.3002          0.492       -61.9128      -17.88764      0.2434456
      2330.5000         0.5029          0.429         0.2915         0.4854       -60.4089      -16.38374      0.3150598
      2331.0000          0.491         0.4811         0.2939         0.4838       -51.3267       -7.30154      0.7475457
      2331.5000         0.4791         0.5331         0.3037         0.4823       -46.8361      -2.810944      0.9613836
      2332.0000         0.4672         0.5852         0.3135         0.4808       -45.6448       -1.61964              1
      2332.5000         0.4553         0.6329         0.3232         0.4793       -45.5443      -1.519142              1
      2333.0000         0.4597         0.5938         0.3329         0.4804       -48.1739      -4.148743      0.8976789
      2333.5000         0.4655         0.5098         0.3426         0.4885       -51.2164      -7.191242       0.752798
      2334.0000         0.4795         0.4601         0.3523         0.4965       -52.1783      -8.153141      0.7069933
      2334.5000         0.4938         0.4104          0.362         0.5045       -51.9276      -7.902443      0.7189313
      2335.0000         0.5081         0.4077         0.3717         0.5123       -51.4934      -7.468243      0.7396075
      2335.5000         0.5156         0.4056         0.3814         0.5202       -51.0591      -7.033943      0.7602884
      2336.0000         0.5231         0.4036         0.3768          0.528       -50.6249      -6.599743      0.7809646
      2336.5000         0.5306         0.3983         0.3721         0.5359       -50.7723      -6.747143      0.7739456
      2337.0000         0.5401         0.3912         0.3673         0.5473       -51.5459      -7.520741      0.7371076
      2337.5000         0.5555         0.3841         0.3626         0.5586       -52.3192      -8.294041      0.7002838
      2338.0000         0.5709          0.377         0.3579         0.5699       -52.9645      -8.939342      0.6695551
      2338.5000         0.5681         0.3692         0.3535         0.5813       -53.6065      -9.581341      0.6389838
      2339.0000         0.5573         0.3549         0.3493         0.5706       -58.2408      -14.21564      0.4183028
      2339.5000         0.5465         0.3407          0.345         0.5575       -59.6145      -15.58934      0.3528886
      2340.0000         0.5368         0.3265         0.3408         0.5443       -60.8361      -16.81094       0.294717
      2340.5000         0.5288         0.3123         0.3366         0.5312       -61.9645      -17.93934      0.2409837
      2341.0000         0.5209         0.2981         0.3323          0.518         -62.47      -18.44484      0.2169122
      2341.5000          0.513         0.2821         0.3281         0.5128       -62.9314      -18.90624      0.1949408
      2342.0000          0.505         0.2657         0.3238         0.5077       -63.2894      -19.26424      0.1778933
      2342.5000         0.4971         0.2493           0.32         0.5026       -63.5781      -19.55294      0.1641457
      2343.0000           0.49         0.2329         0.3174         0.4975       -63.8666      -19.84144      0.1504075
      2343.5000         0.4847         0.2165         0.3147         0.4923       -64.1477      -20.12254      0.1370219
      2344.0000         0.4795         0.2017         0.3121         0.4872       -64.4275      -20.40234      0.1236981
      2344.5000         0.4742         0.2033         0.3094         0.4855       -64.7073      -20.68214      0.1103743
      2345.0000         0.4689         0.2048         0.3067          0.485       -64.9872      -20.96204     0.09704572
      2345.5000         0.4659         0.2063         0.3041         0.4845       -65.3101      -21.28494     0.08166958
      2346.0000         0.4659         0.2078         0.3014          0.484       -65.6473      -21.62214     0.06561225
      2346.5000         0.4659         0.2093         0.2992         0.4835       -65.9845      -21.95934     0.04955528
      2347.0000         0.4659         0.2156         0.2985         0.4831       -66.3218      -22.29664     0.03349322
      2347.5000         0.4659          0.222         0.2978         0.4826       -66.6488      -22.62365     0.01792163
      2348.0000         0.4673         0.2284         0.2971         0.4829       -66.8378      -22.81264     0.00892185
      2348.5000         0.4714         0.2348         0.2963          0.484       -67.0267      -23.00154              0
      2349.0000         0.4755         0.2412         0.2956          0.485       -67.2158      -23.19064              0
      2349.5000         0.4797         0.2476         0.2949         0.4861       -67.4048      -23.37964              0
      2350.0000         0.4838          0.254         0.2942         0.4872       -67.5939      -23.56874              0
      2350.5000          0.488         0.2598         0.2935         0.4883        -67.783      -23.75784              0
      2351.0000         0.4902          0.265         0.2928         0.4894       -67.5934      -23.56824              0
      2351.5000         0.4901         0.2702         0.2921         0.4878       -67.4011      -23.37594              0
      2352.0000         0.4899         0.2754         0.2913         0.4854        -67.209      -23.18384              0
