#------------------------------------------------------------------------------
# Created by    : vladimir.rabinovich
# Created on    : 09/19/2023 17:20:31
#------------------------------------------------------------------------------
~Version Information Section
VERS.           2.0     :   CWLS log ASCII Standard - VERSION 2.0
WRAP.           NO      :   One line per depth step
~Well Information Section
#MNEM       .UNIT                                         VALUE :DESCRIPTION
#------------------------------------------------------------------------------
STRT        .FT                                            2377 :START DEPTH
STOP        .FT                                            9500 :STOP DEPTH
STEP        .FT                                             0.5 :STEP      
NULL        .                                           -999.25 :NULL      
COMP        .                                     SKELLY OIL CO :COMPANY   
WELL        .                                     ST TR 00146-L :WELL      
FLD         .                                           WILDCAT :FIELD     
LOC         .                                                   :LOCATION  
CNTY        .                             GALVESTON LARGE BLOCK :LOCATION  
STAT        .                                             TEXAS :STATE     
CTRY        .                                     UNITED STATES :COUNTRY   
SRVC        .                                                   :SERVICE COMPANY
DATE        .                             9/13/2023 11:19:24 AM :LOG DATE  
API         .                                    42706001330000 :API NUMBER
UWI         .                                    42706001330000 :UNIQUE WELL ID
XCOORD      .                                  1116482.89093459 :SURFACE X 
YCOORD      .                                  10631825.2810539 :SURFACE Y 
LAT         .                                         29.285733 :LATITUDE  
LON         .                                       -94.6439746 :LONGITUDE 
ELEV        .FT                                              61 :ELEVATION VALUE
ELEV_TYPE   .                                                KB :ELEVATION REFERENCE TYPE
~Curve Information Section
#MNEM       .UNIT                                      API CODE :CURVE DESCRIPTION
#------------------------------------------------------------------------------
DEPT        .FT                                                 :DEPTH     
ASN         .OHMM                                               :          
CALI        .IN                                                 :          
CILD        .MMHO                                               :          
DT          .US/F                                               :          
ILD         .OHMM                                               :          
SP          .MV                                                 :          
SP_NORM     .MV                                                 :SP Normalized
VSH_SP      .V/V                                                :Volume of Shale from SP
~A        DEPTH            ASN           CALI           CILD             DT            ILD             SP        SP_NORM         VSH_SP
# ...
      9457.0000         0.4217         6.7535       2741.898       146.7698         0.4454       -43.6436        -3.6436      0.9519345
      9457.5000         0.4259         6.7512       2740.055       146.7654         0.4487       -43.6613      -3.661301      0.9516127
      9458.0000         0.4299         6.7531       2749.387       146.6433         0.4521       -43.6791        -3.6791      0.9512891
      9458.5000         0.4333         6.7493        2758.73         146.48         0.4555       -43.6968        -3.6968      0.9509673
      9459.0000         0.4366         6.7458       2768.063       146.5483         0.4588       -43.7145        -3.7145      0.9506454
      9459.5000         0.4399          6.754           2754       146.6699         0.4622       -43.7324      -3.732399        0.95032
      9460.0000         0.4413         6.7672       2733.094       146.7649         0.4656       -43.7501      -3.750099      0.9499982
      9460.5000         0.4412         6.7822       2705.582       146.8335          0.469       -43.7678      -3.767799      0.9496764
      9461.0000          0.441         6.7969       2676.984       146.6453         0.4724       -43.7856      -3.785599      0.9493527
      9461.5000         0.4412         6.8088       2648.387       146.4653         0.4759       -43.8033      -3.803299      0.9490309
      9462.0000         0.4432         6.8137       2622.965       146.4524         0.4793        -43.821      -3.820999      0.9487091
      9462.5000         0.4453         6.8185       2615.211       146.5806         0.4827       -43.7911        -3.7911      0.9492527
      9463.0000         0.4473         6.8214       2607.469       146.7107         0.4862       -43.7221      -3.722099      0.9505073
      9463.5000         0.4494         6.8243       2599.727       146.4734         0.4897       -43.6531      -3.653099      0.9517618
      9464.0000         0.4515         6.8235       2591.973       145.6089         0.4933       -43.5841      -3.584099      0.9530164
      9464.5000         0.4546         6.8196       2588.063       145.0708         0.4969       -43.5151      -3.515099       0.954271
      9465.0000         0.4577         6.8155       2584.777       145.2402         0.5005        -43.446      -3.445999      0.9555273
      9465.5000         0.4607         6.8109         2581.5       145.3286         0.5041       -43.3851      -3.385101      0.9566345
      9466.0000         0.4644         6.8085       2578.223       145.5173         0.5077       -43.3245      -3.324501      0.9577364
      9466.5000         0.4684         6.8112        2567.41       145.7954         0.5113       -43.2639      -3.263901      0.9588382
      9467.0000         0.4724         6.8108       2552.102       145.9561         0.5124       -43.2032      -3.203201      0.9599418
      9467.5000         0.4727         6.8147        2536.82       145.7278         0.5107       -43.1426      -3.142601      0.9610436
      9468.0000         0.4705         6.8101       2521.535       144.9639          0.509        -43.082      -3.082001      0.9621454
      9468.5000         0.4684          6.782       2500.453       144.2671         0.5073       -43.0172        -3.0172      0.9633237
      9469.0000         0.4716         6.7526       2478.438       143.6877         0.5056       -42.9511      -2.951099      0.9645255
      9469.5000         0.4818         6.7521       2456.422       143.2529         0.5039        -42.885      -2.884998      0.9657273
      9470.0000         0.4901         6.7555       2431.758       143.0906         0.5022        -42.819         -2.819      0.9669273
      9470.5000         0.4867         6.7593       2405.785       143.1228         0.5005       -42.7529      -2.752899      0.9681291
      9471.0000         0.4842         6.7611       2399.941       143.2344         0.4988       -42.6871      -2.687099      0.9693255
      9471.5000         0.4856         6.7617       2395.609        143.427          0.499         -42.64      -2.639999      0.9701818
      9472.0000         0.4873         6.7515        2391.27       143.6543            0.5        -42.593      -2.592999      0.9710364
      9472.5000         0.4906         6.7406       2391.105       143.5684          0.501       -42.5458      -2.545799      0.9718946
      9473.0000         0.4938          6.729       2392.781       143.2576          0.502       -42.4988      -2.498798      0.9727491
      9473.5000         0.4971         6.7257       2394.457       143.0498          0.503       -42.4517      -2.451698      0.9736055
      9474.0000         0.4923         6.7271        2406.59       143.0154          0.504       -42.4072        -2.4072      0.9744145
      9474.5000         0.4868         6.7293       2428.531       143.3938          0.505       -42.3625      -2.362499      0.9752273
      9475.0000         0.4812         6.7323       2450.445       143.8586          0.506       -42.3179      -2.317902      0.9760382
      9475.5000         0.4801          6.735       2472.359       144.3296          0.507       -42.2733        -2.2733      0.9768491
      9476.0000         0.4792         6.7346       2494.328       144.7615         0.5046       -42.2286        -2.2286      0.9776618
      9476.5000         0.4751         6.7342       2516.266       145.2864         0.5016       -42.2026      -2.202599      0.9781346
      9477.0000         0.4719         6.7338       2537.777       145.6355         0.4987       -42.1798      -2.179798      0.9785491
      9477.5000         0.4705         6.7426       2556.691       146.1235         0.4958        -42.157      -2.157001      0.9789636
      9478.0000          0.469         6.7532       2575.629       147.0103         0.4928       -42.1342      -2.134201      0.9793782
      9478.5000         0.4766         6.7528        2579.34       147.7019         0.4899       -42.1955      -2.195499      0.9782637
      9479.0000         0.4763         6.7545       2540.855       146.9299         0.4869       -42.2694      -2.269402      0.9769199
      9479.5000         0.4699         6.7607       2492.535       146.7607         0.4894       -42.3433        -2.3433      0.9755763
      9480.0000         0.4635         6.7725       2444.219       147.1467         0.4977       -42.4172      -2.417198      0.9742327
      9480.5000         0.4593         6.7907       2388.535       147.2202          0.506       -42.4911        -2.4911      0.9728891
      9481.0000           0.46          6.762       2328.715       146.9141         0.5099       -42.5757      -2.575699      0.9713509
      9481.5000         0.4668         6.7082       2278.582       145.7278          0.513       -42.7375      -2.737499      0.9684091
      9482.0000         0.4767         6.7183       2249.051       143.9673         0.5162       -42.8995      -2.899502      0.9654636
      9482.5000         0.4916         6.7373        2233.77         142.26         0.5193       -43.0612      -3.061199      0.9625236
      9483.0000          0.504         6.7524       2233.918       140.7803         0.5258       -43.2232      -3.223202      0.9595782
      9483.5000         0.5101         6.7621       2283.422       140.1809         0.5329       -43.3852      -3.385201      0.9566327
      9484.0000         0.5161         6.7681       2340.164        139.585         0.5274       -43.5469      -3.546902      0.9536927
      9484.5000         0.5211         6.7646       2367.199       140.0266         0.5194       -43.6717        -3.6717      0.9514236
      9485.0000         0.5217         6.7607       2394.234       141.2268         0.5113       -43.7403      -3.740299      0.9501764
      9485.5000         0.5197         6.7591       2400.492       142.8772         0.5033       -43.8088        -3.8088      0.9489309
      9486.0000         0.5074           6.77       2400.645       145.1082            0.5       -43.8775      -3.877499      0.9476818
