#------------------------------------------------------------------------------
# Created by    : vladimir.rabinovich
# Created on    : 09/19/2023 17:19:49
#------------------------------------------------------------------------------
~Version Information Section
VERS.           2.0     :   CWLS log ASCII Standard - VERSION 2.0
WRAP.           NO      :   One line per depth step
~Well Information Section
#MNEM       .UNIT                                         VALUE :DESCRIPTION
#------------------------------------------------------------------------------
STRT        .FT                                             790 :START DEPTH
STOP        .FT                                           12500 :STOP DEPTH
STEP        .FT                                             0.5 :STEP      
NULL        .                                           -999.25 :NULL      
COMP        .                                 CHEVRON U S A INC :COMPANY   
WELL        .                               OCS G04596 ST00BP00 :WELL      
FLD         .                                           WILDCAT :FIELD     
LOC         .                                                   :LOCATION  
CNTY        .                        MUSTANG ISLAND LARGE BLOCK :LOCATION  
STAT        .                                             TEXAS :STATE     
CTRY        .                                     UNITED STATES :COUNTRY   
SRVC        .                                                   :SERVICE COMPANY
DATE        .                             9/13/2023 11:19:13 AM :LOG DATE  
API         .                                    42702401310000 :API NUMBER
UWI         .                                    42702401310000 :UNIQUE WELL ID
XCOORD      .                                  486632.184756912 :SURFACE X 
YCOORD      .                                  10088502.2555927 :SURFACE Y 
LAT         .                                          27.75488 :LATITUDE  
LON         .                                        -96.567316 :LONGITUDE 
ELEV        .FT                                              90 :ELEVATION VALUE
ELEV_TYPE   .                                                KB :ELEVATION REFERENCE TYPE
~Curve Information Section
#MNEM       .UNIT                                      API CODE :CURVE DESCRIPTION
#------------------------------------------------------------------------------
DEPT        .FT                                                 :DEPTH     
ASFL        .OHMM                                               :          
CILD        .MMHO                                               :          
GR          .GAPI                                               :          
GR_NORM     .GAPI                                               :GammaRay Normalized
ILD         .OHMM                                               :          
SP          .MV                                                 :          
SP_NORM     .MV                                                 :SP Normalized
VSH_GR      .V/V                                                :Volume of Shale from GR
VSH_SP      .V/V                                                :Volume of Shale from SP
~A        DEPTH           ASFL           CILD             GR        GR_NORM            ILD             SP        SP_NORM         VSH_GR         VSH_SP
# ...
      4818.0000          0.776       1407.574        62.4257       72.63567         0.7199       -69.4159      0.3337631       0.843312              1
      4818.5000         0.7976       1357.951        62.7642       73.02208         0.7344       -69.2882      0.4439316      0.8515336              1
      4819.0000          0.814       1327.895        63.7321       74.03791         0.7488       -69.1604      0.5541992       0.873147              1
      4819.5000         0.8296        1297.84        64.5624       74.91613         0.7633       -69.1014       0.595665      0.8918325              1
      4820.0000         0.8453       1268.795        64.3588       74.76046         0.7778       -69.2358      0.4437332      0.8885204              1
      4820.5000         0.8625       1241.873        63.8392       74.28879         0.7923       -69.3706      0.2914047      0.8784848              1
      4821.0000         0.8961       1214.953        63.3196       73.81711         0.8067       -69.5052       0.139267      0.8684491              1
      4821.5000         0.9054       1209.375           62.8       73.34543         0.8212       -69.6399    -0.01296234      0.8584134              1
      4822.0000         0.8437       1230.141        62.2805       72.87386         0.8152       -69.7745     -0.1650925      0.8483799              1
      4822.5000         0.7703       1293.225        63.0964       73.73769         0.8091       -69.9091     -0.3172302      0.8667593              1
      4823.0000           0.75        1378.26        64.3136       75.00281         0.8029       -70.0437     -0.4693604      0.8936768              1
      4823.5000         0.7347       1431.264        65.5198       76.25693         0.7885       -70.1783     -0.6214905      0.9203601              1
      4824.0000         0.7255       1481.998        66.7273       77.51236         0.7667       -70.2518     -0.7125244      0.9470715              1
      4824.5000         0.7163       1520.813        67.9335       78.76648          0.745       -70.1116      -0.589859      0.9737549              1
      4825.0000         0.7167       1544.008        69.1409        80.0218         0.7232       -69.9713     -0.4670868              1              1
      4825.5000         0.7251       1566.883        71.4551       82.38393         0.7014       -69.8312     -0.3445206              1              1
      4826.0000         0.7334       1567.549        74.1279       85.10465         0.6796       -69.6908     -0.2216568              1              1
      4826.5000         0.7418       1544.354         75.662       86.68668         0.6578       -69.5507    -0.09908295              1              1
      4827.0000         0.7501       1521.158        77.1888        88.2614          0.659       -69.4103     0.02378082              1              1
      4827.5000         0.7585       1497.963        78.4196       89.54013         0.6625       -69.2701      0.1464462              1              1
      4828.0000         0.7668       1472.818        79.4342       90.60265         0.6661         -69.13      0.2690201              1              1
      4828.5000         0.7813       1441.455        79.0731       90.28947         0.6695       -68.9896      0.3918839              1              1
      4829.0000         0.7986       1410.092        75.5404        86.8047         0.6702       -68.8495      0.5144501              1              1
      4829.5000         0.8021       1406.191        72.0275       83.33972         0.6708       -68.7699      0.5765228              1              1
      4830.0000         0.7755       1450.906         69.308       80.66815         0.6714       -68.6873      0.6415863              1              1
      4830.5000         0.7487       1495.668        67.9067       79.31477         0.6658       -68.5758      0.7355576      0.9854207              1
      4831.0000         0.7221       1547.883        68.3978        79.8538         0.6547       -68.4642      0.8296204      0.9968893              1
      4831.5000         0.7095       1613.273        69.5856       81.08952         0.6436       -68.3287      0.9475937              1              1
      4832.0000         0.7014       1655.668         71.014       82.56585         0.6325       -68.1912       1.067558              1              1
      4832.5000         0.6933       1690.289        72.4414       84.04117         0.6214       -68.0535       1.187729              1              1
      4833.0000         0.6852       1733.645        73.8699        85.5176          0.611       -67.9159       1.307793              1              1
      4833.5000         0.6771       1783.736        75.2972       86.99283         0.6018       -67.7781       1.428062              1              1
      4834.0000         0.6691       1821.355        76.5612       88.30475         0.5927       -67.6405       1.548126              1              1
      4834.5000          0.661       1836.816        77.7698       89.56127         0.5836       -67.5028       1.668297              1              1
      4835.0000         0.6625       1852.275        78.1144        89.9538         0.5744       -67.3652       1.788368              1              1
      4835.5000         0.6682       1860.422        77.3787       89.26602         0.5675       -67.2275       1.908531              1              1
      4836.0000         0.6739        1858.08        77.0261       88.96134         0.5643       -67.1727       1.945801              1              1
      4836.5000         0.6796       1855.738        76.7516       88.73477          0.561       -67.1434       1.957565              1              1
      4837.0000         0.6846       1853.396        76.4771       88.50819         0.5577       -67.1141       1.969337              1              1
      4837.5000         0.6837       1851.053        76.2439       88.32291         0.5544       -67.1051         1.9608              1              1
      4838.0000         0.6828       1849.619        76.7771       88.90405         0.5511       -67.1632        1.88517              1              1
      4838.5000          0.682       1848.949        77.3108       89.48566         0.5507       -67.2213        1.80954              1              1
      4839.0000         0.6811       1848.277        77.8439        90.0667         0.5511       -67.2947       1.718605              1              1
      4839.5000         0.6802       1847.605        78.3776       90.64832         0.5515       -67.4006       1.605247              1              1
      4840.0000         0.6788       1846.934        78.4202       90.73884         0.5519        -67.506       1.499847              1              1
      4840.5000         0.6742       1847.617        77.8447       90.21127         0.5523       -67.3458       1.660042              1              1
      4841.0000         0.6696        1851.75        77.2687       89.68319         0.5527       -67.1858       1.820045              1              1
      4841.5000         0.6651       1855.881        76.6932       89.15562         0.5531       -67.0405       1.965347              1              1
      4842.0000         0.6605       1860.014        76.0876       88.59794         0.5535       -66.9047       2.101143              1              1
      4842.5000         0.6579       1864.145        75.3894       87.94766         0.5538       -66.7688       2.237045              1              1
      4843.0000          0.662       1862.021        74.6917       87.29789         0.5557       -66.6328       2.373047              1              1
      4843.5000         0.6662       1850.438        73.9934       86.64751         0.5577       -66.4969       2.508942              1              1
      4844.0000         0.6706        1838.84        73.2932       85.99524         0.5598       -66.4895       2.516342              1              1
