#------------------------------------------------------------------------------
# Created by    : vladimir.rabinovich
# Created on    : 09/19/2023 17:19:58
#------------------------------------------------------------------------------
~Version Information Section
VERS.           2.0     :   CWLS log ASCII Standard - VERSION 2.0
WRAP.           NO      :   One line per depth step
~Well Information Section
#MNEM       .UNIT                                         VALUE :DESCRIPTION
#------------------------------------------------------------------------------
STRT        .FT                                             782 :START DEPTH
STOP        .FT                                            8251 :STOP DEPTH
STEP        .FT                                             0.5 :STEP      
NULL        .                                           -999.25 :NULL      
COMP        .                                     TALOS ERT LLC :COMPANY   
WELL        .                               OCS G06037 ST00BP00 :WELL      
FLD         .                       MATAGORDA ISLAND BLOCK 0619 :FIELD     
LOC         .                                                   :LOCATION  
CNTY        .                      MATAGORDA ISLAND LARGE BLOCK :LOCATION  
STAT        .                                             TEXAS :STATE     
CTRY        .                                     UNITED STATES :COUNTRY   
SRVC        .                                                   :SERVICE COMPANY
DATE        .                             9/13/2023 11:18:52 AM :LOG DATE  
API         .                                    42703402240000 :API NUMBER
UWI         .                                    42703402240000 :UNIQUE WELL ID
XCOORD      .                                  606760.800591327 :SURFACE X 
YCOORD      .                                  10227689.0556145 :SURFACE Y 
LAT         .                                        28.1463556 :LATITUDE  
LON         .                                       -96.2076889 :LONGITUDE 
ELEV        .FT                                              77 :ELEVATION VALUE
ELEV_TYPE   .                                                KB :ELEVATION REFERENCE TYPE
~Curve Information Section
#MNEM       .UNIT                                      API CODE :CURVE DESCRIPTION
#------------------------------------------------------------------------------
DEPT        .FT                                                 :DEPTH     
ASFL        .OHMM                                               :          
CALI        .IN                                                 :          
CILD        .MMHO                                               :          
DRHO        .G/C3                                               :          
DT          .US/F                                               :          
GR          .GAPI                                               :          
GR_NORM     .GAPI                                               :GammaRay Normalized
ILD         .OHMM                                               :          
ILM         .OHMM                                               :          
NPHI        .%                                                  :          
RHOB        .G/C3                                               :          
SFL         .OHMM                                               :          
SP          .MV                                                 :          
SP_NORM     .MV                                                 :SP Normalized
VSH_GR      .V/V                                                :Volume of Shale from GR
VSH_SP      .V/V                                                :Volume of Shale from SP
~A        DEPTH           ASFL           CALI           CILD           DRHO             DT             GR        GR_NORM            ILD            ILM           NPHI           RHOB            SFL             SP        SP_NORM         VSH_GR         VSH_SP
# ...
      6254.0000         1.4434        10.5625       744.4854         0.0039        96.1639        49.2102       45.10393         1.2979         1.3114        27.9609         2.4085         1.4465       -44.7214     -0.4100227      0.2575305              1
      6254.5000         1.4055        10.6014         748.79          0.008         96.413        47.9808       42.67628          1.293         1.3054         27.301         2.4032         1.4452       -43.8845      0.4268799      0.2058784              1
      6255.0000         1.3897        10.6604       758.9502          0.008        96.9152        47.6865       42.09557         1.2876          1.296        27.4753         2.3867         1.4144        -43.679      0.6323776      0.1935228              1
      6255.5000         1.3772        10.6494       769.0967         0.0062        97.9147        48.7474       44.19156         1.2819         1.2812        28.3393          2.371         1.3205       -44.4085    -0.09712219      0.2381182              1
      6256.0000         1.3688        10.5787       778.6123         0.0043         98.646        49.8002       46.27153          1.276         1.2685        29.4435         2.3569         1.2658       -45.0726     -0.7612228      0.2823729              1
      6256.5000         1.3605        10.5053       788.1143         0.0038         98.187        50.6023       47.85633         1.2699         1.2603        29.5364         2.3537         1.2611       -45.1409     -0.8295212      0.3160921              1
      6257.0000         1.3593        10.4908       797.6162         0.0012        97.1948         51.304       49.24286         1.2631         1.2599        28.3572         2.3664         1.3185       -44.4616     -0.1502228      0.3455926              1
      6257.5000           1.36         10.521       807.1191         0.0006        95.9316        51.8064       50.23573         1.2531         1.2629         26.905         2.3789         1.3632       -43.7746      0.5367775      0.3667177              1
      6258.0000         1.3607        10.5712       809.3398         0.0062        95.0896        52.0035        50.6256         1.2432         1.2493        27.0991         2.3981         1.4016        -43.824      0.4873772      0.3750128              1
      6258.5000           1.36        10.6239       810.0059         0.0187        95.8481        51.8934       50.40869         1.2339         1.2305        28.4821         2.4093         1.3642       -44.4987     -0.1873207      0.3703976              1
      6259.0000         1.3561        10.6905       810.6729         0.0243        97.3776        51.5419       49.71502          1.225         1.2318         29.868         2.4035         1.3127       -45.1658     -0.8544197      0.3556387              1
      6259.5000         1.3522         10.762       811.3398          0.022        97.9541        51.3148       49.26704         1.2162         1.2484        30.4011         2.3873         1.2855       -45.5362      -1.224823      0.3461072              1
      6260.0000         1.3484        10.8303       812.0068         0.0115        97.9904        51.4163       49.46808         1.2118         1.2424        30.3613         2.3709         1.3239       -45.3078     -0.9964218      0.3503847              1
      6260.5000         1.3475        10.8926       806.1953         0.0032        97.9436        51.8367       50.29898         1.2088         1.2225        29.8221         2.3651         1.3699       -45.0732     -0.7618217      0.3680635              1
      6261.0000         1.3484        10.9619       798.9873          0.006        98.5991        52.3481       51.30964         1.2085         1.2121        29.8688         2.3636         1.3652         -45.53       -1.21862      0.3895667              1
      6261.5000         1.3532        11.0294       791.7803         0.0062        99.0823        52.8689       52.33885         1.2106         1.2114        30.9402         2.3624          1.312       -46.3873       -2.07592      0.4114649      0.9972886
      6262.0000         1.3579        11.1063       784.5791         0.0022        98.8934        53.1177       52.83084         1.2257         1.2191        32.0458         2.3634         1.2816       -46.3207      -2.009323      0.4219329       0.999667
      6262.5000         1.3627        11.1816       777.3711         0.0019        98.0128        52.4267        51.4666         1.2449         1.2464        31.8309         2.3743          1.286        -45.351      -1.039623      0.3929063              1
      6263.0000         1.3755        11.1793       769.4385         0.0022        96.9532        51.6876       50.00734         1.2664         1.2734        29.9305         2.3811         1.3645       -44.4233     -0.1119232      0.3618584              1
      6263.5000         1.3886        11.0972       761.2939        -0.0004        96.4957        51.4565       49.55148         1.2794         1.2994         27.836         2.3776         1.4249       -44.2919     0.01947784      0.3521592              1
      6264.0000         1.4017         11.051       753.1504         -0.005        96.0739        53.7496       54.08118         1.2875         1.3202         27.464         2.3718         1.4502       -44.9665     -0.6551208      0.4485358              1
      6264.5000         1.4178        11.0633       745.8936         -0.006        96.1726        56.5406       59.59431         1.2886          1.335        27.7995         2.3657         1.4502       -45.3901       -1.07872      0.5658365              1
      6265.0000         1.4343        11.1215       747.9932        -0.0037        96.4489        56.3641       59.24629         1.2871         1.3403        28.9386         2.3607         1.4378       -45.2498     -0.9384232      0.5584317              1
      6265.5000         1.4342        11.1485       760.5625        -0.0007        96.9421        54.6951       55.95039          1.284         1.3424        29.3221         2.3551         1.4118       -45.1226     -0.8112221      0.4883062              1
      6266.0000         1.4223        10.9897       782.7178         0.0023        97.5228        53.8863       54.35348         1.2784         1.3314        29.3657         2.3501         1.3794       -44.9727     -0.6613197      0.4543293              1
      6266.5000         1.4113        10.7769       806.2627         0.0051        98.5647        54.0602       54.69753         1.2662         1.3181         30.045         2.3481         1.3796       -44.7188     -0.4074211      0.4616495              1
      6267.0000         1.4013         10.641       824.2627         0.0082        99.4889        53.1907       52.98073         1.2497         1.2953        32.0108         2.3537         1.3426       -44.6536     -0.3422203      0.4251219              1
      6267.5000         1.3912        10.5849       840.2412         0.0096       100.0289        51.8815       50.39547         1.2314         1.2705        32.4573         2.3637         1.3338       -44.6725     -0.3611221      0.3701163              1
      6268.0000         1.3812        10.6579       814.4004         0.0083        99.9463        51.3781       49.40175         1.2117          1.243        31.3833         2.3711         1.3613       -44.7681     -0.4567223      0.3489734              1
      6268.5000         1.3712        10.7416       780.6592         0.0065        99.4526        51.6467       49.93285         1.1921         1.2138        28.4241           2.36         1.4129       -45.0532     -0.7418213      0.3602733              1
      6269.0000         1.3602        10.6183       750.9609         0.0025        99.7844        52.2177       51.06121         1.2005         1.2002          27.93         2.3428         1.4529       -45.2642     -0.9528198      0.3842812              1
      6269.5000         1.3936        10.4921       726.3486        -0.0027        100.026        53.2668       53.13389         1.2308         1.1983        29.1527         2.3296         1.3563       -45.3933      -1.081921      0.4283807              1
