#------------------------------------------------------------------------------
# Created by    : vladimir.rabinovich
# Created on    : 09/19/2023 17:22:32
#------------------------------------------------------------------------------
~Version Information Section
VERS.           2.0     :   CWLS log ASCII Standard - VERSION 2.0
WRAP.           NO      :   One line per depth step
~Well Information Section
#MNEM       .UNIT                                         VALUE :DESCRIPTION
#------------------------------------------------------------------------------
STRT        .FT                                          2841.5 :START DEPTH
STOP        .FT                                          6769.5 :STOP DEPTH
STEP        .FT                                             0.5 :STEP      
NULL        .                                           -999.25 :NULL      
COMP        .                      SPINNAKER EXPLORATION CO LLC :COMPANY   
WELL        .                               OCS G18941 ST00BP00 :WELL      
FLD         .                            HIGH ISLAND BLOCK 0235 :FIELD     
LOC         .                                                   :LOCATION  
CNTY        .                           HIGH ISLAND LARGE BLOCK :LOCATION  
STAT        .                                             TEXAS :STATE     
CTRY        .                                     UNITED STATES :COUNTRY   
SRVC        .                                                   :SERVICE COMPANY
DATE        .                             9/13/2023 11:20:02 AM :LOG DATE  
API         .                                    42708405540000 :API NUMBER
UWI         .                                    42708405540000 :UNIQUE WELL ID
XCOORD      .                                  1178439.61066162 :SURFACE X 
YCOORD      .                                  10526520.2311607 :SURFACE Y 
LAT         .                                         28.998365 :LATITUDE  
LON         .                                        -94.445565 :LONGITUDE 
ELEV        .FT                                              98 :ELEVATION VALUE
ELEV_TYPE   .                                                KB :ELEVATION REFERENCE TYPE
~Curve Information Section
#MNEM       .UNIT                                      API CODE :CURVE DESCRIPTION
#------------------------------------------------------------------------------
DEPT        .FT                                                 :DEPTH     
CNCF        .%                                                  :          
DCAL        .IN                                                 :          
DT24        .US/F                                               :          
GR          .GAPI                                               :          
GR_NORM     .GAPI                                               :GammaRay Normalized
M2R1        .OHMM                                               :          
M2R2        .OHMM                                               :          
M2R3        .OHMM                                               :          
M2R6        .OHMM                                               :          
M2R9        .OHMM                                               :          
M2RX        .OHMM                                               :          
PORZ        .%                                                  :          
RWAZ        .OHMM                                               :          
SPCH        .MV                                                 :          
TEN         .LB/F                                               :          
VSH_GR      .V/V                                                :Volume of Shale from GR
ZCOR        .G/CC                                               :          
~A        DEPTH           CNCF           DCAL           DT24             GR        GR_NORM           M2R1           M2R2           M2R3           M2R6           M2R9           M2RX           PORZ           RWAZ           SPCH            TEN         VSH_GR           ZCOR
# ...
      5181.5000         50.644           2.84        137.391        115.734        79.2831           0.67          0.713          0.737          0.743          0.747          0.748         37.071          0.143         -3.012         22.383      0.9847469          0.054
      5182.0000         51.731          2.429        137.004        114.131       77.67957          0.681          0.727          0.753          0.758          0.761          0.762         36.845          0.144         -3.067        -21.715      0.9506292          0.046
      5182.5000         54.352          2.538        137.725        112.031       75.57905          0.687          0.735          0.761          0.765          0.768          0.769         37.085          0.147         -3.035        -39.499      0.9059372          0.062
      5183.0000         54.826          3.024         138.26        110.454       74.00153          0.683          0.732          0.758          0.761          0.764          0.765         37.744          0.152         -2.946        -25.041      0.8723729          0.106
      5183.5000         52.686          3.492        139.332        107.356       70.90299          0.675          0.724          0.748          0.751          0.754          0.754         39.636          0.166         -2.955        -17.162      0.8064467          0.151
      5184.0000         52.088          3.734        140.597        104.531       68.07746          0.665          0.712          0.734          0.737          0.739           0.74         41.867          0.184         -3.184        -31.053      0.7463289          0.174
      5184.5000         54.277          3.513        140.681        104.687       68.23293          0.651          0.694          0.714          0.716          0.718          0.719         42.882          0.188          -3.48        -21.313      0.7496369          0.184
      5185.0000         55.431          2.853        142.072        106.884       70.42941          0.639          0.676          0.693          0.695          0.697          0.697          42.61           0.18         -3.618         14.272      0.7963705          0.188
      5185.5000         55.333          2.203        142.821         108.22       71.76488          0.639          0.669          0.684          0.686          0.687          0.688         41.451          0.167         -3.511         23.253      0.8247848          0.189
      5186.0000         55.315            1.9        141.897        108.244       71.78836          0.653          0.679          0.692          0.694          0.695          0.696          39.64          0.154         -3.085           1.93      0.8252842          0.195
      5186.5000         54.201          1.831        140.982        108.174       71.71783          0.675          0.699          0.712          0.714          0.715          0.715          37.36          0.139         -2.415        -16.937      0.8237837          0.182
      5187.0000         51.986          1.851        137.953        109.144       72.68729          0.694          0.718           0.73          0.733          0.733          0.734         35.832           0.13         -1.977        -25.548      0.8444105          0.124
      5187.5000         49.174          2.041        134.454        110.456       73.99877          0.706          0.733          0.746          0.748          0.748          0.749          33.88          0.118         -2.005        -20.066      0.8723143          0.057
      5188.0000         46.615          2.406        132.854        111.315       74.85725          0.713          0.744          0.759           0.76           0.76          0.761           31.9          0.105         -2.052        -15.507      0.8905797          0.039
      5188.5000         45.331          2.675         131.67        112.314       75.85572          0.713          0.749          0.765          0.766          0.765          0.766         32.002          0.107         -1.868        -31.503      0.9118239          0.067
      5189.0000         46.301          2.576        131.449        112.211       75.75219          0.719          0.758          0.775          0.775          0.773          0.775         32.808          0.114          -1.84         -35.63      0.9096211          0.089
      5189.5000         47.283          2.246        131.199        109.923       73.46366          0.746          0.786          0.804          0.803          0.801          0.802         32.446          0.115         -2.046        -10.867       0.860929           0.09
      5190.0000          45.54          2.006        129.984        108.943       72.48314          0.786          0.827          0.846          0.844           0.84          0.842         31.733          0.115         -2.314         -2.745      0.8400668          0.075
      5190.5000         41.998          1.979        128.536        110.766        74.3056          0.816          0.859          0.877          0.874           0.87          0.872         32.261          0.124         -2.798        -16.714      0.8788426          0.064
      5191.0000          39.64          2.111        128.133        112.882       76.42108          0.819          0.865          0.883          0.879          0.875          0.877         33.426          0.134         -3.662        -11.783      0.9238528          0.069
      5191.5000         39.851          2.356        128.166        113.271       76.80956            0.8           0.85           0.87          0.865          0.861          0.862         33.315          0.131         -4.486         -1.163      0.9321182           0.08
      5192.0000         41.457          2.604        127.993        113.011       76.54903          0.775           0.83          0.851          0.845          0.842          0.844         31.496          0.114         -4.753        -17.585       0.926575          0.064
      5192.5000         42.336          2.719        129.279        113.959        77.4965          0.753           0.81          0.833          0.827          0.825          0.826         29.671          0.098          -4.54        -46.318       0.946734          0.031
      5193.0000         42.608          2.716        131.428        116.501       80.03797           0.73          0.789          0.812          0.806          0.804          0.806         29.627          0.095         -4.254         -50.08              1          0.034
      5193.5000           44.2          2.662        133.098        117.131       80.66744          0.711          0.768          0.791          0.785          0.784          0.786         30.778          0.101          -4.04        -24.532              1          0.065
      5194.0000         46.368          2.587        135.055        114.936       78.47191            0.7          0.755          0.778          0.772          0.772          0.774         31.345          0.103         -3.944         -3.192      0.9674874          0.084
      5194.5000         47.224          2.583        137.158        114.315       77.85039          0.698           0.75          0.772          0.766          0.767          0.769         31.052            0.1          -4.04         -9.655      0.9542636          0.083
      5195.0000         47.357           2.72        137.161        117.031       80.56586          0.693          0.741          0.761          0.757          0.758           0.76         30.836          0.098         -4.123        -15.848              1          0.087
      5195.5000         48.044           2.79        136.214        119.871       83.40533           0.68          0.723          0.742          0.739          0.739          0.743         30.829          0.095         -4.047        -17.003              1           0.09
      5196.0000         48.984          2.626        134.671        121.502        85.0358          0.672          0.711          0.728          0.726          0.726           0.73         30.242           0.09         -4.116        -44.572              1          0.071
