#------------------------------------------------------------------------------
# Created by    : vladimir.rabinovich
# Created on    : 09/19/2023 17:20:30
#------------------------------------------------------------------------------
~Version Information Section
VERS.           2.0     :   CWLS log ASCII Standard - VERSION 2.0
WRAP.           NO      :   One line per depth step
~Well Information Section
#MNEM       .UNIT                                         VALUE :DESCRIPTION
#------------------------------------------------------------------------------
STRT        .FT                                             609 :START DEPTH
STOP        .FT                                           12866 :STOP DEPTH
STEP        .FT                                             0.5 :STEP      
NULL        .                                           -999.25 :NULL      
COMP        .                                        SUN OIL CO :COMPANY   
WELL        .                               OCS G01769 ST00BP00 :WELL      
FLD         .                                           WILDCAT :FIELD     
LOC         .                                                   :LOCATION  
CNTY        .                             GALVESTON LARGE BLOCK :LOCATION  
STAT        .                                             TEXAS :STATE     
CTRY        .                                     UNITED STATES :COUNTRY   
SRVC        .                                                   :SERVICE COMPANY
DATE        .                             9/13/2023 11:19:24 AM :LOG DATE  
API         .                                    42706001410000 :API NUMBER
UWI         .                                    42706001410000 :UNIQUE WELL ID
XCOORD      .                                  1110717.91749569 :SURFACE X 
YCOORD      .                                  10538856.4752018 :SURFACE Y 
LAT         .                                         29.029845 :LATITUDE  
LON         .                                        -94.657945 :LONGITUDE 
ELEV        .FT                                              65 :ELEVATION VALUE
ELEV_TYPE   .                                                KB :ELEVATION REFERENCE TYPE
~Curve Information Section
#MNEM       .UNIT                                      API CODE :CURVE DESCRIPTION
#------------------------------------------------------------------------------
DEPT        .FT                                                 :DEPTH     
ASN         .OHMM                                               :          
CALI        .IN                                                 :          
CILD        .MMHO                                               :          
DT          .US/F                                               :          
ILD         .OHMM                                               :          
SP          .MV                                                 :          
SP_NORM     .MV                                                 :SP Normalized
VSH_SP      .V/V                                                :Volume of Shale from SP
~A        DEPTH            ASN           CALI           CILD             DT            ILD             SP        SP_NORM         VSH_SP
# ...
      7954.5000         0.8115        12.3537       1622.471        91.2612         0.5537       -70.1793       3.154037              1
      7955.0000          0.811        12.4241       1645.908        93.1099         0.5499       -71.2758       2.057533              1
      7955.5000         0.8104         12.484       1663.352        94.5669         0.5513         -70.34        2.99334              1
      7956.0000         0.8099        12.5324       1653.098        94.1184         0.5528       -69.7578       3.575539              1
      7956.5000         0.8094         12.517       1642.855         92.986         0.5542        -69.225       4.108337              1
      7957.0000         0.8089        12.4979       1632.602        92.6864         0.5556       -68.6917       4.641632              1
      7957.5000         0.8103        12.4476       1622.361        92.4855         0.5571       -68.1588       5.174538              1
      7958.0000         0.8123        12.3825       1612.266        92.3394         0.5585       -67.9182       5.415138              1
      7958.5000         0.8143        12.3356       1602.244        92.1744         0.5599       -67.9822       5.351135              1
      7959.0000         0.8163        12.3026       1592.221        91.9857         0.5614       -68.0505       5.282837              1
      7959.5000         0.8183        12.2767       1582.199          92.08         0.5641       -68.1876       5.145737              1
      7960.0000         0.8202        12.2774       1573.838        92.1223         0.5672       -68.3246       5.008736              1
      7960.5000         0.8222         12.278       1565.732        91.7085         0.5703       -68.4617       4.871635              1
      7961.0000         0.8242        12.3015       1557.627        90.9775         0.5735       -68.5988       4.734535              1
      7961.5000         0.8234        12.3316       1549.521        90.5364         0.5766       -68.7324       4.600937              1
      7962.0000         0.8198        12.3631        1545.48        90.8424         0.5798       -68.8512        4.48214              1
      7962.5000         0.8161        12.4079         1555.1        92.0975         0.5811       -68.9702       4.363136              1
      7963.0000         0.8125        12.4701       1564.707        92.8361         0.5804       -69.0892       4.244133              1
      7963.5000         0.8089        12.5788       1572.502        93.3502         0.5797       -69.2081       4.125237              1
      7964.0000         0.8053        12.6936       1577.426        93.6947          0.579       -69.3271       4.006233              1
      7964.5000          0.802        12.8894       1582.346        93.8201         0.5782        -69.446       3.887337              1
      7965.0000         0.7996         13.085       1587.271        93.9282         0.5778       -69.5651       3.768234              1
      7965.5000         0.7971        13.2342       1596.434        93.8942         0.5784       -69.5634       3.769936              1
      7966.0000         0.7947        13.3288        1607.09        94.9547         0.5791       -69.2742       4.059135              1
      7966.5000         0.7923        13.3714       1617.734        95.6071         0.5797       -68.9849       4.348434              1
      7967.0000         0.7898        13.3592       1628.391        96.2067         0.5804       -68.7756       4.557739              1
      7967.5000         0.7874        13.2267       1641.635         96.947          0.581       -68.6033       4.730034              1
      7968.0000         0.7847         13.149       1661.898        97.8051         0.5817       -68.4308       4.902534              1
      7968.5000         0.7801        13.0713       1682.334        98.3632         0.5843       -68.2583       5.075035              1
      7969.0000         0.7756        13.0506       1703.379        97.7635         0.5871       -68.0859       5.247437              1
      7969.5000         0.7787        13.0614       1722.494        96.5592         0.5899       -67.9135       5.419838              1
      7970.0000         0.7826        13.0422       1729.453        94.6263         0.5927       -67.8597       5.473633              1
      7970.5000         0.7906        12.9918       1715.342        93.2015         0.5955       -67.9504       5.382935              1
      7971.0000          0.799         12.914        1701.23        92.5502         0.5975       -68.0413       5.292038              1
      7971.5000         0.8075        12.8154       1687.326        92.6316         0.5975       -68.1312       5.202133              1
      7972.0000         0.8159        12.7929        1674.68        93.1421         0.5975        -68.135       5.198334              1
      7972.5000         0.8237        12.8116       1662.143        92.2698         0.5975       -68.1388       5.194534              1
      7973.0000         0.8239        12.6286       1648.105        91.0011         0.5975       -68.1427       5.190636              1
      7973.5000          0.824        12.5058       1632.748        90.2242         0.5975       -68.1465       5.186836              1
      7974.0000         0.8241         12.431       1617.393        90.5718         0.5947       -68.1504       5.182938              1
      7974.5000         0.8243        12.4362       1600.938        91.8188          0.592       -68.1542       5.179138              1
      7975.0000         0.8244        12.4645       1588.895        92.7778          0.589        -68.158       5.166771              1
      7975.5000         0.8245        12.4635        1586.74        93.4369         0.5852       -68.1442       5.161369              1
      7976.0000         0.8242         12.401       1585.504         93.782         0.5812       -68.0121       5.274277              1
      7976.5000         0.8239        12.3287       1584.627        93.1842         0.5763         -67.88       5.387184              1
      7977.0000         0.8237        12.2837       1583.748        91.8733         0.5777       -67.7477       5.500282              1
      7977.5000         0.8234        12.2592       1582.871        91.0345         0.5838       -67.6156        5.61319              1
      7978.0000         0.8231        12.2812       1581.994        90.1685           0.59       -67.4835       5.726097              1
      7978.5000         0.8311        12.3482       1581.117        89.1909         0.5962       -67.8182         5.3722              1
      7979.0000         0.8457        12.3254       1579.834        87.7227          0.605       -68.3597       4.811501              1
      7979.5000           0.86        12.2884       1578.074        84.5854         0.6342       -68.9017       4.250305              1
      7980.0000         0.8724        12.2426       1570.469        81.3777         0.6619       -69.4431       3.689713              1
      7980.5000         0.8848        12.1969       1543.955         80.436         0.6881       -70.2498       2.863815              1
      7981.0000         0.8972        12.1689       1509.678        79.9783         0.7144       -71.4636       1.630821              1
      7981.5000         0.9156        12.1577       1457.822        81.0023          0.739       -72.7096      0.3656235              1
      7982.0000         0.9364        12.1464       1381.994        81.5239         0.7435         -74.01     -0.9539642      0.9841006
      7982.5000         0.9583         12.135       1362.047        81.8132          0.748       -74.5986       -1.56176      0.9739707
      7983.0000         0.9702        12.1208       1341.076        81.9314         0.7505        -74.649      -1.631355      0.9728107
      7983.5000         0.9786        12.1065        1317.59        82.4259         0.7505       -74.1942      -1.195747      0.9800709
