#------------------------------------------------------------------------------
# Created by    : vladimir.rabinovich
# Created on    : 09/19/2023 17:20:54
#------------------------------------------------------------------------------
~Version Information Section
VERS.           2.0     :   CWLS log ASCII Standard - VERSION 2.0
WRAP.           NO      :   One line per depth step
~Well Information Section
#MNEM       .UNIT                                         VALUE :DESCRIPTION
#------------------------------------------------------------------------------
STRT        .FT                                            1092 :START DEPTH
STOP        .FT                                            8058 :STOP DEPTH
STEP        .FT                                             0.5 :STEP      
NULL        .                                           -999.25 :NULL      
COMP        .                                    EXXON CO U S A :COMPANY   
WELL        .                               OCS G03029 ST00BP00 :WELL      
FLD         .                                           WILDCAT :FIELD     
LOC         .                                                   :LOCATION  
CNTY        .                        MUSTANG ISLAND LARGE BLOCK :LOCATION  
STAT        .                                             TEXAS :STATE     
CTRY        .                                     UNITED STATES :COUNTRY   
SRVC        .                                                   :SERVICE COMPANY
DATE        .                             9/13/2023 11:19:13 AM :LOG DATE  
API         .                                    42702400190000 :API NUMBER
UWI         .                                    42702400190000 :UNIQUE WELL ID
XCOORD      .                                  486295.566528254 :SURFACE X 
YCOORD      .                                  10047803.1546112 :SURFACE Y 
LAT         .                                         27.643077 :LATITUDE  
LON         .                                        -96.564717 :LONGITUDE 
ELEV        .FT                                              70 :ELEVATION VALUE
ELEV_TYPE   .                                                KB :ELEVATION REFERENCE TYPE
~Curve Information Section
#MNEM       .UNIT                                      API CODE :CURVE DESCRIPTION
#------------------------------------------------------------------------------
DEPT        .FT                                                 :DEPTH     
ASN         .OHMM                                               :          
CALI        .IN                                                 :          
CIL         .MMHO                                               :          
DRHO        .G/C3                                               :          
DT          .US/F                                               :          
GR          .GAPI                                               :          
GR_NORM     .GAPI                                               :GammaRay Normalized
ILD         .OHMM                                               :          
NPHI        .%                                                  :          
RHOB        .G/C3                                               :          
SN          .OHMM                                               :          
SP          .MV                                                 :          
SP_NORM     .MV                                                 :SP Normalized
VSH_GR      .V/V                                                :Volume of Shale from GR
VSH_SP      .V/V                                                :Volume of Shale from SP
~A        DEPTH            ASN           CALI            CIL           DRHO             DT             GR        GR_NORM            ILD           NPHI           RHOB             SN             SP        SP_NORM         VSH_GR         VSH_SP
# ...
      3948.0000         0.9464        -999.25       1481.135        -999.25        -999.25        60.3732       73.46827         0.6038        -999.25        -999.25         0.8667      -108.6671      -12.15491       0.861027      0.7743352
      3948.5000         0.9377        -999.25        1341.67        -999.25        -999.25        62.0974       77.17788         0.6697        -999.25        -999.25         0.8796       -104.514      -8.000511      0.9399549      0.8666553
      3949.0000         0.9183        -999.25         1204.4        -999.25        -999.25        62.8376       78.77507          0.754        -999.25        -999.25         0.8945      -100.9708      -4.456009      0.9739377      0.9454221
      3949.5000         0.8924        -999.25       1092.889        -999.25        -999.25        61.7407       76.42836         0.8173        -999.25        -999.25         0.9096       -98.8406      -2.324501      0.9240077      0.9927889
      3950.0000         0.8572        -999.25       1046.242        -999.25        -999.25        61.2872       75.46291         0.8473        -999.25        -999.25          0.922       -97.1926     -0.6752014      0.9034661              1
      3950.5000         0.8567        -999.25       1035.301        -999.25        -999.25        61.6589       76.26898         0.8469        -999.25        -999.25         0.9346       -95.7258      0.7929001      0.9206166              1
      3951.0000         0.8698        -999.25       1045.467        -999.25        -999.25        62.8776       78.89339         0.8353        -999.25        -999.25          0.939       -94.3838       2.136208      0.9764552              1
      3951.5000         0.8894        -999.25       1075.666        -999.25        -999.25        62.1548       79.50601         0.8165        -999.25        -999.25         0.9421       -95.1936       1.327705      0.9894896              1
      3952.0000         0.9104        -999.25       1136.414        -999.25        -999.25        61.4274       78.24313         0.7911        -999.25        -999.25         0.9396       -96.5062     0.01641083      0.9626198              1
      3952.5000         0.9314        -999.25       1202.404        -999.25        -999.25        61.0226        77.5433         0.7587        -999.25        -999.25         0.9329       -96.7778      -0.253891      0.9477297              1
      3953.0000         0.9493        -999.25       1271.488        -999.25        -999.25        60.9943       77.50049         0.7229        -999.25        -999.25         0.9214       -96.7664      -0.241188      0.9468189              1
      3953.5000         0.9672        -999.25        1341.17        -999.25        -999.25        60.9869       77.49417         0.6855        -999.25        -999.25         0.9119         -96.64     -0.1134796      0.9466845              1
      3954.0000         0.9581        -999.25       1390.438        -999.25        -999.25        60.3826       76.43542         0.6511        -999.25        -999.25         0.9031        -97.151     -0.6231766       0.924158              1
      3954.5000         0.9475        -999.25       1420.375        -999.25        -999.25        58.3342       72.85527          0.626        -999.25        -999.25         0.8991        -98.397      -1.867874      0.8479845              1
      3955.0000         0.9368        -999.25        1425.84        -999.25        -999.25        56.1771       69.08539         0.6137        -999.25        -999.25          0.897       -99.5115      -2.981071      0.7677742      0.9781984
      3955.5000         0.9269        -999.25       1423.201        -999.25        -999.25        55.1501        67.2878         0.6141        -999.25        -999.25         0.8949       -99.4115      -2.879768      0.7295276      0.9804496
      3956.0000         0.9182        -999.25       1412.869        -999.25        -999.25        54.1799        65.5893         0.6235        -999.25        -999.25         0.8928       -98.4532      -1.920166      0.6933894              1
      3956.5000         0.9095        -999.25        1400.01        -999.25        -999.25        52.7694       63.12241         0.6334        -999.25        -999.25         0.8921         -98.02      -1.485657      0.6409023              1
      3957.0000         0.9027        -999.25        1380.18        -999.25        -999.25        51.5912       61.06092         0.6452        -999.25        -999.25         0.8927       -98.1785      -1.642853       0.597041              1
      3957.5000         0.8976        -999.25       1354.822        -999.25        -999.25        51.0577        60.1246         0.6556        -999.25        -999.25         0.8933       -98.2081      -1.671158      0.5771191              1
      3958.0000         0.9009        -999.25       1330.326        -999.25        -999.25        53.3366        64.0965         0.6623        -999.25        -999.25         0.8951        -97.593      -1.054756      0.6616278              1
      3958.5000         0.9042        -999.25       1326.596        -999.25        -999.25        55.8654       68.50452         0.6467        -999.25        -999.25         0.8927       -99.8313      -3.291748      0.7554154      0.9712945
      3959.0000         0.9099        -999.25        1371.42        -999.25        -999.25        57.9357       72.11238         0.6285        -999.25        -999.25         0.8618      -103.8538      -7.312943      0.8321783      0.8819346
      3959.5000         0.9167        -999.25       1426.078        -999.25        -999.25        59.9509       75.62409         0.6151        -999.25        -999.25         0.8277      -102.9198       -6.37764      0.9068956      0.9027191
      3960.0000         0.9236        -999.25       1448.152        -999.25        -999.25        61.7039       78.67818           0.61        -999.25        -999.25         0.8019       -99.3091       -2.76564      0.9718761      0.9829858
      3960.5000         0.9085        -999.25       1448.531        -999.25        -999.25        62.4401       79.95773          0.607        -999.25        -999.25         0.7834       -97.0339     -0.4891357      0.9991006              1
      3961.0000         0.8873        -999.25         1448.6        -999.25        -999.25        62.3546       79.80328         0.6059        -999.25        -999.25           0.78       -95.1473       1.398766      0.9958144              1
      3961.5000         0.8678        -999.25       1462.416        -999.25        -999.25        61.6626        78.5903         0.5942        -999.25        -999.25          0.782       -95.2485       1.298874      0.9700064              1
      3962.0000         0.8512        -999.25       1512.082        -999.25        -999.25        60.1983       76.02951         0.5724        -999.25        -999.25         0.7945       -97.0139     -0.4652252      0.9155215              1
      3962.5000         0.8392        -999.25       1578.871        -999.25        -999.25        59.0938       74.09665         0.5424        -999.25        -999.25         0.8075       -99.5189      -2.968925      0.8743968      0.9784683
      3963.0000         0.8281        -999.25       1665.375        -999.25        -999.25        60.1177       75.87831          0.512        -999.25        -999.25         0.8116      -104.1293      -7.578026      0.9123045      0.8760439
      3963.5000         0.8179        -999.25       1757.221        -999.25        -999.25        59.6473       75.05207         0.4835        -999.25        -999.25         0.8023      -109.4042      -12.84463      0.8947249      0.7590083
      3964.0000         0.8179        -999.25       1852.111        -999.25        -999.25         57.787       71.80019          0.463        -999.25        -999.25         0.7929      -112.2003      -15.62876       0.825536      0.6971387
      3964.5000         0.8196        -999.25       1914.506        -999.25        -999.25        56.3427       69.27432         0.4479        -999.25        -999.25         0.7877      -110.2463      -13.66279      0.7717941      0.7408269
