#------------------------------------------------------------------------------
# Created by    : vladimir.rabinovich
# Created on    : 09/19/2023 17:21:33
#------------------------------------------------------------------------------
~Version Information Section
VERS.           2.0     :   CWLS log ASCII Standard - VERSION 2.0
WRAP.           NO      :   One line per depth step
~Well Information Section
#MNEM       .UNIT                                         VALUE :DESCRIPTION
#------------------------------------------------------------------------------
STRT        .FT                                            3683 :START DEPTH
STOP        .FT                                            9328 :STOP DEPTH
STEP        .FT                                             0.5 :STEP      
NULL        .                                           -999.25 :NULL      
COMP        .                                SHELL OFFSHORE INC :COMPANY   
WELL        .                               OCS G11316 ST00BP00 :WELL      
FLD         .                                           WILDCAT :FIELD     
LOC         .                                                   :LOCATION  
CNTY        .                             GALVESTON LARGE BLOCK :LOCATION  
STAT        .                                             TEXAS :STATE     
CTRY        .                                     UNITED STATES :COUNTRY   
SRVC        .                                                   :SERVICE COMPANY
DATE        .                             9/13/2023 11:19:34 AM :LOG DATE  
API         .                                    42706402670000 :API NUMBER
UWI         .                                    42706402670000 :UNIQUE WELL ID
XCOORD      .                                  1097534.45360284 :SURFACE X 
YCOORD      .                                  10461685.9172371 :SURFACE Y 
LAT         .                                         28.817107 :LATITUDE  
LON         .                                        -94.695737 :LONGITUDE 
ELEV        .FT                                              91 :ELEVATION VALUE
ELEV_TYPE   .                                                KB :ELEVATION REFERENCE TYPE
~Curve Information Section
#MNEM       .UNIT                                      API CODE :CURVE DESCRIPTION
#------------------------------------------------------------------------------
DEPT        .FT                                                 :DEPTH     
CALI        .IN                                                 :          
CALI_1      .IN                                                 :          
CILD        .MMHO                                               :          
DRHO        .G/C3                                               :          
DT          .US/F                                               :          
GR          .GAPI                                               :          
GR_1        .GAPI                                               :          
GR_NORM     .GAPI                                               :GammaRay Normalized
ILD         .OHMM                                               :          
ILM         .OHMM                                               :          
NPHI        .%                                                  :          
RHOB        .G/C3                                               :          
SFL         .OHMM                                               :          
SP          .MV                                                 :          
SP_NORM     .MV                                                 :SP Normalized
VSH_GR      .V/V                                                :Volume of Shale from GR
VSH_SP      .V/V                                                :Volume of Shale from SP
~A        DEPTH           CALI         CALI_1           CILD           DRHO             DT             GR           GR_1        GR_NORM            ILD            ILM           NPHI           RHOB            SFL             SP        SP_NORM         VSH_GR         VSH_SP
# ...
      5033.0000        14.9522        15.0197       1326.355         0.0006       122.1342        71.0494        72.0347       85.39562         0.7583          0.668        53.0441         2.2638         0.8297       -29.0159      -4.212872              1      0.9297855
      5033.5000        14.9657        15.0176       1289.371         0.0016       123.5647         72.244        73.0216       86.93811         0.7772         0.6868        53.1021         2.2589         0.8468       -28.8281      -3.908668              1      0.9348555
      5034.0000        14.9704        14.9899        1328.59         0.0086       125.7344         72.965        73.2638       87.31701         0.7504          0.649        50.8364         2.2579         0.8281       -28.5404       -3.44264              1      0.9426227
      5034.5000        14.9844        15.0175       1441.557         0.0153       128.1777        73.1454        72.9406       86.81244         0.6995         0.5991        49.0272         2.2657         0.8045       -28.2018      -2.894164              1      0.9517639
      5035.0000        15.0061        15.0608        1527.51         0.0193       130.1755        71.6593        72.0334        85.3954          0.668         0.5697        47.3563         2.2741         0.7907       -28.0484      -2.645684              1      0.9559053
      5035.5000        15.0344        15.0981       1479.082         0.0209        131.291        70.2053        70.6766       83.27585         0.6972         0.5793        45.8132         2.2809         0.8102       -28.8263      -3.905751              1      0.9349042
      5036.0000        15.0608        15.1114       1365.918         0.0152       131.1965        68.8363        69.0874       80.79318         0.7347         0.6338        44.5243         2.2848         0.8306       -29.8312      -5.533523              1      0.9077746
      5036.5000         15.066        15.1095       1342.736         0.0126       130.6128        67.6879        67.8376       78.84082         0.7843         0.6589         43.361         2.2851         0.8074       -29.7893      -5.465654      0.9753366      0.9089057
      5037.0000        15.0607         15.109       1376.725         0.0119        129.989        66.5332        66.8717       77.33205         0.7685         0.6571        42.9948         2.2839         0.7858       -29.2169      -4.538459       0.943235       0.924359
      5037.5000        15.0536        15.1074       1405.654         0.0106       129.3333        65.4932        66.1296       76.17298         0.7324         0.6922         43.351         2.2821         0.7983       -28.6205       -3.57239      0.9185741      0.9404601
      5038.0000        15.0458        15.0919       1408.012          0.009       128.5798        64.7335         65.548       75.26467         0.7249         0.6921        44.5748         2.2783         0.8169       -27.9366      -2.464584      0.8992483      0.9589236
      5038.5000        15.0356         15.051       1361.449         0.0071       127.7683        65.2905        66.0203       76.00311         0.7457         0.6834        46.0198         2.2699         0.8386       -27.4277      -1.640251      0.9149597      0.9726625
      5039.0000        14.9985        14.9888       1309.682         0.0032       126.9678         66.463        67.1061       77.70012          0.772         0.7549        46.3707         2.2601         0.8657       -27.4935      -1.746835      0.9510664      0.9708861
      5039.5000        14.9396        14.9299       1323.385        -0.0029       126.5948        67.8826        68.2909       79.55182         0.8005         0.7089        46.5506          2.248         0.8835       -27.6922      -2.068696      0.9904642      0.9655218
      5040.0000        14.8829        14.8898       1388.955        -0.0123       126.8861        69.3575        69.1697        80.9254          0.824         0.6465        45.9142         2.2402         0.8553       -27.8631      -2.345527              1      0.9609079
      5040.5000        14.8406        14.8539       1410.307         -0.015       127.6812        67.4192        67.7122        78.6485         0.8434         0.6054        45.1932         2.2395          0.838       -27.7231      -2.118751      0.9712446      0.9646875
      5041.0000        14.8262        14.8216       1424.834        -0.0053       128.5002         64.484        65.0382       74.47083           0.86         0.5883        44.5295         2.2467         0.8449       -27.3337      -1.487986      0.8823581      0.9752002
      5041.5000         14.825        14.8062       1448.457         0.0042       129.3149        62.9881        63.1522       71.52441         0.8842          0.585        43.7988          2.258         0.8671       -26.8704     -0.7375159      0.8196684      0.9877081
      5042.0000        14.8322        14.8326       1414.348         0.0141       129.0593        64.5186        63.5492       72.14517         0.8899         0.6054        43.1436         2.2695         0.8735       -26.7465     -0.5368193       0.832876       0.991053
      5042.5000        14.8637        14.8629       1319.652         0.0205       127.5419        68.1832        67.0022       77.54094         0.8395          0.677        42.5958         2.2801         0.8667       -26.8846     -0.7605179      0.9476796      0.9873247
      5043.0000        14.9034        14.9207       1238.168         0.0204       126.2034        70.5491        70.8485       83.55125         0.7926          0.744        42.1916         2.2793         0.8722       -26.9757      -0.908086              1      0.9848652
      5043.5000        14.9449        14.9977       1214.543         0.0095       125.2186        71.6995        71.1736       84.05966         0.8514         0.7411         42.194         2.2754         0.8674       -26.9924     -0.9351354              1      0.9844144
      5044.0000        14.9902        15.0499       1264.887        -0.0069       124.4923        71.2583        70.9948       83.78074         0.7978         0.6991        42.9589           2.27         0.8678       -26.9349     -0.8419966              1      0.9859667
      5044.5000        15.0439         15.097       1311.941        -0.0131       124.0018        70.6989        71.1361       84.00198         0.7658         0.6726        44.0909         2.2642          0.875       -26.8635     -0.7263409              1      0.9878943
      5045.0000        15.1093        15.1366       1290.133        -0.0112       124.1467        71.2032        71.4867       84.55025         0.8006          0.689        45.0178         2.2571         0.8632       -26.8163     -0.6498828              1      0.9891686
      5045.5000        15.1459        15.1567       1220.242        -0.0057       124.7274        70.3311        70.9858       83.76804          0.804         0.6975        45.6359         2.2442         0.8559       -26.8433      -0.693619              1      0.9884397
      5046.0000          15.14        15.1685       1410.811        -0.0027       126.0118        68.1388        68.5309       79.93271         0.7422         0.6695        45.9886         2.2289         0.8557       -27.2108      -1.288909      0.9985683      0.9785182
      5046.5000        15.1275        15.1544       1596.664        -0.0069       127.7223        65.0607        65.2238       74.76582         0.6472         0.5636        46.2528         2.2157         0.8385       -28.1449      -2.801995      0.8886344      0.9533001
      5047.0000        15.1147        15.1244       1575.055        -0.0068       129.5198        62.4804        62.4608       70.44907         0.6118         0.5377        46.6921         2.2106         0.8184       -28.9236       -4.06336      0.7967886      0.9322773
      5047.5000        15.1142        15.1203       1456.193         0.0003       130.9946        61.6127        62.0001       69.72968         0.6647         0.5671        47.2351          2.226         0.8207       -29.3731      -4.791478      0.7814826      0.9201421
