#------------------------------------------------------------------------------
# Created by    : vladimir.rabinovich
# Created on    : 09/19/2023 17:20:01
#------------------------------------------------------------------------------
~Version Information Section
VERS.           2.0     :   CWLS log ASCII Standard - VERSION 2.0
WRAP.           NO      :   One line per depth step
~Well Information Section
#MNEM       .UNIT                                         VALUE :DESCRIPTION
#------------------------------------------------------------------------------
STRT        .FT                                            3470 :START DEPTH
STOP        .FT                                           12708 :STOP DEPTH
STEP        .FT                                             0.5 :STEP      
NULL        .                                           -999.25 :NULL      
COMP        .                                     INEXCO OIL CO :COMPANY   
WELL        .                                     ST TR 00794-L :WELL      
FLD         .                                       BLOCK 794-L :FIELD     
LOC         .                                                   :LOCATION  
CNTY        .                        MUSTANG ISLAND LARGE BLOCK :LOCATION  
STAT        .                                             TEXAS :STATE     
CTRY        .                                     UNITED STATES :COUNTRY   
SRVC        .                                                   :SERVICE COMPANY
DATE        .                             9/13/2023 11:18:55 AM :LOG DATE  
API         .                                    42702301710000 :API NUMBER
UWI         .                                    42702301710000 :UNIQUE WELL ID
XCOORD      .                                  319607.894357718 :SURFACE X 
YCOORD      .                                   10038241.944616 :SURFACE Y 
LAT         .                                        27.6026524 :LATITUDE  
LON         .                                       -97.0775955 :LONGITUDE 
ELEV        .FT                                               0 :ELEVATION VALUE
ELEV_TYPE   .                                                GL :ELEVATION REFERENCE TYPE
~Curve Information Section
#MNEM       .UNIT                                      API CODE :CURVE DESCRIPTION
#------------------------------------------------------------------------------
DEPT        .FT                                                 :DEPTH     
ASFL        .OHMM                                               :          
CILD        .MMHO                                               :          
DT          .US/F                                               :          
GR          .GAPI                                               :          
GR_NORM     .GAPI                                               :GammaRay Normalized
ILD         .OHMM                                               :          
ILM         .OHMM                                               :          
SP          .MV                                                 :          
SP_NORM     .MV                                                 :SP Normalized
VSH_GR      .V/V                                                :Volume of Shale from GR
VSH_SP      .V/V                                                :Volume of Shale from SP
~A        DEPTH           ASFL           CILD             DT             GR        GR_NORM            ILD            ILM             SP        SP_NORM         VSH_GR         VSH_SP
# ...
      9635.0000         0.7296       1674.109       121.8673        70.5922       83.19382         0.5914         0.5658       -46.4103     -0.7962685              1              1
      9635.5000         0.7652       1682.398       120.1837        70.2476       82.59535         0.5821         0.5669       -46.7525      -1.138466              1      0.9952253
      9636.0000         0.7754       1693.197       118.8292        69.9034       81.99757         0.5753         0.5626       -47.0561      -1.442066              1      0.9847564
      9636.5000         0.7686        1706.91       119.1377        69.5461       81.37693         0.5685         0.5553       -47.3596      -1.745567              1      0.9742908
      9637.0000         0.7568       1720.646       120.6671        69.1476       80.68439         0.5617         0.5485       -47.6631      -2.049068              1      0.9638252
      9637.5000         0.7449       1734.383       121.4805        68.7491       79.99187         0.5548         0.5407         -47.58      -1.965969      0.9998271      0.9666907
      9638.0000          0.733       1748.096       121.3353        68.3507       79.29951          0.548         0.5342       -47.4041      -1.790066       0.985096      0.9727563
      9638.5000         0.7235       1761.832       120.0135        67.9528       78.60802         0.5412         0.5307       -47.1915      -1.577469      0.9703833      0.9800873
      9639.0000         0.7162       1775.738       118.5339        67.9128       78.54115         0.5344         0.5266       -46.8311      -1.217068      0.9689607      0.9925149
      9639.5000         0.7088       1790.445       117.6266        68.7872       80.07008         0.5382         0.5308       -46.4702     -0.8561668              1              1
      9640.0000         0.7046       1805.154       117.9716        69.6628       81.60115         0.5431         0.5365       -46.1097     -0.4956665              1              1
      9640.5000         0.7027       1785.738       118.3218        70.5371       83.12993          0.548         0.5425       -45.7488     -0.1347656              1              1
      9641.0000         0.7009       1750.547       118.3981        70.5831       83.21312         0.5528         0.5492        -45.551     0.06303406              1              1
      9641.5000          0.699       1715.355       118.4241        69.3762       81.10977         0.5577         0.5592       -45.7606     -0.1465683              1              1
      9642.0000         0.7022       1680.117       118.5055        68.1693       79.00639         0.5626         0.5714       -45.9704      -0.356369      0.9788592              1
      9642.5000         0.7062       1636.625       119.5374          66.96       76.89883         0.5675         0.5837       -46.1547     -0.5406685      0.9340176              1
      9643.0000         0.7102       1593.135       121.2235        65.6925       74.68969         0.5743         0.5964       -46.1564      -0.542366      0.8870147              1
      9643.5000         0.7141       1549.643       122.3641        62.7998       69.64423         0.5897         0.6103       -46.1581     -0.5440674      0.7796646              1
      9644.0000         0.7188       1506.152       122.1394        60.3207       65.32063         0.6051         0.6269       -46.1599     -0.5458679      0.6876729              1
      9644.5000         0.7343       1469.748       121.1021        58.4293       62.02263         0.6205          0.645       -46.1616     -0.5475655      0.6175027              1
      9645.0000         0.7499       1433.441       119.3989        57.2997        60.0542         0.6359         0.6639       -46.1651     -0.5510674      0.5756214              1
      9645.5000         0.7653       1397.084       117.5864        57.3844       60.20494         0.6514         0.6859       -46.1758     -0.5617676      0.5788286              1
      9646.0000         0.7779       1369.418       116.3036        59.0146       63.05291         0.6668         0.7051       -46.1865     -0.5724678      0.6394237              1
      9646.5000         0.7904       1342.721       115.6829        60.6472       65.90508         0.6858         0.7257       -46.1972      -0.583168      0.7001082              1
      9647.0000         0.8028       1316.023       115.2067        62.1033       68.44923          0.705         0.7465       -46.2079     -0.5938683       0.754239              1
      9647.5000         0.8136       1289.377       114.9138        63.4722       70.84119         0.7242         0.7684       -46.3713      -0.757267      0.8051318              1
      9648.0000         0.8244       1259.428       115.3275        64.8121       73.18254         0.7434         0.7903       -46.9207      -1.306667      0.8549477      0.9894252
      9648.5000         0.8328       1229.381       115.5767        65.6429       74.63538         0.7626         0.8123        -48.725      -3.110966      0.8858593      0.9272081
      9649.0000         0.8405       1199.385        115.873        66.4738       76.08844         0.7808         0.8342       -49.4312      -3.817165      0.9167753      0.9028563
      9649.5000         0.8499       1162.154       116.4105        66.6981       76.48281         0.7921         0.8523       -49.9918      -4.377766      0.9251662      0.8835253
      9650.0000         0.8615       1123.711       117.1345        66.1194        75.4758         0.8034         0.8752       -50.2408      -4.626766      0.9037404      0.8749391
      9650.5000         0.8732       1093.715       118.1465        65.3213       74.08587         0.8147         0.8965       -50.4903      -4.876266      0.8741674      0.8663356
      9651.0000          0.886         1070.9        118.715        64.5231       72.69579          0.826         0.9159        -50.756      -5.141968      0.8445913      0.8571735
      9651.5000         0.8993       1048.088        118.452         63.725       71.30584         0.8374         0.9345       -51.1418      -5.527767      0.8150179      0.8438701
      9652.0000         0.9147        1029.23       117.2512         62.928       69.91785         0.8481         0.9504       -51.5276      -5.913567      0.7854863      0.8305666
      9652.5000         0.9331       1016.489       116.1105        62.2024       68.65444         0.8518         0.9596        -51.914      -6.299969      0.7586051      0.8172424
      9653.0000         0.9484       1023.066       116.0531        61.4768       67.39104         0.8554         0.9647       -52.3088      -6.694767      0.7317244      0.8036287
      9653.5000         0.9116       1034.957       116.4154        60.8503       66.30061         0.8591         0.9689       -52.7043      -7.090267      0.7085235      0.7899908
      9654.0000         0.8797       1047.602       117.6083        61.4357       67.32519         0.8627         0.9714       -53.0314      -7.417366      0.7303231      0.7787115
      9654.5000         0.8616        1069.93       118.2373        62.0198        68.3475         0.8606         0.9701       -52.8757      -7.261669      0.7520744      0.7840804
      9655.0000         0.8491       1092.258       118.2798        62.6051        69.3719         0.8494         0.9593       -52.7203      -7.106266      0.7738703      0.7894391
      9655.5000         0.8439       1114.537       117.9108        62.8663       69.83068         0.8371          0.939       -52.3107      -6.696667      0.7836315      0.8035632
      9656.0000         0.8408       1143.225       116.9159        62.1613       68.60325         0.8222         0.9107       -51.8583      -6.244267      0.7575159      0.8191632
      9656.5000         0.8383       1174.678       115.9355        61.4562       67.37563         0.8073         0.8793       -51.4061      -5.792068      0.7313963      0.8347563
      9657.0000         0.8337       1206.131       115.2626        60.7524       66.15027         0.7936         0.8493       -50.9538      -5.339767      0.7053249      0.8503528
