#------------------------------------------------------------------------------
# Created by    : vladimir.rabinovich
# Created on    : 09/19/2023 17:20:34
#------------------------------------------------------------------------------
~Version Information Section
VERS.           2.0     :   CWLS log ASCII Standard - VERSION 2.0
WRAP.           NO      :   One line per depth step
~Well Information Section
#MNEM       .UNIT                                         VALUE :DESCRIPTION
#------------------------------------------------------------------------------
STRT        .FT                                             495 :START DEPTH
STOP        .FT                                            9652 :STOP DEPTH
STEP        .FT                                             0.5 :STEP      
NULL        .                                           -999.25 :NULL      
COMP        .                                      SHELL OIL CO :COMPANY   
WELL        .                                OCS 00714 ST00BP00 :WELL      
FLD         .                                FEDERAL BLOCK 0288 :FIELD     
LOC         .                                                   :LOCATION  
CNTY        .                             GALVESTON LARGE BLOCK :LOCATION  
STAT        .                                             TEXAS :STATE     
CTRY        .                                     UNITED STATES :COUNTRY   
SRVC        .                                                   :SERVICE COMPANY
DATE        .                             9/13/2023 11:19:25 AM :LOG DATE  
API         .                                    42706000490000 :API NUMBER
UWI         .                                    42706000490000 :UNIQUE WELL ID
XCOORD      .                                  1093419.85109126 :SURFACE X 
YCOORD      .                                  10468907.9519753 :SURFACE Y 
LAT         .                                         28.836806 :LATITUDE  
LON         .                                        -94.708909 :LONGITUDE 
ELEV        .FT                                              83 :ELEVATION VALUE
ELEV_TYPE   .                                                KB :ELEVATION REFERENCE TYPE
~Curve Information Section
#MNEM       .UNIT                                      API CODE :CURVE DESCRIPTION
#------------------------------------------------------------------------------
DEPT        .FT                                                 :DEPTH     
ASN         .OHMM                                               :          
ASN_1       .OHMM                                               :          
CALI        .IN                                                 :          
CALI_1      .IN                                                 :          
DRHO        .G/C3                                               :          
DT          .US/F                                               :          
ILD         .OHMM                                               :          
LAT         .OHMM                                               :          
LN          .OHMM                                               :          
RHOB        .G/C3                                               :          
SP          .MV                                                 :          
SP_1        .MV                                                 :          
SP_NORM     .MV                                                 :SP Normalized
VSH_SP      .V/V                                                :Volume of Shale from SP
~A        DEPTH            ASN          ASN_1           CALI         CALI_1           DRHO             DT            ILD            LAT             LN           RHOB             SP           SP_1        SP_NORM         VSH_SP
# ...
      9531.0000         0.8666        -999.25        -999.25         7.2352        -999.25       111.0577         0.6957        -999.25        -999.25        -999.25        -999.25       -44.2968       -6.51902      0.8386064
      9531.5000         0.8003        -999.25        -999.25         7.1975        -999.25       108.3718         0.6874        -999.25        -999.25        -999.25        -999.25       -43.8088      -6.031021      0.8560349
      9532.0000         0.7468        -999.25        -999.25         7.2077        -999.25       112.6511         0.6816        -999.25        -999.25        -999.25        -999.25       -43.3207      -5.542923       0.873467
      9532.5000         0.7518        -999.25        -999.25         7.2369        -999.25       112.8784         0.6758        -999.25        -999.25        -999.25        -999.25       -43.2359      -5.458122      0.8764957
      9533.0000         0.8203        -999.25        -999.25         7.3114        -999.25       106.5209         0.6804        -999.25        -999.25        -999.25        -999.25       -43.3596      -5.581821      0.8720778
      9533.5000         0.8432        -999.25        -999.25         7.3744        -999.25       105.1683         0.6866        -999.25        -999.25        -999.25        -999.25       -43.7097      -5.931923      0.8595742
      9534.0000         0.8233        -999.25        -999.25         7.3052        -999.25       106.6738         0.6928        -999.25        -999.25        -999.25        -999.25       -44.0958       -6.31802       0.845785
      9534.5000         0.8143        -999.25        -999.25         7.2374        -999.25       108.9379         0.6991        -999.25        -999.25        -999.25        -999.25       -43.7997      -6.021923      0.8563599
      9535.0000         0.8184        -999.25        -999.25         7.3121        -999.25       110.1069         0.7054        -999.25        -999.25        -999.25        -999.25       -43.3922      -5.614422      0.8709135
      9535.5000         0.8275        -999.25        -999.25         7.3374        -999.25       107.1014         0.7117        -999.25        -999.25        -999.25        -999.25       -43.3742       -5.59642      0.8715564
      9536.0000         0.8287        -999.25        -999.25         7.3228        -999.25       105.9506         0.7145        -999.25        -999.25        -999.25        -999.25        -43.686      -5.908222      0.8604206
      9536.5000         0.8184        -999.25        -999.25         7.2769        -999.25       109.6715         0.7162        -999.25        -999.25        -999.25        -999.25       -44.2174      -6.439621      0.8414421
      9537.0000         0.8161        -999.25        -999.25         7.2543        -999.25       112.1627         0.7174        -999.25        -999.25        -999.25        -999.25       -43.8375      -6.059723      0.8550099
      9537.5000         0.8174        -999.25        -999.25         7.2436        -999.25       111.7847         0.7141        -999.25        -999.25        -999.25        -999.25         -43.64      -5.862221      0.8620635
      9538.0000         0.8164        -999.25        -999.25         7.2439        -999.25       109.2889         0.7107        -999.25        -999.25        -999.25        -999.25       -43.4846      -5.706821      0.8676135
      9538.5000         0.8141        -999.25        -999.25          7.255        -999.25        110.538         0.7079        -999.25        -999.25        -999.25        -999.25       -43.1057      -5.327923      0.8811456
      9539.0000         0.8185        -999.25        -999.25         7.2661        -999.25       111.1567         0.7071        -999.25        -999.25        -999.25        -999.25       -42.8049      -5.027122      0.8918885
      9539.5000         0.8292        -999.25        -999.25         7.2893        -999.25       108.9558         0.7064        -999.25        -999.25        -999.25        -999.25       -42.5916       -4.81382      0.8995064
      9540.0000         0.8358        -999.25        -999.25         7.3126        -999.25       105.3685         0.7057        -999.25        -999.25        -999.25        -999.25       -42.6796      -4.901821      0.8963636
      9540.5000         0.8301        -999.25        -999.25         7.2638        -999.25       101.0229         0.7117        -999.25        -999.25        -999.25        -999.25       -43.2037      -5.425922      0.8776456
      9541.0000         0.8205        -999.25        -999.25         7.2047        -999.25       105.4226         0.7187        -999.25        -999.25        -999.25        -999.25       -43.6888      -5.911022      0.8603206
      9541.5000         0.8336        -999.25        -999.25          7.137        -999.25       108.5775         0.7256        -999.25        -999.25        -999.25        -999.25       -44.1059      -6.328121      0.8454242
      9542.0000         0.8805        -999.25        -999.25         7.0691        -999.25       104.4099          0.732        -999.25        -999.25        -999.25        -999.25       -44.0793      -6.301521      0.8463742
      9542.5000         0.8808        -999.25        -999.25         6.9575        -999.25       105.5328         0.7379        -999.25        -999.25        -999.25        -999.25       -43.7693       -5.99152      0.8574457
      9543.0000         0.8627        -999.25        -999.25         6.8388        -999.25       106.3318         0.7438        -999.25        -999.25        -999.25        -999.25         -43.22      -5.442223      0.8770635
      9543.5000         0.8361        -999.25        -999.25         6.8238        -999.25       109.0684         0.7445        -999.25        -999.25        -999.25        -999.25       -42.9583      -5.180523      0.8864099
      9544.0000         0.8288        -999.25        -999.25         6.9494        -999.25       112.3406         0.7364        -999.25        -999.25        -999.25        -999.25       -42.9233      -5.145523      0.8876599
      9544.5000         0.8364        -999.25        -999.25         7.1706        -999.25       112.9678         0.7283        -999.25        -999.25        -999.25        -999.25       -43.3832      -5.605423      0.8712349
      9545.0000         0.8075        -999.25        -999.25         7.1907        -999.25       111.3188         0.7221        -999.25        -999.25        -999.25        -999.25       -43.9185       -6.14072      0.8521171
      9545.5000         0.7947        -999.25        -999.25         7.1738        -999.25       108.7983         0.7188        -999.25        -999.25        -999.25        -999.25       -43.3911      -5.613323      0.8709527
      9546.0000         0.7901        -999.25        -999.25         7.2916        -999.25       107.6595         0.7154        -999.25        -999.25        -999.25        -999.25       -43.4682      -5.690422      0.8681992
      9546.5000         0.7954        -999.25        -999.25         7.3509        -999.25       104.6935         0.7166        -999.25        -999.25        -999.25        -999.25         -43.69       -5.91222      0.8602778
      9547.0000         0.8247        -999.25        -999.25         7.3153        -999.25       100.8722         0.7227        -999.25        -999.25        -999.25        -999.25       -43.2133       -5.43552      0.8773028
      9547.5000         0.8661        -999.25        -999.25         7.2642        -999.25        99.9225         0.7289        -999.25        -999.25        -999.25        -999.25       -42.7084      -4.930622      0.8953349
      9548.0000         0.8978        -999.25        -999.25         7.2581        -999.25       102.9291         0.7403        -999.25        -999.25        -999.25        -999.25       -42.7371       -4.95932        0.89431
      9548.5000         0.9012        -999.25        -999.25         7.2537        -999.25       104.8167         0.7563        -999.25        -999.25        -999.25        -999.25       -43.1918      -5.414021      0.8780707
