#------------------------------------------------------------------------------
# Created by    : vladimir.rabinovich
# Created on    : 09/19/2023 17:22:54
#------------------------------------------------------------------------------
~Version Information Section
VERS.           2.0     :   CWLS log ASCII Standard - VERSION 2.0
WRAP.           NO      :   One line per depth step
~Well Information Section
#MNEM       .UNIT                                         VALUE :DESCRIPTION
#------------------------------------------------------------------------------
STRT        .FT                                            1705 :START DEPTH
STOP        .FT                                           10298 :STOP DEPTH
STEP        .FT                                             0.5 :STEP      
NULL        .                                           -999.25 :NULL      
COMP        .                            STANOLIND OIL & GAS CO :COMPANY   
WELL        .                                       ST TR 00219 :WELL      
FLD         .                                           WILDCAT :FIELD     
LOC         .                                                   :LOCATION  
CNTY        .                             GALVESTON LARGE BLOCK :LOCATION  
STAT        .                                             TEXAS :STATE     
CTRY        .                                     UNITED STATES :COUNTRY   
SRVC        .                                                   :SERVICE COMPANY
DATE        .                             9/13/2023 11:19:42 AM :LOG DATE  
API         .                                    42706000170000 :API NUMBER
UWI         .                                    42706000170000 :UNIQUE WELL ID
XCOORD      .                                  1024804.26554262 :SURFACE X 
YCOORD      .                                  10549089.4715911 :SURFACE Y 
LAT         .                                        29.0543948 :LATITUDE  
LON         .                                       -94.9272588 :LONGITUDE 
ELEV        .FT                                              60 :ELEVATION VALUE
ELEV_TYPE   .                                                GL :ELEVATION REFERENCE TYPE
~Curve Information Section
#MNEM       .UNIT                                      API CODE :CURVE DESCRIPTION
#------------------------------------------------------------------------------
DEPT        .FT                                                 :DEPTH     
LAT         .OHMM                                               :          
LN          .OHMM                                               :          
SN          .OHMM                                               :          
SP          .MV                                                 :          
SP_NORM     .MV                                                 :SP Normalized
VSH_SP      .V/V                                                :Volume of Shale from SP
~A        DEPTH            LAT             LN             SN             SP        SP_NORM         VSH_SP
# ...
      2845.0000         0.2275         0.2756         0.5484      -157.1655      -58.10423     0.03268577
      2845.5000         0.2299         0.2768         0.5556      -157.5334      -58.46882     0.02639968
      2846.0000         0.2323         0.2781         0.5577      -157.7744       -58.7065     0.02230177
      2846.5000         0.2347         0.2793         0.5576      -158.0391      -58.96788     0.01779517
      2847.0000         0.2371         0.2805         0.5576      -158.3677      -59.29318     0.01218651
      2847.5000         0.2387         0.2818          0.563      -158.6733      -59.59545    0.006974977
      2848.0000         0.2387          0.283         0.5745      -158.5293      -59.44814    0.009514776
      2848.5000         0.2388         0.2842         0.5861      -158.3728      -59.28833     0.01227017
      2849.0000          0.239         0.2855         0.5976       -157.657      -58.56921     0.02466873
      2849.5000         0.2406         0.2867         0.6092      -156.9412       -57.8501     0.03706728
      2850.0000         0.2422          0.288         0.6279      -156.2253      -57.13088     0.04946755
      2850.5000         0.2438         0.2892          0.656       -155.615      -56.51728     0.06004689
      2851.0000         0.2454         0.2904         0.6841      -155.0085      -55.90746     0.07056098
      2851.5000         0.2471         0.2917         0.7123      -154.3225      -55.21814     0.08244587
      2852.0000         0.2487         0.2929         0.7582       -153.739      -54.63133     0.09256323
      2852.5000         0.2503         0.2941         0.8087       -153.811      -54.70002     0.09137897
      2853.0000         0.2519         0.2954         0.8593      -153.7219       -54.6076     0.09297246
      2853.5000         0.2535         0.2966         0.8773      -153.2002      -54.08259      0.1020243
      2854.0000         0.2587         0.2979         0.8845       -152.623      -53.50208      0.1120332
      2854.5000         0.2648         0.2991         0.8729      -150.4197      -51.29546      0.1500783
      2855.0000         0.2709          0.298         0.8535      -147.9487      -48.82114      0.1927389
      2855.5000          0.277         0.2934         0.8269      -145.0339      -45.90304      0.2430511
      2856.0000         0.2831         0.2888         0.8003      -142.1182      -42.98402       0.293379
      2856.5000         0.2819         0.2853         0.8446      -136.1699      -37.03241      0.3959929
      2857.0000         0.2803         0.2875         0.8952      -131.4993      -32.35849      0.4765778
      2857.5000         0.2787         0.2897         0.9457      -128.6653      -29.52118      0.5254969
      2858.0000         0.2771         0.2919          1.008      -125.9332      -26.78576      0.5726593
      2858.5000         0.2878         0.2946         1.0718      -122.9648      -23.81405      0.6238957
      2859.0000         0.3105         0.2974         1.1307      -131.0476      -31.89354      0.4845941
      2859.5000         0.3212          0.307         1.1374      -132.8848      -33.72742      0.4529756
      2860.0000         0.3303         0.3305         1.0198      -131.0613       -31.9006      0.4844723
      2860.5000         0.3394         0.3539         0.9044      -126.8237      -27.65969      0.5575916
      2861.0000         0.3202         0.3774         0.8342      -121.2156      -22.04828        0.65434
      2861.5000         0.2859         0.4009         0.7641      -115.5366      -16.36597      0.7523109
      2862.0000         0.2516         0.4244         0.7378      -111.1121      -11.93815      0.8286526
      2862.5000         0.2485         0.4478         0.7221      -108.3661      -9.188835      0.8760546
      2863.0000         0.2786         0.4713         0.7148      -106.3397      -7.159119      0.9110497
      2863.5000         0.2875         0.4673         0.7108      -104.8304      -5.646507      0.9371292
      2864.0000         0.2965         0.4588         0.7184      -104.8522      -5.665001      0.9368103
      2864.5000         0.3054         0.4508          0.726      -105.1658      -5.975281      0.9314607
      2865.0000         0.3144         0.4441         0.7336      -104.2922      -5.098366      0.9465799
      2865.5000         0.3233          0.438         0.7407      -103.2214      -4.024246      0.9650992
      2866.0000         0.3323         0.4508         0.7473      -101.6096      -2.409134       0.992946
      2866.5000         0.3412         0.4636         0.7559       -99.9988     -0.7950287              1
      2867.0000         0.3501         0.4764          0.774       -98.6942      0.5128937              1
      2867.5000         0.3591         0.4892         0.7921       -97.3898       1.820602              1
      2868.0000         0.3635         0.5021         0.8329       -99.1544     0.05931091              1
      2868.5000         0.3583         0.5149         0.8811      -104.0123      -4.795265      0.9518058
      2869.0000         0.3532         0.5043         0.9442      -109.1267      -9.906357      0.8636835
      2869.5000         0.3551         0.4869         1.0082      -111.2535      -12.02984      0.8270717
      2870.0000         0.3642         0.4696         1.0713      -113.3551      -14.12813      0.7908943
      2870.5000         0.3734         0.4522         1.0995      -115.3793      -16.14902      0.7560514
      2871.0000         0.3825         0.4514         1.0903      -114.9277      -15.69409       0.763895
      2871.5000         0.3916         0.4513         1.0611      -113.9082      -14.67129      0.7815295
      2872.0000         0.4008         0.4513         1.0205      -112.8888      -13.64857      0.7991626
      2872.5000         0.4099         0.4707         0.9562      -111.5352      -12.29166      0.8225576
      2873.0000         0.4194         0.4971         0.8907      -109.3126      -10.06574      0.8609354
      2873.5000           0.43         0.5235         0.8394      -106.3215      -7.071327      0.9125633
      2874.0000         0.4406         0.5499         0.8187      -104.4171      -5.163612       0.945455
      2874.5000         0.4513         0.5763         0.8096      -102.5139      -3.257103      0.9783258
      2875.0000         0.4619         0.6027         0.8071      -101.8513      -2.591187      0.9898071
      2875.5000          0.475         0.6291         0.8242      -101.7858      -2.522369      0.9909936
      2876.0000         0.4921         0.6439         0.8413      -102.2202      -2.953453      0.9835612
      2876.5000         0.5092         0.6256         0.8585      -103.0105       -3.74044      0.9699924
      2877.0000         0.5263         0.6073          0.879      -104.4034      -5.130028       0.946034
      2877.5000         0.5561         0.5889         0.9044      -106.0159      -6.739212      0.9182894
      2878.0000         0.5868         0.5706         0.9299      -107.5149      -8.234901      0.8925017
      2878.5000          0.617         0.5523         0.9558      -108.5674      -9.284081      0.8744124
      2879.0000          0.646          0.534         0.9329      -109.8839      -10.59727      0.8517711
      2879.5000          0.665         0.5344         0.9094      -109.4745      -10.18456      0.8588868
      2880.0000         0.6559         0.5386         0.8855      -108.5458      -9.252541      0.8749562
      2880.5000         0.6329         0.5428         0.8599      -108.2837      -8.987129      0.8795323
      2881.0000         0.6024         0.5376         0.8374      -108.2322       -8.93232      0.8804772
      2881.5000          0.581         0.5185         0.8307      -108.1807      -8.877502      0.8814224
      2882.0000         0.5876         0.4994          0.824      -108.1293      -8.822792      0.8823656
      2882.5000         0.5949         0.4803         0.8162      -108.0778      -8.767967      0.8833109
