#------------------------------------------------------------------------------
# Created by    : vladimir.rabinovich
# Created on    : 09/19/2023 17:21:35
#------------------------------------------------------------------------------
~Version Information Section
VERS.           2.0     :   CWLS log ASCII Standard - VERSION 2.0
WRAP.           NO      :   One line per depth step
~Well Information Section
#MNEM       .UNIT                                         VALUE :DESCRIPTION
#------------------------------------------------------------------------------
STRT        .FT                                            4200 :START DEPTH
STOP        .FT                                            8641 :STOP DEPTH
STEP        .FT                                             0.5 :STEP      
NULL        .                                           -999.25 :NULL      
COMP        .                                       HUNT OIL CO :COMPANY   
WELL        .                               OCS G25526 ST00BP00 :WELL      
FLD         .                                           WILDCAT :FIELD     
LOC         .                                                   :LOCATION  
CNTY        .                             GALVESTON LARGE BLOCK :LOCATION  
STAT        .                                             TEXAS :STATE     
CTRY        .                                     UNITED STATES :COUNTRY   
SRVC        .                                                   :SERVICE COMPANY
DATE        .                             9/13/2023 11:19:33 AM :LOG DATE  
API         .                                    42706404520000 :API NUMBER
UWI         .                                    42706404520000 :UNIQUE WELL ID
XCOORD      .                                  1090250.84236946 :SURFACE X 
YCOORD      .                                  10532258.5226608 :SURFACE Y 
LAT         .                                         29.010895 :LATITUDE  
LON         .                                        -94.721682 :LONGITUDE 
ELEV        .FT                                             108 :ELEVATION VALUE
ELEV_TYPE   .                                                KB :ELEVATION REFERENCE TYPE
~Curve Information Section
#MNEM       .UNIT                                      API CODE :CURVE DESCRIPTION
#------------------------------------------------------------------------------
DEPT        .FT                                                 :DEPTH     
CALI        .IN                                                 :          
DCAL        .IN                                                 :          
DFL         .OHMM                                               :          
DLOD        .LB                                                 :          
DPHI        .DEC                                                :          
DRHO        .G/C3                                               :          
GR          .GAPI                                               :          
GR_NORM     .GAPI                                               :GammaRay Normalized
HDCN        .MMHO                                               :          
HO24        .OHMM                                               :          
HO30        .OHMM                                               :          
HO40        .OHMM                                               :          
HO60        .OHMM                                               :          
HO90        .OHMM                                               :          
HT24        .OHMM                                               :          
HT30        .OHMM                                               :          
HT40        .OHMM                                               :          
HT60        .OHMM                                               :          
HT90        .OHMM                                               :          
NPHI        .DEC                                                :          
RHOB        .G/C3                                               :          
RWA         .OHMM                                               :          
SP_NORM     .MV                                                 :SP Normalized
SPA         .MV                                                 :          
TENS        .LBS                                                :          
VSH_GR      .V/V                                                :Volume of Shale from GR
VSH_SP      .V/V                                                :Volume of Shale from SP
~A        DEPTH           CALI           DCAL            DFL           DLOD           DPHI           DRHO             GR        GR_NORM           HDCN           HO24           HO30           HO40           HO60           HO90           HT24           HT30           HT40           HT60           HT90           NPHI           RHOB            RWA        SP_NORM            SPA           TENS         VSH_GR         VSH_SP
# ...
      4790.0000        13.1611         0.9111         0.3063       1432.714         0.3454         -0.027        50.4038       46.97313       3809.912         0.2754         0.2722         0.2698         0.2668         0.2631         0.2828         0.2774         0.2734         0.2684         0.2625         0.3569         2.0801         0.0547      -37.12982       132.8358       2893.404      0.2973006      0.3436573
      4790.5000        13.2743         1.0243         0.2587       1438.829         0.3473        -0.0247        45.2252       40.94419       4325.563         0.2553         0.2441         0.2361         0.2265         0.2157         0.2684          0.258         0.2505         0.2414         0.2312         0.3009          2.077         0.0389      -41.51139       129.9308       2889.821      0.1690253      0.2593963
      4791.0000        13.3447         1.0947         0.2806       1438.829         0.3394        -0.0218        44.3439       39.91789       4369.357         0.2658         0.2522         0.2426         0.2313         0.2188          0.272         0.2597          0.251         0.2405         0.2289          0.238         2.0901          0.028      -43.84128       128.3866       2879.073      0.1471892      0.2145908
      4791.5000        13.3637         1.1137         0.4437       1432.714         0.3319         -0.021        46.9566       42.95911           4032         0.2982         0.2858         0.2769         0.2662         0.2542         0.2854          0.275         0.2675         0.2584          0.248          0.196         2.1024         0.0226      -44.80642       127.7476       2873.272       0.211896      0.1960304
      4792.0000        13.3787         1.1287         0.5383       1426.599         0.3222        -0.0217        48.0414       44.22163       3718.731         0.3164         0.3059         0.2981         0.2887          0.278          0.301         0.2923         0.2858          0.278         0.2689          0.213         2.1184         0.0234      -44.43345       127.9961       2881.291      0.2387581      0.2032028
      4792.5000        13.4078         1.1578         0.4281       1438.829         0.3167        -0.0189        48.4064       44.64621       3551.035          0.309         0.3039            0.3         0.2951         0.2894         0.3071         0.3003         0.2952         0.2889         0.2816         0.2773         2.1274         0.0325      -42.85632       129.0433       2898.864      0.2477917      0.2335323
      4793.0000        13.4089         1.1589         0.3703       1475.518         0.3272        -0.0209        47.4625       43.54705       3549.384         0.3048         0.3023         0.3004          0.298         0.2951          0.308          0.301         0.2958         0.2893         0.2817         0.3325         2.1102         0.0458      -41.78757       129.7533       2912.342      0.2244054      0.2540852
      4793.5000        13.7072         1.4572          0.357       1481.633         0.3522        -0.0375        44.8289       40.48085       3688.417         0.3094         0.3009         0.2946         0.2869          0.278         0.3121         0.3007         0.2924         0.2824         0.2711         0.3472         2.0689         0.0491      -42.19063       129.4871       2915.242      0.1591669      0.2463341
      4794.0000        13.7679         1.5179         0.3508       1457.173         0.3652        -0.0504        41.5799       36.69822       3853.145         0.3176          0.299          0.286         0.2708         0.2543         0.3222         0.3038          0.291         0.2759         0.2595         0.3499         2.0475         0.0467      -43.04872       128.9191       2907.906     0.07868551      0.2298324
      4794.5000        13.6269         1.3769         0.3183       1451.058         0.3646        -0.0574        42.2005       37.42035       3834.271         0.3316         0.3075          0.291         0.2722         0.2524         0.3387         0.3152          0.299         0.2805         0.2608         0.3575         2.0485          0.046      -43.51435       128.6114       2901.935     0.09405006      0.2208779
      4795.0000        13.6525         1.4025         0.3278       1446.982         0.3518        -0.0457        42.7272       38.03316        3542.05         0.3492          0.327         0.3117         0.2939         0.2748         0.3666         0.3411         0.3236         0.3036         0.2823         0.3596         2.0696         0.0466      -43.71222       128.4813       2896.646      0.1070886      0.2170727
      4795.5000        13.9812         1.7312         0.3952       1414.369         0.3413         -0.029         42.675       37.97207       3054.327         0.4081         0.3835         0.3664         0.3464         0.3249         0.4138         0.3882         0.3704         0.3497         0.3274         0.3619         2.0869          0.052      -43.89244       128.3629       2886.579      0.1057888      0.2136068
      4796.0000        14.4229         2.1729         0.5325       1408.254         0.3344        -0.0121        43.1027       38.46964       2539.831         0.4798         0.4644         0.4531         0.4393         0.4236         0.4735         0.4507         0.4344         0.4151         0.3937         0.3656         2.0983         0.0617      -44.17955       128.1736       2882.826      0.1163754      0.2080855
      4796.5000        13.6257         1.3757         0.7292       1396.025          0.329        -0.0007        45.0114       40.69129       2236.137         0.5419         0.5337         0.5274         0.5196         0.5103         0.5298         0.5064         0.4896         0.4696         0.4472         0.3698         2.1072         0.0676      -44.32405       128.0789       2886.238      0.1636445      0.2053067
      4797.0000        12.9334         0.6834         0.7536       1420.484         0.3238         0.0018        47.9371       44.09688       2225.354         0.5791         0.5519         0.5325         0.5094         0.4838         0.5537         0.5233         0.5019         0.4768         0.4494         0.3861         2.1158         0.0689      -44.51302       127.9547       2892.722      0.2361039      0.2016727
      4797.5000         12.556          0.306         0.6005       1420.484         0.3169         0.0015         48.881       45.19538       2384.029         0.5248         0.4955         0.4748         0.4507         0.4243          0.539         0.5031         0.4784         0.4499         0.4195          0.415         2.1271         0.0704      -44.51475       127.9547       2896.304      0.2594762      0.2016395
      4798.0000        12.6913         0.4413         0.4715       1408.254         0.3218        -0.0096        48.5837       44.84896       2542.558         0.4908         0.4607         0.4397         0.4154         0.3891         0.5129         0.4766         0.4518         0.4235         0.3933          0.437          2.119         0.0745      -44.63238       127.8778       2893.574      0.2521055      0.1993773
      4798.5000        12.7984         0.5484         0.4299       1416.408         0.3355        -0.0277        47.1548       43.18518       2637.205         0.4947         0.4612         0.4382         0.4117         0.3835          0.485         0.4534         0.4315         0.4063         0.3792         0.4471         2.0964         0.0792      -45.11582       127.5583       2891.357       0.216706      0.1900803
      4799.0000         12.923          0.673         0.4305       1412.331         0.3429        -0.0359        47.2174       43.25773       2715.857         0.4602         0.4351         0.4174         0.3967          0.374          0.449         0.4256         0.4091         0.3896         0.3682         0.4486         2.0842         0.0772      -45.88463       127.0495       2890.333      0.2182495      0.1752955
      4799.5000        13.1314         0.8814         0.4282       1396.025         0.3376        -0.0228        47.2956       43.34843       2806.321         0.3986         0.3861         0.3768         0.3656         0.3528           0.41         0.3951         0.3843         0.3712         0.3563         0.4404          2.093         0.0688      -46.18081       126.8542       2886.921      0.2201793      0.1695998
