#------------------------------------------------------------------------------
# Created by    : vladimir.rabinovich
# Created on    : 09/19/2023 17:22:56
#------------------------------------------------------------------------------
~Version Information Section
VERS.           2.0     :   CWLS log ASCII Standard - VERSION 2.0
WRAP.           NO      :   One line per depth step
~Well Information Section
#MNEM       .UNIT                                         VALUE :DESCRIPTION
#------------------------------------------------------------------------------
STRT        .FT                                             671 :START DEPTH
STOP        .FT                                           10000 :STOP DEPTH
STEP        .FT                                             0.5 :STEP      
NULL        .                                           -999.25 :NULL      
COMP        .                                    MOBIL OIL CORP :COMPANY   
WELL        .                                     ST TR 00565-L :WELL      
FLD         .                                           WILDCAT :FIELD     
LOC         .                                                   :LOCATION  
CNTY        .                      MATAGORDA ISLAND LARGE BLOCK :LOCATION  
STAT        .                                             TEXAS :STATE     
CTRY        .                                     UNITED STATES :COUNTRY   
SRVC        .                                                   :SERVICE COMPANY
DATE        .                             9/13/2023 11:12:05 AM :LOG DATE  
API         .                                    42703000150000 :API NUMBER
UWI         .                                    42703000150000 :UNIQUE WELL ID
XCOORD      .                                  584511.465629887 :SURFACE X 
YCOORD      .                                  10263641.5286434 :SURFACE Y 
LAT         .                                         28.243485 :LATITUDE  
LON         .                                       -96.2796592 :LONGITUDE 
ELEV        .FT                                              11 :ELEVATION VALUE
ELEV_TYPE   .                                                KB :ELEVATION REFERENCE TYPE
~Curve Information Section
#MNEM       .UNIT                                      API CODE :CURVE DESCRIPTION
#------------------------------------------------------------------------------
DEPT        .FT                                                 :DEPTH     
SP          .MV                                                 :          
SP_NORM     .MV                                                 :SP Normalized
VSH_SP      .V/V                                                :Volume of Shale from SP
~A        DEPTH             SP        SP_NORM         VSH_SP
# ...
      3773.0000        15.4075        -6.0949      0.8219609
      3773.5000          22.32       -13.0111      0.5212565
      3774.0000        25.7837       -16.4786      0.3704957
      3774.5000        28.0628       -18.7614      0.2712435
      3775.0000        32.8568       -23.5592     0.06264347
      3775.5000        34.5614       -25.2675              0
      3776.0000        35.0372        -25.747              0
      3776.5000        35.3621       -26.0757              0
      3777.0000        35.6139       -26.3312              0
      3777.5000        35.6136       -26.3347              0
      3778.0000        35.4415       -26.1663              0
      3778.5000        35.3868       -26.1153              0
      3779.0000        35.4786       -26.2109              0
      3779.5000        35.6599       -26.3959              0
      3780.0000        35.8411       -26.5809              0
      3780.5000        35.9988       -26.7423              0
      3781.0000        36.1412       -26.8884              0
      3781.5000        36.2604       -27.0114              0
      3782.0000        36.2796       -27.0343              0
      3782.5000        36.2988       -27.0573              0
      3783.0000        36.1097       -26.8719              0
      3783.5000        35.9097       -26.6756              0
      3784.0000        35.7565       -26.5262              0
      3784.5000        35.7381       -26.5115              0
      3785.0000        35.6348        -26.412              0
      3785.5000        34.7117       -25.4926              0
      3786.0000        33.1988       -23.9834     0.04419998
      3786.5000        31.1726        -21.961      0.1321304
      3787.0000        28.3339        -19.126      0.2553913
      3787.5000         24.338       -15.1338      0.4289652
      3788.0000        19.0482        -9.8478      0.6587913
      3788.5000        17.6665        -8.4698      0.7187043
      3789.0000        17.5278        -8.3349      0.7245696
      3789.5000        19.9807       -10.7915      0.6177608
      3790.0000        20.9307       -11.7452      0.5762957
      3790.5000        22.8088       -13.6271      0.4944739
      3791.0000        23.3444       -14.1664      0.4710261
      3791.5000        23.0337       -13.8595      0.4843696
      3792.0000        21.9974       -12.8269      0.5292652
      3792.5000        20.8171       -11.6503      0.5804217
      3793.0000        19.8539       -10.6909      0.6221348
      3793.5000         19.121        -9.9617      0.6538391
      3794.0000        18.5465         -9.391      0.6786522
      3794.5000        17.9724        -8.8206      0.7034522
      3795.0000         17.413        -8.2649       0.727613
      3795.5000        16.8783         -7.734      0.7506956
      3796.0000        16.3434        -7.2028      0.7737913
      3796.5000        15.7959        -6.6591      0.7974305
      3797.0000        15.2403        -6.1072      0.8214261
      3797.5000        14.6849        -5.5555       0.845413
      3798.0000        14.1362        -5.0106      0.8691043
      3798.5000        13.5887        -4.4668      0.8927478
      3799.0000        13.1145        -3.9964         0.9132
      3799.5000        12.8367        -3.7223      0.9251174
      3800.0000        12.6375        -3.5268      0.9336174
      3800.5000        12.7832        -3.6763      0.9271174
      3801.0000         12.929        -3.8258      0.9206174
      3801.5000        13.0782        -3.9788      0.9139652
      3802.0000        13.2291        -4.1334      0.9072435
      3802.5000        13.3801        -4.2881      0.9005174
      3803.0000        13.1642         -4.076      0.9097391
      3803.5000        12.8153        -3.7308      0.9247478
      3804.0000        12.4222        -3.3414      0.9416783
      3804.5000        12.0291        -2.9521      0.9586043
      3805.0000        11.6934        -2.6201      0.9730392
      3805.5000        12.0132        -2.9437      0.9589695
      3806.0000        12.3331        -3.2673         0.9449
      3806.5000        12.6407        -3.5786      0.9313652
      3807.0000         12.897        -3.8387      0.9200565
      3807.5000        13.1535        -4.0989      0.9087435
      3808.0000        13.4099        -4.3591      0.8974304
      3808.5000        13.5976        -4.5505      0.8891087
      3809.0000        13.7782        -4.7348      0.8810956
      3809.5000        13.9586         -4.919      0.8730869
      3810.0000        13.8783        -4.8424      0.8764174
      3810.5000        13.6119        -4.5798      0.8878348
      3811.0000         13.264        -4.2356         0.9028
      3811.5000         12.916        -3.8913      0.9177696
      3812.0000        12.5684        -3.5475      0.9327174
      3812.5000        12.3804        -3.3632      0.9407305
      3813.0000        12.2547        -3.2413      0.9460304
      3813.5000        12.2382        -3.2285       0.946587
      3814.0000        12.4504        -3.4444         0.9372
      3814.5000        12.6627        -3.6605      0.9278044
      3815.0000        12.8749        -3.8764      0.9184174
      3815.5000         13.052        -4.0573      0.9105521
      3816.0000        13.2087        -4.2177      0.9035783
      3816.5000        13.3652        -4.3779      0.8966131
      3817.0000        13.5219        -4.5384      0.8896348
      3817.5000        13.6273        -4.6475      0.8848913
      3818.0000         13.435         -4.459       0.893087
      3818.5000        13.2428        -4.2705      0.9012826
      3819.0000        13.1034        -4.1348      0.9071826
      3819.5000        13.0098         -4.045       0.911087
      3820.0000        12.9162        -3.9551      0.9149957
      3820.5000        12.6464         -3.689      0.9265652
      3821.0000        12.1521        -3.1985      0.9478913
      3821.5000        11.7884        -2.8385      0.9635435
      3822.0000         13.402        -4.4559      0.8932217
      3822.5000        14.9237        -5.9813         0.8269
      3823.0000        15.3686        -6.4299      0.8073956
      3823.5000        15.6091        -6.6742      0.7967739
      3824.0000        15.8088        -6.8776      0.7879304
      3824.5000        16.0086        -7.0812      0.7790782
      3825.0000        15.6177         -6.694       0.795913
      3825.5000        15.1741        -6.2541      0.8150392
      3826.0000        14.7307        -5.8145      0.8341522
      3826.5000         14.069        -5.1565      0.8627609
      3827.0000         13.365        -4.4563      0.8932043
      3827.5000        12.8389        -3.9339      0.9159174
      3828.0000        12.4718        -3.5705      0.9317174
      3828.5000        12.2918        -3.3943      0.9393783
      3829.0000         12.578        -3.6842      0.9267739
      3829.5000         12.805         -3.915      0.9167391
      3830.0000        13.0117        -4.1254      0.9075913
      3830.5000         12.655        -3.7724      0.9229391
      3831.0000        12.1571        -3.2783      0.9444217
      3831.5000        11.6149        -2.7398      0.9678348
      3832.0000        11.0706        -2.1993      0.9913348
      3832.5000        10.5915        -1.7239              1
      3833.0000        10.3063        -1.4424              1
      3833.5000        10.0212        -1.1611              1
      3834.0000         9.7383        -0.8819              1
      3834.5000         9.6194        -0.7668              1
      3835.0000         9.5006        -0.6517              1
      3835.5000         9.4582         -0.613              1
      3836.0000         9.4329        -0.5915              1
      3836.5000         9.5197         -0.682              1
      3837.0000         9.7491        -0.9151              1
      3837.5000         9.9784        -1.1482              1
      3838.0000         11.896        -3.0695         0.9535
      3838.5000        12.5665        -3.7438      0.9241826
