#------------------------------------------------------------------------------
# Created by    : vladimir.rabinovich
# Created on    : 09/19/2023 17:22:47
#------------------------------------------------------------------------------
~Version Information Section
VERS.           2.0     :   CWLS log ASCII Standard - VERSION 2.0
WRAP.           NO      :   One line per depth step
~Well Information Section
#MNEM       .UNIT                                         VALUE :DESCRIPTION
#------------------------------------------------------------------------------
STRT        .FT                                            4658 :START DEPTH
STOP        .FT                                           10852 :STOP DEPTH
STEP        .FT                                             0.5 :STEP      
NULL        .                                           -999.25 :NULL      
COMP        .                             WALTER OIL & GAS CORP :COMPANY   
WELL        .                               OCS G04721 ST00BP00 :WELL      
FLD         .                              GALVESTON BLOCK 0350 :FIELD     
LOC         .                                                   :LOCATION  
CNTY        .                             GALVESTON LARGE BLOCK :LOCATION  
STAT        .                                             TEXAS :STATE     
CTRY        .                                     UNITED STATES :COUNTRY   
SRVC        .                                                   :SERVICE COMPANY
DATE        .                             9/13/2023 11:19:36 AM :LOG DATE  
API         .                                    42706401870000 :API NUMBER
UWI         .                                    42706401870000 :UNIQUE WELL ID
XCOORD      .                                  1032064.33467067 :SURFACE X 
YCOORD      .                                   10428906.138822 :SURFACE Y 
LAT         .                                        28.7242451 :LATITUDE  
LON         .                                       -94.8985179 :LONGITUDE 
ELEV        .FT                                              92 :ELEVATION VALUE
ELEV_TYPE   .                                                KB :ELEVATION REFERENCE TYPE
~Curve Information Section
#MNEM       .UNIT                                      API CODE :CURVE DESCRIPTION
#------------------------------------------------------------------------------
DEPT        .FT                                                 :DEPTH     
DT          .US/F                                               :          
GR          .GAPI                                               :          
GR_1        .GAPI                                               :          
GR_NORM     .GAPI                                               :GammaRay Normalized
ILD         .OHMM                                               :          
ILM         .OHMM                                               :          
NPHI        .%                                                  :          
RFOC        .OHMM                                               :          
RHOB        .G/C3                                               :          
SP          .MV                                                 :          
SP_NORM     .MV                                                 :SP Normalized
VSH_GR      .V/V                                                :Volume of Shale from GR
VSH_SP      .V/V                                                :Volume of Shale from SP
~A        DEPTH             DT             GR           GR_1        GR_NORM            ILD            ILM           NPHI           RFOC           RHOB             SP        SP_NORM         VSH_GR         VSH_SP
# ...
     10016.0000       113.4535        -999.25        77.4685       83.30223         0.6022         0.6115        -999.25          0.684        -999.25       -44.3575       4.271597              1              1
     10016.5000       111.5376        -999.25        78.9609       85.29868         0.6049         0.6144        -999.25         0.6886        -999.25       -44.8053        3.75159              1              1
     10017.0000       109.6042        -999.25        78.6748       84.91595         0.6079         0.6174        -999.25         0.6935        -999.25       -45.3156       3.158675              1              1
     10017.5000       108.5081        -999.25        76.5421       82.06293         0.6113         0.6203        -999.25         0.6985        -999.25       -45.7732       2.627239              1              1
     10018.0000        108.452        -999.25        74.3053       79.07066         0.6153         0.6227        -999.25         0.7058        -999.25       -46.1212       2.223669      0.9802269              1
     10018.5000       109.0437        -999.25        72.9032       77.19501         0.6184         0.6244        -999.25         0.7141        -999.25       -46.4083       1.891156      0.9403193              1
     10019.0000       109.6136        -999.25        71.4813       75.29288         0.6209         0.6255        -999.25         0.7229        -999.25       -46.4268       1.872001      0.8998485              1
     10019.5000       109.5258        -999.25        70.2206       73.60636         0.6224         0.6268        -999.25         0.7241        -999.25       -46.3806       1.928335      0.8639652              1
     10020.0000       107.4816        -999.25        75.3778        80.5054         0.6235         0.6288        -999.25          0.723        -999.25       -46.3373       1.981283              1              1
     10020.5000       106.0491        -999.25        78.0704       84.10741         0.6245         0.6309        -999.25         0.7224        -999.25       -46.3851       1.927944              1              1
     10021.0000       105.0575        -999.25        76.8047       82.41423         0.6257         0.6325        -999.25          0.726        -999.25       -46.6049       1.673946              1              1
     10021.5000       104.2278        -999.25        75.3605       80.48225         0.6269          0.634        -999.25           0.73        -999.25       -46.8087       1.438609              1              1
     10022.0000        105.202        -999.25        74.3523       79.13354         0.6282         0.6354        -999.25         0.7374        -999.25       -46.7953       1.456678      0.9815648              1
     10022.5000       106.5697        -999.25         73.499       77.99204         0.6295         0.6361        -999.25         0.7436        -999.25       -46.4996       1.804091      0.9572775              1
     10023.0000       107.5078        -999.25        71.2758       75.01796         0.6304         0.6367        -999.25         0.7444        -999.25       -46.1615       2.200972      0.8939992              1
     10023.5000        107.755        -999.25        68.8842        71.8186         0.6311         0.6351        -999.25         0.7402        -999.25       -45.9602       2.438253      0.8259277              1
     10024.0000       106.9485        -999.25        68.8569       71.78209         0.6306         0.6336        -999.25         0.7336        -999.25       -45.7881       2.641467      0.8251508              1
     10024.5000        106.347        -999.25        69.3975       72.50528         0.6305         0.6328        -999.25         0.7292        -999.25       -45.5726       2.895318      0.8405378              1
     10025.0000       106.2762        -999.25        69.7543       72.98259         0.6312          0.632        -999.25         0.7263        -999.25       -45.4482       3.042882      0.8506934              1
     10025.5000       106.3844        -999.25        70.2714       73.67433         0.6315         0.6312        -999.25          0.724        -999.25       -45.2976       3.221017      0.8654113              1
     10026.0000       106.5089        -999.25        71.4839       75.29635          0.631         0.6304        -999.25         0.7287        -999.25       -45.2093       3.326463      0.8999223              1
     10026.5000       106.4103        -999.25        72.4626        76.6056         0.6303         0.6295        -999.25         0.7321        -999.25       -45.3793       3.130561      0.9277787              1
     10027.0000       105.8522        -999.25        72.3766       76.49056         0.6294         0.6287        -999.25         0.7346        -999.25       -45.7113       2.745661      0.9253311              1
     10027.5000       105.0637        -999.25        72.1387       76.17231         0.6286         0.6278        -999.25         0.7366        -999.25       -46.1138       2.278508      0.9185598              1
     10028.0000       104.6239        -999.25         71.983       75.96402         0.6282         0.6275        -999.25         0.7368        -999.25       -46.5002       1.830144      0.9141281              1
     10028.5000        105.851        -999.25        72.1561       76.19558         0.6272         0.6271        -999.25         0.7333        -999.25       -46.7318       1.562372      0.9190549              1
     10029.0000       106.8451        -999.25        72.3601       76.46848         0.6255         0.6264        -999.25         0.7261        -999.25       -46.7823       1.505887      0.9248613              1
     10029.5000       107.5203        -999.25          72.98       77.29776         0.6239          0.625        -999.25         0.7207        -999.25       -46.6981       1.606552      0.9425055              1
     10030.0000         107.92        -999.25        74.4526       79.26772         0.6224         0.6235        -999.25         0.7177        -999.25       -46.6247       1.694618      0.9844195              1
     10030.5000        108.011        -999.25        74.0154       78.68286         0.6207         0.6212        -999.25         0.7191        -999.25        -46.629       1.692032      0.9719757              1
     10031.0000       107.4019        -999.25        72.4351       76.56881         0.6188         0.6189        -999.25         0.7205        -999.25       -46.6503       1.669615      0.9269959              1
     10031.5000       106.9248        -999.25        72.2941       76.38019         0.6172         0.6161        -999.25         0.7243        -999.25       -46.6862       1.630162      0.9229828              1
     10032.0000       106.8917        -999.25        72.0808       76.09485         0.6163         0.6133        -999.25         0.7226        -999.25       -46.7698       1.535064      0.9169117              1
     10032.5000       107.0465        -999.25        71.4467       75.24659         0.6155         0.6119        -999.25         0.7166        -999.25       -46.8837       1.404607      0.8988636              1
     10033.0000       107.4199        -999.25        69.9679       73.26833         0.6161         0.6106        -999.25         0.7116        -999.25       -46.9681       1.308575      0.8567729              1
     10033.5000        107.665        -999.25        69.4222       72.53831         0.6167         0.6102        -999.25         0.7106        -999.25       -46.9637       1.316141      0.8412408              1
     10034.0000       107.5488        -999.25        70.2255       73.61293         0.6171         0.6103        -999.25         0.7096        -999.25       -46.5504       1.800758      0.8641049              1
     10034.5000       107.4663        -999.25        71.3662       75.13891         0.6172         0.6104        -999.25         0.7106        -999.25       -46.1166       2.309287      0.8965725              1
