#------------------------------------------------------------------------------
# Created by    : vladimir.rabinovich
# Created on    : 09/19/2023 17:22:43
#------------------------------------------------------------------------------
~Version Information Section
VERS.           2.0     :   CWLS log ASCII Standard - VERSION 2.0
WRAP.           NO      :   One line per depth step
~Well Information Section
#MNEM       .UNIT                                         VALUE :DESCRIPTION
#------------------------------------------------------------------------------
STRT        .FT                                            3600 :START DEPTH
STOP        .FT                                            7940 :STOP DEPTH
STEP        .FT                                             0.5 :STEP      
NULL        .                                           -999.25 :NULL      
COMP        .                          SEAGULL ENERGY E & P INC :COMPANY   
WELL        .                               OCS G09015 ST00BP00 :WELL      
FLD         .                                 BRAZOS BLOCK 0431 :FIELD     
LOC         .                                                   :LOCATION  
CNTY        .                                BRAZOS LARGE BLOCK :LOCATION  
STAT        .                                             TEXAS :STATE     
CTRY        .                                     UNITED STATES :COUNTRY   
SRVC        .                                                   :SERVICE COMPANY
DATE        .                             9/13/2023 11:09:51 AM :LOG DATE  
API         .                                    42704402370000 :API NUMBER
UWI         .                                    42704402370000 :UNIQUE WELL ID
XCOORD      .                                  876086.487249857 :SURFACE X 
YCOORD      .                                  10366258.6106956 :SURFACE Y 
LAT         .                                        28.5443209 :LATITUDE  
LON         .                                       -95.3810825 :LONGITUDE 
ELEV        .FT                                              90 :ELEVATION VALUE
ELEV_TYPE   .                                                KB :ELEVATION REFERENCE TYPE
~Curve Information Section
#MNEM       .UNIT                                      API CODE :CURVE DESCRIPTION
#------------------------------------------------------------------------------
DEPT        .FT                                                 :DEPTH     
DCAL        .IN                                                 :          
DPHI        .%                                                  :          
GR          .GAPI                                               :          
GR_NORM     .GAPI                                               :GammaRay Normalized
ILD         .OHMM                                               :          
ILM         .OHMM                                               :          
NPHI        .%                                                  :          
SGRD        .OHMM                                               :          
SP          .MV                                                 :          
SP_NORM     .MV                                                 :SP Normalized
VSH_GR      .V/V                                                :Volume of Shale from GR
VSH_SP      .V/V                                                :Volume of Shale from SP
~A        DEPTH           DCAL           DPHI             GR        GR_NORM            ILD            ILM           NPHI           SGRD             SP        SP_NORM         VSH_GR         VSH_SP
# ...
      5609.0000         0.6648        34.1567        40.4413       33.22538         0.2618         0.3197        38.9279         0.6008       -72.7294      -27.51956    0.004795318     0.01847839
      5609.5000         0.6093        34.5337        40.8843       33.78818         0.2566         0.3102        40.2515         0.5847       -72.7751      -27.58619     0.01676973     0.01591594
      5610.0000         0.5906        34.5392        41.6897       34.81513         0.2561         0.3033        41.5815         0.5757       -72.6155      -27.44751     0.03861975     0.02124948
      5610.5000         0.5782        34.1299        42.4856       35.82992         0.2556          0.298        41.2934         0.5696       -72.0518      -26.90474      0.0602111     0.04212541
      5611.0000         0.5795         33.715        43.3233       36.89825         0.2615         0.2953        40.0458         0.5716       -71.5422      -26.41606      0.0829415     0.06092086
      5611.5000         0.6557        33.4943        43.5262       37.15351         0.2704          0.297        38.9166         0.5846       -71.2147      -26.10948     0.08837249     0.07271224
      5612.0000         0.7469        32.9532        42.0146        35.2128         0.2792         0.3018        36.7607          0.598       -71.3162      -26.23191     0.04708091     0.06800343
      5612.5000         0.7965        31.2567        41.1315        34.0771         0.2821          0.308        31.0822         0.6266       -71.4176      -26.35424     0.02291708     0.06329859
      5613.0000         0.7756        30.3055        40.5154       33.28336          0.282         0.3133        30.0863         0.6922       -71.5287      -26.48626    0.006029007     0.05822079
      5613.5000         0.7389          30.53        39.8206       32.38884         0.2825         0.3108        30.4132         0.6973       -71.6665      -26.64498              0     0.05211625
      5614.0000         0.6728        31.3319        39.1721       31.55361         0.2833         0.3033        32.7883          0.654       -71.8145      -26.81391              0     0.04561894
      5614.5000         0.5683         33.827         39.923       32.51076         0.2814         0.2979        38.0027         0.5882       -72.0043      -27.02464              0     0.03751403
      5615.0000         0.5973        34.3716        40.9303       33.79632         0.2765         0.2955        40.3843         0.5581       -72.0952      -27.13646     0.01694294     0.03321325
      5615.5000         0.6488        34.2418        42.3708       35.63672         0.2712         0.2934        40.5847         0.5547       -72.1116      -27.17378      0.0561004      0.0317776
      5616.0000         0.7004        34.1263        45.4697       39.60125         0.2611         0.2913        39.2448         0.5595        -72.191      -27.27411       0.140452     0.02791889
      5616.5000         0.7512        34.4052        47.0316       41.59715         0.2476         0.2873        38.2012         0.5688       -72.4136      -27.51763      0.1829181     0.01855278
      5617.0000         0.7847        34.6777        44.9047       38.86835         0.2399         0.2813        37.2932         0.5794       -72.4835      -27.60845      0.1248585     0.01505954
      5617.5000         0.8291        34.8652        43.7972       37.44522         0.2386         0.2775        37.4938         0.5815        -72.469      -27.61488     0.09457917     0.01481232
      5618.0000         0.8419        35.3403        44.6672       38.55492          0.244         0.2749        39.1743         0.5659       -72.3187      -27.48551      0.1181899     0.01978816
      5618.5000         0.7569        35.8065        45.3901       39.47621         0.2526          0.279        40.3715         0.5429       -72.2313      -27.41903      0.1377916     0.02234503
      5619.0000         0.6634        35.6888        47.5104       42.18732         0.2668          0.291        41.3994         0.5373       -72.1459      -27.35455       0.195475     0.02482502
      5619.5000         0.6575        35.0803         49.799         45.114         0.2785          0.312        41.5602          0.552       -72.0531      -27.28268      0.2577446     0.02758936
      5620.0000         0.7082         34.264        50.0709       45.45763         0.2899         0.3337        40.8196         0.5914       -72.0114       -27.2619       0.265056     0.02838839
      5620.5000         0.8074        33.7603         50.319       45.77079         0.2972         0.3514        39.5786         0.6323       -71.9331      -27.20452      0.2717189     0.03059519
      5621.0000         0.8624        33.7828        50.2576       45.68753         0.3004         0.3554        39.3481         0.6634       -71.8955      -27.18785      0.2699475      0.0312365
      5621.5000         0.8592        34.0531        49.9327       45.26678         0.2995         0.3581        39.2135         0.6767       -71.7106      -27.02388      0.2609953     0.03754322
      5622.0000         0.8442        34.5536        50.0298       45.38653         0.2955         0.3572        39.8929         0.6686       -71.5256       -26.8598      0.2635432     0.04385391
      5622.5000         0.7809        34.8582        51.0529       46.69233         0.2857         0.3473        40.8884         0.6542       -71.1337      -26.48882      0.2913262      0.0581222
      5623.0000         0.7076        35.2387        47.3793       41.98248         0.2736         0.3338        41.6615         0.6365       -71.0563      -26.43235      0.1911166     0.06029437
      5623.5000         0.6607        35.6308        46.6088       40.99099         0.2663         0.3241        42.1686          0.623       -71.1327      -26.52967      0.1700211     0.05655112
      5624.0000         0.6389        35.6874        44.3345       38.07341         0.2682         0.3136         41.946         0.6125       -71.2122       -26.6301       0.107945      0.0526886
      5624.5000         0.6421        34.7313        41.5474       34.49901         0.2756         0.3102        40.4867         0.6021       -71.1901      -26.62893     0.03189379     0.05273364
      5625.0000         0.6815         33.595        43.6795       37.22523          0.298         0.3239        38.5405         0.5972       -71.1639      -26.62365     0.08989862     0.05293655
      5625.5000         0.7411        32.3114        47.2077       41.73962         0.3291         0.3637        36.3542         0.6033       -71.0653      -26.54597      0.1859493      0.0559242
      5626.0000         0.7624        30.7941        49.0483       44.09248         0.3468          0.403        34.7729         0.6271       -70.4799      -25.98149      0.2360103     0.07763481
      5626.5000         0.7719         29.004        48.9454       43.95607         0.3599         0.4142        34.6945         0.6652       -70.4775      -26.00002      0.2331079     0.07692219
      5627.0000         0.7722        29.0252         46.811       41.21766         0.3698         0.4168        35.9493         0.6964       -70.7313      -26.27475      0.1748439     0.06635593
      5627.5000         0.7724        29.3625        43.3011       36.71749         0.3723         0.4174        36.6884         0.6991       -70.9752      -26.53957     0.07909564     0.05617054
      5628.0000         0.7869        30.2852        39.6933       32.09193         0.3607         0.4108         37.048         0.6737       -71.2666       -26.8519              0     0.04415776
      5628.5000          0.783        31.6496        38.4811       30.53469         0.3363         0.3891        37.4078         0.6455        -71.584      -27.19022              0     0.03114539
      5629.0000         0.7561        32.2692        37.2769       28.98772          0.311         0.3558        37.2919         0.6187        -71.403      -27.03014              0     0.03730216
