#------------------------------------------------------------------------------
# Created by    : vladimir.rabinovich
# Created on    : 09/19/2023 17:20:58
#------------------------------------------------------------------------------
~Version Information Section
VERS.           2.0     :   CWLS log ASCII Standard - VERSION 2.0
WRAP.           NO      :   One line per depth step
~Well Information Section
#MNEM       .UNIT                                         VALUE :DESCRIPTION
#------------------------------------------------------------------------------
STRT        .FT                                             521 :START DEPTH
STOP        .FT                                           11050 :STOP DEPTH
STEP        .FT                                             0.5 :STEP      
NULL        .                                           -999.25 :NULL      
COMP        .                                      SHELL OIL CO :COMPANY   
WELL        .                                     ST TR 00335-L :WELL      
FLD         .                                           WILDCAT :FIELD     
LOC         .                                                   :LOCATION  
CNTY        .                                BRAZOS LARGE BLOCK :LOCATION  
STAT        .                                             TEXAS :STATE     
CTRY        .                                     UNITED STATES :COUNTRY   
SRVC        .                                                   :SERVICE COMPANY
DATE        .                             9/13/2023 11:18:52 AM :LOG DATE  
API         .                                    42704000130000 :API NUMBER
UWI         .                                    42704000130000 :UNIQUE WELL ID
XCOORD      .                                  903482.990868916 :SURFACE X 
YCOORD      .                                   10450808.276789 :SURFACE Y 
LAT         .                                        28.7782296 :LATITUDE  
LON         .                                       -95.3008656 :LONGITUDE 
ELEV        .FT                                              81 :ELEVATION VALUE
ELEV_TYPE   .                                                DF :ELEVATION REFERENCE TYPE
~Curve Information Section
#MNEM       .UNIT                                      API CODE :CURVE DESCRIPTION
#------------------------------------------------------------------------------
DEPT        .FT                                                 :DEPTH     
ASN         .OHMM                                               :          
CILD        .MMHO                                               :          
ILD         .OHMM                                               :          
SP          .MV                                                 :          
SP_NORM     .MV                                                 :SP Normalized
VSH_SP      .V/V                                                :Volume of Shale from SP
~A        DEPTH            ASN           CILD            ILD             SP        SP_NORM         VSH_SP
# ...
     10325.0000         0.4955       2534.719         0.2889       -47.7485      -3.846062      0.9110606
     10325.5000         0.4986       2502.465         0.2988       -47.8026      -3.900162      0.9093699
     10326.0000         0.5005        2485.23         0.3083        -47.754      -3.851563      0.9108887
     10326.5000          0.502       2474.867         0.3139       -47.6844       -3.78196      0.9130638
     10327.0000         0.5035       2471.094         0.3196       -47.5645       -3.66206      0.9168106
     10327.5000         0.5026       2476.875         0.3252       -47.4445      -3.542061      0.9205606
     10328.0000         0.5013       2483.391         0.3308       -47.3245      -3.422062      0.9243106
     10328.5000         0.4984       2493.594         0.3364       -47.2894      -3.386959      0.9254075
     10329.0000         0.4937       2529.527         0.3673       -47.2691      -3.366661      0.9260418
     10329.5000          0.489        2769.32          0.337       -47.2488      -3.346359      0.9266763
     10330.0000         0.4842       2884.363         0.3171        -47.334      -3.431561      0.9240137
     10330.5000         0.4794       2887.211         0.2971       -47.4799      -3.577461      0.9194543
     10331.0000         0.4752        2892.16          0.285       -47.6254      -3.722961      0.9149075
     10331.5000         0.4725       2897.156         0.2767       -47.7709      -3.868462      0.9103606
     10332.0000         0.4717        2906.93         0.2701       -47.9033      -4.000862      0.9062231
     10332.5000         0.4728       2919.164         0.2673       -47.9996       -4.09716      0.9032137
     10333.0000          0.474       2878.109         0.2645       -48.0958      -4.193359      0.9002075
     10333.5000         0.4751       2851.859         0.2663       -48.1921      -4.289661      0.8971981
     10334.0000         0.4763       2827.582         0.2752       -48.2887      -4.386261      0.8941793
     10334.5000         0.4806       2807.824         0.2841       -48.3896       -4.48716      0.8910263
     10335.0000          0.485        2788.02         0.2926       -48.4907      -4.588261      0.8878669
     10335.5000         0.4888       2776.363         0.3004       -48.5916      -4.689159      0.8847138
     10336.0000         0.4915       2766.938         0.3082       -48.6893      -4.786861      0.8816606
     10336.5000         0.4886       2760.676          0.316       -48.7838      -4.881359      0.8787075
     10337.0000         0.4856       2755.496         0.3232       -48.8782      -4.975761      0.8757575
     10337.5000         0.4826       2750.316         0.3252       -48.9464      -5.043961      0.8736262
     10338.0000         0.4777       2865.996         0.3272        -48.989      -5.086559       0.872295
     10338.5000         0.4725        2903.25         0.3292       -48.9675       -5.06506      0.8729669
     10339.0000         0.4673       2940.508          0.323       -48.8828      -4.980362      0.8756137
     10339.5000         0.4621       2978.629         0.3101       -48.7982       -4.89576      0.8782575
     10340.0000         0.4581       3022.281         0.2973       -48.6068      -4.704361      0.8842387
     10340.5000         0.4541        3073.91          0.284       -48.4005      -4.498062      0.8906856
     10341.0000         0.4501       3129.965         0.2707       -48.1945      -4.292061      0.8971231
     10341.5000         0.4471       3147.656         0.2573       -47.9885       -4.08606      0.9035606
     10342.0000         0.4455       3166.406          0.244       -47.8617      -3.959259      0.9075232
     10342.5000         0.4424       3185.828         0.2359       -47.7346      -3.832161       0.911495
     10343.0000         0.4393       3203.469         0.2299       -47.6078       -3.70536      0.9154575
     10343.5000         0.4373       3219.285         0.2238       -47.4962      -3.593761       0.918945
     10344.0000         0.4362        3224.84         0.2177       -47.4711      -3.568661      0.9197294
     10344.5000          0.436        3211.93         0.2192        -47.446       -3.54356      0.9205137
     10345.0000          0.437       3194.313         0.2225       -47.4208       -3.51836      0.9213012
     10345.5000          0.438       3176.379         0.2258       -47.3959      -3.493462      0.9220793
     10346.0000          0.439       3157.441          0.229       -47.3722      -3.469761        0.92282
     10346.5000         0.4434       3138.523         0.2323       -47.3484      -3.445961      0.9235637
     10347.0000         0.4493       3104.824         0.2356       -47.3247       -3.42226      0.9243044
     10347.5000         0.4551       3070.883         0.2388        -47.301       -3.39856       0.925045
     10348.0000         0.4592       3037.281         0.2421       -47.2626      -3.360161       0.926245
     10348.5000         0.4626       2996.031         0.2454       -47.2226       -3.32016       0.927495
     10349.0000         0.4659       2968.246         0.2486       -47.1827      -3.280262      0.9287418
     10349.5000         0.4689       2941.902         0.2536       -47.1427      -3.240261      0.9299918
     10350.0000         0.4708       2916.422          0.259       -47.2598      -3.357361      0.9263325
     10350.5000         0.4673       2893.875         0.2644       -47.3661      -3.463661      0.9230106
     10351.0000         0.4645       2869.887         0.2698       -47.4479       -3.54546      0.9204544
     10351.5000         0.4621       2844.359         0.2752       -47.5295       -3.62706      0.9179044
     10352.0000         0.4597       2817.922         0.2802       -47.6113      -3.708862      0.9153481
     10352.5000         0.4648       2798.164         0.2843       -47.7068      -3.804359      0.9123638
     10353.0000         0.4756       2777.973         0.2883        -47.845      -3.942562      0.9080449
     10353.5000         0.4885       2757.539         0.2924        -47.983      -4.080563      0.9037324
     10354.0000         0.5015       2736.871         0.2965       -48.1212      -4.218761      0.8994137
     10354.5000         0.5125       2716.148         0.2998       -48.2592      -4.356762      0.8951012
     10355.0000         0.5224       2694.324         0.3029       -48.4081      -4.505661      0.8904481
     10355.5000         0.5308       2662.309          0.306       -48.5723      -4.669861      0.8853168
     10356.0000         0.5382       2605.582         0.3103       -48.9513      -5.048862       0.873473
     10356.5000         0.5456       2549.719         0.3199       -49.2015      -5.299061      0.8656543
     10357.0000         0.5606       2493.762         0.3295       -49.4292       -5.52676      0.8585387
     10357.5000         0.5757       2437.805         0.3396       -49.6617      -5.759262      0.8512731
     10358.0000         0.5993       2381.941          0.362        -49.915      -6.012562      0.8433574
     10358.5000          0.633       2325.984         0.3844       -50.1312       -6.22876      0.8366013
     10359.0000          0.654       2255.992         0.4185       -50.0361      -6.133659      0.8395731
     10359.5000         0.6673       2222.242         0.4586       -49.8848      -5.982361      0.8443012
     10360.0000         0.6706       2178.883          0.493       -50.6321       -6.72966      0.8209481
     10360.5000          0.662       2116.289         0.5244       -52.1433       -8.24086      0.7737231
     10361.0000         0.6351       1868.879          0.536       -53.5202       -9.61776       0.730695
     10361.5000         0.6111        1981.73         0.5246       -54.6884      -10.78596      0.6941887
     10362.0000         0.5916       2005.557         0.5133       -54.7098      -10.80736      0.6935199
     10362.5000         0.5722       2005.848         0.5019       -54.3185      -10.41606      0.7057481
