#------------------------------------------------------------------------------
# Created by    : vladimir.rabinovich
# Created on    : 09/19/2023 17:21:24
#------------------------------------------------------------------------------
~Version Information Section
VERS.           2.0     :   CWLS log ASCII Standard - VERSION 2.0
WRAP.           NO      :   One line per depth step
~Well Information Section
#MNEM       .UNIT                                         VALUE :DESCRIPTION
#------------------------------------------------------------------------------
STRT        .FT                                            4000 :START DEPTH
STOP        .FT                                            8085 :STOP DEPTH
STEP        .FT                                             0.5 :STEP      
NULL        .                                           -999.25 :NULL      
COMP        .                             WALTER OIL & GAS CORP :COMPANY   
WELL        .                               OCS G09047 ST00BP00 :WELL      
FLD         .                              GALVESTON BLOCK 0351 :FIELD     
LOC         .                                                   :LOCATION  
CNTY        .                             GALVESTON LARGE BLOCK :LOCATION  
STAT        .                                             TEXAS :STATE     
CTRY        .                                     UNITED STATES :COUNTRY   
SRVC        .                                                   :SERVICE COMPANY
DATE        .                             9/13/2023 11:19:36 AM :LOG DATE  
API         .                                    42706402000000 :API NUMBER
UWI         .                                    42706402000000 :UNIQUE WELL ID
XCOORD      .                                  1036183.96101641 :SURFACE X 
YCOORD      .                                  10437562.0132666 :SURFACE Y 
LAT         .                                        28.7482272 :LATITUDE  
LON         .                                       -94.8860948 :LONGITUDE 
ELEV        .FT                                              80 :ELEVATION VALUE
ELEV_TYPE   .                                                KB :ELEVATION REFERENCE TYPE
~Curve Information Section
#MNEM       .UNIT                                      API CODE :CURVE DESCRIPTION
#------------------------------------------------------------------------------
DEPT        .FT                                                 :DEPTH     
CALI        .IN                                                 :          
DRHO        .G/C3                                               :          
GR          .GAPI                                               :          
GR_NORM     .GAPI                                               :GammaRay Normalized
ILD         .OHMM                                               :          
ILM         .OHMM                                               :          
NPHI        .%                                                  :          
RHOB        .G/C3                                               :          
SFL         .OHMM                                               :          
SP          .MV                                                 :          
SP_NORM     .MV                                                 :SP Normalized
VSH_GR      .V/V                                                :Volume of Shale from GR
VSH_SP      .V/V                                                :Volume of Shale from SP
~A        DEPTH           CALI           DRHO             GR        GR_NORM            ILD            ILM           NPHI           RHOB            SFL             SP        SP_NORM         VSH_GR         VSH_SP
# ...
      6983.0000         9.6938         0.1024        87.3815       78.94241         0.5308         0.5808        39.2449         2.3924          0.714       -45.3191     -0.8746529      0.9774982       0.987505
      6983.5000         9.6864          0.103        88.3154       79.98008         0.5294         0.5814        39.8681         2.3839         0.7117       -45.9476      -1.503155      0.9995762      0.9785264
      6984.0000          9.679         0.1036        89.3534       81.13342         0.5281          0.582         40.284         2.3748         0.7125        -46.402      -1.957554              1      0.9720349
      6984.5000         9.6448         0.1043        90.5153       82.42441         0.5268         0.5826        40.1237         2.3698         0.7142       -46.3275      -1.883053              1      0.9730992
      6985.0000          9.608         0.1053        90.9637       82.92264         0.5259         0.5833        39.3667         2.3674         0.7156       -46.2957      -1.851254              1      0.9735535
      6985.5000         9.5712         0.1062         90.715        82.6463         0.5265         0.5845        38.7878         2.3652         0.7152       -46.3248      -1.880352              1      0.9731379
      6986.0000         9.5344          0.107        90.4872       82.39319         0.5272         0.5858        38.7128          2.363         0.7149       -46.4015      -1.957054              1      0.9720421
      6986.5000         9.5114          0.104        90.3879       82.28286         0.5279          0.587        38.5936         2.3607         0.7146       -46.8115      -2.367054              1      0.9661849
      6987.0000         9.4885          0.101        90.2886       82.17252         0.5286         0.5909        38.4442         2.3572          0.715       -46.6769      -2.232452              1      0.9681078
      6987.5000         9.4656         0.0962        90.4711       82.37531         0.5362         0.5964        38.2615          2.357         0.7156       -46.1223      -1.677853              1      0.9760306
      6988.0000         9.4499         0.0898        90.7006        82.6303         0.5446         0.6019        38.0677         2.3627         0.7162       -45.3748     -0.9303551              1      0.9867092
      6988.5000         9.4402         0.0955        90.2661       82.14752         0.5532         0.6148        37.7821         2.3656         0.7165       -44.8599     -0.4154549              1      0.9940649
      6989.0000         9.4306         0.0897        89.2407       81.00819         0.5675         0.6306        37.3345         2.3664         0.7168       -45.0931     -0.6486549              1      0.9907335
      6989.5000         9.4155         0.0785        88.2516       79.90919         0.5837          0.645        36.8868         2.3673          0.742       -45.4155     -0.9710541       0.998068      0.9861278
      6990.0000         9.3923         0.0621        87.9189       79.53952         0.6002         0.6598        36.4194         2.3672         0.7779        -46.973      -2.528553      0.9902025      0.9638778
      6990.5000         9.3709         0.0528        87.4041       78.96752         0.6169          0.675        35.9493         2.3671         0.8153       -48.5229      -4.078453      0.9780324      0.9417364
      6991.0000         9.3498         0.0545        83.6956       74.84697          0.634         0.6911        35.5492         2.3692         0.8279       -49.9884      -5.543953      0.8903611      0.9208007
      6991.5000         9.3412         0.0573         78.978       69.60519         0.6499         0.7077        35.2118         2.3726         0.8367       -50.5969      -6.152454      0.7788337      0.9121078
      6992.0000         9.3359         0.0608        75.4474        65.6823         0.6644         0.7145        35.4063         2.3766         0.8278       -50.3096      -5.865154      0.6953682      0.9162121
      6992.5000         9.3184         0.0643        75.7303       65.99664         0.6793         0.7209        36.7912         2.3833         0.8158        -49.738      -5.293552      0.7020561      0.9243778
      6993.0000         9.2781          0.068        77.8163       68.31441         0.6928         0.7272        36.9974         2.3891         0.8014       -49.2516      -4.807152      0.7513705      0.9313264
      6993.5000         9.2223         0.0938         79.328       69.99408         0.6966         0.7293        36.6088         2.3875         0.7971       -49.7806      -5.336155      0.7871081      0.9237692
      6994.0000         9.1211         0.1188        79.6188       70.31718         0.7005         0.7299        36.8805         2.3847         0.7945       -50.4999      -6.055454      0.7939826      0.9134935
      6994.5000         9.0306         0.1329        77.8763       68.38107         0.7044         0.7305        37.0583          2.377         0.8144        -51.504      -7.059555      0.7527888      0.8991492
      6995.0000         9.0228         0.1054        75.4174       65.64896         0.7078         0.7311        35.4307         2.3691         0.8622       -52.9826      -8.538155      0.6946588      0.8780264
      6995.5000         9.0963          0.083        72.9635       62.92241         0.7084         0.7306        33.7449         2.3644         0.8924       -54.4286      -9.984154      0.6366471      0.8573692
      6996.0000         9.1016         0.0699        71.8856       61.72474         0.7089         0.7289           32.3         2.3668         0.8788       -55.4766      -11.03215      0.6111647      0.8423978
      6996.5000         9.1069         0.0752        73.0511       63.01975         0.7095         0.7272        32.6045         2.3727         0.8277       -55.1986      -10.75415      0.6387181      0.8463692
      6997.0000         9.1122           0.11        74.7488       64.90608         0.7101         0.7256         34.002         2.3791         0.7839       -54.8872      -10.44275      0.6788528      0.8508178
      6997.5000            9.1         0.1233        75.5676       65.81586         0.7054         0.7239        35.3022         2.3798         0.7577       -54.6693      -10.22485      0.6982097      0.8539307
      6998.0000         9.0847         0.1216        74.0577       64.13819         0.6991         0.7206         36.174         2.3779         0.7549        -54.523      -10.07855      0.6625147      0.8560207
      6998.5000         9.0694         0.1122        73.2051       63.19086         0.6929         0.7154        35.6804         2.3836         0.7711       -54.5346      -10.09015      0.6423587       0.855855
      6999.0000         9.0553         0.0902        73.6903       63.72997         0.6867         0.7103        34.0273         2.3939         0.7905       -54.5588      -10.11435      0.6538292      0.8555092
      6999.5000         9.0453         0.0824        73.4004       63.40786         0.6778         0.7052        32.6658         2.3947         0.8196       -54.6584      -10.21395      0.6469756      0.8540863
      7000.0000         9.0352           0.08         71.769       61.59519         0.6686         0.6953        32.1905         2.3865         0.8013       -54.7839      -10.33945      0.6084083      0.8522935
      7000.5000         9.0252         0.0823        70.4585       60.13908         0.6594         0.6829        32.0777         2.3774         0.7922       -55.7232      -11.27876      0.5774273      0.8388749
      7001.0000         9.0152         0.0845        70.1625       59.81019         0.6504         0.6708        32.2436         2.3676          0.789       -57.5349      -13.09045      0.5704296      0.8129935
      7001.5000         9.0092         0.0725        69.9724       59.59896         0.6353          0.658        32.3429         2.3596         0.7979       -61.5388      -17.09435      0.5659354      0.7557949
