#------------------------------------------------------------------------------
# Created by    : vladimir.rabinovich
# Created on    : 09/19/2023 17:19:50
#------------------------------------------------------------------------------
~Version Information Section
VERS.           2.0     :   CWLS log ASCII Standard - VERSION 2.0
WRAP.           NO      :   One line per depth step
~Well Information Section
#MNEM       .UNIT                                         VALUE :DESCRIPTION
#------------------------------------------------------------------------------
STRT        .FT                                             880 :START DEPTH
STOP        .FT                                            8374 :STOP DEPTH
STEP        .FT                                             0.5 :STEP      
NULL        .                                           -999.25 :NULL      
COMP        .                                        EXXON CORP :COMPANY   
WELL        .                               OCS G04552 ST00BP00 :WELL      
FLD         .                                 BRAZOS BLOCK 0451 :FIELD     
LOC         .                                                   :LOCATION  
CNTY        .                                BRAZOS LARGE BLOCK :LOCATION  
STAT        .                                             TEXAS :STATE     
CTRY        .                                     UNITED STATES :COUNTRY   
SRVC        .                                                   :SERVICE COMPANY
DATE        .                             9/13/2023 11:19:08 AM :LOG DATE  
API         .                                    42704401130000 :API NUMBER
UWI         .                                    42704401130000 :UNIQUE WELL ID
XCOORD      .                                  760277.642000753 :SURFACE X 
YCOORD      .                                  10343629.6463693 :SURFACE Y 
LAT         .                                         28.475327 :LATITUDE  
LON         .                                        -95.739931 :LONGITUDE 
ELEV        .FT                                              95 :ELEVATION VALUE
ELEV_TYPE   .                                                KB :ELEVATION REFERENCE TYPE
~Curve Information Section
#MNEM       .UNIT                                      API CODE :CURVE DESCRIPTION
#------------------------------------------------------------------------------
DEPT        .FT                                                 :DEPTH     
ASFL        .OHMM                                               :          
CALI        .IN                                                 :          
CILD        .MMHO                                               :          
DT          .US/F                                               :          
GR          .GAPI                                               :          
GR_NORM     .GAPI                                               :GammaRay Normalized
ILD         .OHMM                                               :          
ILM         .OHMM                                               :          
RHOB        .G/C3                                               :          
SP          .MV                                                 :          
SP_NORM     .MV                                                 :SP Normalized
VSH_GR      .V/V                                                :Volume of Shale from GR
VSH_SP      .V/V                                                :Volume of Shale from SP
~A        DEPTH           ASFL           CALI           CILD             DT             GR        GR_NORM            ILD            ILM           RHOB             SP        SP_NORM         VSH_GR         VSH_SP
# ...
      6865.0000         1.0392        11.1564       1436.711       114.0673        45.1833       65.72874         0.7024          0.702         2.2086       -39.7099        -0.4942      0.6963561       0.990116
      6865.5000         1.0555        11.1636       1447.807       114.2972        44.7523       64.89548         0.6938         0.6959         2.1794       -39.5573        -0.3416      0.6786273       0.993168
      6866.0000         1.0571        11.1707       1458.902       113.1372        44.3213       64.06222          0.686         0.6907         2.1525       -39.4047         -0.189      0.6608983        0.99622
      6866.5000         1.0509        11.1718       1469.225       111.9747        43.8903       63.22895         0.6785         0.6902         2.1857       -39.2877         -0.072      0.6431691        0.99856
      6867.0000         1.0443        11.1729       1479.082       110.8147        43.4594        62.3959          0.671         0.6939         2.2039       -39.2073         0.0084      0.6254447              1
      6867.5000         1.0363        11.1729       1484.543       110.1053        43.4942       62.46338         0.6635         0.6952         2.2144        -39.127         0.0887      0.6268803              1
      6868.0000         1.0284         11.171       1484.191       110.8022        43.6949       62.85136         0.6642         0.6938         2.2166       -39.0867          0.129      0.6351354              1
      6868.5000         1.0275        11.1691       1477.648       112.2498        43.8162       63.08571         0.6652         0.6919         2.1998       -39.0869         0.1288      0.6401215              1
      6869.0000         1.0338        11.1692       1471.107       113.5322        43.4317       62.34253         0.6661         0.6896         2.1756       -39.0871         0.1286      0.6243092              1
      6869.5000         1.0489        11.1702       1464.564       114.1737        43.7753       63.00681          0.667         0.7034           2.18       -39.0873         0.1284      0.6384427              1
      6870.0000         1.0716        11.1712       1457.402       113.9847        45.4265        66.1991         0.6749         0.7214         2.2096       -39.0875         0.1282      0.7063637              1
      6870.5000         1.0973        11.1721       1439.063        113.016          46.71       68.68034         0.6828         0.7437         2.2432       -39.0877          0.128      0.7591562              1
      6871.0000         1.0767         11.173       1420.748       111.1622         47.085       69.40532         0.6908         0.7628         2.2258       -39.0864         0.1293      0.7745813              1
      6871.5000         1.0638        11.1739       1402.408       108.9347        47.4601       70.13071         0.6987         0.7731         2.2064        -39.074         0.1417       0.790015              1
      6872.0000         1.0522        11.1728       1380.441       107.5122        47.8273       70.84061         0.7108         0.7826         2.2419       -39.0616         0.1541      0.8051193              1
      6872.5000         1.0562         11.171       1356.496       108.3197        48.0944       71.35683          0.723         0.7833         2.2922       -39.0492         0.1665      0.8161027              1
      6873.0000         1.0623        11.1691       1332.553       110.0522        47.7447       70.68092         0.7352         0.7851         2.3029       -39.0368         0.1789      0.8017218              1
      6873.5000          1.071         11.162       1304.605       110.9623        46.9129       69.07259         0.7507         0.7945         2.2968       -39.0244         0.1913       0.767502              1
      6874.0000         1.0967        11.1547       1271.479       109.8173        45.9026       67.11936         0.7718          0.804         2.2954        -39.012         0.2037      0.7259439              1
      6874.5000         1.1487        11.1494       1238.402       107.2997        44.4388       64.28938         0.7928          0.824          2.332       -39.0497          0.166      0.6657315              1
      6875.0000         1.2039        11.1452       1132.818       101.6897        42.8154         61.151         0.8138         0.8459         2.3705        -39.105         0.1107      0.5989575              1
      6875.5000         1.2946        11.1412       1051.955        96.8947        42.0514       59.67376         0.8398          0.888         2.3655       -39.9317         -0.716      0.5675267        0.98568
      6876.0000          1.341        11.1372       982.0996        94.4547        41.8484       59.28133         0.8674         0.9355         2.3423       -41.3051        -2.0894      0.5591773       0.958212
      6876.5000         1.3613        11.1341       933.7109        91.6046        41.4552       58.52133         0.8971         0.9882         2.3415       -42.5051        -3.2894      0.5430071       0.934212
      6877.0000         1.3621        11.1337       908.4404        87.8947        40.8156       57.28478         0.9389         1.0429         2.3638       -42.4189        -3.2032      0.5166975       0.935936
      6877.5000         1.3688        11.1333       883.1709        84.9221        39.5233       54.78635         0.9816         1.0956         2.3724       -42.2894        -3.0737      0.4635395       0.938526
      6878.0000         1.3805        11.1329       862.0293        83.9652        38.1298       52.09208         1.0261         1.1451         2.3448       -42.1349        -2.9192      0.4062144       0.941616
      6878.5000         1.4026        11.1315       877.3662        84.9009        37.2238       50.34068         1.0706          1.177         2.3254       -42.0854        -2.8697      0.3689506       0.942606
      6879.0000         1.3512        11.1287       917.1982        86.9596         38.116        52.0656         1.0969         1.1561         2.3166       -44.8397         -5.624      0.4056511        0.88752
      6879.5000         1.2968        11.1316       971.0908        90.2947        39.2958       54.34632         1.1078         1.0666         2.2915       -47.3251        -8.1094      0.4541771       0.837812
      6880.0000          1.148        11.1398        1046.85        94.9047        40.1603       56.01768         0.9912         0.9128         2.2446       -49.1295        -9.9138      0.4897379       0.801724
      6880.5000         1.1497        11.1635       1124.512        99.6296        40.5272         56.727         0.8399         0.7882         2.2105       -50.8986       -11.6829      0.5048297       0.766342
      6881.0000         1.1497        11.2161       1247.609       101.2322        40.2603        56.2112         0.7308         0.6998         2.2018       -52.6553       -13.4396      0.4938553       0.731208
      6881.5000         1.1498        11.2804       1706.375        102.406        39.9172       55.54768          0.655         0.6403         2.2221       -57.6663       -18.4506      0.4797378       0.630988
      6882.0000         1.1534        11.3489       1830.975       103.0547        39.5739       54.88418         0.5809         0.6033         2.2564       -60.8428       -21.6271      0.4656208       0.567458
      6882.5000         1.1571        11.4002       1907.334       103.8185        38.4213       52.65565          0.551         0.5804         2.2811       -61.9033       -22.6876      0.4182054       0.546248
      6883.0000         1.1676        11.4202       1962.654       104.7336        36.3016       48.55778         0.5635         0.5843         2.2886        -60.981       -21.7653      0.3310166       0.564694
      6883.5000         1.1765        11.4335       1943.363       104.6753        37.2012       50.29681         0.5761         0.6111         2.2953       -59.8878       -20.6721      0.3680172       0.586558
