#------------------------------------------------------------------------------
# Created by    : vladimir.rabinovich
# Created on    : 09/19/2023 17:20:23
#------------------------------------------------------------------------------
~Version Information Section
VERS.           2.0     :   CWLS log ASCII Standard - VERSION 2.0
WRAP.           NO      :   One line per depth step
~Well Information Section
#MNEM       .UNIT                                         VALUE :DESCRIPTION
#------------------------------------------------------------------------------
STRT        .FT                                            3532 :START DEPTH
STOP        .FT                                           13690 :STOP DEPTH
STEP        .FT                                             0.5 :STEP      
NULL        .                                           -999.25 :NULL      
COMP        .                              VASTAR RESOURCES INC :COMPANY   
WELL        .                                     ST TR 00023-L :WELL      
FLD         .                          HIGH ISLAND BLOCK 0024-L :FIELD     
LOC         .                                                   :LOCATION  
CNTY        .                           HIGH ISLAND LARGE BLOCK :LOCATION  
STAT        .                                             TEXAS :STATE     
CTRY        .                                     UNITED STATES :COUNTRY   
SRVC        .                                                   :SERVICE COMPANY
DATE        .                             9/13/2023 11:19:15 AM :LOG DATE  
API         .                                    42708300330000 :API NUMBER
UWI         .                                    42708300330000 :UNIQUE WELL ID
XCOORD      .                                  1290562.53578251 :SURFACE X 
YCOORD      .                                  10712997.1214806 :SURFACE Y 
LAT         .                                        29.5146054 :LATITUDE  
LON         .                                       -94.1002609 :LONGITUDE 
ELEV        .FT                                              79 :ELEVATION VALUE
ELEV_TYPE   .                                                KB :ELEVATION REFERENCE TYPE
~Curve Information Section
#MNEM       .UNIT                                      API CODE :CURVE DESCRIPTION
#------------------------------------------------------------------------------
DEPT        .FT                                                 :DEPTH     
ASN         .OHMM                                               :          
CILD        .MMHO                                               :          
ILD         .OHMM                                               :          
SP          .MV                                                 :          
SP_NORM     .MV                                                 :SP Normalized
VSH_SP      .V/V                                                :Volume of Shale from SP
~A        DEPTH            ASN           CILD            ILD             SP        SP_NORM         VSH_SP
# ...
     12310.0000         1.3969        1845.82         0.3929       -87.8578      -41.31693      0.3166623
     12310.5000         1.6077       1751.535         0.4258       -83.0784      -36.53752      0.3976691
     12311.0000         1.6593       1600.717         0.4587       -78.5969      -32.05602      0.4736267
     12311.5000         1.6002       1563.555         0.4917       -74.1156      -27.57472       0.549581
     12312.0000         1.3955       1539.736         0.5246       -70.1162      -23.57533      0.6173674
     12312.5000         1.2647       1515.869         0.5533       -66.7825      -20.24162      0.6738708
     12313.0000         1.2623       1497.635          0.576       -63.9407      -17.39982      0.7220369
     12313.5000          1.288       1479.646         0.5987       -63.0085      -16.46762       0.737837
     12314.0000         1.3137       1461.658         0.6214       -63.3792      -16.83832      0.7315539
     12314.5000         1.3394       1443.672         0.6441       -62.3409      -15.80002      0.7491522
     12315.0000         1.3785       1410.068         0.6668       -58.4457      -11.90482      0.8151725
     12315.5000         1.4438       1468.873         0.6843       -52.7621      -6.221222      0.9115047
     12316.0000         0.9713       1533.115         0.6731       -49.7911      -3.250221      0.9618607
     12316.5000         0.8743       1597.355          0.662       -47.7193      -1.178421      0.9969759
     12317.0000         0.8469       1646.377         0.6509       -47.1088     -0.5679207              1
     12317.5000         0.8433       1694.607         0.6397       -47.1921     -0.6512222              1
     12318.0000         0.7653       1702.588         0.6248       -47.3827     -0.8418236              1
     12318.5000         0.6572       1697.424         0.5965       -47.8261      -1.285221      0.9951658
     12319.0000         0.6497       1683.982         0.5683       -48.2695      -1.728622      0.9876505
     12319.5000         0.6456       1702.811           0.54       -46.8971     -0.3562202              1
     12320.0000         0.6375       1783.754         0.5117       -45.4637       1.077179              1
     12320.5000         0.6481         1872.9         0.4834       -44.8576       1.683277              1
     12321.0000          0.678       1925.281         0.4551        -45.978      0.5628777              1
     12321.5000         0.7065       1843.844         0.4977       -47.0958     -0.5549202              1
     12322.0000          0.735       1769.918         0.5426       -48.2161       -1.67522      0.9885556
     12322.5000         0.7635       1707.652         0.5876       -49.3365       -2.79562      0.9695657
     12323.0000         0.8286       1645.389         0.6325       -52.2255       -5.68462      0.9205996
     12323.5000         0.9148       1588.066         0.6531       -56.9851      -10.44422      0.8399284
     12324.0000         1.0465       1597.355         0.6619       -61.7347      -15.19382      0.7594268
     12324.5000         1.2629       1645.783         0.6315        -66.703      -20.16212      0.6752182
     12325.0000          1.516       1735.129         0.5954       -72.4363      -25.89542      0.5780436
     12325.5000         1.7694       1825.658         0.5594       -82.8696      -36.32872      0.4012081
     12326.0000         1.4743       2111.707         0.5233       -90.4562      -43.91532      0.2726217
     12326.5000         1.3745       2217.063         0.4873       -91.9392      -45.39832      0.2474861
     12327.0000         1.2747       2304.824         0.4512       -93.3551      -46.81422      0.2234877
     12327.5000         1.0775        2404.25         0.4151       -94.5848      -48.04392      0.2026454
     12328.0000         1.0587       2426.488         0.4036       -95.6331      -49.09222      0.1848776
     12328.5000         1.2019       2383.891         0.4037       -96.0579      -49.51702      0.1776776
     12329.0000         1.3456       2344.359         0.4037       -96.4827      -49.94182      0.1704777
     12329.5000         1.3715       2318.266         0.4037       -95.0518      -48.51093      0.1947301
     12330.0000         1.2728       2292.176         0.4038       -88.1758      -41.63492      0.3112726
     12330.5000         0.9927       2266.082         0.4038        -79.988      -33.44712      0.4500488
     12331.0000         0.9434       2274.582         0.4039       -73.8374      -27.29652      0.5542962
     12331.5000         0.8942       2307.641         0.4039       -69.4852      -22.94432      0.6280624
     12332.0000         0.8333        2340.75         0.4039       -65.1331      -18.59222      0.7018267
     12332.5000           0.76       2366.992          0.404       -60.9597      -14.41882      0.7725623
     12333.0000         0.7705       2393.082         0.4054       -62.4104      -15.86952      0.7479742
     12333.5000         0.8346       2419.176         0.4073       -70.8267      -24.28582      0.6053251
     12334.0000         0.8988       2445.266         0.4092       -82.0449      -35.50402      0.4151861
     12334.5000         0.9627       2470.086         0.4112       -86.7747      -40.23382        0.33502
     12335.0000         1.0225       2466.711         0.4131       -88.8464      -42.30552      0.2999065
     12335.5000         1.0821        2341.59          0.415       -90.2325      -43.69162      0.2764132
     12336.0000         1.1417       2293.656         0.4169       -91.2759      -44.73502      0.2587284
     12336.5000         1.1913       2247.305         0.4189       -89.7954      -43.25452      0.2838216
     12337.0000         1.2337       2200.953         0.4299       -85.8407      -39.29982      0.3508505
     12337.5000         1.2726       2072.371         0.4559        -81.876      -35.33512      0.4180488
     12338.0000         1.1917       2023.449         0.4819       -78.0405      -31.49962      0.4830573
     12338.5000         0.8609       2017.002         0.5079       -74.3441      -27.80322      0.5457081
     12339.0000         1.0036       2016.646         0.5339       -70.6477      -24.10682       0.608359
     12339.5000         1.0972       2016.455           0.56       -65.1331      -18.59222      0.7018267
     12340.0000         1.1726       1765.568         0.5764       -63.4537      -16.91282      0.7302911
     12340.5000          1.248       1628.785         0.5724       -71.2837      -24.74282      0.5975793
     12341.0000          1.246       1644.203         0.5683       -77.5039      -30.96302      0.4921522
     12341.5000         1.1494       1683.537         0.5642       -76.6742      -30.13332      0.5062149
     12342.0000         1.0512       1722.773         0.5602       -73.7032      -27.16232      0.5565708
     12342.5000         0.8068       1771.992         0.5561       -70.7273      -24.18642      0.6070098
     12343.0000         0.7251       1822.596          0.586       -67.6171      -21.07623       0.659725
     12343.5000         0.7664        1837.32         0.6421       -63.6326      -17.09172       0.727259
     12344.0000         0.8816       1740.268         0.6981       -59.6481      -13.10722      0.7947928
     12344.5000         1.0036       1526.395         0.8747       -57.2683      -10.72742      0.8351285
     12345.0000         1.5789        1388.82         1.1074       -57.0596      -10.51872      0.8386657
     12345.5000         1.6801       1251.641         1.2704       -61.7645      -15.22362      0.7589217
     12346.0000         1.8257       1127.408         1.4183       -70.9061      -24.36522      0.6039793
     12346.5000         2.0088       1082.043         1.5663       -75.0596      -28.51872       0.533581
     12347.0000         2.5156       1046.316         1.6945       -78.4927      -31.95182      0.4753929
     12347.5000         2.9374       1111.693         1.8222       -80.0228      -33.48192       0.449459
