#------------------------------------------------------------------------------
# Created by    : vladimir.rabinovich
# Created on    : 09/19/2023 17:20:33
#------------------------------------------------------------------------------
~Version Information Section
VERS.           2.0     :   CWLS log ASCII Standard - VERSION 2.0
WRAP.           NO      :   One line per depth step
~Well Information Section
#MNEM       .UNIT                                         VALUE :DESCRIPTION
#------------------------------------------------------------------------------
STRT        .FT                                             526 :START DEPTH
STOP        .FT                                            9568 :STOP DEPTH
STEP        .FT                                             0.5 :STEP      
NULL        .                                           -999.25 :NULL      
COMP        .                       BLUE DOLPHIN EXPLORATION CO :COMPANY   
WELL        .                                OCS 00713 ST00BP00 :WELL      
FLD         .                              GALVESTON BLOCK 0288 :FIELD     
LOC         .                                                   :LOCATION  
CNTY        .                             GALVESTON LARGE BLOCK :LOCATION  
STAT        .                                             TEXAS :STATE     
CTRY        .                                     UNITED STATES :COUNTRY   
SRVC        .                                                   :SERVICE COMPANY
DATE        .                             9/13/2023 11:19:25 AM :LOG DATE  
API         .                                    42706000630000 :API NUMBER
UWI         .                                    42706000630000 :UNIQUE WELL ID
XCOORD      .                                  1101981.32688909 :SURFACE X 
YCOORD      .                                  10481575.8265757 :SURFACE Y 
LAT         .                                          28.87198 :LATITUDE  
LON         .                                        -94.682732 :LONGITUDE 
ELEV        .FT                                              58 :ELEVATION VALUE
ELEV_TYPE   .                                                KB :ELEVATION REFERENCE TYPE
~Curve Information Section
#MNEM       .UNIT                                      API CODE :CURVE DESCRIPTION
#------------------------------------------------------------------------------
DEPT        .FT                                                 :DEPTH     
ASN         .OHMM                                               :          
CALI        .IN                                                 :          
DT          .US/F                                               :          
ILD         .OHMM                                               :          
SP          .MV                                                 :          
SP_NORM     .MV                                                 :SP Normalized
VSH_SP      .V/V                                                :Volume of Shale from SP
~A        DEPTH            ASN           CALI             DT            ILD             SP        SP_NORM         VSH_SP
# ...
      6522.5000         0.6408        10.1971       119.2372         0.6884       -40.6005      -3.391197      0.9386873
      6523.0000         0.6821        10.0374       116.9335         0.7105       -40.2335        -3.0242      0.9480974
      6523.5000         0.7387        10.1015       115.6075         0.7293       -39.7919        -2.5826      0.9594205
      6524.0000         0.7865        10.3026       115.7174         0.7612       -39.8068        -2.5975      0.9590384
      6524.5000         0.7936        10.4335       114.9518         0.7795       -39.7913      -2.582001      0.9594359
      6525.0000         0.7768          10.39       103.1809         0.8048       -39.6635      -2.454201      0.9627128
      6525.5000         0.7627        10.3401        98.8391          0.816       -38.7928        -1.5835      0.9850385
      6526.0000         0.7542        10.3307        99.5508          0.813       -38.1628     -0.9534988              1
      6526.5000         0.7531        10.2077        106.757         0.7932       -37.9905     -0.7812004              1
      6527.0000         0.7561        10.1441       108.0834         0.7663       -37.7733     -0.5639992              1
      6527.5000         0.7549        10.1832       109.1193          0.741       -37.8249     -0.6156006              1
      6528.0000         0.7419        10.1839       109.6361         0.7164       -38.1603     -0.9510002              1
      6528.5000         0.7182        10.1191       107.9302         0.7085       -37.7668     -0.5574989              1
      6529.0000         0.6959        10.0721       106.5306         0.7031       -37.9211     -0.7117996              1
      6529.5000         0.6713        10.0943       110.1349         0.6912       -38.1577     -0.9483986              1
      6530.0000         0.6446        10.0845       115.3324         0.6813       -38.2902      -1.080898      0.9979257
      6530.5000         0.6298         10.043       119.4805         0.6775       -38.3942      -1.184898       0.995259
      6531.0000         0.6335        10.0244        122.113          0.676       -38.6349      -1.425598      0.9890872
      6531.5000          0.658        10.0305       119.9758         0.6844       -38.8591      -1.649799      0.9833385
      6532.0000         0.6769        10.0544       115.6521         0.7021        -39.304        -2.0947      0.9719308
      6532.5000         0.6936        10.0628       112.3643         0.7248       -39.3514      -2.142097      0.9707155
      6533.0000         0.7155         9.9702        108.178         0.7343       -39.1491        -1.9398      0.9759026
      6533.5000         0.7382         9.9051       106.2198         0.7441       -39.2876        -2.0783      0.9723513
      6534.0000         0.7523         9.8972       105.6475         0.7551       -40.0508      -2.841499      0.9527821
      6534.5000         0.7514         9.9127       102.9399          0.765       -40.9556        -3.7463      0.9295821
      6535.0000         0.7513         9.9688       101.7092         0.7678       -40.9035      -3.694199       0.930918
      6535.5000         0.7604        10.0504       103.8925         0.7756        -41.056      -3.846699      0.9270077
      6536.0000         0.7665        10.0612       108.3198         0.7764       -40.5861      -3.376801      0.9390564
      6536.5000         0.7637        10.0809       107.8446         0.7743       -41.0925      -3.883198      0.9260718
      6537.0000         0.7585        10.1408       106.8492         0.7567       -41.2339      -4.024597      0.9224463
      6537.5000         0.7545        10.2037       106.4631         0.7569       -40.9234        -3.7141      0.9304077
      6538.0000         0.7497        10.2697       107.7343         0.7586       -40.7133      -3.503998      0.9357949
      6538.5000         0.7275        10.3396       108.9492         0.7454       -40.4141        -3.2048      0.9434667
      6539.0000         0.7047        10.3614       108.0045         0.7238       -39.8759      -2.666599      0.9572667
      6539.5000         0.6844        10.2472        107.356         0.6982       -39.7667        -2.5574      0.9600667
      6540.0000         0.6654        10.2756       112.5354         0.6751       -39.3547      -2.145397      0.9706308
      6540.5000         0.6456        10.3484       113.9598         0.6494       -38.5945      -1.385201      0.9901231
      6541.0000         0.6245        10.4514       113.4784         0.6315       -38.2186        -1.0093      0.9997615
      6541.5000         0.5989        10.6049       114.9496         0.6288       -37.6286     -0.4193001              1
      6542.0000         0.5838        10.6614       118.3489         0.6232       -37.5329     -0.3236008              1
      6542.5000         0.5764        10.6672       119.1899         0.6197       -37.5607     -0.3513985              1
      6543.0000          0.574        10.6292       122.0736         0.6188       -37.7617     -0.5523987              1
      6543.5000         0.5742        10.5734       122.4058         0.6251       -38.0259     -0.8166008              1
      6544.0000         0.5877        10.5573       121.8619         0.6319       -37.8707     -0.6613998              1
      6544.5000         0.6057        10.6621       123.3268         0.6564       -38.2832      -1.073898      0.9981052
      6545.0000         0.6273        10.7045       119.2417         0.6714       -38.5923      -1.382999      0.9901795
      6545.5000         0.6516        10.6691       113.6198         0.6925       -38.7895        -1.5802      0.9851231
      6546.0000         0.6722        10.6318       114.6298         0.7173       -38.9088      -1.699497      0.9820642
      6546.5000         0.6936        10.6083       114.2379           0.74       -38.6259      -1.416599       0.989318
      6547.0000         0.7168        10.5966       109.0156         0.7721       -38.2119      -1.002598      0.9999334
      6547.5000         0.7436        10.6237       107.5396         0.7948        -38.908        -1.6987      0.9820846
      6548.0000         0.7689        10.6514       109.7926         0.8022       -39.5735      -2.364201      0.9650205
      6548.5000         0.7822        10.7366       108.2972         0.8007       -39.8929      -2.683598      0.9568309
      6549.0000         0.7892        10.8455       105.3405         0.8014       -40.0699        -2.8606      0.9522923
      6549.5000         0.7878         10.817       105.7683         0.7975       -40.4885      -3.279198       0.941559
      6550.0000         0.7805        10.7688       109.9277         0.7851       -40.6528      -3.443501      0.9373462
      6550.5000         0.7639        10.7356       112.9183         0.7747        -40.313      -3.103699       0.946059
      6551.0000         0.7388        10.7386       104.4645         0.7593       -39.8849      -2.675598       0.957036
      6551.5000         0.7194        10.7357       103.9612         0.7394       -39.4923      -2.282997      0.9671026
      6552.0000         0.7119        10.7311       106.6781         0.7215       -39.3197      -2.110397      0.9715283
      6552.5000         0.7059        10.7036        108.313         0.7134       -39.1578      -1.948498      0.9756795
      6553.0000         0.6959         10.658       107.8086         0.7025       -38.8611      -1.651798      0.9832872
      6553.5000         0.6731        10.6278       106.6263         0.6971        -38.717      -1.507698      0.9869821
      6554.0000         0.6387        10.6144       109.7025         0.6928        -38.462      -1.252701      0.9935205
      6554.5000         0.6159        10.6065       115.7653         0.6743       -38.0562     -0.8468971              1
      6555.0000          0.606        10.5732       116.2703         0.6627       -37.8946     -0.6852989              1
      6555.5000         0.6065        10.5303       117.6857         0.6554        -38.222      -1.012699      0.9996744
