#------------------------------------------------------------------------------
# Created by    : vladimir.rabinovich
# Created on    : 09/19/2023 17:22:41
#------------------------------------------------------------------------------
~Version Information Section
VERS.           2.0     :   CWLS log ASCII Standard - VERSION 2.0
WRAP.           NO      :   One line per depth step
~Well Information Section
#MNEM       .UNIT                                         VALUE :DESCRIPTION
#------------------------------------------------------------------------------
STRT        .FT                                            2948 :START DEPTH
STOP        .FT                                            8770 :STOP DEPTH
STEP        .FT                                             0.5 :STEP      
NULL        .                                           -999.25 :NULL      
COMP        .                 BROOKLYN UNION EXPLORATION CO INC :COMPANY   
WELL        .                               OCS G07238 ST00BP00 :WELL      
FLD         .                                           WILDCAT :FIELD     
LOC         .                                                   :LOCATION  
CNTY        .                             GALVESTON LARGE BLOCK :LOCATION  
STAT        .                                             TEXAS :STATE     
CTRY        .                                     UNITED STATES :COUNTRY   
SRVC        .                                                   :SERVICE COMPANY
DATE        .                             9/13/2023 11:19:34 AM :LOG DATE  
API         .                                    42706402470000 :API NUMBER
UWI         .                                    42706402470000 :UNIQUE WELL ID
XCOORD      .                                  1057740.92261072 :SURFACE X 
YCOORD      .                                   10547901.298013 :SURFACE Y 
LAT         .                                         29.052568 :LATITUDE  
LON         .                                        -94.824133 :LONGITUDE 
ELEV        .FT                                              85 :ELEVATION VALUE
ELEV_TYPE   .                                                KB :ELEVATION REFERENCE TYPE
~Curve Information Section
#MNEM       .UNIT                                      API CODE :CURVE DESCRIPTION
#------------------------------------------------------------------------------
DEPT        .FT                                                 :DEPTH     
DCAL        .IN                                                 :          
DT          .US/F                                               :          
GR          .GAPI                                               :          
GR_NORM     .GAPI                                               :GammaRay Normalized
ILD         .OHMM                                               :          
ILM         .OHMM                                               :          
SFL         .OHMM                                               :          
SP          .MV                                                 :          
SP_NORM     .MV                                                 :SP Normalized
VSH_GR      .V/V                                                :Volume of Shale from GR
VSH_SP      .V/V                                                :Volume of Shale from SP
~A        DEPTH           DCAL             DT             GR        GR_NORM            ILD            ILM            SFL             SP        SP_NORM         VSH_GR         VSH_SP
# ...
      6458.0000         1.4435       115.9336        84.9766       89.49027         0.7543         0.7486         0.8173       -52.7477      -6.420017              1      0.9012305
      6458.5000         1.4478       117.1224        85.2725       89.87376         0.7412         0.7401         0.7528       -52.5894      -6.261719              1      0.9036658
      6459.0000         1.4682       117.3127        84.3646       88.68044         0.7295         0.7243         0.7316       -52.4125      -6.084816              1      0.9063874
      6459.5000         1.4893       117.3391        84.2382       88.51079         0.7193         0.7116         0.7297       -52.2037      -5.876019              1      0.9095997
      6460.0000         1.5107       117.5132        85.2874       89.88101         0.7105         0.7013         0.7319       -52.0283      -5.700619              1      0.9122982
      6460.5000         1.5336       117.8534        86.0308       90.85068         0.7039         0.6936         0.7351       -51.8795      -5.551819              1      0.9145874
      6461.0000         1.5615       118.4634        86.1067       90.94598         0.6977         0.6878         0.7327       -51.9554      -5.627716              1      0.9134197
      6461.5000         1.5873       119.0579        85.9622       90.75261         0.6928         0.6827         0.7201        -52.108      -5.780319              1       0.911072
      6462.0000         1.6046       119.4646        85.0859       89.60069          0.688         0.6788         0.7087       -52.3218      -5.994118              1      0.9077828
      6462.5000         1.6219       119.4844        83.1442       87.05319          0.684         0.6752         0.7111       -52.3815      -6.053818              1      0.9068643
      6463.0000         1.6245       118.8969        80.2601       83.27128         0.6811         0.6742         0.7174       -52.3101      -5.982418              1      0.9079628
      6463.5000         1.6226       118.5201        77.5276       79.68793         0.6786         0.6744         0.7165       -52.1223      -5.794617      0.9933603      0.9108521
      6464.0000         1.6195       118.7822        78.8777       81.45232         0.6801         0.6771          0.708       -51.8466      -5.518917              1      0.9150936
      6464.5000         1.6118       119.1703        79.9816        82.8942         0.6816         0.6804         0.6971       -51.5983      -5.270618              1      0.9189135
      6465.0000         1.6041       119.0811        80.0686       83.00406          0.686         0.6848         0.7009       -51.4233      -5.095619              1      0.9216059
      6465.5000         1.5876       118.6244        80.3271       83.33855         0.6905         0.6893           0.71       -51.4128      -5.085117              1      0.9217674
      6466.0000         1.5643       118.0538        83.2312       87.13847         0.6947         0.6942         0.7099       -51.4673      -5.139618              1       0.920929
      6466.5000          1.541       117.7766        86.5778         91.518         0.6977         0.6989         0.7083       -51.6009      -5.273216              1      0.9188736
      6467.0000         1.5282        118.019        88.4375       93.94989         0.6995         0.7032         0.7194        -51.649      -5.321316              1      0.9181336
      6467.5000         1.5203       118.2234        87.1769       92.29456         0.7018         0.7071         0.7385       -51.6398      -5.312119              1      0.9182751
      6468.0000         1.5139       118.1779        84.6907       89.03385         0.7042         0.7098         0.7575       -51.5772      -5.249519              1      0.9192382
      6468.5000         1.5249       117.8252        82.1696       85.72743         0.7075         0.7102         0.7733        -51.527      -5.199318              1      0.9200105
      6469.0000         1.5359       117.4377        80.5597       83.61457         0.7105         0.7089         0.7819       -51.4774      -5.149719              1      0.9207736
      6469.5000         1.5421       117.3424        82.3958       86.01553         0.7124         0.7108         0.7684        -51.388      -5.060318              1      0.9221489
      6470.0000         1.5464       117.8571        85.9139       90.61973         0.7146         0.7133         0.7525       -51.3214      -4.993717              1      0.9231736
      6470.5000         1.5554       118.3501        87.9731       93.31291          0.717         0.7171         0.7482       -51.2847      -4.957016              1      0.9237382
      6471.0000         1.5734       118.3767        88.0789       93.44743         0.7176         0.7181         0.7577       -51.3381      -5.010418              1      0.9229167
      6471.5000         1.5914       118.0347        87.4479       92.61678         0.7172         0.7182         0.7728       -51.3951      -5.067417              1      0.9220397
      6472.0000         1.6105       117.6984        86.4907       91.35887         0.7139         0.7176          0.781       -51.4439      -5.116219              1       0.921289
      6472.5000         1.6298       117.5675         83.972        88.0556         0.7105         0.7153         0.7776       -51.6129      -5.285217              1       0.918689
      6473.0000           1.66       117.6486        80.7748       83.86355         0.7076         0.7126         0.7595       -51.7147      -5.387016              1      0.9171228
      6473.5000         1.6916       118.1715        79.1617       81.74649         0.7073          0.709         0.7508       -51.5775      -5.249817              1      0.9192336
      6474.0000         1.7153       118.8636        80.5286       83.53287         0.7083         0.7057         0.7497       -51.2965      -4.968819              1      0.9235566
      6474.5000          1.733       119.5596        81.8885       85.31006         0.7101         0.7045         0.7392       -50.9736      -4.645916              1      0.9285244
      6475.0000         1.7495       120.1339        81.6688        85.0182         0.7121         0.7032         0.7272       -50.6926      -4.364918              1      0.9328474
      6475.5000         1.7611       120.6296        81.3737       84.62756         0.7139         0.7035         0.7222       -50.5267      -4.199017              1      0.9353998
      6476.0000         1.7718       120.9341        82.2267       85.74077         0.7153         0.7043         0.7193       -50.4316      -4.103916              1      0.9368628
      6476.5000         1.7586       120.7954        83.3307       87.18279         0.7167         0.7059         0.7279       -50.3583      -4.030617              1      0.9379905
      6477.0000         1.7493       120.1001        84.4047        88.5855         0.7202         0.7101         0.7378       -50.3146      -3.986919              1      0.9386628
      6477.5000         1.7536       119.2257        85.3557       89.82709         0.7237         0.7146         0.7513       -50.3279      -4.000217              1      0.9384582
      6478.0000         1.7578       118.3025        85.9916       90.65596         0.7279         0.7205         0.7674       -50.3537      -4.026016              1      0.9380613
      6478.5000         1.7621       117.2727        84.7938       89.08289         0.7331         0.7264         0.7809        -50.387      -4.059319              1      0.9375489
      6479.0000         1.7664        116.243        83.2871       87.10522         0.7389         0.7321         0.7893        -50.182      -3.854317              1      0.9407028
      6479.5000         1.7596       115.3823        81.8694       85.24409         0.7465         0.7377         0.7931       -49.9185      -3.590816              1      0.9447567
      6480.0000         1.7503       115.4031        82.1671       85.62994         0.7531         0.7433         0.7911       -49.5474      -3.219719              1      0.9504659
