#------------------------------------------------------------------------------
# Created by    : vladimir.rabinovich
# Created on    : 09/19/2023 17:20:32
#------------------------------------------------------------------------------
~Version Information Section
VERS.           2.0     :   CWLS log ASCII Standard - VERSION 2.0
WRAP.           NO      :   One line per depth step
~Well Information Section
#MNEM       .UNIT                                         VALUE :DESCRIPTION
#------------------------------------------------------------------------------
STRT        .FT                                             642 :START DEPTH
STOP        .FT                                           11989 :STOP DEPTH
STEP        .FT                                             0.5 :STEP      
NULL        .                                           -999.25 :NULL      
COMP        .                       CORPUS CHRISTI OIL & GAS CO :COMPANY   
WELL        .                               OCS G05177 ST00BP00 :WELL      
FLD         .                              GALVESTON BLOCK 0151 :FIELD     
LOC         .                                                   :LOCATION  
CNTY        .                             GALVESTON LARGE BLOCK :LOCATION  
STAT        .                                             TEXAS :STATE     
CTRY        .                                     UNITED STATES :COUNTRY   
SRVC        .                                                   :SERVICE COMPANY
DATE        .                             9/13/2023 11:19:27 AM :LOG DATE  
API         .                                    42706401010000 :API NUMBER
UWI         .                                    42706401010000 :UNIQUE WELL ID
XCOORD      .                                   1130272.6689428 :SURFACE X 
YCOORD      .                                  10609756.0111422 :SURFACE Y 
LAT         .                                         29.225567 :LATITUDE  
LON         .                                        -94.599775 :LONGITUDE 
ELEV        .FT                                              83 :ELEVATION VALUE
ELEV_TYPE   .                                                KB :ELEVATION REFERENCE TYPE
~Curve Information Section
#MNEM       .UNIT                                      API CODE :CURVE DESCRIPTION
#------------------------------------------------------------------------------
DEPT        .FT                                                 :DEPTH     
ASN         .OHMM                                               :          
CILD        .MMHO                                               :          
DT          .US/F                                               :          
ILD         .OHMM                                               :          
RHOB        .G/CC                                               :          
SP          .MV                                                 :          
SP_NORM     .MV                                                 :SP Normalized
VSH_SP      .V/V                                                :Volume of Shale from SP
~A        DEPTH            ASN           CILD             DT            ILD           RHOB             SP        SP_NORM         VSH_SP
# ...
      2913.5000         0.6099       1649.811       137.3561         0.5626        -999.25       -81.5679      -5.153046      0.9021343
      2914.0000         0.6086       1702.994       136.9018         0.5583        -999.25       -82.1637       -5.75106      0.8749518
      2914.5000          0.606       1813.488       133.3521         0.5536        -999.25       -84.5575      -8.147087      0.7660415
      2915.0000         0.5976        1946.16       128.5649         0.5471        -999.25       -86.1324      -9.724213       0.694354
      2915.5000         0.5845       2092.059        124.551         0.5407        -999.25       -87.1399      -10.73393      0.6484576
      2916.0000         0.5734       2268.492       122.5481         0.5343        -999.25       -88.1853      -11.78156      0.6008384
      2916.5000         0.5647       2346.141       121.9372         0.5275        -999.25        -89.224      -12.82247       0.553524
      2917.0000          0.556       2394.863       124.0573           0.52        -999.25       -90.2394       -13.8401      0.5072684
      2917.5000         0.5513       2421.055        127.678         0.5124        -999.25        -90.677      -14.27991      0.4872766
      2918.0000         0.5471        2447.25        130.006         0.5049        -999.25       -90.7843      -14.38944      0.4822981
      2918.5000         0.5428       2454.828       132.1793         0.4974        -999.25       -90.7317      -14.33906      0.4845883
      2919.0000         0.5388       2453.465       135.8995         0.4899        -999.25       -90.6791      -14.28868      0.4868781
      2919.5000         0.5348        2449.75       137.6088         0.4823        -999.25       -90.6265       -14.2383       0.489168
      2920.0000         0.5307       2442.133       137.1526         0.4764        -999.25       -90.5273      -14.14132      0.4935764
      2920.5000         0.5267       2434.512       134.8403         0.4706        -999.25        -90.665      -14.28124      0.4872163
      2921.0000         0.5239       2426.891       133.1114         0.4648        -999.25        -90.994      -14.61246      0.4721607
      2921.5000         0.5217        2419.27       131.1456          0.459        -999.25       -91.4202      -15.04089       0.452687
      2922.0000         0.5194        2425.27       130.6894         0.4532        -999.25       -91.8219      -15.44481      0.4343269
      2922.5000         0.5176       2440.785       130.6973         0.4474        -999.25       -92.1603      -15.78543       0.418844
      2923.0000         0.5161       2456.305       131.7878         0.4416        -999.25       -92.1962      -15.82355      0.4171115
      2923.5000         0.5147        2506.09       132.7238         0.4342        -999.25       -91.8051      -15.43467      0.4347878
      2924.0000         0.5133       2561.859       134.1237         0.4265        -999.25       -91.4139      -15.04569      0.4524685
      2924.5000         0.5119       2611.016       136.6064         0.4188        -999.25       -91.0208      -14.65481       0.470236
      2925.0000         0.5112       2636.574       137.0783         0.4112        -999.25       -90.3849      -14.02114      0.4990391
      2925.5000         0.5105       2662.121       135.6291         0.4033        -999.25       -90.4946      -14.13306       0.493952
      2926.0000         0.5104        2687.32       133.5383         0.3939        -999.25       -90.8215      -14.46218      0.4789918
      2926.5000         0.5118       2712.234       132.7708         0.3846        -999.25       -91.1482       -14.7911      0.4640409
      2927.0000         0.5132       2735.406       132.3166         0.3752        -999.25       -91.4751      -15.12022      0.4490811
      2927.5000         0.5147        2756.18       131.7057         0.3659        -999.25       -92.0331      -15.68044      0.4236166
      2928.0000         0.5165       2775.711       131.4022         0.3577        -999.25       -92.6285      -16.27807      0.3964514
      2928.5000         0.5188       2786.109        130.948         0.3514        -999.25       -92.8021      -16.45389      0.3884597
      2929.0000         0.5211       2796.508       130.9559         0.3451        -999.25       -92.0706      -15.72461      0.4216087
      2929.5000         0.5238       2804.535       131.1316         0.3416        -999.25       -91.3389      -14.99512       0.454767
      2930.0000         0.5273       2812.031       131.5922         0.3546        -999.25       -91.0211      -14.67955      0.4691114
      2930.5000         0.5308       2763.875       132.2188         0.3676        -999.25       -90.7915      -14.45216      0.4794471
      2931.0000         0.5343       2709.773       132.2266         0.3806        -999.25       -90.5619      -14.22478      0.4897825
      2931.5000         0.5368       2558.602       131.6157         0.3975        -999.25       -90.1613      -13.82642      0.5078902
      2932.0000         0.5385        2433.09       130.8502         0.4182        -999.25       -89.6768      -13.34414      0.5298119
      2932.5000         0.5402       2352.234       130.2393         0.4388        -999.25       -88.8436      -12.51315       0.567584
      2933.0000          0.542       2229.207       130.4018         0.4594        -999.25       -87.3245      -10.99628      0.6365328
      2933.5000         0.5437       2145.219       130.8737         0.4732        -999.25       -86.2284      -9.902397      0.6862547
      2934.0000         0.5449         2100.5       130.3951         0.4841        -999.25       -85.0918      -8.768013      0.7378176
      2934.5000         0.5462       2067.246       129.9613         0.4951        -999.25       -83.6458      -7.324234      0.8034439
      2935.0000         0.5475       2071.516       129.8145         0.4978        -999.25       -82.7281      -6.408768       0.845056
      2935.5000         0.5507       2088.727       131.0617          0.499        -999.25       -82.5316      -6.214485       0.853887
      2936.0000         0.5541       2106.719       129.2134         0.5003        -999.25       -83.9894      -7.674507      0.7875224
      2936.5000         0.5537       2136.801       129.6853         0.4976        -999.25       -85.0109      -8.698227      0.7409897
      2937.0000         0.5527       2166.887       132.9414          0.495        -999.25       -85.4449      -9.134445      0.7211616
      2937.5000         0.5492       2196.984       134.8054         0.4923        -999.25         -85.67      -9.361763       0.710829
      2938.0000         0.5438       2216.105       134.9679         0.4897        -999.25       -85.7295      -9.423492      0.7080231
      2938.5000         0.5385       2199.594        133.895         0.4852        -999.25       -85.6113       -9.30751       0.713295
      2939.0000         0.5331       2163.766       134.2122         0.4749        -999.25       -85.4244      -9.122833      0.7216894
      2939.5000         0.5281       2129.105       134.9934         0.4647        -999.25       -85.2377      -8.938354      0.7300748
      2940.0000         0.5235       2100.477       137.1668         0.4544        -999.25       -84.9092      -8.612076      0.7449057
      2940.5000         0.5201       2107.051        142.279         0.4442        -999.25       -84.4789       -8.18399      0.7643641
      2941.0000         0.5263       2181.418       141.2041         0.4339        -999.25       -83.9335      -7.640816      0.7890539
      2941.5000         0.5381       2280.625       138.1184         0.4229        -999.25       -84.6617      -8.371239      0.7558528
      2942.0000         0.5502       2348.105       134.8603         0.4104        -999.25       -87.9104      -11.62216      0.6080835
      2942.5000           0.56       2414.891       132.4461         0.3979        -999.25        -89.451      -13.16498      0.5379555
