#------------------------------------------------------------------------------
# Created by    : vladimir.rabinovich
# Created on    : 09/19/2023 17:21:04
#------------------------------------------------------------------------------
~Version Information Section
VERS.           2.0     :   CWLS log ASCII Standard - VERSION 2.0
WRAP.           NO      :   One line per depth step
~Well Information Section
#MNEM       .UNIT                                         VALUE :DESCRIPTION
#------------------------------------------------------------------------------
STRT        .FT                                            4500 :START DEPTH
STOP        .FT                                           11014 :STOP DEPTH
STEP        .FT                                             0.5 :STEP      
NULL        .                                           -999.25 :NULL      
COMP        .                              FIELDWOOD ENERGY LLC :COMPANY   
WELL        .                               OCS G06156 ST00BP00 :WELL      
FLD         .                            HIGH ISLAND BLOCK 0116 :FIELD     
LOC         .                                                   :LOCATION  
CNTY        .                           HIGH ISLAND LARGE BLOCK :LOCATION  
STAT        .                                             TEXAS :STATE     
CTRY        .                                     UNITED STATES :COUNTRY   
SRVC        .                                                   :SERVICE COMPANY
DATE        .                             9/13/2023 11:19:57 AM :LOG DATE  
API         .                                    42708404240000 :API NUMBER
UWI         .                                    42708404240000 :UNIQUE WELL ID
XCOORD      .                                  1333979.30181128 :SURFACE X 
YCOORD      .                                  10635798.2403082 :SURFACE Y 
LAT         .                                         29.303317 :LATITUDE  
LON         .                                        -93.961735 :LONGITUDE 
ELEV        .FT                                             101 :ELEVATION VALUE
ELEV_TYPE   .                                                KB :ELEVATION REFERENCE TYPE
~Curve Information Section
#MNEM       .UNIT                                      API CODE :CURVE DESCRIPTION
#------------------------------------------------------------------------------
DEPT        .FT                                                 :DEPTH     
AT10        .OHMM                                               :          
AT20        .OHMM                                               :          
AT30        .OHMM                                               :          
AT60        .OHMM                                               :          
AT90        .OHMM                                               :          
CALI        .IN                                                 :          
DCAL        .IN                                                 :          
DPHI        .DEC                                                :          
DRHO        .G/C3                                               :          
DT2R        .US/F                                               :          
DT4P        .US/F                                               :          
GR          .GAPI                                               :          
GR_NORM     .GAPI                                               :GammaRay Normalized
NPOR        .DEC                                                :          
SP          .MV                                                 :          
SP_NORM     .MV                                                 :SP Normalized
TENS        .LBF                                                :          
VSH_GR      .V/V                                                :Volume of Shale from GR
VSH_SP      .V/V                                                :Volume of Shale from SP
~A        DEPTH           AT10           AT20           AT30           AT60           AT90           CALI           DCAL           DPHI           DRHO           DT2R           DT4P             GR        GR_NORM           NPOR             SP        SP_NORM           TENS         VSH_GR         VSH_SP
# ...
      8712.0000         0.5494         0.5717         0.5493         0.5157         0.5622        11.1824        -999.25         0.2645         0.0044       298.5034        117.743         67.395       74.97622        -999.25       -32.8456     -0.4768379        3824.34      0.8931111       0.993188
      8712.5000         0.5671         0.5969         0.5728          0.536         0.5836        11.2124        -999.25         0.2478         0.0114       292.9048       116.6439        66.6937       74.16096        -999.25       -32.4449      0.1987747        3823.84       0.875765              1
      8713.0000         0.5857         0.6229         0.5968         0.5567         0.6071        11.3127        -999.25         0.2358         0.0145       287.3101       115.6438        66.5931       74.04417        -999.25       -32.0441       0.874556       3793.395      0.8732803              1
      8713.5000         0.6086         0.6432         0.6177         0.5782         0.6228        11.4529        -999.25         0.2255         0.0155        280.918        114.545        66.5928       74.04401        -999.25       -31.6433       1.550344       3792.895      0.8732769              1
      8714.0000          0.635          0.661         0.6289         0.5974         0.6368        11.5531        -999.25         0.2159         0.0196       274.9253       113.4473        66.6934       74.16119        -999.25       -32.0441      0.8622894       3822.336      0.8757699              1
      8714.5000         0.6699         0.6724         0.6385         0.6173         0.6615        11.6533        -999.25         0.2093         0.0236       270.1284       111.9486        67.1942       74.74371        -999.25       -32.0441      0.8561561       3831.813      0.8881641              1
      8715.0000         0.6802         0.6845         0.6425         0.6328         0.6928        11.6533        -999.25         0.2069         0.0257       266.1353       111.0483        68.2961       76.02518        -999.25       -32.2439      0.5100876       3791.391      0.9154295              1
      8715.5000         0.6797         0.7032         0.6492         0.6486         0.6969        11.6533        -999.25         0.2098         0.0247       262.1396       110.1498        68.9974       76.84084        -999.25       -32.7454     -0.3492908        3770.93      0.9327837      0.9950101
      8716.0000         0.6891         0.7304         0.6738          0.669          0.695        11.6934        -999.25         0.2122         0.0218       257.7397       109.1511        67.2935       74.85976        -999.25       -32.8456     -0.5259044       3780.438      0.8906331      0.9924871
      8716.5000         0.7189         0.7719          0.708         0.7044         0.7054        11.7234        -999.25         0.2116         0.0188       252.9456        107.954        65.2909       72.53135        -999.25       -32.6453     -0.1912524       3819.785      0.8410925      0.9972678
      8717.0000         0.7596         0.8309         0.7414          0.742         0.7301        11.7033        -999.25         0.2056         0.0179       250.9482       105.4551         63.887        70.8991        -999.25       -32.6453     -0.1973857       3849.227      0.8063639      0.9971802
      8717.5000         0.8077         0.8604         0.7685         0.7614         0.7861        11.6332        -999.25         0.1978         0.0179       249.7502       104.6553        63.7878       70.78394        -999.25       -32.4449      0.1374415       3818.824      0.8039137              1
      8718.0000         0.8199         0.8318         0.7806         0.7641         0.8093        11.6032        -999.25         0.1947          0.017       251.3501       105.1547        64.1879       71.24937        -999.25       -32.7455     -0.3801294       3798.363      0.8138163      0.9945696
      8718.5000           0.79         0.8036         0.7624         0.7461         0.7791        11.6333        -999.25         0.1953          0.018       254.9458       106.1539        64.7894       71.94898        -999.25       -32.9459     -0.7272233        3787.93      0.8287017      0.9896111
      8719.0000         0.7476         0.7841         0.7431         0.7264         0.7443        11.6533        -999.25         0.1977         0.0161       258.9434       107.5524        65.3904       72.64801        -999.25       -32.8454     -0.5623701       3807.391      0.8435747      0.9919661
      8719.5000         0.7204         0.7628         0.7217         0.7069         0.7135        11.6433        -999.25         0.2012         0.0151       263.7339       109.0505        65.9919       73.34762        -999.25       -32.6456     -0.2285618       3826.848      0.8584599      0.9967349
      8720.0000         0.6976         0.7362         0.7057         0.6957         0.6934        11.6232        -999.25         0.2072         0.0132       266.1338       110.4497        66.5935       74.04735        -999.25       -32.6453     -0.2341889       3836.324      0.8733478      0.9966545
      8720.5000         0.6807         0.7154         0.6925         0.6854         0.6771        11.6233        -999.25         0.2119         0.0122       267.3325        111.049        66.9939       74.51312        -999.25       -32.4449      0.1006383       3855.785      0.8832579              1
      8721.0000         0.6719          0.697         0.6911         0.6857         0.6684        11.6232        -999.25         0.2149         0.0153       267.3325        111.049        67.3948       74.97948        -999.25       -32.4449     0.09450501       3865.262      0.8931805              1
      8721.5000         0.6697         0.7023         0.6903         0.6863         0.6698        11.6233        -999.25         0.2149         0.0163       268.1318       111.4485        67.1943       74.74654        -999.25       -32.8456     -0.5933742       3864.762      0.8882244      0.9915232
      8722.0000         0.6737         0.7136         0.6919         0.6793         0.6773        11.6052        -999.25         0.2156         0.0162       269.4097       111.8673        66.6124       74.07011        -999.25       -32.7455      -0.429196       3876.191       0.873832      0.9938686
      8722.5000         0.6726         0.7205         0.6858          0.672         0.6818        11.5856        -999.25          0.218         0.0152       270.2271       112.0723        66.0164       73.37728        -999.25       -33.2471       -1.28875       3886.227      0.8590911      0.9815893
      8723.0000         0.6681         0.7105         0.6779         0.6607         0.6617        11.5161        -999.25         0.2252         0.0132        272.645       111.9774         65.321       72.56886        -999.25       -33.5471      -1.805298       3856.285      0.8418907        0.97421
      8723.5000         0.6561          0.701         0.6625         0.6483         0.6446        11.3562        -999.25         0.2347         0.0122       275.4604       112.0824        65.5259       72.80732        -999.25       -33.0466      -0.959887       3836.324      0.8469642      0.9862874
      8724.0000         0.6313         0.6918         0.6428         0.6419         0.6388        11.3066        -999.25         0.2383         0.0112        279.479       112.5869        66.5334       73.97903        -999.25       -33.4467      -1.646747       3816.367      0.8718942      0.9764751
      8724.5000         0.6178         0.6832         0.6314         0.6341         0.6369        11.3772        -999.25         0.2341         0.0112       282.2959       113.0916        67.3395       74.91654        -999.25       -33.5471      -1.823698       3806.387      0.8918413      0.9739472
      8725.0000          0.616         0.6787         0.6296          0.625         0.6247        11.4479        -999.25         0.2251         0.0112       287.1099       113.8953        68.2458       75.97057        -999.25       -33.1462      -1.147742       3786.426      0.9142675      0.9836037
