#------------------------------------------------------------------------------
# Created by    : vladimir.rabinovich
# Created on    : 09/19/2023 17:20:45
#------------------------------------------------------------------------------
~Version Information Section
VERS.           2.0     :   CWLS log ASCII Standard - VERSION 2.0
WRAP.           NO      :   One line per depth step
~Well Information Section
#MNEM       .UNIT                                         VALUE :DESCRIPTION
#------------------------------------------------------------------------------
STRT        .FT                                            2110 :START DEPTH
STOP        .FT                                            6746 :STOP DEPTH
STEP        .FT                                             0.5 :STEP      
NULL        .                                           -999.25 :NULL      
COMP        .                       HOUSTON OIL & MINERALS CORP :COMPANY   
WELL        .                                ST TR 00694-L NE/4 :WELL      
FLD         .                                           WILDCAT :FIELD     
LOC         .                                                   :LOCATION  
CNTY        .                      MATAGORDA ISLAND LARGE BLOCK :LOCATION  
STAT        .                                             TEXAS :STATE     
CTRY        .                                     UNITED STATES :COUNTRY   
SRVC        .                                                   :SERVICE COMPANY
DATE        .                             9/13/2023 11:12:01 AM :LOG DATE  
API         .                                    42703302070000 :API NUMBER
UWI         .                                    42703302070000 :UNIQUE WELL ID
XCOORD      .                                  400461.464340365 :SURFACE X 
YCOORD      .                                  10145980.2526086 :SURFACE Y 
LAT         .                                        27.9055609 :LATITUDE  
LON         .                                       -96.8388291 :LONGITUDE 
ELEV        .FT                                              25 :ELEVATION VALUE
ELEV_TYPE   .                                                KB :ELEVATION REFERENCE TYPE
~Curve Information Section
#MNEM       .UNIT                                      API CODE :CURVE DESCRIPTION
#------------------------------------------------------------------------------
DEPT        .FT                                                 :DEPTH     
ASN         .OHMM                                               :          
CILD        .MMHO                                               :          
ILD         .OHMM                                               :          
SP          .MV                                                 :          
SP_NORM     .MV                                                 :SP Normalized
VSH_SP      .V/V                                                :Volume of Shale from SP
~A        DEPTH            ASN           CILD            ILD             SP        SP_NORM         VSH_SP
# ...
      3326.0000          1.006       1233.092         0.6466       -35.6246        -4.8906      0.9371608
      3326.5000          1.031       1226.697         0.6446       -36.2537        -5.5163      0.9235587
      3327.0000         1.0845       1221.049         0.6426       -36.9039         -6.163         0.9095
      3327.5000         1.2471       1216.188         0.6431       -37.6099        -6.8655      0.8942283
      3328.0000         1.4097        1214.77         0.6474       -39.9869         -9.239      0.8426304
      3328.5000         1.5378       1213.354         0.6517       -46.3242       -15.5728      0.7049391
      3329.0000         1.5072       1179.059         0.6761       -52.9327       -22.1779        0.56135
      3329.5000         1.4766       1126.316         0.7132       -59.5364       -28.7781      0.4178674
      3330.0000          1.446        1044.92         0.7503        -66.145       -35.3832      0.2742782
      3330.5000         1.4154       999.8506         0.7892         -57.39       -26.6247      0.4646804
      3331.0000         1.3849       955.4521         0.8311        -48.605       -17.8362      0.6557348
      3331.5000         1.3543       914.7539         0.8729       -44.3215       -13.5493      0.7489282
      3332.0000         1.3237       886.6172         0.9147       -41.9827        -11.207      0.7998478
      3332.5000         1.2931       879.3877         0.9469       -40.3735        -9.5943      0.8349065
      3333.0000         1.2625       872.1621         0.9786       -39.3209        -8.5382      0.8578652
      3333.5000         1.2319       864.9326         1.0102       -40.3231        -9.5369      0.8361543
      3334.0000         1.2013       857.7041         1.0296       -41.9092       -11.1196      0.8017478
      3334.5000         1.1972       847.8896         1.0481       -42.5811        -11.788      0.7872174
      3335.0000         1.2237       837.3232         1.0667       -42.8716        -12.075      0.7809783
      3335.5000         1.2425       826.7578         1.0726       -43.1622       -12.3621      0.7747369
      3336.0000         1.2596       813.6162         1.0776       -43.0816        -12.278      0.7765652
      3336.5000         1.2878       788.3379         1.0826       -42.6894       -11.8824      0.7851653
      3337.0000         1.3254       763.0596         1.0943       -42.2972       -11.4867      0.7937674
      3337.5000          1.369       737.7686         1.1085       -41.8766       -11.0626       0.802987
      3338.0000         1.4226       715.8545         1.1227       -41.3879       -10.5704       0.813687
      3338.5000         1.5009       694.0527         1.1369       -40.8992       -10.0783      0.8243847
      3339.0000         1.6399       672.2383         1.1511       -43.2713       -12.4469      0.7728935
      3339.5000         1.7787       687.4971         1.1658       -52.0314       -21.2035      0.5825326
      3340.0000         1.8773       713.7939         1.1846       -53.9064        -23.075      0.5418478
      3340.5000         1.9272        739.792         1.2033       -60.4888       -29.6539      0.3988283
      3341.0000         2.1497       765.6914         1.2221       -62.4218       -31.5835      0.3568804
      3341.5000         2.1363       791.5908         1.2076       -63.5479       -32.7061      0.3324761
      3342.0000         2.1044        809.252         1.1604       -63.9362       -33.0909      0.3241109
      3342.5000         1.9445       820.9473         1.1231       -63.6867       -32.8379      0.3296109
      3343.0000         1.9126       832.6426         1.0895       -63.4373        -32.585      0.3351087
      3343.5000         1.9188        844.332         1.0559       -63.2804       -32.4247      0.3385935
      3344.0000         1.9364       856.0273         1.0223       -63.3255       -32.4663      0.3376891
      3344.5000         1.9537       867.7236         1.0086       -63.4127         -32.55      0.3358696
      3345.0000         1.9597       866.0537           1.01       -63.5386       -32.6724      0.3332087
      3345.5000         1.9365       852.1543         1.0114       -60.4664       -29.5967      0.4000717
      3346.0000         1.8991       836.2988          1.022       -58.0237       -27.1506      0.4532478
      3346.5000         1.7573       820.4443         1.0353       -55.4975       -24.6209      0.5082413
      3347.0000         1.6416       804.5771         1.0485       -52.8804       -22.0003      0.5652109
      3347.5000         1.5928       794.3594         1.0618       -50.2933       -19.4097      0.6215283
      3348.0000         1.5593       793.1318          1.075       -47.8145       -16.9274      0.6754913
      3348.5000         1.5278       791.9043         1.0883       -45.9432       -15.0527      0.7162457
      3349.0000          1.505       790.6768          1.098       -44.0731       -13.1791      0.7569761
      3349.5000         1.4864         796.29         1.0896       -42.8287       -11.9312      0.7841043
      3350.0000         1.5375       806.7187         1.0811       -41.5856       -10.6846      0.8112044
      3350.5000         1.5882       817.1416         1.0727       -40.7109        -9.8065      0.8302935
      3351.0000         1.6115       841.8867         1.0536       -40.6583        -9.7504       0.831513
      3351.5000         1.6339        866.792         1.0169       -42.0649       -11.1535      0.8010109
      3352.0000         1.6506       891.6982         0.9803       -45.1314       -14.2165      0.7344239
      3352.5000         1.6673       934.8174         0.9436       -49.3396       -18.4212      0.6430174
      3353.0000         1.6841        982.668         0.9071       -56.6429       -25.7211      0.4843239
      3353.5000         1.6821       1018.114         0.8807       -58.9774       -28.0521        0.43365
      3354.0000         1.6047       1045.342         0.8543       -61.9692       -31.0404       0.368687
      3354.5000         1.5346       1068.457         0.8278        -64.509       -33.5767        0.31355
      3355.0000         1.5031       1075.643         0.8014       -66.3218        -35.386      0.2742174
      3355.5000         1.4911       1083.811          0.775       -68.5031       -37.5639      0.2268717
      3356.0000         1.4866       1095.787         0.7486       -71.4961       -40.5534      0.1618827
      3356.5000          1.482       1108.314          0.737       -72.9659       -42.0197      0.1300065
      3357.0000         1.4787       1119.035         0.7325       -73.9189       -42.9692      0.1093652
      3357.5000         1.4764       1141.018          0.728       -74.7426       -43.7894     0.09153482
      3358.0000         1.4742       1170.672         0.7236       -75.4921       -44.5355     0.07531523
      3358.5000         1.4682       1183.621         0.7191       -75.9528       -44.9927     0.06537612
      3359.0000          1.461       1201.691         0.7151       -76.4133       -45.4497     0.05544132
      3359.5000         1.2887        1226.92         0.7123       -76.6045       -45.6374     0.05136083
      3360.0000          1.236        1252.15         0.7095       -76.0199       -45.0493     0.06414562
      3360.5000         1.2462       1277.391         0.7067       -75.4357       -44.4617     0.07691956
      3361.0000          1.265       1275.947         0.7039       -74.8514       -43.8739     0.08969779
      3361.5000         1.2795       1268.752         0.7011       -74.3125       -43.3315      0.1014891
      3362.0000         1.2939       1260.008         0.6983       -73.9918       -43.0073      0.1085369
      3362.5000         1.3084       1250.318         0.6952        -73.671       -42.6831      0.1155847
      3363.0000         1.3181       1240.635         0.6897       -73.3503       -42.3589      0.1226326
      3363.5000         1.3052       1232.445         0.6842       -73.2196       -42.2247        0.12555
