#------------------------------------------------------------------------------
# Created by    : vladimir.rabinovich
# Created on    : 09/19/2023 17:19:47
#------------------------------------------------------------------------------
~Version Information Section
VERS.           2.0     :   CWLS log ASCII Standard - VERSION 2.0
WRAP.           NO      :   One line per depth step
~Well Information Section
#MNEM       .UNIT                                         VALUE :DESCRIPTION
#------------------------------------------------------------------------------
STRT        .FT                                            2960 :START DEPTH
STOP        .FT                                           11758 :STOP DEPTH
STEP        .FT                                             0.5 :STEP      
NULL        .                                           -999.25 :NULL      
COMP        .                             CHAMPLIN PETROLEUM CO :COMPANY   
WELL        .                               OCS G06095 ST00BP00 :WELL      
FLD         .                                           WILDCAT :FIELD     
LOC         .                                                   :LOCATION  
CNTY        .                             GALVESTON LARGE BLOCK :LOCATION  
STAT        .                                             TEXAS :STATE     
CTRY        .                                     UNITED STATES :COUNTRY   
SRVC        .                                                   :SERVICE COMPANY
DATE        .                             9/13/2023 11:19:27 AM :LOG DATE  
API         .                                    42706401150000 :API NUMBER
UWI         .                                    42706401150000 :UNIQUE WELL ID
XCOORD      .                                  1057213.14222316 :SURFACE X 
YCOORD      .                                  10507856.7651171 :SURFACE Y 
LAT         .                                        28.9424301 :LATITUDE  
LON         .                                       -94.8238502 :LONGITUDE 
ELEV        .FT                                              89 :ELEVATION VALUE
ELEV_TYPE   .                                                KB :ELEVATION REFERENCE TYPE
~Curve Information Section
#MNEM       .UNIT                                      API CODE :CURVE DESCRIPTION
#------------------------------------------------------------------------------
DEPT        .FT                                                 :DEPTH     
ASFL        .OHMM                                               :          
CILD        .MMHO                                               :          
GR          .GAPI                                               :          
GR_NORM     .GAPI                                               :GammaRay Normalized
ILD         .OHMM                                               :          
SP          .MV                                                 :          
SP_NORM     .MV                                                 :SP Normalized
VSH_GR      .V/V                                                :Volume of Shale from GR
VSH_SP      .V/V                                                :Volume of Shale from SP
~A        DEPTH           ASFL           CILD             GR        GR_NORM            ILD             SP        SP_NORM         VSH_GR         VSH_SP
# ...
      6484.5000         0.6998       2775.109        38.7393       57.30245         0.3873        90.6193      -54.14132      0.5170734      0.1564871
      6485.0000         0.6851       2882.605        40.0173        59.9279         0.3756        90.1401      -53.66211       0.572934      0.1640934
      6485.5000         0.6704       2976.453        40.8181       61.57277         0.3639        89.6575      -53.17952      0.6079313      0.1717537
      6486.0000         0.6686       3049.734        41.0111       61.96863         0.3581        89.1493      -52.67131      0.6163538      0.1798204
      6486.5000         0.6836        3034.77         40.015         59.921         0.3558        88.6405      -52.16252      0.5727873      0.1878965
      6487.0000         0.6986       2892.867        39.0188       57.87318         0.3535        88.1318      -51.65381      0.5292167      0.1959712
      6487.5000         0.7266        2694.25        38.0238        55.8278         0.3522         87.623      -51.14502       0.485698      0.2040474
      6488.0000         0.7686       2536.301         36.921       53.56092         0.3859        87.2197      -50.74172      0.4374664      0.2104489
      6488.5000         0.8131       2387.766        35.7673       51.18944         0.4196        86.8264      -50.34842      0.3870094      0.2166918
      6489.0000         0.8722       2267.371        34.7913       49.18313         0.4533        86.4326      -49.95462       0.344322      0.2229426
      6489.5000         0.9396       2171.074        34.2192        48.0068         0.4869        86.0393      -49.56131      0.3192936      0.2291855
      6490.0000         0.9935       2072.051         33.647       46.83024         0.5206        85.6455      -49.16751      0.2942605      0.2354363
      6490.5000         1.0324       1744.102        33.0755       45.65513         0.5498        85.8015      -49.32351      0.2692581      0.2329601
      6491.0000         1.0685        1620.32        32.7119       44.90724          0.579        85.9913      -49.51332      0.2533456      0.2299473
      6491.5000         1.1045       1546.523        32.4089       44.28388         0.6083        86.2075      -49.72951      0.2400826      0.2265157
      6492.0000         1.1053       1490.844         32.106       43.66073         0.6375        86.4824      -50.00441       0.226824      0.2221522
      6492.5000         1.0438        1480.23        31.8031       43.03758         0.6562        86.7572      -50.27922      0.2135655      0.2177902
      6493.0000         0.9965       1501.764        31.5002       42.41441         0.6585         87.032      -50.55401      0.2003067      0.2134284
      6493.5000         0.9658       1552.453        31.1972       41.79106         0.6608        87.3068      -50.82882      0.1870439      0.2090664
      6494.0000         0.9352       1620.885         31.032       41.45086         0.6513        87.5813      -51.10331      0.1798055      0.2047093
      6494.5000         0.9205       1689.318        30.8704       41.11806         0.6204        87.8561      -51.37812      0.1727247      0.2003473
      6495.0000         0.9058        1766.41        30.7089       40.78547         0.5894        88.1309      -51.65291      0.1656483      0.1959855
      6495.5000         0.8911       1845.668        30.6696       40.70398         0.5584        88.4058      -51.92781      0.1639145       0.191622
      6496.0000         0.8753       1951.754        30.8142       41.00041         0.5268        88.6802      -52.20221      0.1702214      0.1872665
      6496.5000         0.8576       2090.313        30.9588       41.29683         0.4945        88.9003      -52.42231      0.1765282      0.1837728
      6497.0000         0.8399        2258.43        31.1035       41.59345         0.4622        89.0784      -52.60041      0.1828394      0.1809458
      6497.5000         0.8189        2393.41         31.817       43.05889         0.4348        89.2565      -52.77851       0.214019      0.1781188
      6498.0000         0.7939        2465.75        32.6805        44.8326         0.4208        89.4344      -52.95642      0.2517574       0.175295
      6498.5000         0.7498       2557.953         33.544       46.60629         0.4068        89.6125      -53.13452      0.2894956       0.172468
      6499.0000         0.6964       2649.539        34.3826       48.32883         0.3929        89.7905      -53.31251      0.3261453      0.1696427
      6499.5000         0.6876       2740.188        35.1561       49.91758         0.3789        89.7444      -53.26641      0.3599484      0.1703744
      6500.0000          0.722       2846.367        35.9296       51.50633         0.3649        89.6182      -53.14022      0.3937517      0.1723775
      6500.5000          0.753       3045.453        37.0347       53.77649         0.3543        89.8197      -53.34172       0.442053      0.1691791
      6501.0000          0.775       3148.617        35.5233       50.66998         0.3445        90.1852      -53.70722      0.3759569      0.1633775
      6501.5000           0.78       3201.895        33.8437       47.21782         0.3348        89.8535      -53.37551      0.3025068      0.1686426
      6502.0000         0.7347        3127.91        31.2828       41.95466          0.325        87.6266      -51.14862      0.1905247      0.2039902
      6502.5000         0.6893       3025.969        30.3518       40.04082         0.3152        85.3998      -48.92182      0.1498047      0.2393362
      6503.0000         0.7231       2534.984        29.4563       38.19992         0.3107        83.1729      -46.69491      0.1106365      0.2746839
      6503.5000         0.7833       2358.395        28.6798       36.60355         0.3172        80.9341      -44.45611     0.07667127      0.3102205
      6504.0000         0.8354           2230         28.209       35.63538         0.3237        78.3945      -41.91652     0.05607183      0.3505315
      6504.5000         0.8865       2071.297        29.0038       37.26789         0.3548         74.083      -37.60501     0.09080619       0.418968
      6505.0000         0.9409        1789.66        29.8211       38.94666          0.414        71.3989      -34.92092      0.1265246      0.4615727
      6505.5000         0.9701       1592.176        31.4581       42.30983         0.4811        68.3547      -31.87671      0.1980814      0.5098935
      6506.0000         0.9908       1387.537        33.0951         45.673         0.6082        65.8293      -29.35131      0.2696383      0.5499792
      6506.5000         0.9961       1159.553        35.5067        50.6279         0.7393        64.1995      -27.72152      0.3750617      0.5758489
      6507.0000         0.9942       1057.846        37.2491       54.20767         0.8749        62.8929      -26.41491       0.451227      0.5965887
      6507.5000         0.9693       1056.621        38.7582       57.30805         0.9383        62.2492      -25.77121      0.5171926      0.6068062
      6508.0000         0.9443       1077.213        40.4579       60.80003          0.923        61.6545      -25.17651        0.59149      0.6162458
      6508.5000         0.9056       1097.779        42.2584       64.49918         0.8976         61.208      -24.73001      0.6701952      0.6233331
      6509.0000         0.8638       1118.348         43.546       67.14439         0.8723        60.7679      -24.28991      0.7264765      0.6303188
      6509.5000         0.8437        1158.33        44.7956       69.71148          0.847         61.731      -25.25301      0.7810953      0.6150315
      6510.0000         0.8236       1237.117        45.9351       72.05234         0.8216        63.0114      -26.53341      0.8309008      0.5947077
      6510.5000         0.8082       1315.904        43.3102       66.65765         0.7963        65.2892      -28.81121      0.7161203      0.5585521
