#------------------------------------------------------------------------------
# Created by    : vladimir.rabinovich
# Created on    : 09/19/2023 17:20:39
#------------------------------------------------------------------------------
~Version Information Section
VERS.           2.0     :   CWLS log ASCII Standard - VERSION 2.0
WRAP.           NO      :   One line per depth step
~Well Information Section
#MNEM       .UNIT                                         VALUE :DESCRIPTION
#------------------------------------------------------------------------------
STRT        .FT                                             502 :START DEPTH
STOP        .FT                                           11475 :STOP DEPTH
STEP        .FT                                             0.5 :STEP      
NULL        .                                           -999.25 :NULL      
COMP        .                                      SHELL OIL CO :COMPANY   
WELL        .                                OCS 00730 ST00BP00 :WELL      
FLD         .                                           WILDCAT :FIELD     
LOC         .                                                   :LOCATION  
CNTY        .                             GALVESTON LARGE BLOCK :LOCATION  
STAT        .                                             TEXAS :STATE     
CTRY        .                                     UNITED STATES :COUNTRY   
SRVC        .                                                   :SERVICE COMPANY
DATE        .                             9/13/2023 11:19:42 AM :LOG DATE  
API         .                                    42706000250000 :API NUMBER
UWI         .                                    42706000250000 :UNIQUE WELL ID
XCOORD      .                                  958538.282477158 :SURFACE X 
YCOORD      .                                   10357465.718335 :SURFACE Y 
LAT         .                                         28.524406 :LATITUDE  
LON         .                                        -95.123893 :LONGITUDE 
ELEV        .FT                                              80 :ELEVATION VALUE
ELEV_TYPE   .                                                KB :ELEVATION REFERENCE TYPE
~Curve Information Section
#MNEM       .UNIT                                      API CODE :CURVE DESCRIPTION
#------------------------------------------------------------------------------
DEPT        .FT                                                 :DEPTH     
ASN         .OHMM                                               :          
CILD        .MMHO                                               :          
ILD         .OHMM                                               :          
LAT         .OHMM                                               :          
LN          .OHMM                                               :          
SP          .MV                                                 :          
SP_NORM     .MV                                                 :SP Normalized
VSH_SP      .V/V                                                :Volume of Shale from SP
~A        DEPTH            ASN           CILD            ILD            LAT             LN             SP        SP_NORM         VSH_SP
# ...
      4160.0000         0.8317        -999.25        -999.25         0.8434         0.4729       -41.8503      0.4092827              1
      4160.5000         0.8247        -999.25        -999.25         0.8506         0.4638       -41.7612      0.4991035              1
      4161.0000         0.8178        -999.25        -999.25         0.8578          0.457        -41.808      0.4530296              1
      4161.5000         0.8108        -999.25        -999.25         0.8649         0.4525       -41.8548      0.4069519              1
      4162.0000         0.8038        -999.25        -999.25         0.8721          0.448       -41.9016      0.3608742              1
      4162.5000         0.7968        -999.25        -999.25         0.8793         0.4434       -41.9949      0.2682991              1
      4163.0000         0.7898        -999.25        -999.25         0.8865         0.4389       -42.0994      0.1645203              1
      4163.5000         0.7829        -999.25        -999.25         0.8936         0.4344       -42.2039     0.06074524              1
      4164.0000         0.7759        -999.25        -999.25         0.9008         0.4299       -42.3082    -0.04283142              1
      4164.5000         0.7679        -999.25        -999.25          0.908         0.4254       -42.4127     -0.1466103              1
      4165.0000         0.7595        -999.25        -999.25         0.9121         0.4209       -42.5172     -0.2503853              1
      4165.5000          0.751        -999.25        -999.25          0.899          0.418       -42.6216     -0.3540649              1
      4166.0000         0.7426        -999.25        -999.25          0.886         0.4254        -42.726     -0.4577408              1
      4166.5000         0.7341        -999.25        -999.25          0.873         0.4327       -42.8304     -0.5614128              1
      4167.0000         0.7257        -999.25        -999.25         0.8599         0.4401       -42.9349     -0.6651917              1
      4167.5000         0.7172        -999.25        -999.25         0.8469         0.4474       -43.0008     -0.7303696              1
      4168.0000         0.7085        -999.25        -999.25         0.8378         0.4548       -43.0419     -0.7707481              1
      4168.5000         0.6969        -999.25        -999.25         0.8289         0.4622       -43.0757     -0.8038216              1
      4169.0000         0.6854        -999.25        -999.25           0.82         0.4695       -42.4399     -0.1672974              1
      4169.5000         0.6739        -999.25        -999.25         0.8111         0.4769        -41.804      0.4693222              1
      4170.0000         0.6627        -999.25        -999.25         0.8022         0.4842       -41.1682       1.105846              1
      4170.5000         0.6517        -999.25        -999.25         0.7933          0.487        -40.686       1.588768              1
      4171.0000         0.6512        -999.25        -999.25         0.7844         0.4824       -40.2823       1.993195              1
      4171.5000         0.6615        -999.25        -999.25         0.7755         0.4778       -39.8787       2.397518              1
      4172.0000         0.6718        -999.25        -999.25         0.7708         0.4733       -39.9258       2.351139              1
      4172.5000         0.6822        -999.25        -999.25         0.7828         0.4687       -40.4393       1.838364              1
      4173.0000         0.6925        -999.25        -999.25         0.7947         0.4641       -40.9529       1.325489              1
      4173.5000         0.7028        -999.25        -999.25         0.8067         0.4595        -41.465      0.8141098              1
      4174.0000         0.7132        -999.25        -999.25         0.8187         0.4549       -41.9774       0.302433              1
      4174.5000         0.7199        -999.25        -999.25         0.8307         0.4503       -42.4896     -0.2090454              1
      4175.0000         0.7263        -999.25        -999.25         0.8427         0.4457        -43.002     -0.7207184              1
      4175.5000         0.7327        -999.25        -999.25         0.8547         0.4419       -43.2009     -0.9188957              1
      4176.0000         0.7392        -999.25        -999.25         0.8667         0.4394       -43.2195     -0.9367752              1
      4176.5000         0.7447        -999.25        -999.25         0.8787         0.4368       -43.2383     -0.9548492              1
      4177.0000         0.7456        -999.25        -999.25         0.8905         0.4343        -43.257     -0.9728279              1
      4177.5000         0.7465        -999.25        -999.25         0.8954         0.4318       -43.1444     -0.8595047              1
      4178.0000         0.7474        -999.25        -999.25         0.9004         0.4292       -43.0073     -0.7216797              1
      4178.5000         0.7483        -999.25        -999.25         0.9054         0.4267       -42.8701     -0.5837555              1
      4179.0000         0.7493        -999.25        -999.25         0.9104         0.4241       -42.7328     -0.4457321              1
      4179.5000         0.7472        -999.25        -999.25         0.9153         0.4216       -42.5956     -0.3078117              1
      4180.0000         0.7429        -999.25        -999.25         0.9203         0.4191       -42.6285     -0.3399887              1
      4180.5000         0.7387        -999.25        -999.25         0.9253         0.4165       -42.7468     -0.4575615              1
      4181.0000         0.7345        -999.25        -999.25         0.9302          0.414       -42.8895     -0.5995407              1
      4181.5000         0.7302        -999.25        -999.25         0.9352         0.4114       -43.0992     -0.8085175              1
      4182.0000          0.726        -999.25        -999.25         0.9402         0.4089       -43.3091      -1.017696       0.999447
      4182.5000         0.7234        -999.25        -999.25          0.937         0.4089       -43.5188      -1.226669      0.9929166
      4183.0000         0.7276        -999.25        -999.25         0.9325         0.4101       -43.7287      -1.435844      0.9863799
      4183.5000         0.7318        -999.25        -999.25          0.928         0.4114       -43.9386      -1.645023       0.979843
      4184.0000         0.7359        -999.25        -999.25         0.9234         0.4126       -44.1483         -1.854      0.9733125
      4184.5000         0.7401        -999.25        -999.25         0.9189         0.4138       -44.3582      -2.063179      0.9667757
      4185.0000         0.7438        -999.25        -999.25         0.9144          0.415       -44.3682      -2.072453      0.9664859
      4185.5000         0.7458        -999.25        -999.25         0.9098         0.4163       -44.2703      -1.973831      0.9695678
      4186.0000         0.7477        -999.25        -999.25         0.9053         0.4175       -44.1722      -1.875008       0.972656
      4186.5000         0.7497        -999.25        -999.25         0.9008         0.4187       -44.0741      -1.776184      0.9757442
      4187.0000         0.7506        -999.25        -999.25         0.8962           0.42       -43.9069      -1.608261      0.9809918
      4187.5000         0.7483        -999.25        -999.25         0.8917         0.4212       -43.7051      -1.405739      0.9873207
      4188.0000         0.7459        -999.25        -999.25         0.8871         0.4224       -43.5032      -1.203114      0.9936527
      4188.5000         0.7435        -999.25        -999.25         0.8826         0.4237       -43.3013      -1.000492      0.9999846
      4189.0000         0.7411        -999.25        -999.25         0.8781         0.4249       -43.0913     -0.7897682              1
