#------------------------------------------------------------------------------
# Created by    : vladimir.rabinovich
# Created on    : 09/19/2023 17:20:38
#------------------------------------------------------------------------------
~Version Information Section
VERS.           2.0     :   CWLS log ASCII Standard - VERSION 2.0
WRAP.           NO      :   One line per depth step
~Well Information Section
#MNEM       .UNIT                                         VALUE :DESCRIPTION
#------------------------------------------------------------------------------
STRT        .FT                                             495 :START DEPTH
STOP        .FT                                            8683 :STOP DEPTH
STEP        .FT                                             0.5 :STEP      
NULL        .                                           -999.25 :NULL      
COMP        .                                      SHELL OIL CO :COMPANY   
WELL        .                                OCS 00706 ST00BP00 :WELL      
FLD         .                                           WILDCAT :FIELD     
LOC         .                                                   :LOCATION  
CNTY        .                             GALVESTON LARGE BLOCK :LOCATION  
STAT        .                                             TEXAS :STATE     
CTRY        .                                     UNITED STATES :COUNTRY   
SRVC        .                                                   :SERVICE COMPANY
DATE        .                             9/13/2023 11:19:25 AM :LOG DATE  
API         .                                    42706000290000 :API NUMBER
UWI         .                                    42706000290000 :UNIQUE WELL ID
XCOORD      .                                  1097630.70361638 :SURFACE X 
YCOORD      .                                  10500448.3193905 :SURFACE Y 
LAT         .                                          28.92371 :LATITUDE  
LON         .                                        -94.697168 :LONGITUDE 
ELEV        .FT                                              92 :ELEVATION VALUE
ELEV_TYPE   .                                                KB :ELEVATION REFERENCE TYPE
~Curve Information Section
#MNEM       .UNIT                                      API CODE :CURVE DESCRIPTION
#------------------------------------------------------------------------------
DEPT        .FT                                                 :DEPTH     
ASN         .OHMM                                               :          
CILD        .MMHO                                               :          
ILD         .OHMM                                               :          
SP          .MV                                                 :          
SP_NORM     .MV                                                 :SP Normalized
VSH_SP      .V/V                                                :Volume of Shale from SP
~A        DEPTH            ASN           CILD            ILD             SP        SP_NORM         VSH_SP
# ...
      8627.0000         1.9449       594.2891         1.6372       -44.8946      -3.431187      0.9587935
      8627.5000         1.9804       585.3574         1.6484       -44.4744      -3.010986      0.9659155
      8628.0000         2.0255        601.333         1.6596       -44.2054      -2.741985      0.9704748
      8628.5000         2.0726       617.2871         1.5971       -43.9364      -2.472988      0.9750341
      8629.0000         2.0586       642.2168           1.53       -43.6674      -2.203987      0.9795935
      8629.5000         2.0282       680.8398         1.4672       -43.4307      -1.967285      0.9836053
      8630.0000         1.9696       708.8857         1.4271       -43.2708      -1.807388      0.9863154
      8630.5000         1.8412       720.4561         1.3904        -43.182      -1.718586      0.9878206
      8631.0000         1.7389       720.8203          1.362       -43.5814      -2.117989       0.981051
      8631.5000         1.6748        719.123         1.3365       -43.9813      -2.517887      0.9742731
      8632.0000           1.64       713.4502         1.3337       -44.3807      -2.917286      0.9675036
      8632.5000         1.6211       707.7773         1.3367       -44.8069      -3.343487      0.9602799
      8633.0000         1.6746       702.1045         1.3476       -45.5871      -4.123688      0.9470561
      8633.5000         1.7775       691.7686         1.3632       -46.3661      -4.902687      0.9338527
      8634.0000         1.8105       679.9619         1.3788       -47.1452      -5.681786      0.9206477
      8634.5000         1.8353       668.1338         1.3944       -48.4721      -7.008686      0.8981578
      8635.0000         1.8483       659.6416         1.4075       -51.6365      -10.17309      0.8445239
      8635.5000         1.8653       653.8584         1.4191       -54.3671      -12.90369      0.7982426
      8636.0000         1.8824       648.0654         1.4306       -57.3113      -15.84789      0.7483409
      8636.5000         1.9038       647.0732         1.4327       -58.1418      -16.67839      0.7342646
      8637.0000         1.9125       647.5547         1.4292       -53.8083      -12.34489      0.8077138
      8637.5000         1.9041       648.0361         1.4138       -51.5752      -10.11179      0.8455629
      8638.0000         1.8957       657.6221         1.3844       -48.4699      -7.006485      0.8981951
      8638.5000         1.8872       669.6045         1.3548       -48.0601      -6.596687      0.9051409
      8639.0000         1.8745       681.5859         1.3253       -47.6711      -6.207687      0.9117341
      8639.5000         1.8555       704.8916         1.2958       -47.3408      -5.877388      0.9173324
      8640.0000         1.8367        730.085         1.2664       -45.2836      -3.820187      0.9522002
      8640.5000         1.8189       760.9834         1.2369       -44.1506      -2.687187      0.9714036
      8641.0000         1.7636        809.877         1.2074       -43.6428      -2.179386      0.9800104
      8641.5000         1.5196        838.625         1.1779       -43.1368      -1.673386      0.9885867
      8642.0000         1.4891       852.3623         1.1484       -42.9163      -1.452888      0.9923239
      8642.5000         1.4643       866.0996         1.1465        -42.696      -1.232586      0.9960579
      8643.0000         1.4685       870.3467         1.1463       -42.4758      -1.012386      0.9997901
      8643.5000         1.4724       862.3584          1.146       -42.2556     -0.7921867              1
      8644.0000          1.473       854.4473         1.1458       -42.0624     -0.5989876              1
      8644.5000         1.4735       846.9307         1.1479        -41.942     -0.4785881              1
      8645.0000         1.4741       839.4258         1.1507       -41.8217     -0.3582878              1
      8645.5000         1.4746       831.9209         1.1534       -41.7012     -0.2377853              1
      8646.0000         1.4752        824.415         1.1561        -41.581      -0.117588              1
      8646.5000         1.4755       831.8662          1.159       -41.4606    0.002811432              1
      8647.0000         1.4747       844.6602         1.1654       -41.3402      0.1232147              1
      8647.5000         1.4739       853.1084         1.1718       -41.2673      0.1961136              1
      8648.0000         1.4731       832.2607         1.1782       -41.2692      0.1942139              1
      8648.5000         1.4739       810.9961         1.1873       -41.2711      0.1923141              1
      8649.0000         1.4774       794.8008         1.1969       -41.3182      0.1452141              1
      8649.5000         1.4864       778.6055         1.2065       -42.0315     -0.5680885              1
      8650.0000         1.4971       770.2881         1.2171       -42.6867      -1.223286      0.9962155
      8650.5000          1.533       764.4287         1.2301       -43.1053      -1.641888      0.9891205
      8651.0000         1.5619       758.5586         1.2431       -43.5129      -2.049488      0.9822121
      8651.5000         1.5913       756.0459         1.2319       -43.6198      -2.156387      0.9804002
      8652.0000         1.6267       769.2129         1.2173       -43.3619      -1.898487      0.9847714
      8652.5000         1.6145       782.4014         1.1088       -43.1039      -1.640488      0.9891443
      8653.0000         1.5518       804.9609         1.0596       -42.8461      -1.382687      0.9935138
      8653.5000         1.4892       856.8389         1.0353       -42.5881      -1.124687      0.9978867
      8654.0000         1.4266       908.8047         1.0121       -42.3303     -0.8668861              1
      8654.5000          1.364       962.0879         0.9918       -42.1515     -0.6880875              1
      8655.0000         1.3013       1040.387         0.9793         -41.98     -0.5165863              1
      8655.5000         1.2504       1125.357         0.9738       -41.8085     -0.3450851              1
      8656.0000         1.2181       1151.342         0.9684       -41.6373     -0.1738853              1
      8656.5000         1.2041       1164.004         0.9647       -41.4658      -0.002388              1
      8657.0000         1.1906       1170.367         0.9699       -41.2943      0.1691132              1
      8657.5000          1.195       1147.742         0.9751       -41.1229      0.3405151              1
      8658.0000         1.2033       1122.154         0.9802       -41.0267      0.4367142              1
      8658.5000         1.2135       1083.268         0.9854       -41.0286      0.4348145              1
      8659.0000         1.2238       1048.727         0.9924       -41.0305      0.4329147              1
      8659.5000          1.236       1017.784         1.0006       -41.0324       0.431015              1
      8660.0000          1.251       996.8486         1.0087       -41.0598       0.403614              1
      8660.5000         1.2659        978.415         1.0169       -41.0897      0.3737144              1
      8661.0000         1.2826       970.9424         1.0226       -41.1196      0.3438148              1
      8661.5000         1.3011       966.5371         1.0277       -41.1495      0.3139114              1
      8662.0000         1.3182       962.1318         1.0329       -41.1795      0.2839127              1
      8662.5000         1.3257       964.6445         1.0381       -41.2094      0.2540131              1
      8663.0000         1.3184       971.7979         1.0431        -41.197      0.2664146              1
      8663.5000          1.311       979.1826         1.0478       -41.1618      0.3016129              1
      8664.0000          1.303        991.582         1.0525       -41.1267      0.3367119              1
      8664.5000         1.2929       1004.003         1.0572       -41.0916      0.3718147              1
