#------------------------------------------------------------------------------
# Created by    : vladimir.rabinovich
# Created on    : 09/19/2023 17:19:48
#------------------------------------------------------------------------------
~Version Information Section
VERS.           2.0     :   CWLS log ASCII Standard - VERSION 2.0
WRAP.           NO      :   One line per depth step
~Well Information Section
#MNEM       .UNIT                                         VALUE :DESCRIPTION
#------------------------------------------------------------------------------
STRT        .FT                                            3926 :START DEPTH
STOP        .FT                                            8446 :STOP DEPTH
STEP        .FT                                             0.5 :STEP      
NULL        .                                           -999.25 :NULL      
COMP        .                             WALTER OIL & GAS CORP :COMPANY   
WELL        .                               OCS G06101 ST00BP00 :WELL      
FLD         .                                           WILDCAT :FIELD     
LOC         .                                                   :LOCATION  
CNTY        .                             GALVESTON LARGE BLOCK :LOCATION  
STAT        .                                             TEXAS :STATE     
CTRY        .                                     UNITED STATES :COUNTRY   
SRVC        .                                                   :SERVICE COMPANY
DATE        .                             9/13/2023 11:19:36 AM :LOG DATE  
API         .                                    42706402050000 :API NUMBER
UWI         .                                    42706402050000 :UNIQUE WELL ID
XCOORD      .                                  1036351.71170487 :SURFACE X 
YCOORD      .                                  10440832.2127806 :SURFACE Y 
LAT         .                                         28.757227 :LATITUDE  
LON         .                                        -94.885733 :LONGITUDE 
ELEV        .FT                                              88 :ELEVATION VALUE
ELEV_TYPE   .                                                KB :ELEVATION REFERENCE TYPE
~Curve Information Section
#MNEM       .UNIT                                      API CODE :CURVE DESCRIPTION
#------------------------------------------------------------------------------
DEPT        .FT                                                 :DEPTH     
ASFL        .OHMM                                               :          
CALI        .IN                                                 :          
CILD        .MMHO                                               :          
GR          .GAPI                                               :          
GR_1        .GAPI                                               :          
GR_NORM     .GAPI                                               :GammaRay Normalized
ILD         .OHMM                                               :          
ILM         .OHMM                                               :          
NPHI        .%                                                  :          
RFOC        .OHMM                                               :          
RHOB        .G/C3                                               :          
SP          .MV                                                 :          
SP_NORM     .MV                                                 :SP Normalized
VSH_GR      .V/V                                                :Volume of Shale from GR
VSH_SP      .V/V                                                :Volume of Shale from SP
~A        DEPTH           ASFL           CALI           CILD             GR           GR_1        GR_NORM            ILD            ILM           NPHI           RFOC           RHOB             SP        SP_NORM         VSH_GR         VSH_SP
# ...
      4861.0000         1.1038        10.4802       1081.346        73.3044        75.0935       76.41856         0.9085         0.9258        43.0198         1.0833         2.2981       -58.3912      -2.080521      0.9237992      0.9702783
      4861.5000         1.0966        10.4849       1100.133        73.9664        75.7463       77.28635         0.8924         0.9068        43.0792         1.0768         2.2931       -59.0157      -2.705021      0.9422627      0.9613568
      4862.0000         1.0941        10.4838       1114.729         74.629        76.1899       78.15491         0.8794         0.8895        42.5118         1.0744         2.2924       -59.4254      -3.114719      0.9607429       0.955504
      4862.5000         1.0957        10.4815       1129.336        75.2916        76.2191        79.0235         0.8688         0.8726        41.6341         1.0791         2.2944       -59.8083       -3.49762      0.9792234       0.950034
      4863.0000         1.0973        10.4747       1143.943        75.5699        75.8087       79.38766         0.8569         0.8639        41.0543         1.0878         2.2972       -59.4539      -3.143219      0.9869716      0.9550969
      4863.5000         1.0957        10.4646       1158.539         75.842        75.1515       79.74371         0.8434         0.8573        40.8748         1.0998         2.2988       -58.1489      -1.838219      0.9945471      0.9737397
      4864.0000          1.092        10.4559       1173.146        76.1141         74.131       80.09975         0.8309         0.8482        41.2403         1.1072         2.2998       -57.0147     -0.7040215              1      0.9899426
      4864.5000         1.0882        10.4491       1185.283        76.3862        73.9717       80.45579         0.8199         0.8361        41.7291         1.1123         2.2996        -57.508      -1.197319              1      0.9828954
      4865.0000         1.0836        10.4424       1197.262        76.6583        75.1477       80.81184          0.809         0.8254        42.1936         1.0926         2.2999       -58.4019      -2.091221              1      0.9701254
      4865.5000         1.0789        10.4359        1209.24        76.5889        76.5024       80.71964         0.8032         0.8158        42.5746         1.0737         2.3008       -58.9084      -2.597721              1      0.9628897
      4866.0000         1.0752         10.432       1221.221        76.4727        76.8997       80.56604         0.7989         0.8118        42.7159          1.056         2.3011       -58.8281      -2.517418              1      0.9640369
      4866.5000         1.0744        10.4332       1233.127        76.3563         75.912       80.41218         0.7978         0.8128        42.1323         1.0455         2.3016       -58.3597      -2.049019              1      0.9707283
      4867.0000         1.0776        10.4334       1239.322          76.24        75.2742       80.25844         0.8001         0.8175        41.1764         1.0447         2.3023       -57.6836      -1.372921              1      0.9803869
      4867.5000         1.0808         10.431       1245.518        76.1238        74.9417       80.10484         0.8025         0.8237        40.1927         1.0535         2.3031       -57.2385     -0.9278183              1      0.9867455
      4868.0000         1.0822        10.4285       1249.188        76.1844        74.9799       80.18329         0.8063         0.8292        39.4224          1.081         2.3039       -58.2181      -1.907421              1      0.9727511
      4868.5000         1.0806        10.4262       1244.973        76.4875        75.2727       80.58002         0.8104         0.8338         39.236         1.1004         2.3052       -59.6774      -3.366718              1       0.951904
      4869.0000          1.079        10.4239       1241.836        76.7906        75.3979       80.97675         0.8127         0.8334        39.7452         1.1116         2.3067       -59.6207       -3.31002              1       0.952714
      4869.5000         1.0702        10.4269           1257        77.0938        75.3705        81.3736         0.8045         0.8239        40.0704         1.1088         2.3057        -58.412      -2.101318              1      0.9699812
      4870.0000         1.0521        10.4315       1272.164        77.6005        74.7045       82.03755         0.7964          0.811         40.939         1.1189         2.2992       -57.7472       -1.43652              1      0.9794783
      4870.5000         1.0383        10.4348       1288.371        78.3152        73.5908        82.9745         0.7803         0.7942        42.4344         1.1017         2.2874       -58.4875      -2.176819              1      0.9689026
      4871.0000         1.0294         10.436       1305.656        79.0292        73.3661       83.91053         0.7646         0.7794        44.2606         1.0454         2.2767        -59.639       -3.32832              1      0.9524526
      4871.5000         1.0273        10.4365       1322.939        79.2207        75.7898       84.16078         0.7527         0.7727        45.8027         0.9981         2.2705        -59.799      -3.488319              1      0.9501669
      4872.0000         1.0281        10.4306       1340.236        78.3499        79.8793       83.01675         0.7413          0.766        46.4399         0.9665         2.2693       -59.5702      -3.259521              1      0.9534354
      4872.5000          1.029        10.4246        1352.84        77.0879         79.975       81.35929         0.7337         0.7615         45.702         0.9594         2.2749        -59.147      -2.836319              1      0.9594812
      4873.0000         1.0298        10.4308       1357.051        75.5656        76.3287       79.36018         0.7266         0.7594        44.9839         0.9744         2.2806       -58.5864      -2.275719      0.9863869      0.9674897
      4873.5000         1.0307        10.4391       1361.268        75.8265        73.6646       79.70153         0.7222         0.7573        44.6878         0.9839         2.2828       -57.8253      -1.514618      0.9936496      0.9783626
      4874.0000         1.0319        10.4452       1364.699        76.8549        72.7454        81.0502         0.7192         0.7493        44.7483         0.9922         2.2818       -58.6475      -2.336819              1      0.9666169
      4874.5000         1.0346        10.4496       1366.895        77.8794        75.5103       82.39378         0.7168         0.7462        45.6163         0.9967          2.277       -59.3878      -3.077118              1      0.9560412
      4875.0000         1.0373        10.4534       1369.092        78.9041        78.5824        83.7376         0.7147         0.7401        47.4094         0.9983         2.2739       -57.8655      -1.554821              1      0.9777883
      4875.5000           1.04         10.451       1371.289         79.928         80.019       85.08038         0.7129         0.7417        48.5073         0.9998         2.2723       -56.5083     -0.1976204              1      0.9971768
      4876.0000         1.0427        10.4487       1373.484        80.6273        79.9359       85.99712         0.7125          0.743         48.921         0.9987         2.2714       -57.4841       -1.17342              1      0.9832368
      4876.5000         1.0454         10.442        1375.68        80.6544        79.3492        86.0316          0.712          0.744        49.0435         0.9969         2.2678       -60.4832       -4.17252              1      0.9403926
      4877.0000         1.0486         10.467       1372.758        80.6815        79.6218       86.06607         0.7133         0.7467        49.0694         0.9951         2.2644       -61.4106      -5.099918              1      0.9271441
      4877.5000         1.0546        10.4847       1366.951        80.5305        80.8148       85.86679         0.7146         0.7501        48.1413          0.994         2.2618       -58.7859       -2.47522              1      0.9646397
