#------------------------------------------------------------------------------
# Created by    : vladimir.rabinovich
# Created on    : 09/19/2023 17:19:38
#------------------------------------------------------------------------------
~Version Information Section
VERS.           2.0     :   CWLS log ASCII Standard - VERSION 2.0
WRAP.           NO      :   One line per depth step
~Well Information Section
#MNEM       .UNIT                                         VALUE :DESCRIPTION
#------------------------------------------------------------------------------
STRT        .FT                                            9400 :START DEPTH
STOP        .FT                                           17100 :STOP DEPTH
STEP        .FT                                             0.5 :STEP      
NULL        .                                           -999.25 :NULL      
COMP        .                                   FOREST OIL CORP :COMPANY   
WELL        .                               OCS G18937 ST00BP00 :WELL      
FLD         .                            HIGH ISLAND BLOCK 0116 :FIELD     
LOC         .                                                   :LOCATION  
CNTY        .                           HIGH ISLAND LARGE BLOCK :LOCATION  
STAT        .                                             TEXAS :STATE     
CTRY        .                                     UNITED STATES :COUNTRY   
SRVC        .                                                   :SERVICE COMPANY
DATE        .                             9/13/2023 11:19:48 AM :LOG DATE  
API         .                                    42708405250000 :API NUMBER
UWI         .                                    42708405250000 :UNIQUE WELL ID
XCOORD      .                                  1337259.97993026 :SURFACE X 
YCOORD      .                                  10628189.4209318 :SURFACE Y 
LAT         .                                         29.282461 :LATITUDE  
LON         .                                        -93.951246 :LONGITUDE 
ELEV        .FT                                              93 :ELEVATION VALUE
ELEV_TYPE   .                                                KB :ELEVATION REFERENCE TYPE
~Curve Information Section
#MNEM       .UNIT                                      API CODE :CURVE DESCRIPTION
#------------------------------------------------------------------------------
DEPT        .FT                                                 :DEPTH     
AHT10       .OHMM                                               :          
AHT20       .OHMM                                               :          
AHT30       .OHMM                                               :          
AHT60       .OHMM                                               :          
AHT90       .OHMM                                               :          
CALI        .IN                                                 :          
COND        .MMHO                                               :          
DTCO        .US/F                                               :          
GR          .GAPI                                               :          
GR_NORM     .GAPI                                               :GammaRay Normalized
HDRA        .G/CC                                               :          
NPOR        .FRAC                                               :          
RHOZ        .G/CC                                               :          
VSH_GR      .V/V                                                :Volume of Shale from GR
~A        DEPTH          AHT10          AHT20          AHT30          AHT60          AHT90           CALI           COND           DTCO             GR        GR_NORM           HDRA           NPOR           RHOZ         VSH_GR
# ...
     15034.0000        -999.25          0.915          0.915          0.974          0.974          6.495       1026.694           99.3         91.756        82.7353         -0.036          0.282          2.594              1
     15034.5000        -999.25          0.947          0.947          0.994          0.994          6.511       1006.036           97.9         89.867       80.75185         -0.037          0.276          2.584              1
     15035.0000        -999.25          0.979          0.979          1.021          1.021          6.511       979.4319           95.9         89.213       80.06515         -0.034          0.254          2.588              1
     15035.5000        -999.25          1.004          1.004          1.055          1.055          6.421       947.8674             96         89.713       80.59015         -0.034          0.246          2.582              1
     15036.0000        -999.25          1.022          1.022          1.089          1.089          6.417       918.2737           95.5         87.679       78.45445         -0.039          0.266          2.575       0.967116
     15036.5000        -999.25          1.033          1.033           1.11           1.11          6.374       900.9009           95.2         87.606       78.37781         -0.037          0.249          2.583      0.9654853
     15037.0000        -999.25          1.042          1.042          1.117          1.117          6.366       895.2552          101.4         83.909       74.49596         -0.037          0.228          2.589      0.8828927
     15037.5000        -999.25          1.052          1.052          1.118          1.118          6.365       894.4543             93         83.474        74.0392         -0.039          0.212            2.6      0.8731745
     15038.0000        -999.25          1.061          1.061          1.115          1.115          6.366        896.861           92.6         85.798       76.47941          -0.04          0.205          2.597      0.9250938
     15038.5000        -999.25          1.067          1.067          1.109          1.109          6.366       901.7133           92.6         83.694       74.27021         -0.042          0.221          2.593      0.8780896
     15039.0000        -999.25          1.065          1.065          1.103          1.103          6.378       906.6183           93.8         87.254       78.00819         -0.043          0.224          2.584      0.9576212
     15039.5000        -999.25          1.053          1.053          1.099          1.099          6.439       909.9182           95.2         84.421       75.03355         -0.043          0.223          2.585      0.8943309
     15040.0000        -999.25          1.038          1.038          1.098          1.098          6.451       910.7468           95.6         85.944        76.6327         -0.042          0.264          2.577      0.9283553
     15040.5000        -999.25          1.026          1.026          1.093          1.093          6.439        914.913           97.4         81.004       71.44569         -0.042          0.287          2.569      0.8179935
     15041.0000        -999.25          1.019          1.019           1.08           1.08           6.43       925.9259           92.2         80.713       71.14015         -0.041          0.251          2.582      0.8114926
     15041.5000        -999.25          1.015          1.015           1.06           1.06          6.448       943.3963           89.7          83.11       73.65701         -0.036          0.201           2.61      0.8650427
     15042.0000        -999.25          1.005          1.005           1.04           1.04          6.387       961.5385           90.3         84.556       75.17531         -0.032          0.191          2.619       0.897347
     15042.5000        -999.25          0.985          0.985          1.025          1.025           6.36       975.6098           91.1         85.864        76.5487         -0.035          0.235          2.589       0.926568
     15043.0000        -999.25          0.959          0.959           1.02           1.02          6.366       980.3922           98.7         87.753       78.53215         -0.044           0.26          2.554      0.9687691
     15043.5000        -999.25          0.937          0.937          1.016          1.016          6.378        984.252           99.5         90.157       81.05636         -0.038          0.267          2.552              1
     15044.0000        -999.25          0.926          0.926          1.001          1.001          6.448        999.001           99.1         89.939       80.82747         -0.034          0.263          2.564              1
     15044.5000        -999.25          0.929          0.929          0.977          0.977          6.407       1023.541          100.8          87.76       78.53951         -0.036          0.215          2.567      0.9689257
     15045.0000        -999.25          0.938          0.938          0.962          0.962          6.359       1039.501           96.3         90.956       81.89531         -0.031          0.231          2.586              1
     15045.5000        -999.25          0.945          0.945          0.964          0.964          6.423       1037.344           94.1         93.193       84.24416         -0.027          0.263          2.592              1
     15046.0000        -999.25           0.94           0.94           0.97           0.97          6.424       1030.928             94         95.668        86.8429         -0.025          0.257          2.595              1
     15046.5000        -999.25          0.925          0.925          0.961          0.961          6.424       1040.583           95.1         94.282       85.38761         -0.023          0.241          2.593              1
     15047.0000        -999.25          0.904          0.904          0.938          0.938          6.424       1066.098           98.3         93.208       84.25991         -0.021           0.21          2.591              1
     15047.5000        -999.25          0.882          0.882          0.917          0.917          6.422       1090.513          100.5         90.806       81.73781         -0.021          0.232          2.594              1
     15048.0000        -999.25          0.863          0.863          0.911          0.911          6.396       1097.695           99.4         88.983       79.82367         -0.024          0.237           2.58      0.9962483
     15048.5000        -999.25          0.851          0.851          0.911          0.911          6.466       1097.695           98.4         89.346       80.20481         -0.028          0.243          2.578              1
     15049.0000        -999.25          0.847          0.847          0.912          0.912          6.458       1096.491             99         88.111       78.90807          -0.03          0.272          2.579      0.9767674
     15049.5000        -999.25          0.853          0.853          0.915          0.915          6.474       1092.896           99.4         89.503       80.36965         -0.032          0.282          2.582              1
     15050.0000        -999.25          0.868          0.868          0.922          0.922          6.476       1084.599           99.5         87.179       77.92945         -0.031          0.261          2.582      0.9559458
     15050.5000        -999.25          0.887          0.887          0.931          0.931          6.479       1074.114           99.6         85.362       76.02161         -0.034          0.247          2.582      0.9153534
     15051.0000        -999.25          0.905          0.905          0.938          0.938          6.432       1066.098           99.4         82.457       72.97135         -0.035          0.256          2.584      0.8504543
     15051.5000        -999.25          0.916          0.916          0.944          0.944          6.403       1059.322           98.5         84.213       74.81515         -0.036           0.25           2.58       0.889684
