#------------------------------------------------------------------------------
# Created by    : vladimir.rabinovich
# Created on    : 09/19/2023 17:22:48
#------------------------------------------------------------------------------
~Version Information Section
VERS.           2.0     :   CWLS log ASCII Standard - VERSION 2.0
WRAP.           NO      :   One line per depth step
~Well Information Section
#MNEM       .UNIT                                         VALUE :DESCRIPTION
#------------------------------------------------------------------------------
STRT        .FT                                            3512 :START DEPTH
STOP        .FT                                           11028 :STOP DEPTH
STEP        .FT                                             0.5 :STEP      
NULL        .                                           -999.25 :NULL      
COMP        .                          SEAGULL ENERGY E & P INC :COMPANY   
WELL        .                   ST TR 147-L NE/4 /ST LSE 88034/ :WELL      
FLD         .                                           WILDCAT :FIELD     
LOC         .                                                   :LOCATION  
CNTY        .                             GALVESTON LARGE BLOCK :LOCATION  
STAT        .                                             TEXAS :STATE     
CTRY        .                                     UNITED STATES :COUNTRY   
SRVC        .                                                   :SERVICE COMPANY
DATE        .                             9/13/2023 11:18:53 AM :LOG DATE  
API         .                                    42706302000000 :API NUMBER
UWI         .                                    42706302000000 :UNIQUE WELL ID
XCOORD      .                                  1107149.67333588 :SURFACE X 
YCOORD      .                                  10638300.0198507 :SURFACE Y 
LAT         .                                        29.3031745 :LATITUDE  
LON         .                                         -94.67354 :LONGITUDE 
ELEV        .FT                                              25 :ELEVATION VALUE
ELEV_TYPE   .                                                KB :ELEVATION REFERENCE TYPE
~Curve Information Section
#MNEM       .UNIT                                      API CODE :CURVE DESCRIPTION
#------------------------------------------------------------------------------
DEPT        .FT                                                 :DEPTH     
DT          .US/F                                               :          
GR          .GAPI                                               :          
GR_NORM     .GAPI                                               :GammaRay Normalized
ILD         .OHMM                                               :          
ILM         .OHMM                                               :          
SFL         .OHMM                                               :          
SP          .MV                                                 :          
SP_NORM     .MV                                                 :SP Normalized
VSH_GR      .V/V                                                :Volume of Shale from GR
VSH_SP      .V/V                                                :Volume of Shale from SP
~A        DEPTH             DT             GR        GR_NORM            ILD            ILM            SFL             SP        SP_NORM         VSH_GR         VSH_SP
# ...
     11009.0000       110.8497        68.3983       78.11858         0.4115         0.4134         0.5003       -41.7651      0.9996338      0.9599697              1
     11009.5000       110.8079         68.678       78.39828         0.4174         0.4182         0.4995       -41.8534       1.070541      0.9659208              1
     11010.0000       110.7944        69.3658       79.08607         0.4236         0.4263         0.5005       -42.0471       1.036057      0.9805548              1
     11010.5000       110.7855        70.1407       79.86098         0.4257         0.4336          0.503        -42.265      0.9773712      0.9970421              1
     11011.0000       110.7767        70.9547       80.67497         0.4263         0.4401         0.5063        -42.544      0.8575859              1              1
     11011.5000       110.8069        71.8336       81.55388         0.4199         0.4435         0.5101       -42.8195      0.7412949              1              1
     11012.0000       110.8606        72.4159       82.13618         0.4137         0.4391         0.5129       -43.0202        0.69981              1              1
     11012.5000       110.9144        70.1028       79.82307         0.4108         0.4294         0.5142       -43.2206      0.6586227      0.9962356              1
     11013.0000       110.9305        67.5078       77.22807         0.4165         0.4178         0.5139       -43.3571      0.6813354      0.9410228              1
     11013.5000        110.915        66.0083       75.72858          0.426         0.4179         0.5085       -43.4899      0.7077522      0.9091187              1
     11014.0000       110.8997        65.3204       75.04067         0.4349         0.4495         0.5009       -43.6527      0.7041626      0.8944824              1
     11014.5000       110.8843        65.4709       75.19118         0.4389         0.4742         0.5106       -43.8174      0.6986732      0.8976846              1
     11015.0000       110.8828        66.3107       76.03098         0.4371         0.4731         0.5635       -43.9878      0.6874886      0.9155527              1
     11015.5000       110.8868        67.4417       77.16198         0.4304          0.458         0.6107       -44.1466      0.6879044      0.9396166              1
     11016.0000       110.8909        68.8787       78.59898         0.4261         0.4378         0.6077       -44.2834      0.7103119       0.970191              1
     11016.5000       110.8743        69.4259       79.14618         0.4258         0.4192         0.5637       -44.4728      0.6801262      0.9818336              1
     11017.0000       110.8068        69.4369       79.15717         0.4293         0.4122         0.5054       -44.6941       0.618042      0.9820675              1
     11017.5000       110.7393        69.0403       78.76057         0.4333         0.4163         0.4739       -45.0283      0.4430542      0.9736292              1
     11018.0000       110.6718        55.0959       64.81618         0.4362         0.4233         0.4827         -45.36      0.2705688        0.67694              1
     11018.5000       110.6456        -999.25        -999.25         0.4385         0.4314         0.4991       -45.6874      0.1023788        -999.25              1
     11019.0000       110.6207        -999.25        -999.25         0.4397         0.4483         0.5169       -46.1133     -0.1643066        -999.25              1
     11019.5000       110.5964        -999.25        -999.25         0.4412         0.4668          0.539       -46.5809     -0.4726906        -999.25              1
     11020.0000       110.5842        -999.25        -999.25          0.443         0.4782         0.5597       -47.0889     -0.8214798        -999.25              1
     11020.5000       110.5721        -999.25        -999.25         0.4475         0.4774         0.5708       -47.5834      -1.156769        -999.25      0.9968007
     11021.0000       110.5684        -999.25        -999.25         0.4516         0.4717         0.5643       -48.0694      -1.483555        -999.25      0.9901316
     11021.5000       110.5994        -999.25        -999.25         0.4539         0.4646          0.539       -48.6557      -1.910641        -999.25      0.9814155
     11022.0000       110.6304        -999.25        -999.25         0.4562         0.4615         0.5114       -49.0236      -2.119328        -999.25      0.9771566
     11022.5000       110.6997        -999.25        -999.25         0.4585          0.463         0.4919       -49.3675      -2.304016        -999.25      0.9733874
     11023.0000       110.7886        -999.25        -999.25         0.4609         0.4649         0.4823       -49.7806      -2.557903        -999.25       0.968206
     11023.5000       110.8101        -999.25        -999.25         0.4632         0.4673         0.4764       -50.2788      -2.896889        -999.25       0.961288
     11024.0000       110.7694        -999.25        -999.25         0.4654          0.469         0.4717       -50.9508      -3.409676        -999.25      0.9508229
     11024.5000       110.7148        -999.25        -999.25          0.467         0.4698         0.4702       -51.7073      -4.006958        -999.25      0.9386335
     11025.0000       110.6404        -999.25        -999.25         0.4687         0.4703          0.472       -52.5176      -4.658051        -999.25      0.9253459
     11025.5000       110.5864        -999.25        -999.25         0.4698         0.4695         0.4743       -53.5091      -5.490337        -999.25      0.9083605
     11026.0000       110.6019        -999.25        -999.25         0.4702         0.4674         0.4766       -54.4675       -6.28952        -999.25      0.8920506
     11026.5000       110.6759        -999.25        -999.25         0.4705         0.4662         0.4777       -55.3708      -7.033607        -999.25      0.8768651
     11027.0000       110.7791        -999.25        -999.25         0.4711         0.4655         0.4787       -56.1359      -7.769886        -999.25      0.8618391
     11027.5000       110.8247        -999.25        -999.25         0.4718         0.4661         0.4795       -56.8104      -8.444386        -999.25      0.8480738
     11028.0000       110.8584        -999.25        -999.25         0.4724         0.4668         0.4803       -57.4077      -9.041687        -999.25      0.8358839
