#------------------------------------------------------------------------------
# Created by    : vladimir.rabinovich
# Created on    : 09/19/2023 17:22:52
#------------------------------------------------------------------------------
~Version Information Section
VERS.           2.0     :   CWLS log ASCII Standard - VERSION 2.0
WRAP.           NO      :   One line per depth step
~Well Information Section
#MNEM       .UNIT                                         VALUE :DESCRIPTION
#------------------------------------------------------------------------------
STRT        .FT                                             873 :START DEPTH
STOP        .FT                                           11612 :STOP DEPTH
STEP        .FT                                             0.5 :STEP      
NULL        .                                           -999.25 :NULL      
COMP        .                                   MARATHON OIL CO :COMPANY   
WELL        .                               OCS G04137 ST00BP04 :WELL      
FLD         .                       MATAGORDA ISLAND BLOCK 0527 :FIELD     
LOC         .                                                   :LOCATION  
CNTY        .                      MATAGORDA ISLAND LARGE BLOCK :LOCATION  
STAT        .                                             TEXAS :STATE     
CTRY        .                                     UNITED STATES :COUNTRY   
SRVC        .                                                   :SERVICE COMPANY
DATE        .                             9/13/2023 11:19:05 AM :LOG DATE  
API         .                                    42703400590000 :API NUMBER
UWI         .                                    42703400590000 :UNIQUE WELL ID
XCOORD      .                                  609906.580547661 :SURFACE X 
YCOORD      .                                  10277311.7025511 :SURFACE Y 
LAT         .                                         28.282909 :LATITUDE  
LON         .                                        -96.202007 :LONGITUDE 
ELEV        .FT                                              95 :ELEVATION VALUE
ELEV_TYPE   .                                                KB :ELEVATION REFERENCE TYPE
~Curve Information Section
#MNEM       .UNIT                                      API CODE :CURVE DESCRIPTION
#------------------------------------------------------------------------------
DEPT        .FT                                                 :DEPTH     
GR          .GAPI                                               :          
GR_NORM     .GAPI                                               :GammaRay Normalized
ILD         .OHMM                                               :          
SP          .MV                                                 :          
SP_NORM     .MV                                                 :SP Normalized
VSH_GR      .V/V                                                :Volume of Shale from GR
VSH_SP      .V/V                                                :Volume of Shale from SP
~A        DEPTH             GR        GR_NORM            ILD             SP        SP_NORM         VSH_GR         VSH_SP
# ...
      8075.5000        47.1084       67.04258         2.0018       -60.5818      -1.475479      0.7243102      0.9911948
      8076.0000        47.8063        68.5042         2.0035       -60.5506      -1.448639      0.7554084      0.9916919
      8076.5000        47.7906       68.46641         2.0066       -60.4291      -1.331497      0.7546044      0.9938611
      8077.0000        47.4423       67.72976         2.0098       -60.2943      -1.201057      0.7389311      0.9962767
      8077.5000        46.3064       65.33822         2.0129       -60.1594      -1.070518      0.6880472      0.9986941
      8078.0000        45.4009       63.43076         2.0145       -60.0977      -1.013176       0.647463       0.999756
      8078.5000        44.5015       61.53615         2.0141       -60.1974      -1.117237      0.6071522       0.997829
      8079.0000        43.4839       59.39314         2.0137       -60.2972      -1.221394       0.561556      0.9959001
      8079.5000        42.5587       57.44433         2.0133        -60.397      -1.325554      0.5200921      0.9939712
      8080.0000        43.3041       59.00574         2.0109       -60.5387      -1.471615      0.5533137      0.9912664
      8080.5000        43.4384       59.28313         2.0062       -60.6899      -1.627174      0.5592156      0.9883857
      8081.0000        42.6819       57.68876         2.0016       -60.8412      -1.782837      0.5252928       0.985503
      8081.5000        41.8208       55.87463         1.9969       -60.8774      -1.823391      0.4866943       0.984752
      8082.0000        41.8338       55.89713          1.984       -60.9055       -1.85585       0.487173      0.9841509
      8082.5000        42.4269       57.13853         1.9698       -60.9312       -1.88591      0.5135857      0.9835942
      8083.0000        43.2683       58.90167         1.9557       -60.9182      -1.877274      0.5510994      0.9837542
      8083.5000        43.9533       60.33619         1.9426       -60.9052      -1.868633      0.5816211      0.9839142
      8084.0000        44.1068       60.65391         1.9344       -60.8922      -1.859989      0.5883811      0.9840743
      8084.5000        44.0573       60.54509         1.9263       -60.8792      -1.851349      0.5860658      0.9842343
      8085.0000        43.9106       60.23204         1.9247       -60.8661      -1.842609       0.579405      0.9843961
      8085.5000        43.8964       60.19738         1.9503       -60.7668      -1.747669      0.5786676      0.9861543
      8086.0000        44.3352       61.11457         2.0582       -60.6503      -1.635529      0.5981824      0.9882309
      8086.5000        44.5173       61.49239         2.2056       -61.3464      -2.335987       0.606221      0.9752595
      8087.0000        43.4913       59.33175         2.3194       -61.6467      -2.640648        0.56025      0.9696176
      8087.5000        42.4897       57.22241         2.4045       -61.3317      -2.330006      0.5153704      0.9753703
      8088.0000        42.1845        56.5763         2.3604       -60.5546      -1.557266      0.5016235      0.9896802
      8088.5000        42.2446        56.6978         2.3085       -60.6353      -1.642326      0.5042085      0.9881051
      8089.0000        42.4962       57.22165         2.3026       -60.6331      -1.644482      0.5153542      0.9880652
      8089.5000        42.6976       57.64002         2.2968       -60.4765      -1.492245      0.5242557      0.9908844
      8090.0000        43.0219       58.31661         2.2909       -60.3811      -1.401203      0.5386512      0.9925703
      8090.5000        43.4371       59.18422         2.2851       -60.3682      -1.392662       0.557111      0.9927285
      8091.0000        43.8301       60.00519         2.2878       -60.3785      -1.407326      0.5745785      0.9924569
      8091.5000        44.4732       61.35166         2.2177       -60.4209      -1.454079      0.6032268      0.9915912
      8092.0000        45.5228       63.55225         2.0726       -60.9904      -2.027939      0.6500479      0.9809641
      8092.5000        46.7881       66.20608         1.9644       -61.8134      -2.855301      0.7065123      0.9656426
      8093.0000        47.5162       67.73114         1.8785       -60.5222      -1.568462      0.7389604      0.9894729
      8093.5000        48.5424       69.88258         1.8466       -59.1547     -0.2053223      0.7847357              1
      8094.0000        49.7781       72.47422         1.8527       -59.8619     -0.9168777       0.839877              1
      8094.5000        50.8942       74.81454         1.8762       -60.5764      -1.635738      0.8896711      0.9882271
      8095.0000        51.4641       76.00719         1.9272       -60.7812      -1.844898      0.9150467      0.9843537
      8095.5000        50.3152       73.58836         1.9908       -60.7271      -1.795158       0.863582      0.9852749
      8096.0000         48.264       69.27355         2.1018       -60.4061      -1.478519      0.7717777      0.9911385
      8096.5000        47.0616       66.74229         2.0937       -60.1909      -1.267673       0.717921      0.9950431
      8097.0000        46.3477       65.23743         2.0964       -60.0282      -1.109333      0.6859027      0.9979753
      8097.5000        46.3184       65.17106         2.1002       -59.9207      -1.006195      0.6844906      0.9998853
      8098.0000        46.4975       65.54258         2.1041       -59.9439      -1.033756      0.6923953      0.9993749
      8098.5000        46.4825       65.50623         2.1079       -59.9984      -1.092617      0.6916218      0.9982849
      8099.0000        45.2925         63.001         2.1118       -60.2811      -1.379673      0.6383192       0.992969
      8099.5000         44.642       61.62938         2.1157       -60.3531      -1.456032      0.6091358       0.991555
      8100.0000        44.6296        61.5985         2.1164       -60.0911      -1.198391      0.6084787      0.9963261
      8100.5000        45.7335       63.91319           2.11        -60.282      -1.393654      0.6577274      0.9927101
      8101.0000        47.3856       67.37981         2.1037       -60.9122      -2.028214      0.7314852       0.980959
      8101.5000         48.848       70.44776         2.0911       -61.2377       -2.35807      0.7967609      0.9748505
      8102.0000        50.0356       72.93834         2.0665       -60.9103       -2.03503      0.8497519      0.9808328
      8102.5000        51.0926       75.15448         2.0422       -60.4415      -1.570591      0.8969038      0.9894335
      8103.0000        50.9503       74.85068          1.971       -59.9828      -1.116249      0.8904399      0.9978473
      8103.5000        50.6466       74.20773         1.8676       -59.8878      -1.025608      0.8767603      0.9995258
      8104.0000        50.4378       73.76421         1.7781       -59.8298     -0.9719658      0.8673235              1
      8104.5000        50.2555       73.37632         1.7299       -60.4274      -1.573925      0.8590707      0.9893718
      8105.0000        50.1834          73.22         1.6857       -60.6226      -1.773487      0.8557447      0.9856762
      8105.5000        49.7134       72.22766         1.7061       -60.8112      -1.966446      0.8346311      0.9821029
      8106.0000        49.0007       70.72533         1.7268       -60.6091      -1.768707      0.8026667      0.9857647
      8106.5000        48.2122       69.06375         1.7419       -60.3491      -1.513062      0.7673138      0.9904988
      8107.0000        47.1219         66.768         1.7536       -60.5502      -1.718525       0.718468       0.986694
      8107.5000        45.8998       64.19533         1.7654        -60.817      -1.989685      0.6637304      0.9816725
      8108.0000          44.69       61.64849         1.7773       -61.0292      -2.206245      0.6095424      0.9776621
      8108.5000        43.5886       59.32942         1.7897       -61.5571      -2.738503      0.5602005      0.9678055
