#------------------------------------------------------------------------------
# Created by    : vladimir.rabinovich
# Created on    : 09/19/2023 17:19:22
#------------------------------------------------------------------------------
~Version Information Section
VERS.           2.0     :   CWLS log ASCII Standard - VERSION 2.0
WRAP.           NO      :   One line per depth step
~Well Information Section
#MNEM       .UNIT                                         VALUE :DESCRIPTION
#------------------------------------------------------------------------------
STRT        .FT                                            2350 :START DEPTH
STOP        .FT                                            7008 :STOP DEPTH
STEP        .FT                                             0.5 :STEP      
NULL        .                                           -999.25 :NULL      
COMP        .                                  W&T OFFSHORE INC :COMPANY   
WELL        .                               OCS G04565 ST00BP00 :WELL      
FLD         .                              GALVESTON BLOCK 0303 :FIELD     
LOC         .                                                   :LOCATION  
CNTY        .                             GALVESTON LARGE BLOCK :LOCATION  
STAT        .                                             TEXAS :STATE     
CTRY        .                                     UNITED STATES :COUNTRY   
SRVC        .                                                   :SERVICE COMPANY
DATE        .                             9/13/2023 11:19:03 AM :LOG DATE  
API         .                                    42706403950000 :API NUMBER
UWI         .                                    42706403950000 :UNIQUE WELL ID
XCOORD      .                                  979190.041446607 :SURFACE X 
YCOORD      .                                   10483081.623763 :SURFACE Y 
LAT         .                                        28.8707847 :LATITUDE  
LON         .                                       -95.0663777 :LONGITUDE 
ELEV        .FT                                              91 :ELEVATION VALUE
ELEV_TYPE   .                                                KB :ELEVATION REFERENCE TYPE
~Curve Information Section
#MNEM       .UNIT                                      API CODE :CURVE DESCRIPTION
#------------------------------------------------------------------------------
DEPT        .FT                                                 :DEPTH     
AF20        .OHMM                                               :          
AFCO        .MMHO                                               :          
AO90        .OHMM                                               :          
AT10        .OHMM                                               :          
AT20        .OHMM                                               :          
AT30        .OHMM                                               :          
AT60        .OHMM                                               :          
AT90        .OHMM                                               :          
DCAL        .IN                                                 :          
DPHI        .%                                                  :          
DRHO        .G/C3                                               :          
GR          .GAPI                                               :          
GR_NORM     .GAPI                                               :GammaRay Normalized
GRN         .GAPI                                               :          
NPOR        .%                                                  :          
RWA         .OHMM                                               :          
SP          .MV                                                 :          
SP_NORM     .MV                                                 :SP Normalized
TENR        .LBF                                                :          
TPHI        .%                                                  :          
VSH_GR      .V/V                                                :Volume of Shale from GR
VSH_SP      .V/V                                                :Volume of Shale from SP
~A        DEPTH           AF20           AFCO           AO90           AT10           AT20           AT30           AT60           AT90           DCAL           DPHI           DRHO             GR        GR_NORM            GRN           NPOR            RWA             SP        SP_NORM           TENR           TPHI         VSH_GR         VSH_SP
# ...
      4606.0000           0.51       2272.727           0.44           0.62           0.52           0.48           0.44           0.45          1.525           27.1          -0.04        68.7999       72.69703        -999.25        45.0991           0.04          -32.8      -22.43122           2335        -999.25      0.8446177      0.6261464
      4606.5000           0.52       2325.578           0.43           0.63           0.53           0.47           0.43           0.43          1.525           28.4          -0.04           65.7       69.91608        -999.25        45.1367           0.05          -31.4      -21.02724           2365        -999.25      0.7854486       0.649546
      4607.0000           0.53           2500            0.4           0.64           0.53           0.47           0.42           0.42          1.625           27.7          -0.05           61.1       65.78505        -999.25        44.6022           0.04          -31.1      -20.72326           2365        -999.25      0.6975542      0.6546124
      4607.5000           0.53       2439.023           0.41           0.66           0.54           0.47           0.42           0.42          1.725           25.2          -0.04        66.2999       70.47392        -999.25        43.2004           0.03          -32.4      -22.01927           2365        -999.25      0.7973175      0.6330121
      4608.0000           0.53       2222.219           0.45           0.69           0.56           0.47           0.42           0.42          2.025           20.8          -0.03           64.6       68.95297        -999.25        38.5453           0.02          -32.5      -22.11529           2365        -999.25      0.7649568      0.6314119
      4608.5000           0.52       2325.578           0.43           0.68           0.55           0.47           0.41           0.42          3.725           19.7          -0.03           70.6       74.36193        -999.25         36.744           0.02          -28.8       -18.4113           2360        -999.25      0.8800411      0.6931449
      4609.0000           0.51       2564.102           0.39           0.65           0.53           0.46           0.41           0.41          2.925             22          -0.03        68.8999       72.84081        -999.25        39.9346           0.02          -26.8      -16.40732           2360        -999.25      0.8476767      0.7265446
      4609.5000           0.49       2380.949           0.42           0.63           0.51           0.46           0.41           0.41          2.225           24.6          -0.03           72.2       75.81985        -999.25        44.4587           0.03            -25      -14.60334           2360        -999.25      0.9110608       0.756611
      4610.0000           0.46        2173.91           0.46           0.61            0.5           0.45            0.4           0.41          2.325           24.1          -0.03           71.6       75.28882        -999.25         47.074           0.03          -23.6      -13.19936           2360        -999.25      0.8997621      0.7800108
      4610.5000           0.43       2325.578           0.43           0.58           0.47           0.43           0.38           0.39          2.025           25.1          -0.03        72.7999       76.37769        -999.25        47.5124           0.04          -30.4      -19.99537           2390        -999.25      0.9229296      0.6667438
      4611.0000           0.41       2439.023           0.41           0.53           0.42           0.39           0.35           0.35          2.025           29.4          -0.02           65.5       69.81674        -999.25         46.043           0.05          -43.9      -33.49139           2390        -999.25      0.7833349      0.4418102
      4611.5000           0.38       2941.176           0.34           0.45           0.37           0.33            0.3           0.31          2.425        34.9999          -0.01           54.2       59.65571        -999.25        43.4689           0.06          -53.6       -43.1874           2390        -999.25      0.5671427      0.2802099
      4612.0000           0.37           4000           0.25           0.39           0.32            0.3           0.28           0.28          3.525        39.2999          -0.01             43       49.58467        -999.25        42.0505           0.05          -57.4      -46.98343           2390        -999.25      0.3528652      0.2169429
      4612.5000           0.36       4545.453           0.22           0.37           0.31           0.28           0.27           0.27          4.225        39.3999          -0.01             40       46.89363        -999.25        41.8081           0.05          -56.2      -45.77944           2385        -999.25      0.2956091      0.2370093
      4613.0000           0.36       3846.152           0.26           0.41           0.33            0.3           0.29           0.29          4.325           36.9              0           40.5       47.35259        -999.25        42.0477           0.05          -54.3      -43.87546           2385        -999.25      0.3053742      0.2687424
      4613.5000           0.36       2857.141           0.35            0.5           0.38           0.34           0.32           0.32          3.425           33.4          -0.01           43.4       49.97155        -999.25        41.3637           0.05          -55.4      -44.97148           2385        -999.25      0.3610968      0.2504754
      4614.0000           0.36       2702.699           0.37           0.58           0.42           0.37           0.33           0.33          2.625           33.9          -0.03           44.4       50.88051        -999.25        40.2356           0.06          -58.3      -47.86749           2385        -999.25      0.3804364      0.2022085
      4614.5000           0.36           3125           0.32           0.61           0.42           0.37           0.32           0.32          2.925           33.9          -0.03           47.7       53.85948        -999.25        39.5158           0.05          -61.1      -50.66351           2340        -999.25      0.4438187      0.1556082
      4615.0000           0.35       3703.703           0.27           0.55           0.39           0.34           0.29           0.29          3.225           34.7          -0.03           45.2       51.61844        -999.25        39.9603           0.04          -62.4      -51.95953           2340        -999.25       0.396137      0.1340079
      4615.5000           0.34       4166.664           0.24           0.48           0.34            0.3           0.27           0.27          3.025        34.5999          -0.03           40.3        47.2174        -999.25        40.5363           0.04          -63.7      -53.25554           2340        -999.25      0.3024979      0.1124076
      4616.0000           0.32       4761.898           0.21           0.42           0.31           0.27           0.25           0.25          3.725        34.9999          -0.01           37.3       44.52636        -999.25        42.8531           0.04          -64.1      -53.65156           2340        -999.25      0.2452417      0.1058074
      4616.5000           0.31           5000            0.2           0.39           0.29           0.26           0.23           0.24          4.025           35.6          -0.01           36.3       43.63532        -999.25        45.7451           0.04          -64.1      -53.64758           2355        -999.25      0.2262834      0.1058737
      4617.0000            0.3           5000            0.2           0.38           0.29           0.25           0.23           0.23          4.325        36.0999          -0.02           39.7       46.70428        -999.25        47.1961           0.04          -63.9       -53.4436           2355        -999.25      0.2915804      0.1092734
      4617.5000            0.3           5000            0.2           0.38           0.29           0.25           0.23           0.24          4.925        34.4999          -0.02           40.5       47.43324        -999.25        44.6264           0.03          -63.2      -52.73961           2355        -999.25      0.3070903      0.1210065
