#------------------------------------------------------------------------------
# Created by    : vladimir.rabinovich
# Created on    : 09/19/2023 17:20:45
#------------------------------------------------------------------------------
~Version Information Section
VERS.           2.0     :   CWLS log ASCII Standard - VERSION 2.0
WRAP.           NO      :   One line per depth step
~Well Information Section
#MNEM       .UNIT                                         VALUE :DESCRIPTION
#------------------------------------------------------------------------------
STRT        .FT                                            2110 :START DEPTH
STOP        .FT                                            6746 :STOP DEPTH
STEP        .FT                                             0.5 :STEP      
NULL        .                                           -999.25 :NULL      
COMP        .                       HOUSTON OIL & MINERALS CORP :COMPANY   
WELL        .                                ST TR 00694-L NE/4 :WELL      
FLD         .                                           WILDCAT :FIELD     
LOC         .                                                   :LOCATION  
CNTY        .                      MATAGORDA ISLAND LARGE BLOCK :LOCATION  
STAT        .                                             TEXAS :STATE     
CTRY        .                                     UNITED STATES :COUNTRY   
SRVC        .                                                   :SERVICE COMPANY
DATE        .                             9/13/2023 11:12:01 AM :LOG DATE  
API         .                                    42703302070000 :API NUMBER
UWI         .                                    42703302070000 :UNIQUE WELL ID
XCOORD      .                                  400461.464340365 :SURFACE X 
YCOORD      .                                  10145980.2526086 :SURFACE Y 
LAT         .                                        27.9055609 :LATITUDE  
LON         .                                       -96.8388291 :LONGITUDE 
ELEV        .FT                                              25 :ELEVATION VALUE
ELEV_TYPE   .                                                KB :ELEVATION REFERENCE TYPE
~Curve Information Section
#MNEM       .UNIT                                      API CODE :CURVE DESCRIPTION
#------------------------------------------------------------------------------
DEPT        .FT                                                 :DEPTH     
ASN         .OHMM                                               :          
CILD        .MMHO                                               :          
ILD         .OHMM                                               :          
SP          .MV                                                 :          
SP_NORM     .MV                                                 :SP Normalized
VSH_SP      .V/V                                                :Volume of Shale from SP
~A        DEPTH            ASN           CILD            ILD             SP        SP_NORM         VSH_SP
# ...
      5492.0000         1.3126        824.418         1.0643       -47.2662       -10.9778      0.8452103
      5492.5000         1.3126       812.8711          1.076       -47.3044       -11.0119      0.8446224
      5493.0000         1.3127       802.2187         1.0877       -47.3427       -11.0462       0.844031
      5493.5000         1.3124       799.3281         1.0957       -47.3508       -11.0502      0.8439621
      5494.0000         1.3103       796.4385          1.101       -47.3035       -10.9989      0.8448465
      5494.5000         1.3081       793.5488         1.1064       -47.2563       -10.9476       0.845731
      5495.0000         1.3059       792.2451         1.1118        -47.209       -10.8963      0.8466155
      5495.5000         1.3038       795.6035         1.1171       -47.1618        -10.845         0.8475
      5496.0000         1.3016       798.9658         1.1208       -47.1145       -10.7937      0.8483845
      5496.5000         1.2991       802.3242         1.1209       -47.0673       -10.7424       0.849269
      5497.0000         1.2955       805.6855         1.1209       -47.0314       -10.7025      0.8499569
      5497.5000          1.292       815.1553          1.121       -47.0096       -10.6766      0.8504034
      5498.0000         1.2885       824.6406         1.1173       -46.9879       -10.6509      0.8508465
      5498.5000         1.2849        834.127         1.1095       -46.9662       -10.6251      0.8512914
      5499.0000         1.2814       843.5439         1.1016       -47.2059       -10.8608      0.8472276
      5499.5000         1.2784        852.582         1.0894       -47.6264       -11.2772      0.8400483
      5500.0000         1.2779       861.6211         1.0715       -48.1643       -11.8111      0.8308431
      5500.5000         1.2774        868.251         1.0535        -48.704       -12.3467      0.8216086
      5501.0000          1.277       872.5283         1.0356       -49.1942       -12.8329      0.8132259
      5501.5000         1.2765        875.499         1.0177       -49.4672       -13.1018      0.8085896
      5502.0000         1.2757       875.0625         0.9926       -49.7399       -13.3705      0.8039569
      5502.5000         1.2743        874.627         0.9675       -50.1968       -13.8233        0.79615
      5503.0000         1.2729       874.1914         0.9185       -50.7944       -14.4169      0.7859155
      5503.5000         1.2715       875.5127         0.8629       -51.6666        -15.285      0.7709483
      5504.0000         1.2601       877.8652         0.7948       -53.0012       -16.6156      0.7480069
      5504.5000         1.2475       911.7744          0.723       -54.8252       -18.4355      0.7166293
      5505.0000         1.2183       1009.113         0.6684       -59.4418       -23.0481      0.6371017
      5505.5000         1.1771       1112.213         0.6188       -67.1908        -30.793       0.503569
      5506.0000         1.1468       1208.955         0.5757       -75.6272       -39.2254      0.3581828
      5506.5000         1.0832         1305.6         0.5441       -90.5103       -54.1044      0.1016483
      5507.0000         1.0592       1402.342         0.5124       -91.4633       -55.0534     0.08528624
      5507.5000         1.0363       1498.986         0.4837       -92.0404       -55.6264     0.07540689
      5508.0000         1.0142       1595.729         0.4631       -92.5726       -56.1546     0.06630003
      5508.5000         0.9969         1732.6         0.4575       -93.0084       -56.5863      0.0588569
      5509.0000         0.9868       1893.705         0.4519       -93.4445       -57.0184     0.05140693
      5509.5000         0.9777        1901.85         0.4474       -93.9938       -57.5636     0.04200692
      5510.0000         0.9724       1906.332         0.4452       -94.7957       -58.3615        0.02825
      5510.5000         0.9671       1910.811         0.4429       -95.6136       -59.1753     0.01421896
      5511.0000         0.9659       1915.289         0.4407       -96.5431       -60.1008              0
      5511.5000         0.9659       1917.318         0.4385       -97.0496       -60.6032              0
      5512.0000          0.966       1918.387         0.4365       -97.2002       -60.7498              0
      5512.5000          0.966       1919.457         0.4396       -97.3507       -60.8962              0
      5513.0000         0.9662       1920.525         0.4427       -97.2949       -60.8364              0
      5513.5000         0.9684       1917.691         0.4458        -96.952       -60.4894              0
      5514.0000         0.9705       1903.736         0.4489       -95.9523       -59.4857    0.008867264
      5514.5000         0.9832       1816.629          0.452       -93.2916       -56.8209     0.05481207
      5515.0000         0.9973       1644.324         0.4542       -89.0859       -52.6112      0.1273931
      5515.5000         1.0272       1634.342         0.4563       -88.5811       -52.1023      0.1361673
      5516.0000         1.0602       1624.346         0.4561       -88.4752       -51.9924       0.138062
      5516.5000         1.1034       1623.082         0.4552       -88.9956       -52.5087      0.1291603
      5517.0000         1.0841       1623.734         0.4544       -89.5161       -53.0252      0.1202552
      5517.5000         1.0649       1632.504         0.4535       -90.0365       -53.5415      0.1113534
      5518.0000         1.0456       1654.008         0.4509       -90.5183       -54.0193      0.1031155
      5518.5000         1.0289       1675.537         0.4468       -90.6167       -54.1136      0.1014896
      5519.0000         1.0124       1715.564         0.4426       -89.7202       -53.2131      0.1170155
      5519.5000         0.9968       1756.586         0.4384       -89.3738       -52.8626      0.1230586
      5520.0000         0.9875       1806.895         0.4343       -89.6649       -53.1497      0.1181086
      5520.5000         0.9783       1843.992         0.4301       -89.9559       -53.4366      0.1131621
      5521.0000          0.969       1854.186         0.4262       -90.2469       -53.7236      0.1082138
      5521.5000         0.9616       1860.064         0.4223        -90.538       -54.0106      0.1032655
      5522.0000         0.9558       1865.943         0.4184        -91.035       -54.5036      0.0947655
      5522.5000         0.9499       1873.182         0.4145        -91.558       -55.0225     0.08581898
      5523.0000         0.9445       1884.926         0.4106       -92.0808       -55.5413     0.07687411
      5523.5000         0.9423       1896.684         0.4098        -92.506       -55.9624     0.06961382
      5524.0000           0.94        1908.43         0.4099       -91.8835       -55.3359     0.08041553
      5524.5000         0.9378       1920.783         0.4099       -91.2616       -54.7099     0.09120862
      5525.0000         0.9369       1936.055           0.41       -90.8676       -54.3119     0.09807067
      5525.5000         0.9361       1951.326         0.4101       -91.3942       -54.8344     0.08906206
      5526.0000         0.9382       1966.598         0.4101       -91.9215       -55.3577     0.08003965
      5526.5000         0.9409       1976.418         0.4102       -92.4487       -55.8808     0.07102071
      5527.0000         0.9436       1944.336         0.4102       -92.9753       -56.4034     0.06201034
      5527.5000         0.9463       1912.279         0.4103       -93.3981       -56.8221     0.05479135
      5528.0000         0.9535       1872.797         0.4162       -93.7505       -57.1705     0.04878445
      5528.5000         0.9607       1825.518          0.425       -94.1028       -57.5187     0.04278104
      5529.0000          0.968       1778.238         0.4338       -94.4548       -57.8667     0.03678105
      5529.5000         0.9752       1748.553         0.4426       -94.8071       -58.2149     0.03077757
