#------------------------------------------------------------------------------
# Created by    : vladimir.rabinovich
# Created on    : 09/19/2023 17:22:48
#------------------------------------------------------------------------------
~Version Information Section
VERS.           2.0     :   CWLS log ASCII Standard - VERSION 2.0
WRAP.           NO      :   One line per depth step
~Well Information Section
#MNEM       .UNIT                                         VALUE :DESCRIPTION
#------------------------------------------------------------------------------
STRT        .FT                                            3512 :START DEPTH
STOP        .FT                                           11028 :STOP DEPTH
STEP        .FT                                             0.5 :STEP      
NULL        .                                           -999.25 :NULL      
COMP        .                          SEAGULL ENERGY E & P INC :COMPANY   
WELL        .                   ST TR 147-L NE/4 /ST LSE 88034/ :WELL      
FLD         .                                           WILDCAT :FIELD     
LOC         .                                                   :LOCATION  
CNTY        .                             GALVESTON LARGE BLOCK :LOCATION  
STAT        .                                             TEXAS :STATE     
CTRY        .                                     UNITED STATES :COUNTRY   
SRVC        .                                                   :SERVICE COMPANY
DATE        .                             9/13/2023 11:18:53 AM :LOG DATE  
API         .                                    42706302000000 :API NUMBER
UWI         .                                    42706302000000 :UNIQUE WELL ID
XCOORD      .                                  1107149.67333588 :SURFACE X 
YCOORD      .                                  10638300.0198507 :SURFACE Y 
LAT         .                                        29.3031745 :LATITUDE  
LON         .                                         -94.67354 :LONGITUDE 
ELEV        .FT                                              25 :ELEVATION VALUE
ELEV_TYPE   .                                                KB :ELEVATION REFERENCE TYPE
~Curve Information Section
#MNEM       .UNIT                                      API CODE :CURVE DESCRIPTION
#------------------------------------------------------------------------------
DEPT        .FT                                                 :DEPTH     
DT          .US/F                                               :          
GR          .GAPI                                               :          
GR_NORM     .GAPI                                               :GammaRay Normalized
ILD         .OHMM                                               :          
ILM         .OHMM                                               :          
SFL         .OHMM                                               :          
SP          .MV                                                 :          
SP_NORM     .MV                                                 :SP Normalized
VSH_GR      .V/V                                                :Volume of Shale from GR
VSH_SP      .V/V                                                :Volume of Shale from SP
~A        DEPTH             DT             GR        GR_NORM            ILD            ILM            SFL             SP        SP_NORM         VSH_GR         VSH_SP
# ...
      9514.5000       108.3285        79.5024        88.3941         0.8487         0.7391         1.9945       -12.0851       1.783664              1              1
      9515.0000        107.483        77.1394       85.66514          0.847         0.7376         1.9585       -11.7287       2.134919              1              1
      9515.5000       104.8557         74.293       82.37815         0.8443         0.7367         1.9009       -11.3386       2.519875              1              1
      9516.0000       104.7698        71.4465       79.09105         0.8416         0.7369         1.8425       -10.8773       2.976029      0.9806606              1
      9516.5000       104.3519         71.525       79.18047         0.8406         0.7387          1.803       -10.4932       3.354985      0.9825633              1
      9517.0000       101.9335        72.1655       79.91866         0.8399         0.7517         1.8331       -10.2236        3.61944      0.9982693              1
      9517.5000        99.8986        70.8159       78.35953         0.8431         0.7663         1.8689        -9.9197       3.918197      0.9650964              1
      9518.0000        98.4042        69.0271        76.2934         0.8467         0.7812         1.9107        -9.6844       4.148353      0.9211363              1
      9518.5000        97.3794        67.7535       74.82201         0.8526         0.7981         1.9476        -9.5787       4.248907      0.8898299              1
      9519.0000        96.4958        69.2676       76.56864         0.8584         0.8123         1.9801        -9.4271       4.395363      0.9269924              1
      9519.5000        95.7991        72.3103       80.07985         0.8626         0.8194         2.0118        -9.2412       4.576118              1              1
      9520.0000        95.3926        75.8094        84.1179         0.8667         0.8194         2.0429        -9.0022       4.809974              1              1
      9520.5000        95.2911        79.8386       88.76789           0.87         0.8175         2.0711        -8.7069       5.100129              1              1
      9521.0000        95.5262        80.9943        90.1008         0.8721         0.8149         2.0868        -8.3851       5.416784              1              1
      9521.5000        96.1677        78.2926       86.98086         0.8733         0.8101         2.0732        -8.1121        5.68464              1              1
      9522.0000        96.7932         75.142       83.34271         0.8696          0.805         2.0402        -7.9157       5.875896              1              1
      9522.5000        97.4039        72.5605       80.36152         0.8658          0.801         1.9847        -7.8298       5.956651              1              1
      9523.0000         97.984        70.6024       78.09996         0.8584         0.7991         1.9095        -7.7802       6.001106      0.9595736              1
      9523.5000        98.2638        70.0472       77.45786         0.8511         0.8011          1.859        -7.7746       6.001562       0.945912              1
      9524.0000        97.8218        70.4552       77.92765         0.8423          0.797         1.8494        -7.8279       5.943117      0.9559075              1
      9524.5000        96.9222        73.6157       81.57484         0.8331         0.7923         1.9296        -7.9135       5.852373              1              1
      9525.0000        96.2648        75.7334       84.01825         0.8276         0.7895         2.0078        -7.7352       6.025528              1              1
      9525.5000        95.9097        74.7445        82.8755         0.8234          0.787         2.0583        -7.5091       6.246484              1              1
      9526.0000        95.9342        73.7163        81.6874         0.8166          0.782         2.0428          -7.23        6.52044              1              1
      9526.5000        96.4349        74.4059       82.48225         0.8086         0.7731         2.0081        -7.0375       6.707795              1              1
      9527.0000        97.3756        75.6377       83.90302         0.7975         0.7635         1.9797        -6.9039        6.83625              1              1
      9527.5000        98.5198        76.4811       84.87542         0.7834         0.7504         1.9486        -6.8669       6.868105              1              1
      9528.0000        99.8297        76.1136          84.45         0.7619         0.7359         1.9122        -6.8614       6.868461              1              1
      9528.5000        101.093        74.9629       83.12047         0.7447         0.7213         1.8684        -6.8559       6.868816              1              1
      9529.0000       102.1584        74.6377       82.74389         0.7301         0.7134         1.8402         -6.861       6.858572              1              1
      9529.5000       103.2189        75.2401       83.43807         0.7193         0.7059         1.7772        -6.9021       6.812327              1              1
      9530.0000       104.2598        76.5038       84.89566         0.7088         0.6982         1.7235        -6.9641       6.745183              1              1
      9530.5000       104.8354        78.0154       86.63943         0.7016         0.6912         1.7444        -7.0438       6.660339              1              1
      9531.0000       104.8342        79.7993        88.6975         0.6945         0.6849         1.7847        -7.0371       6.661894              1              1
      9531.5000       104.9689        81.9537       91.18327         0.6886         0.6807         1.7893         -6.993        6.70085              1              1
      9532.0000       105.5709        83.6444       93.13378         0.6829         0.6779         1.7807        -6.9745       6.714204              1              1
      9532.5000       106.6744        83.4309       92.88613         0.6808         0.6765         1.8051        -6.9601        6.72346              1              1
      9533.0000       107.3615        81.0557       90.14308         0.6825         0.6771          1.841        -6.9032       6.775215              1              1
      9533.5000       107.3738        80.0085       88.93304         0.6843         0.6788         1.8774         -6.815       6.858271              1              1
      9534.0000       106.4742        80.7661       89.80639         0.6897         0.6824         1.8959        -6.7039       6.964226              1              1
      9534.5000       105.5747        82.7242       92.06557         0.6971         0.6866          1.872        -6.5312       7.131782              1              1
      9535.0000       104.5093        83.0138       92.39868         0.7047         0.6912         1.8376        -6.3829       7.274938              1              1
      9535.5000       103.5273        80.6532       89.67249         0.7134         0.6965         1.8005        -6.3329       7.319793              1              1
      9536.0000        103.327        78.9414       87.69524         0.7223         0.7027         1.7763        -6.3023       7.345249              1              1
      9536.5000        104.406        79.0354       87.80257         0.7322         0.7133         1.8037        -6.2958       7.346603              1              1
      9537.0000       105.6987        77.6007        86.1452         0.7432         0.7229         1.8407        -6.2457        7.39156              1              1
      9537.5000       106.0662        74.6365       82.72223         0.7544         0.7316          1.879        -6.1951       7.437015              1              1
      9538.0000       104.8951         71.817       79.46629         0.7605         0.7368         1.8989         -6.143        7.48397      0.9886445              1
      9538.5000       103.3983        70.8589       78.35911         0.7663         0.7419         1.9017        -6.1178       7.504026      0.9650874              1
