#------------------------------------------------------------------------------
# Created by    : vladimir.rabinovich
# Created on    : 09/19/2023 17:20:25
#------------------------------------------------------------------------------
~Version Information Section
VERS.           2.0     :   CWLS log ASCII Standard - VERSION 2.0
WRAP.           NO      :   One line per depth step
~Well Information Section
#MNEM       .UNIT                                         VALUE :DESCRIPTION
#------------------------------------------------------------------------------
STRT        .FT                                             396 :START DEPTH
STOP        .FT                                           11006 :STOP DEPTH
STEP        .FT                                             0.5 :STEP      
NULL        .                                           -999.25 :NULL      
COMP        .                                 CALIFORNIA CO THE :COMPANY   
WELL        .                                OCS 00507 ST00BP00 :WELL      
FLD         .                            HIGH ISLAND BLOCK 0052 :FIELD     
LOC         .                                                   :LOCATION  
CNTY        .                           HIGH ISLAND LARGE BLOCK :LOCATION  
STAT        .                                             TEXAS :STATE     
CTRY        .                                     UNITED STATES :COUNTRY   
SRVC        .                                                   :SERVICE COMPANY
DATE        .                             9/13/2023 11:19:15 AM :LOG DATE  
API         .                                    42708000170000 :API NUMBER
UWI         .                                    42708000170000 :UNIQUE WELL ID
XCOORD      .                                  1293108.02889945 :SURFACE X 
YCOORD      .                                   10685731.628563 :SURFACE Y 
LAT         .                                         29.439677 :LATITUDE  
LON         .                                        -94.091453 :LONGITUDE 
ELEV        .FT                                              70 :ELEVATION VALUE
ELEV_TYPE   .                                                KB :ELEVATION REFERENCE TYPE
~Curve Information Section
#MNEM       .UNIT                                      API CODE :CURVE DESCRIPTION
#------------------------------------------------------------------------------
DEPT        .FT                                                 :DEPTH     
ASN         .OHMM                                               :          
CILD        .MMHO                                               :          
ILM         .OHMM                                               :          
SP          .MV                                                 :          
SP_NORM     .MV                                                 :SP Normalized
VSH_SP      .V/V                                                :Volume of Shale from SP
~A        DEPTH            ASN           CILD            ILM             SP        SP_NORM         VSH_SP
# ...
      6742.0000         0.4828       1464.461         0.4019       -73.8806       -26.1704      0.5832689
      6742.5000         0.4659       1253.723         0.3901       -74.7109       -27.0042      0.5688931
      6743.0000         0.4561       1108.973         0.3783       -75.5402        -27.837      0.5545345
      6743.5000          0.454       1078.738         0.3664        -76.995       -29.2953      0.5293914
      6744.0000         0.4518       1141.227         0.3546       -78.6335       -30.9372      0.5010828
      6744.5000         0.4509       1245.377         0.3428       -80.2744       -32.5816       0.472731
      6745.0000         0.4508       1333.967          0.331       -81.9153        -34.226      0.4443793
      6745.5000         0.4506       1407.039         0.3303       -84.2939       -36.6081      0.4033086
      6746.0000         0.4505       1459.289          0.335        -86.699       -39.0167       0.361781
      6746.5000         0.4474       1511.537         0.3397       -89.1041       -41.4253      0.3202534
      6747.0000         0.4375       1570.352         0.3445       -89.4515       -41.7761      0.3142052
      6747.5000         0.4276       1631.295         0.3492       -89.2699        -41.598      0.3172759
      6748.0000         0.4177       1706.322         0.3595       -87.3334        -39.665      0.3506034
      6748.5000         0.4301       1791.783         0.3745         -83.99       -36.3251      0.4081879
      6749.0000         0.4466       1873.592         0.3896       -80.6466       -32.9852      0.4657724
      6749.5000         0.4631       1922.885         0.4046       -77.2416       -29.5837       0.524419
      6750.0000         0.4842       1944.641         0.4196       -73.7529       -26.0985      0.5845087
      6750.5000         0.5071       1958.551         0.4332       -70.2598       -22.6088      0.6446759
      6751.0000           0.53       1926.102         0.4405       -68.1993       -20.5518      0.6801414
      6751.5000         0.5528       1856.813         0.4477       -66.8724       -19.2284      0.7029586
      6752.0000         0.5625       1744.053         0.4549       -65.5454       -17.9049      0.7257776
      6752.5000         0.5677       1548.096         0.4622       -64.2184       -16.5814      0.7485965
      6753.0000         0.5729       1421.514         0.4694       -63.0555        -15.422      0.7685862
      6753.5000         0.5782       1301.539         0.4763       -62.0325       -14.4025      0.7861638
      6754.0000         0.5729       1184.174         0.4689       -61.0106        -13.384      0.8037242
      6754.5000         0.5655       1068.719         0.4615       -59.9886       -12.3655      0.8212845
      6755.0000         0.5581       1003.299          0.454       -58.9656        -11.346      0.8388621
      6755.5000         0.5507       999.0391         0.4466       -58.0433       -10.4272      0.8547034
      6756.0000          0.544       1043.986         0.4392       -57.5246         -9.912      0.8635862
      6756.5000         0.5374       1089.672         0.4317       -57.0059        -9.3968      0.8724689
      6757.0000         0.5309       1135.357         0.4243       -56.4872        -8.8816      0.8813517
      6757.5000         0.5244       1208.254         0.4169       -55.9691        -8.3669      0.8902258
      6758.0000         0.5179       1297.889          0.407       -57.1519        -9.5532      0.8697724
      6758.5000         0.5092       1409.863         0.3956       -58.5118       -10.9166      0.8462655
      6759.0000         0.4941       1497.236         0.3843       -60.8068       -13.2151      0.8066362
      6759.5000          0.479       1567.787         0.3729       -65.2822        -17.694      0.7294138
      6760.0000         0.4639       1617.689         0.3615       -69.7621       -22.1774      0.6521138
      6760.5000         0.4506       1667.635         0.3502       -76.1492       -28.5679      0.5419328
      6761.0000           0.44       1719.842         0.3388       -81.8184       -34.2406      0.4441276
      6761.5000         0.4295       1773.309         0.3274       -87.1792       -39.6049      0.3516397
      6762.0000         0.4209       1848.553         0.3163       -94.1125       -46.5417      0.2320397
      6762.5000         0.4236       1914.148         0.3156       -97.9712       -50.4039        0.16545
      6763.0000         0.4264       1962.094         0.3148       -100.536       -52.9722       0.121169
      6763.5000         0.4381       1980.938         0.3141      -101.2694       -53.7091      0.1084638
      6764.0000         0.4748       1978.852         0.3302      -102.0028       -54.4459     0.09576035
      6764.5000         0.5115       1964.355         0.3609      -102.7374        -55.184     0.08303452
      6765.0000          0.631       1905.063         0.3917      -103.4708       -55.9209     0.07032934
      6765.5000         0.7684       1845.684         0.3812       -104.077       -56.5306     0.05981722
      6766.0000          0.776       1766.311         0.3637      -104.4316       -56.8887     0.05364313
      6766.5000         0.7357        1650.16         0.3461      -104.7867       -57.2473     0.04746036
      6767.0000         0.6732       1545.313         0.3286       -105.142       -57.6061     0.04127417
      6767.5000         0.5682       1445.334         0.3111      -105.4971       -57.9646     0.03509311
      6768.0000         0.4317       1375.785         0.2936      -105.8522       -58.3232     0.02891034
      6768.5000         0.3699       1324.752         0.2761      -106.2404       -58.7149     0.02215688
      6769.0000          0.332       1273.762         0.2585      -106.6451       -59.1231     0.01511896
      6769.5000         0.2994       1213.732         0.2414      -107.0504       -59.5319    0.008070716
      6770.0000         0.2864       1097.756         0.2304      -107.4556       -59.9406    0.001024115
      6770.5000         0.2734       1015.731         0.2194      -107.8604       -60.3488              0
      6771.0000          0.263       971.4795         0.2085      -108.2656       -60.7575              0
      6771.5000         0.2625       927.2715         0.1975      -109.0651       -61.5605              0
      6772.0000          0.262       883.0205         0.1865      -109.8635       -62.3624              0
      6772.5000         0.2615       845.8975         0.1756       -110.663       -63.1654              0
      6773.0000          0.261       813.9043         0.1646      -109.9296       -62.4355              0
      6773.5000         0.2604       781.8682         0.1536      -109.1565       -61.6659              0
      6774.0000         0.2599       762.5898         0.1427      -108.3834       -60.8962              0
      6774.5000         0.2594       747.9844         0.1356      -106.5763       -59.0926      0.0156448
      6775.0000           0.26       735.0059         0.1338      -104.6558       -57.1756     0.04869658
      6775.5000         0.2612       738.1924          0.132      -102.7374       -55.2607     0.08171207
      6776.0000         0.2625       743.4629         0.1301      -100.9854       -53.5122      0.1118586
      6776.5000         0.2638       754.3086         0.1283      -100.0515       -52.5818         0.1279
      6777.0000          0.265       765.1543         0.1264       -99.1177       -51.6515      0.1439396
      6777.5000         0.2663       775.9893         0.1254       -98.1827       -50.7199      0.1600018
      6778.0000         0.2675       805.6016         0.1355       -97.2488       -49.7895      0.1760431
      6778.5000         0.2688       845.9844         0.1456       -96.3149       -48.8591      0.1920845
      6779.0000         0.2709       888.4541         0.1558        -95.444       -47.9917      0.2070397
      6779.5000         0.2735       932.2705         0.1659       -94.6102       -47.1614      0.2213552
