#------------------------------------------------------------------------------
# Created by    : vladimir.rabinovich
# Created on    : 09/19/2023 17:20:33
#------------------------------------------------------------------------------
~Version Information Section
VERS.           2.0     :   CWLS log ASCII Standard - VERSION 2.0
WRAP.           NO      :   One line per depth step
~Well Information Section
#MNEM       .UNIT                                         VALUE :DESCRIPTION
#------------------------------------------------------------------------------
STRT        .FT                                             242 :START DEPTH
STOP        .FT                                            8116 :STOP DEPTH
STEP        .FT                                             0.5 :STEP      
NULL        .                                           -999.25 :NULL      
COMP        .                                       HUNT OIL CO :COMPANY   
WELL        .                                     ST TR 00005-L :WELL      
FLD         .                                           WILDCAT :FIELD     
LOC         .                                                   :LOCATION  
CNTY        .                           HIGH ISLAND LARGE BLOCK :LOCATION  
STAT        .                                             TEXAS :STATE     
CTRY        .                                     UNITED STATES :COUNTRY   
SRVC        .                                                   :SERVICE COMPANY
DATE        .                             9/13/2023 11:19:33 AM :LOG DATE  
API         .                                    42708000010000 :API NUMBER
UWI         .                                    42708000010000 :UNIQUE WELL ID
XCOORD      .                                  1328371.56215902 :SURFACE X 
YCOORD      .                                  10754892.1390607 :SURFACE Y 
LAT         .                                        29.6307718 :LATITUDE  
LON         .                                       -93.9824852 :LONGITUDE 
ELEV        .FT                                              11 :ELEVATION VALUE
ELEV_TYPE   .                                                KB :ELEVATION REFERENCE TYPE
~Curve Information Section
#MNEM       .UNIT                                      API CODE :CURVE DESCRIPTION
#------------------------------------------------------------------------------
DEPT        .FT                                                 :DEPTH     
ASN         .OHMM                                               :          
LAT         .OHMM                                               :          
LN          .OHMM                                               :          
SN          .OHMM                                               :          
SP          .MV                                                 :          
SP_NORM     .MV                                                 :SP Normalized
VSH_SP      .V/V                                                :Volume of Shale from SP
~A        DEPTH            ASN            LAT             LN             SN             SP        SP_NORM         VSH_SP
# ...
      1816.5000         0.5811         0.3424          0.437          0.575       -65.6594      -19.11852      0.1848323
      1817.0000         0.5791         0.3392         0.4188         0.5728       -65.9021      -19.36122      0.1732752
      1817.5000          0.577         0.3391         0.4034         0.5732       -65.9832      -19.44232      0.1694133
      1818.0000         0.5749          0.339         0.3904         0.5758       -66.0134      -19.47252      0.1679753
      1818.5000          0.574         0.3394         0.3774         0.5785       -65.7473      -19.20642      0.1806466
      1819.0000         0.5795         0.3784         0.3645         0.5811       -65.0605      -18.51962      0.2133513
      1819.5000         0.5851         0.4196         0.3554         0.5838       -63.6464      -17.10552      0.2806894
      1820.0000         0.5907         0.4621         0.3518         0.5865       -60.7504      -14.20952      0.4185942
      1820.5000         0.5911         0.5046         0.3482         0.5898       -53.9003      -7.359421      0.7447895
      1821.0000         0.5902         0.5459         0.3498         0.5932       -52.4992      -5.958321      0.8115085
      1821.5000         0.5893         0.5786         0.3571         0.5966       -52.9044      -6.363522      0.7922133
      1822.0000         0.5905         0.6114         0.3645         0.5999       -53.3094       -6.76852      0.7729276
      1822.5000         0.5927         0.6441         0.3718         0.6004       -53.7147       -7.17382      0.7536276
      1823.0000         0.5949         0.6748         0.3801         0.5997       -53.9219      -7.381023      0.7437608
      1823.5000         0.5971         0.6975         0.3893         0.5989        -54.047      -7.506123      0.7378037
      1824.0000          0.598         0.7202         0.3984         0.5981       -54.1721      -7.631222      0.7318466
      1824.5000         0.5886         0.7429         0.4076         0.5951       -53.8822       -7.34132      0.7456514
      1825.0000         0.5791         0.7627         0.4168         0.5882       -53.2903       -6.74942      0.7738371
      1825.5000         0.5749         0.7753         0.4265         0.5812       -52.8286      -6.287724      0.7958227
      1826.0000         0.5723         0.7688         0.4371         0.5743       -52.5497      -6.008823      0.8091037
      1826.5000         0.5697         0.7244         0.4477         0.5674       -52.2708      -5.729923      0.8223846
      1827.0000         0.5671         0.6444         0.4583         0.5605       -56.3907      -9.849823      0.6261989
      1827.5000         0.5676         0.5689         0.4618         0.5536       -60.0552      -13.51432       0.451699
      1828.0000         0.5699         0.5153         0.4618         0.5482       -61.6416      -15.10072       0.376156
      1828.5000         0.5721         0.4618         0.4608         0.5435       -63.5897      -17.04882      0.2833895
      1829.0000         0.5743         0.4206         0.4576         0.5389       -64.8285      -18.28762       0.224399
      1829.5000         0.5695         0.3938         0.4543         0.5342       -65.6515      -19.11062      0.1852086
      1830.0000         0.5466         0.3669          0.451         0.5296       -66.4249      -19.88402      0.1483801
      1830.5000         0.5374         0.3451         0.4478         0.5249       -67.0947      -20.55383      0.1164845
      1831.0000         0.5282         0.3278         0.4423         0.5208       -67.7649      -21.22402     0.08457039
      1831.5000          0.519         0.3105         0.4368          0.517       -68.2148      -21.67392     0.06314668
      1832.0000         0.5098         0.2955         0.4313         0.5132       -68.3389      -21.79802     0.05723717
      1832.5000         0.5061         0.2896         0.4258         0.5094       -68.4629      -21.92202     0.05133238
      1833.0000         0.5034         0.2836         0.4224         0.5057       -68.5869      -22.04602     0.04542759
      1833.5000         0.5008         0.2777         0.4213         0.5019       -68.6473      -22.10642     0.04255131
      1834.0000         0.4982         0.2717         0.4202         0.4981       -68.1455      -21.60462     0.06644658
      1834.5000         0.4956         0.2669         0.4191         0.4944       -67.6436      -21.10272     0.09034656
      1835.0000          0.493         0.2647          0.418          0.491       -67.1417      -20.60082      0.1142465
      1835.5000         0.4912         0.2624          0.417         0.4876       -66.6398      -20.09892      0.1381465
      1836.0000           0.49         0.2602         0.4163         0.4843       -66.2988      -19.75792      0.1543848
      1836.5000         0.4887         0.2579         0.4177         0.4809       -66.0034      -19.46252      0.1684512
      1837.0000         0.4875         0.2557          0.419         0.4775       -65.7079      -19.16702      0.1825227
      1837.5000         0.4863         0.2534         0.4204         0.4742       -65.4125      -18.87162      0.1965895
      1838.0000         0.4851         0.2538         0.4217          0.473       -65.1169      -18.57602      0.2106657
      1838.5000         0.4844         0.2557         0.4231         0.4723         -64.96      -18.41912      0.2181371
      1839.0000          0.484         0.2575         0.4262         0.4716       -64.9509      -18.41002      0.2185705
      1839.5000         0.4836         0.2594         0.4302         0.4709       -64.9418      -18.40092      0.2190036
      1840.0000         0.4831         0.2612         0.4343         0.4702       -64.9327      -18.39182       0.219437
      1840.5000         0.4827         0.2638         0.4383         0.4694       -64.9805      -18.43962      0.2171609
      1841.0000         0.4823         0.2695         0.4418         0.4686       -65.0715      -18.53062      0.2128274
      1841.5000         0.4818         0.2752         0.4429         0.4679       -65.1624      -18.62152       0.208499
      1842.0000         0.4814         0.2809         0.4439         0.4671       -65.2533      -18.71243      0.2041702
      1842.5000         0.4822         0.2866         0.4449         0.4683       -65.3442      -18.80332      0.1998418
      1843.0000          0.484         0.2929         0.4414           0.47       -65.4352      -18.89433      0.1955083
      1843.5000         0.4857         0.2993         0.4315         0.4717       -65.4528      -18.91192      0.1946705
      1844.0000         0.4874         0.3057         0.4211         0.4734       -65.4393      -18.89842      0.1953132
      1844.5000         0.4891         0.3121          0.409         0.4777       -65.4259      -18.88503      0.1959512
      1845.0000         0.4909         0.3185         0.3969          0.485       -65.4125      -18.87162      0.1965895
      1845.5000         0.4926         0.3253         0.3866         0.4923       -65.3989      -18.85802      0.1972369
      1846.0000         0.4989         0.3327         0.3806         0.4997       -65.0997      -18.55882      0.2114846
      1846.5000         0.5057           0.34         0.3745         0.5078       -64.3782      -17.83732       0.245842
      1847.0000         0.5126         0.3474         0.3685         0.5167       -63.0741      -16.53322      0.3079418
      1847.5000         0.5194         0.3553         0.3643         0.5256       -61.6377      -15.09682      0.3763419
      1848.0000         0.5262         0.3692         0.3686         0.5345       -60.0452      -13.50432      0.4521751
      1848.5000          0.533          0.383          0.373         0.5434       -59.0245      -12.48362      0.5007798
      1849.0000         0.5432         0.3968         0.3773         0.5523       -58.0865      -11.54562      0.5454467
      1849.5000         0.5557         0.4316         0.3932          0.561       -57.1486      -10.60772      0.5901084
