#------------------------------------------------------------------------------
# Created by    : vladimir.rabinovich
# Created on    : 09/19/2023 17:22:48
#------------------------------------------------------------------------------
~Version Information Section
VERS.           2.0     :   CWLS log ASCII Standard - VERSION 2.0
WRAP.           NO      :   One line per depth step
~Well Information Section
#MNEM       .UNIT                                         VALUE :DESCRIPTION
#------------------------------------------------------------------------------
STRT        .FT                                            3512 :START DEPTH
STOP        .FT                                           11028 :STOP DEPTH
STEP        .FT                                             0.5 :STEP      
NULL        .                                           -999.25 :NULL      
COMP        .                          SEAGULL ENERGY E & P INC :COMPANY   
WELL        .                   ST TR 147-L NE/4 /ST LSE 88034/ :WELL      
FLD         .                                           WILDCAT :FIELD     
LOC         .                                                   :LOCATION  
CNTY        .                             GALVESTON LARGE BLOCK :LOCATION  
STAT        .                                             TEXAS :STATE     
CTRY        .                                     UNITED STATES :COUNTRY   
SRVC        .                                                   :SERVICE COMPANY
DATE        .                             9/13/2023 11:18:53 AM :LOG DATE  
API         .                                    42706302000000 :API NUMBER
UWI         .                                    42706302000000 :UNIQUE WELL ID
XCOORD      .                                  1107149.67333588 :SURFACE X 
YCOORD      .                                  10638300.0198507 :SURFACE Y 
LAT         .                                        29.3031745 :LATITUDE  
LON         .                                         -94.67354 :LONGITUDE 
ELEV        .FT                                              25 :ELEVATION VALUE
ELEV_TYPE   .                                                KB :ELEVATION REFERENCE TYPE
~Curve Information Section
#MNEM       .UNIT                                      API CODE :CURVE DESCRIPTION
#------------------------------------------------------------------------------
DEPT        .FT                                                 :DEPTH     
DT          .US/F                                               :          
GR          .GAPI                                               :          
GR_NORM     .GAPI                                               :GammaRay Normalized
ILD         .OHMM                                               :          
ILM         .OHMM                                               :          
SFL         .OHMM                                               :          
SP          .MV                                                 :          
SP_NORM     .MV                                                 :SP Normalized
VSH_GR      .V/V                                                :Volume of Shale from GR
VSH_SP      .V/V                                                :Volume of Shale from SP
~A        DEPTH             DT             GR        GR_NORM            ILD            ILM            SFL             SP        SP_NORM         VSH_GR         VSH_SP
# ...
      8020.0000       101.9581        67.8391       70.15045         0.7523         0.8031         0.8082       -17.1496      -2.393056      0.7904351      0.9851803
      8020.5000        101.184        69.1912       71.71372          0.785         0.8263         0.8136       -18.7792      -4.021717      0.8236962      0.9678541
      8021.0000       100.5959        67.8514       70.16954         0.7934         0.8463         0.8292         -20.33      -5.571578      0.7908413      0.9513662
      8021.5000        99.2461        66.4508       68.55518         0.7849         0.8609         0.9063        -21.546      -6.786638      0.7564931        0.93844
      8022.0000        93.6721        67.0342       69.23109         0.7769         0.8442         1.0099       -21.7799      -7.019599      0.7708742      0.9359617
      8022.5000        91.3152        69.7296       72.34502          0.769         0.8139         1.0933       -21.6147       -6.85346       0.837128      0.9377291
      8023.0000        91.7355        73.3015       76.47076         0.7658         0.7983         1.0568        -21.314      -6.551821      0.9249097      0.9409381
      8023.5000         96.528        75.0739        78.5192         0.7627         0.7915         0.9019       -21.1177      -6.354583      0.9684935      0.9430364
      8024.0000         98.843        76.3699       80.01771         0.7586         0.7857         0.8177        -23.183      -8.418943              1       0.921075
      8024.5000       100.6101        77.6019       81.44234         0.7356         0.7794         0.7779       -26.5899       -11.8249              1      0.8848414
      8025.0000       102.1511        75.0419       78.48961         0.6458          0.772         0.7552       -30.8239      -16.05796       0.967864      0.8398089
      8025.5000       100.2931        71.0983       73.93968         0.5923         0.7655         0.7401       -36.0524      -21.28552      0.8710571      0.7841966
      8026.0000        98.0565        67.7111       70.03206         0.5632         0.7596         0.7479       -41.1578      -26.38998      0.7879161      0.7298938
      8026.5000         96.657        62.7855       64.34855         0.5361         0.7188         0.8595       -45.6625      -30.89375      0.6669904      0.6819814
      8027.0000        96.3794        62.8125       64.38216          0.514         0.6631         1.0721        -48.422      -33.65231      0.6677056       0.652635
      8027.5000        97.3094        64.0778       65.84524         0.4996         0.6122         1.1346       -49.3685      -34.59787      0.6988348      0.6425759
      8028.0000        98.7349        66.9775       69.19501         0.4943         0.5777         1.0828       -45.9382      -31.16663      0.7701066      0.6790784
      8028.5000        99.9182        70.5667       73.34071         0.5013         0.5765         0.9668       -41.9307      -27.15819       0.858313      0.7217214
      8029.0000       100.3593        73.3926       76.60529         0.5115         0.5862         0.9054       -37.3669      -22.59345       0.927772      0.7702824
      8029.5000       100.1432        75.0172       78.48312         0.5347         0.6081         0.9234       -32.9015      -18.12711      0.9677261      0.8177967
      8030.0000        99.2522        75.8573       79.45535         0.5589          0.631         0.9632       -28.5986      -13.82327      0.9884118      0.8635822
      8030.5000        97.7026        76.1536       79.79985         0.5874         0.6636         0.9632       -25.0637      -10.28743      0.9957415      0.9011976
      8031.0000       101.4285        74.6036       78.01302         0.6184         0.6967         0.8971       -23.0747      -8.297493      0.9577237      0.9223671
      8031.5000       109.1801        71.2017       74.08842         0.6506         0.7288         0.8435       -22.0792      -7.301055      0.8742216      0.9329675
      8032.0000       107.1991        68.5677       71.05026         0.6843         0.7587         0.8069       -23.2962      -8.517115        0.80958      0.9200307
      8032.5000        99.4034        67.6099       69.94707         0.7152          0.784         0.7916       -26.1074      -11.32738      0.7861078      0.8901343
      8033.0000        99.2264        67.5397       69.86848         0.7197         0.8033         0.8036         -29.47      -14.68904      0.7844357       0.854372
      8033.5000       100.3938        67.8195       70.19392         0.7117         0.7981          0.834       -32.6701       -17.8882      0.7913599      0.8203383
      8034.0000        99.6577        68.1746       70.60627         0.7037         0.7719         0.9078       -33.9612      -19.17836      0.8001334      0.8066132
      8034.5000        98.9143        66.3055       68.45109         0.6998         0.7477         1.0169       -33.0848      -18.30102      0.7542785      0.8159466
      8035.0000             98        64.5836       66.46584         0.6989         0.7304         0.9752       -32.4168      -17.63208      0.7120391       0.823063
      8035.5000        97.1497        63.8741       65.64925         0.7025         0.7299         0.9243       -32.1494      -17.36374      0.6946648      0.8259177
      8036.0000        98.5063        63.5424       65.26879         0.7108          0.755         0.9123       -32.3298       -17.5432        0.68657      0.8240085
      8036.5000        99.9933        63.2225       64.90195         0.7206          0.779         0.9514       -33.0602      -18.27266      0.6787648      0.8162483
      8037.0000       100.2288        63.1477       64.81805         0.7316         0.7872          0.966       -35.1809      -20.39242      0.6769799      0.7936977
      8037.5000        100.115        63.1262       64.79568         0.7375         0.7929         0.8696       -40.1977      -25.40828       0.676504      0.7403374
      8038.0000        99.9783        63.2089       64.89361         0.7241         0.8025         0.7978       -46.1942      -31.40384      0.6785874      0.6765549
      8038.5000        99.1871         58.165       59.07353         0.6243         0.8189         0.8014       -53.8351       -39.0438       0.554756      0.5952787
      8039.0000        96.7638        51.4891       51.36953         0.5101         0.6601         1.1067        -63.524      -48.73177      0.3908411      0.4922152
      8039.5000        91.5289         42.962       41.52857         0.4045         0.5578          1.769       -78.0771      -63.28393      0.1814589       0.337405
      8040.0000        83.8807        36.7883       34.40429         0.3207         0.4508         2.0715        -88.475      -73.68089     0.02987841      0.2267991
      8040.5000        79.0464        30.8311       27.52993         0.2696         0.3423         1.5745        -94.954      -80.15895              0      0.1578835
      8041.0000        84.2346        27.1736       23.31028         0.2412         0.2882         0.8814       -99.9659      -85.16991              0      0.1045755
      8041.5000        91.5093        27.3085       23.46844         0.2115         0.2575         0.6622      -103.1808      -88.38387              0     0.07038433
      8042.0000       100.1309        28.7437       25.12764         0.2074         0.2479         0.5944      -104.4005      -89.60263              0     0.05741882
      8042.5000        99.6492        31.6139       28.44336         0.2129         0.2641         0.5995      -104.5975      -89.79869              0     0.05533308
      8043.0000        96.0806        30.6194       27.29779         0.2396         0.3031         0.6411      -104.6573      -89.85755              0      0.0547069
      8043.5000        91.8927        28.2095       24.51832         0.2826         0.3536         0.8696      -104.8276      -90.02691              0     0.05290522
      8044.0000        88.4176        27.3701       23.55179          0.325         0.4232         1.3271      -105.1267      -90.32507              0     0.04973326
