#------------------------------------------------------------------------------
# Created by    : vladimir.rabinovich
# Created on    : 09/19/2023 17:19:40
#------------------------------------------------------------------------------
~Version Information Section
VERS.           2.0     :   CWLS log ASCII Standard - VERSION 2.0
WRAP.           NO      :   One line per depth step
~Well Information Section
#MNEM       .UNIT                                         VALUE :DESCRIPTION
#------------------------------------------------------------------------------
STRT        .FT                                            4790 :START DEPTH
STOP        .FT                                           12963 :STOP DEPTH
STEP        .FT                                             0.5 :STEP      
NULL        .                                           -999.25 :NULL      
COMP        .                         ATLANTIC RICHFIELD CO THE :COMPANY   
WELL        .                               OCS G06150 ST00BP00 :WELL      
FLD         .                                           WILDCAT :FIELD     
LOC         .                                                   :LOCATION  
CNTY        .                           HIGH ISLAND LARGE BLOCK :LOCATION  
STAT        .                                             TEXAS :STATE     
CTRY        .                                     UNITED STATES :COUNTRY   
SRVC        .                                                   :SERVICE COMPANY
DATE        .                             9/13/2023 11:19:59 AM :LOG DATE  
API         .                                    42708402440000 :API NUMBER
UWI         .                                    42708402440000 :UNIQUE WELL ID
XCOORD      .                                  1291497.32246636 :SURFACE X 
YCOORD      .                                   10652058.279547 :SURFACE Y 
LAT         .                                         29.347015 :LATITUDE  
LON         .                                        -94.095521 :LONGITUDE 
ELEV        .FT                                             105 :ELEVATION VALUE
ELEV_TYPE   .                                                KB :ELEVATION REFERENCE TYPE
~Curve Information Section
#MNEM       .UNIT                                      API CODE :CURVE DESCRIPTION
#------------------------------------------------------------------------------
DEPT        .FT                                                 :DEPTH     
ALL         .OHMM                                               :          
CILD        .MMHO                                               :          
GR          .GAPI                                               :          
GR_NORM     .GAPI                                               :GammaRay Normalized
ILD         .OHMM                                               :          
SP          .MV                                                 :          
SP_NORM     .MV                                                 :SP Normalized
VSH_GR      .V/V                                                :Volume of Shale from GR
VSH_SP      .V/V                                                :Volume of Shale from SP
~A        DEPTH            ALL           CILD             GR        GR_NORM            ILD             SP        SP_NORM         VSH_GR         VSH_SP
# ...
      8102.5000         1.0658       1787.311        55.7794       51.92639         0.5372       -75.7542      -40.47728      0.4026891      0.3772727
      8103.0000         1.1142       1833.996        54.5596       50.30432         0.5155       -78.1837      -42.90757       0.368177      0.3398835
      8103.5000         1.1626       1880.682        53.2516       48.56495         0.4942       -80.6134      -45.33807      0.3311691      0.3024912
      8104.0000          1.195       1927.367        52.6139       47.71695         0.4782       -82.9839      -47.70937      0.3131265      0.2660096
      8104.5000         1.2275       2060.703        52.6559        47.7728         0.4622       -85.3286      -50.05487      0.3143148      0.2299251
      8105.0000         1.2599        2425.43         52.698       47.82879         0.4462       -87.7028      -52.42987      0.3155061      0.1933866
      8105.5000         1.3554       2570.961        52.7401       47.88477         0.4302       -90.1176      -54.84547      0.3166972      0.1562235
      8106.0000         1.4144       2700.168        52.8918       48.08649         0.4143       -92.1927      -56.92138      0.3209893      0.1242865
      8106.5000          1.371       2827.582        53.2639       48.58131         0.3983       -93.9669      -58.69638      0.3315172     0.09697882
      8107.0000         1.3278       2990.234        53.9278       49.46416         0.3823       -94.9611      -59.69137      0.3503012      0.0816712
      8107.5000         1.2614       3120.238        54.9532       50.82772         0.3663       -94.4487      -59.17978      0.3793132     0.08954192
      8108.0000         1.1209       3318.828        57.0474       53.61256         0.3531       -93.9355      -58.66738      0.4385651     0.09742496
      8108.5000         1.0672       3389.004        59.6388       57.05857         0.3461       -93.4232      -58.15588      0.5118846      0.1052942
      8109.0000         1.0267       3458.086        58.9255       56.11003         0.3392       -92.9109      -57.64437      0.4917028      0.1131635
      8109.5000         0.9862       3539.113        56.2601       52.56562         0.3323       -92.3986      -57.13287      0.4162899      0.1210327
      8110.0000         0.9353       3684.844        53.1603       48.44355         0.3253       -91.8862      -56.62128      0.3285861      0.1289034
      8110.5000         0.8821         3851.5        50.9983       45.56854         0.3184       -91.3739      -56.10978      0.2674158      0.1367726
      8111.0000         0.7953       4026.941        51.5598       46.31522         0.3115       -90.8616      -55.59828      0.2833025      0.1446418
      8111.5000         0.6939       4045.582        52.5642       47.65086         0.3045       -90.3049      -55.04238      0.3117204      0.1531942
      8112.0000          0.622       4030.801        53.4231       48.79301         0.2976       -89.7244      -54.46268      0.3360216      0.1621126
      8112.5000         0.6351           3868         54.282       49.93517         0.2907       -89.2236      -53.96268      0.3603227      0.1698049
      8113.0000         0.6782       3581.918        55.0335        50.9345         0.2926       -89.0376      -53.77748      0.3815852      0.1726542
      8113.5000         0.7296       3410.902        53.6884        49.1458         0.2954       -90.8949      -55.63558      0.3435277       0.144068
      8114.0000         0.7878       3278.313        51.1365       45.75232         0.2981       -92.6339      -57.37539       0.271326      0.1173018
      8114.5000         0.8459       3196.836        49.1547       43.11695         0.3008       -94.0278      -58.77008      0.2152543     0.09584492
      8115.0000         0.8782       3159.258         47.801       41.31681         0.3036       -95.4218      -60.16488      0.1769535     0.07438648
      8115.5000         0.8577       3137.211        46.6953       39.84647         0.3121       -96.5239      -61.26778      0.1456697      0.0574187
      8116.0000         0.8372       3175.234        45.6414         38.445          0.326       -97.4286      -62.17328      0.1158511     0.04348802
      8116.5000         0.8168       3298.422        44.8702       37.41948         0.3399       -97.8375      -62.58298     0.09403139     0.03718485
      8117.0000         0.7963       3460.277        44.8467       37.38823         0.3328        -98.246      -62.99228      0.0933665     0.03088796
      8117.5000         0.7726       3754.723        45.1367       37.77386         0.3171       -98.6549      -63.40198      0.1015715      0.0245849
      8118.0000         0.7483       3885.523         45.552       38.32612         0.3014       -98.9517      -63.69958      0.1133218     0.02000644
      8118.5000          0.724       4003.625        46.1332         39.099         0.2856       -99.0322      -63.78089      0.1297659     0.01875558
      8119.0000         0.6997        4138.93        46.7755       39.95312         0.2707       -99.1127      -63.86219      0.1479387     0.01750482
      8119.5000          0.678       4477.375        47.5838       41.02799         0.2615       -99.1931      -63.94339      0.1708083      0.0162556
      8120.0000         0.6581       4815.422         48.392       42.10272         0.2523       -99.1504      -63.90148      0.1936749     0.01690028
      8120.5000         0.6383       4992.406        44.4337       36.83902         0.2431       -99.0015      -63.75339     0.08168136     0.01917865
      8121.0000         0.6215       5037.602        44.6954       37.18703         0.2339       -98.8524      -63.60509     0.08908568      0.0214602
      8121.5000         0.6143       5071.398        45.2535       37.92918         0.2247       -98.7034      -63.45689      0.1048763     0.02374021
      8122.0000         0.6071       5097.273        45.8117       38.67147         0.2155       -98.5544      -63.30869      0.1206695     0.02602023
      8122.5000         0.5999       5117.211        46.3699       39.41376         0.2102       -98.4054      -63.16049      0.1364629     0.02830018
      8123.0000         0.5939       5104.422         46.928       40.15591         0.2083       -98.2155      -62.97139      0.1522535     0.03120945
      8123.5000          0.591       5086.672        47.4862        40.8982         0.2063       -97.9358      -62.69249      0.1680467     0.03550022
      8124.0000         0.5913       5068.555        47.4517       40.85232         0.2044       -97.6561      -62.41359      0.1670706     0.03979099
      8124.5000         0.5994       5049.547        47.2974       40.64714         0.2024       -97.3763      -62.13459       0.162705     0.04408329
      8125.0000         0.6075       5041.281        47.1431       40.44195         0.2005       -97.0967      -61.85579      0.1583394     0.04837241
      8125.5000         0.6157       5089.016        46.9888       40.23676         0.1985       -96.8165      -61.57639      0.1539737     0.05267099
      8126.0000         0.6238       5166.609        46.7606        39.9333         0.1966       -97.2522      -62.01289      0.1475171      0.0459556
      8126.5000         0.6311       5302.383        46.4388       39.50538         0.1946       -97.7904      -62.55189      0.1384124     0.03766327
      8127.0000         0.6357       5483.352        46.1169       39.07732         0.1953       -98.4199      -63.18219      0.1293048     0.02796631
      8127.5000         0.6403       5836.336         45.795       38.64926         0.1983       -99.0615      -63.82459       0.120197     0.01808319
      8128.0000         0.6448       6165.219        45.4732       38.22134         0.2012       -99.6643      -64.42819      0.1110923    0.008797044
      8128.5000          0.634       6566.977        45.1452       37.78516         0.2041       -99.9634      -64.72809       0.101812    0.004183256
