#------------------------------------------------------------------------------
# Created by    : vladimir.rabinovich
# Created on    : 09/19/2023 17:22:56
#------------------------------------------------------------------------------
~Version Information Section
VERS.           2.0     :   CWLS log ASCII Standard - VERSION 2.0
WRAP.           NO      :   One line per depth step
~Well Information Section
#MNEM       .UNIT                                         VALUE :DESCRIPTION
#------------------------------------------------------------------------------
STRT        .FT                                             890 :START DEPTH
STOP        .FT                                            9495 :STOP DEPTH
STEP        .FT                                             0.5 :STEP      
NULL        .                                           -999.25 :NULL      
COMP        .                                   MARATHON OIL CO :COMPANY   
WELL        .                               OCS G04138 ST00BP00 :WELL      
FLD         .                                           WILDCAT :FIELD     
LOC         .                                                   :LOCATION  
CNTY        .                      MATAGORDA ISLAND LARGE BLOCK :LOCATION  
STAT        .                                             TEXAS :STATE     
CTRY        .                                     UNITED STATES :COUNTRY   
SRVC        .                                                   :SERVICE COMPANY
DATE        .                             9/13/2023 11:12:11 AM :LOG DATE  
API         .                                    42703402070000 :API NUMBER
UWI         .                                    42703402070000 :UNIQUE WELL ID
XCOORD      .                                  590883.400226114 :SURFACE X 
YCOORD      .                                  10259990.6406746 :SURFACE Y 
LAT         .                                         28.233929 :LATITUDE  
LON         .                                        -96.259589 :LONGITUDE 
ELEV        .FT                                              90 :ELEVATION VALUE
ELEV_TYPE   .                                                KB :ELEVATION REFERENCE TYPE
~Curve Information Section
#MNEM       .UNIT                                      API CODE :CURVE DESCRIPTION
#------------------------------------------------------------------------------
DEPT        .FT                                                 :DEPTH     
SP          .MV                                                 :          
SP_NORM     .MV                                                 :SP Normalized
VSH_SP      .V/V                                                :Volume of Shale from SP
~A        DEPTH             SP        SP_NORM         VSH_SP
# ...
      8810.0000        18.6955      -6.647306      0.8716521
      8810.5000        21.7446      -9.696407      0.8023544
      8811.0000        23.4431      -11.39491      0.7637521
      8811.5000        24.9971      -12.94891      0.7284339
      8812.0000         26.725      -14.67681      0.6891634
      8812.5000         29.252      -17.20381      0.6317316
      8813.0000        30.0879      -18.03971      0.6127339
      8813.5000        30.8336      -18.78541      0.5957862
      8814.0000         28.431      -16.38281      0.6503907
      8814.5000        25.0099      -12.96171       0.728143
      8815.0000        24.6294      -12.58121      0.7367907
      8815.5000        24.2489      -12.20071      0.7454385
      8816.0000        23.9205      -11.87231      0.7529021
      8816.5000        23.6444      -11.59621      0.7591771
      8817.0000        23.3684      -11.32021      0.7654498
      8817.5000        23.0923      -11.04411      0.7717248
      8818.0000         22.816      -10.76781      0.7780044
      8818.5000        22.5399      -10.49171      0.7842794
      8819.0000        21.9259      -9.877707      0.7982339
      8819.5000        20.9945      -8.946306      0.8194022
      8820.0000        19.2862      -7.238007      0.8582271
      8820.5000        18.0435      -5.995308      0.8864703
      8821.0000        16.0263      -3.978107      0.9323158
      8821.5000        14.9111      -2.862907      0.9576612
      8822.0000        20.1759      -8.127707      0.8380067
      8822.5000        22.2764      -10.22821       0.790268
      8823.0000        22.8322      -10.78401      0.7776362
      8823.5000        23.1309      -11.08271      0.7708476
      8824.0000        23.2432      -11.19501      0.7682953
      8824.5000        23.3553      -11.30711      0.7657475
      8825.0000        23.5834      -11.53521      0.7605634
      8825.5000        23.8402      -11.79201      0.7547271
      8826.0000        22.6907      -10.64251      0.7808521
      8826.5000        21.1894      -9.141207      0.8149726
      8827.0000        20.4308      -8.382607      0.8322135
      8827.5000        17.9063      -5.858107      0.8895885
      8828.0000        16.1611      -4.112907      0.9292521
      8828.5000        14.6268      -2.578607      0.9641226
      8829.0000         12.112    -0.06380749              1
      8829.5000        10.4797       1.568493              1
      8830.0000         9.1512       2.896993              1
      8830.5000        10.7689       1.279293              1
      8831.0000        13.6366      -1.588407      0.9866271
      8831.5000        15.3744      -3.326207      0.9471316
      8832.0000        16.6072      -4.559008      0.9191135
      8832.5000        18.2298      -6.181606      0.8822362
      8833.0000        19.1698      -7.121607      0.8608726
      8833.5000        18.6955      -6.647306      0.8716521
      8834.0000        17.3523      -5.304108      0.9021794
      8834.5000        16.0092      -3.961006      0.9327044
      8835.0000        14.8743      -2.826107      0.9584976
      8835.5000        13.7751      -1.726907      0.9834794
      8836.0000        13.0042      -0.956007              1
      8836.5000        12.4307     -0.3825073              1
      8837.0000        11.9258      0.1223927              1
      8837.5000         14.416      -2.367807      0.9689135
      8838.0000        17.0631      -5.014908      0.9087521
      8838.5000        18.9381      -6.889908      0.8661385
      8839.0000        20.5926      -8.544407      0.8285362
      8839.5000        19.7347      -7.686506       0.848034
      8840.0000        16.5631      -4.514908      0.9201157
      8840.5000        13.8327      -1.784507      0.9821703
      8841.0000        11.6929      0.3552933              1
      8841.5000        10.4429       1.605293              1
      8842.0000         9.4269       2.621293              1
      8842.5000         8.5274       3.520793              1
      8843.0000         8.7701       3.278093              1
      8843.5000           9.71       2.338193              1
      8844.0000        11.7297      0.3184929              1
      8844.5000        12.6022     -0.5540066              1
      8845.0000        13.1038      -1.055607      0.9987362
      8845.5000        13.3755      -1.327307      0.9925612
      8846.0000        13.3642      -1.316007      0.9928181
      8846.5000        13.3388      -1.290607      0.9933953
      8847.0000        13.3135      -1.265307      0.9939703
      8847.5000        13.2881      -1.239907      0.9945475
      8848.0000        13.2541      -1.205907      0.9953203
      8848.5000        13.1807      -1.132507      0.9969885
      8849.0000        13.1073      -1.059107      0.9986567
      8849.5000        13.0341     -0.9859066              1
      8850.0000         13.005     -0.9568071              1
      8850.5000        13.0414      -0.993207              1
      8851.0000        13.0777      -1.029507      0.9993294
      8851.5000        13.1249      -1.076707      0.9982567
      8852.0000        13.2087      -1.160507      0.9963521
      8852.5000        12.6623     -0.6141071              1
      8853.0000        11.9932     0.05499268              1
      8853.5000        11.2959      0.7522926              1
      8854.0000        10.5618       1.486393              1
      8854.5000         9.8265       2.221693              1
      8855.0000        10.1022       1.945993              1
      8855.5000        12.8933     -0.8451071              1
      8856.0000        13.1402      -1.092007      0.9979089
      8856.5000        13.1909      -1.142707      0.9967567
      8857.0000        13.1532      -1.105007      0.9976135
      8857.5000        13.1155      -1.067307      0.9984703
      8858.0000         13.079      -1.030807      0.9992998
      8858.5000        13.0435      -0.995307              1
      8859.0000         13.008     -0.9598074              1
      8859.5000        13.0116     -0.9634066              1
      8860.0000        13.2793      -1.231107      0.9947476
      8860.5000        13.5474      -1.499207      0.9886544
      8861.0000        13.7965      -1.748307       0.982993
      8861.5000        14.0116      -1.963407      0.9781044
      8862.0000        14.2267      -2.178507      0.9732158
      8862.5000         14.442      -2.393807      0.9683226
      8863.0000        14.6571      -2.608907      0.9634339
      8863.5000        14.0876      -2.039407      0.9763771
      8864.0000        13.5128      -1.464607      0.9894407
      8864.5000        12.8915     -0.8433075              1
      8865.0000        12.0814    -0.03320694              1
      8865.5000        11.2713      0.7768927              1
      8866.0000        10.3963       1.651893              1
      8866.5000         9.4196       2.628593              1
      8867.0000        10.6463       1.401893              1
      8867.5000        11.7787      0.2694931              1
      8868.0000        12.7052     -0.6570072              1
      8868.5000        13.6304      -1.582207       0.986768
      8869.0000        14.2469      -2.198707      0.9727567
      8869.5000        14.0821      -2.033907      0.9765021
      8870.0000        13.9172      -1.869007      0.9802498
      8870.5000        13.7524      -1.704207      0.9839953
      8871.0000        13.4295      -1.381307       0.991334
      8871.5000        12.9797     -0.9315071              1
      8872.0000        12.6353     -0.5871067              1
      8872.5000         12.487     -0.4388075              1
      8873.0000        12.4272     -0.3790073              1
      8873.5000        12.4596     -0.4114075              1
      8874.0000        12.5318     -0.4836073              1
      8874.5000        12.6039      -0.555707              1
      8875.0000        12.6759     -0.6277075              1
      8875.5000        12.5961     -0.5479069              1
