#------------------------------------------------------------------------------
# Created by    : vladimir.rabinovich
# Created on    : 09/19/2023 17:22:28
#------------------------------------------------------------------------------
~Version Information Section
VERS.           2.0     :   CWLS log ASCII Standard - VERSION 2.0
WRAP.           NO      :   One line per depth step
~Well Information Section
#MNEM       .UNIT                                         VALUE :DESCRIPTION
#------------------------------------------------------------------------------
STRT        .FT                                            2000 :START DEPTH
STOP        .FT                                            7372 :STOP DEPTH
STEP        .FT                                             0.5 :STEP      
NULL        .                                           -999.25 :NULL      
COMP        .                       CORPUS CHRISTI OIL & GAS CO :COMPANY   
WELL        .                                ST TR 00596-L SE/4 :WELL      
FLD         .                                           WILDCAT :FIELD     
LOC         .                                                   :LOCATION  
CNTY        .                      MATAGORDA ISLAND LARGE BLOCK :LOCATION  
STAT        .                                             TEXAS :STATE     
CTRY        .                                     UNITED STATES :COUNTRY   
SRVC        .                                                   :SERVICE COMPANY
DATE        .                             9/13/2023 11:19:13 AM :LOG DATE  
API         .                                    42703300520000 :API NUMBER
UWI         .                                    42703300520000 :UNIQUE WELL ID
XCOORD      .                                  480173.649028781 :SURFACE X 
YCOORD      .                                  10231220.1013933 :SURFACE Y 
LAT         .                                        28.1462983 :LATITUDE  
LON         .                                       -96.6002451 :LONGITUDE 
ELEV        .FT                                              82 :ELEVATION VALUE
ELEV_TYPE   .                                                GL :ELEVATION REFERENCE TYPE
~Curve Information Section
#MNEM       .UNIT                                      API CODE :CURVE DESCRIPTION
#------------------------------------------------------------------------------
DEPT        .FT                                                 :DEPTH     
CILD        .MMHO                                               :          
ILD         .OHMM                                               :          
SN          .OHMM                                               :          
SP          .MV                                                 :          
SP_NORM     .MV                                                 :SP Normalized
VSH_SP      .V/V                                                :Volume of Shale from SP
~A        DEPTH           CILD            ILD             SN             SP        SP_NORM         VSH_SP
# ...
      2342.0000       2431.183         0.2997         1.0888       -72.4077      -47.90201     0.00213026
      2342.5000       2369.783         0.2997         1.1041       -73.0076        -48.507              0
      2343.0000       2308.382         0.2997         1.1149       -73.2076      -48.71209              0
      2343.5000       2246.982         0.3197         1.1109       -73.6076      -49.11717              0
      2344.0000       2185.581         0.3197         1.0844       -74.0076      -49.52226              0
      2344.5000       2147.852         0.3397         1.0579       -74.4075      -49.92725              0
      2345.0000       2159.125         0.3397         1.0314       -74.6075      -50.13234              0
      2345.5000       2170.397         0.3596         1.0049       -72.8082      -48.33813              0
      2346.0000       2181.669         0.3596         0.9784       -72.2085      -47.74352    0.005575678
      2346.5000       2192.941         0.4196         0.9519        -69.889       -45.4291     0.05588905
      2347.0000       2203.796         0.4595         0.9255       -65.7701       -41.3153      0.1453197
      2347.5000       2206.873         0.4595          0.899       -61.6512      -37.20148      0.2347504
      2348.0000        2209.95         0.4795         0.8725       -57.5323      -33.08767      0.3241811
      2348.5000       2227.772         0.4995          0.846       -53.4134      -28.97386      0.4136118
      2349.0000       1672.785         0.4995         0.8272       -49.2945      -24.86005      0.5030425
      2349.5000        1645.75         0.4995         0.8312       -45.1755      -20.74614      0.5924753
      2350.0000       1618.716         0.5195         0.8399       -41.0566      -16.63232       0.681906
      2350.5000       1591.681         0.5395         0.8487       -36.9377      -12.51851      0.7713367
      2351.0000       1564.646         0.5395         0.8574       -32.8188      -8.404703      0.8607673
      2351.5000       1537.611         0.5395         0.8631       -29.4242       -5.01519      0.9344524
      2352.0000       1510.577         0.5395         0.8682       -28.8246      -4.420679      0.9473765
      2352.5000       1483.542         0.5594         0.8732       -28.6249      -4.226068      0.9516072
      2353.0000       1456.507         0.5594         0.8782       -27.8254      -3.431656       0.968877
      2353.5000       1421.777         0.5794         0.8833       -27.4258      -3.037146      0.9774534
      2354.0000       1413.785         0.5994         0.8883       -26.8263      -2.442734      0.9903753
      2354.5000       1401.797         0.5994         0.8933       -26.6266      -2.248123       0.994606
      2355.0000       1393.805         0.6194         0.8983       -26.4269      -2.053513      0.9988367
      2355.5000       1380.565         0.6593         0.9034       -26.2272        -1.8589              1
      2356.0000       1367.325         0.6793         0.9084       -26.8272      -2.463987      0.9899133
      2356.5000       1354.084         0.6793         0.9134       -27.2273      -2.869177      0.9811049
      2357.0000       1340.844         0.6793         0.9185       -27.2826      -2.929565      0.9797921
      2357.5000       1327.604         0.6793         0.9235       -27.3378      -2.989853      0.9784815
      2358.0000       1314.363         0.6793         0.9431       -27.8278      -3.484943      0.9677186
      2358.5000       1301.123         0.6993         0.9471       -27.6281      -3.290331      0.9719493
      2359.0000       1287.883         0.6993          0.959       -27.4285      -3.095819      0.9761778
      2359.5000       1274.642         0.7193          0.969       -27.2288      -2.901209      0.9804085
      2360.0000       1261.402         0.7193         0.9789       -27.0291      -2.706598      0.9846392
      2360.5000       1248.162         0.7393         0.9889       -26.8294      -2.511986      0.9888698
      2361.0000       1234.921         0.7393         0.9988       -26.8297      -2.517376      0.9887527
      2361.5000       1221.681         0.7592         1.0088       -26.3097      -2.002462      0.9999465
      2362.0000       1208.441         0.7592         1.0187       -25.8305      -1.528351              1
      2362.5000       1198.001         0.7792         1.0287        -25.431       -1.13394              1
      2363.0000       1190.009         0.7792         1.0386       -25.2313     -0.9393291              1
      2363.5000       1174.025         0.7792         1.0486       -25.2315     -0.9446182              1
      2364.0000       1170.029         0.7992         1.0585       -26.2316      -1.949806              1
      2364.5000       1154.045         0.7992         1.0685       -26.2318      -1.955095              1
      2365.0000       1142.863         0.8192         1.0784        -25.832      -1.560385              1
      2365.5000       1131.681         0.8591         1.0884       -25.6323      -1.365772              1
      2366.0000       1120.499         0.8791         1.0983       -25.2328     -0.9713612              1
      2366.5000       1109.317         0.8791         1.1083       -24.4334     -0.1770477              1
      2367.0000       1098.135         0.8991         1.1182        -23.634      0.6172619              1
      2367.5000       1086.953         0.8991         1.1349       -23.2344       1.011774              1
      2368.0000       1075.772         0.9191          1.154        -22.407       1.834085              1
      2368.5000        1064.59         0.9191         1.1588       -21.9463       2.289696              1
      2369.0000       1053.408         0.9191         1.1779       -21.4856       2.745308              1
      2369.5000       1042.157          0.959         1.1969       -21.0248       3.201019              1
      2370.0000       1038.161          0.959         1.2159       -20.5641        3.65663              1
      2370.5000       1038.161          0.959         1.2349       -20.1034       4.112242              1
      2371.0000       1030.749          0.959         1.2539       -19.6427       4.567852              1
      2371.5000       1026.173          0.959         1.2729        -19.182       5.023464              1
      2372.0000       1022.177          0.959         1.2947       -18.4389       5.761477              1
      2372.5000       1022.177          0.959         1.2987       -18.6391       5.556189              1
      2373.0000       1018.181          0.959         1.3094       -24.0316      0.1585979              1
      2373.5000       1026.173          0.979         1.3107       -31.6336       -7.44849      0.8815545
      2374.0000       1050.149         0.9522         1.3284       -31.4337      -7.253679      0.8857896
      2374.5000       1065.242         0.9388         1.3461        -31.234      -7.059067      0.8900203
      2375.0000       1074.125          0.931         1.3638       -31.0344      -6.864557      0.8942488
      2375.5000       1118.034         0.9191         1.3826       -30.6915      -6.526745      0.9015925
      2376.0000       1161.943         0.8591         1.3238       -30.2354      -6.075733      0.9113971
      2376.5000       1205.852         0.8122         1.2649       -31.6347      -7.480124      0.8808669
      2377.0000       1249.761         0.7652          1.206       -38.1319      -13.98241      0.7395128
      2377.5000       1293.671         0.7183         1.1471       -44.6291       -20.4847      0.5981587
      2378.0000        1337.58         0.6713         1.0883       -51.1263      -26.98699      0.4568046
      2378.5000       1381.489         0.6244         1.0294       -57.6235      -33.48928      0.3154505
      2379.0000       1425.398         0.5774          0.963       -63.6191      -39.48996      0.1850008
      2379.5000       1493.705         0.5305         0.9472       -66.2179      -42.09386      0.1283944
