#------------------------------------------------------------------------------
# Created by    : vladimir.rabinovich
# Created on    : 09/19/2023 17:19:20
#------------------------------------------------------------------------------
~Version Information Section
VERS.           2.0     :   CWLS log ASCII Standard - VERSION 2.0
WRAP.           NO      :   One line per depth step
~Well Information Section
#MNEM       .UNIT                                         VALUE :DESCRIPTION
#------------------------------------------------------------------------------
STRT        .FT                                            4783 :START DEPTH
STOP        .FT                                            9473 :STOP DEPTH
STEP        .FT                                             0.5 :STEP      
NULL        .                                           -999.25 :NULL      
COMP        .                                   FOREST OIL CORP :COMPANY   
WELL        .                               OCS G20658 ST00BP00 :WELL      
FLD         .                            HIGH ISLAND BLOCK 0052 :FIELD     
LOC         .                                                   :LOCATION  
CNTY        .                           HIGH ISLAND LARGE BLOCK :LOCATION  
STAT        .                                             TEXAS :STATE     
CTRY        .                                     UNITED STATES :COUNTRY   
SRVC        .                                                   :SERVICE COMPANY
DATE        .                             9/13/2023 11:19:51 AM :LOG DATE  
API         .                                    42708405710000 :API NUMBER
UWI         .                                    42708405710000 :UNIQUE WELL ID
XCOORD      .                                  1254974.65209524 :SURFACE X 
YCOORD      .                                  10682885.5467737 :SURFACE Y 
LAT         .                                         29.430813 :LATITUDE  
LON         .                                        -94.211177 :LONGITUDE 
ELEV        .FT                                             108 :ELEVATION VALUE
ELEV_TYPE   .                                                KB :ELEVATION REFERENCE TYPE
~Curve Information Section
#MNEM       .UNIT                                      API CODE :CURVE DESCRIPTION
#------------------------------------------------------------------------------
DEPT        .FT                                                 :DEPTH     
A28H_COND   .MMHO                                               :          
A28H_UNC    .OHMM                                               :          
AHT10       .OHMM                                               :          
AHT20       .OHMM                                               :          
AHT30       .OHMM                                               :          
AHT60       .OHMM                                               :          
AHT90       .OHMM                                               :          
DCAL        .IN                                                 :          
DPHZ        .V/V                                                :          
DRHO        .G/CC                                               :          
DTCO        .US/F                                               :          
DTSM        .US/F                                               :          
GR          .GAPI                                               :          
GR_ARC_FIL  .GAPI                                               :          
GR_NORM     .GAPI                                               :GammaRay Normalized
GR1         .GAPI                                               :          
GRM1        .GAPI                                               :          
NPOR        .V/V                                                :          
P28H_UNC    .OHMM                                               :          
ROP5        .F/HR                                               :          
ROP5_RM     .F/HR                                               :          
SP          .MV                                                 :          
TENS        .LB                                                 :          
VSH_GR      .V/V                                                :Volume of Shale from GR
~A        DEPTH      A28H_COND       A28H_UNC          AHT10          AHT20          AHT30          AHT60          AHT90           DCAL           DPHZ           DRHO           DTCO           DTSM             GR     GR_ARC_FIL        GR_NORM            GR1           GRM1           NPOR       P28H_UNC           ROP5        ROP5_RM             SP           TENS         VSH_GR
# ...
      9227.0000        -999.25        -999.25         0.4923         0.4844         0.4805         0.4778         0.4753         3.2075          0.243          0.018       132.4752          372.4        72.0965        -999.25       76.61625         72.293         78.173         0.4176        -999.25         30.382        -999.25          4.529           3278      0.9280053
      9227.5000        -999.25        -999.25         0.4855         0.4779         0.4742         0.4717         0.4705         3.2191         0.2418          0.023       132.8713          373.4        74.2587        -999.25       79.73488        74.7879         84.344         0.4236        -999.25         29.123        -999.25         4.5815           3278      0.9943591
      9228.0000        -999.25        -999.25         0.4826         0.4723         0.4678         0.4656         0.4646          3.304         0.2412          0.025       132.8713          374.4        76.3757        -999.25       82.73175        77.1854          80.23         0.4325        -999.25         32.082        -999.25         4.6756           3296              1
      9228.5000        -999.25        -999.25         0.4886         0.4774         0.4734         0.4707         0.4701         3.3349         0.2405          0.026       133.2673          376.8        77.7218        -999.25       84.35887        78.4871         84.344         0.4354        -999.25         31.696        -999.25         4.7073           3296              1
      9229.0000        -999.25        -999.25         0.4923         0.4818         0.4786         0.4759         0.4754         3.4313         0.2374          0.026       133.6634          379.4        76.8704        -999.25        84.1145        78.2916         79.201         0.4331        -999.25         31.665        -999.25         4.6973           3278              1
      9229.5000        -999.25        -999.25         0.4919         0.4816         0.4768         0.4745          0.473         3.4699         0.2336          0.026       133.8614          383.4        74.2079        -999.25       81.49612        76.1969         81.258         0.4307        -999.25         32.362        -999.25         4.2914           3260              1
      9230.0000        -999.25        -999.25         0.4869         0.4767         0.4731         0.4711         0.4694         3.5625         0.2365          0.024       133.8614            386        71.0315        -999.25          76.75           72.4         82.287         0.4271        -999.25         31.729        -999.25         3.9689           3260       0.930851
      9230.5000        -999.25        -999.25         0.4834          0.473         0.4691         0.4659         0.4653          3.632          0.243         0.0192       133.8614            387        68.7078        -999.25           74.5           70.6         83.316         0.4176        -999.25          32.36        -999.25          3.813           3242      0.8829787
      9231.0000        -999.25        -999.25         0.4837         0.4733         0.4688         0.4657         0.4639         3.7284         0.2532         0.0135       133.8614          387.2        67.4181        -999.25         69.875           66.9         77.144          0.414        -999.25         31.719        -999.25         3.8655           3242      0.7845744
      9231.5000        -999.25        -999.25         0.4836         0.4732         0.4679         0.4642         0.4628         3.7747         0.2556         0.0087       133.8614          386.4        66.9508        -999.25          69.75           66.8         81.258         0.4272        -999.25         32.785        -999.25          4.168           3242      0.7819149
      9232.0000        -999.25        -999.25         0.4813         0.4712         0.4653          0.461         0.4596         3.8519         0.2538          0.006       134.2574          384.4        68.4004        -999.25         71.875           68.5         81.258         0.4242        -999.25         32.585        -999.25         4.3664           3260      0.8271276
      9232.5000        -999.25        -999.25         0.4806         0.4701         0.4636         0.4584         0.4573         3.9175         0.2532          0.004       134.4554          382.8        69.2333        -999.25          74.25           70.4         84.344         0.4182        -999.25          33.56        -999.25         4.3147           3260      0.8776596
      9233.0000        -999.25        -999.25         0.4813         0.4695         0.4627         0.4574         0.4551         3.9986         0.2514          0.005       134.2574          379.4        70.3232        -999.25          73.25           69.6         79.201         0.4099        -999.25         34.475        -999.25         4.0339           3260       0.856383
      9233.5000        -999.25        -999.25         0.4801         0.4686         0.4623         0.4566         0.4535          4.068          0.252          0.008       134.4554          375.4        70.2822        -999.25         74.125           70.3         83.316         0.4004        -999.25         33.816        -999.25         4.1489           3260          0.875
      9234.0000        -999.25        -999.25         0.4815         0.4689          0.462         0.4563         0.4524         4.1182         0.2484           0.01       134.2574          372.2        71.6287        -999.25         75.625           71.5         81.258         0.4057        -999.25         34.878        -999.25         4.3055           3278      0.9069149
      9234.5000        -999.25        -999.25         0.4818         0.4698         0.4635         0.4576         0.4525         4.1452         0.2484          0.011       134.2574            370        72.4613        -999.25         77.125           72.7         85.373         0.4147        -999.25         34.024        -999.25         5.0872           3278      0.9388298
      9235.0000        -999.25        -999.25         0.4814         0.4707         0.4648         0.4596         0.4541         4.1645         0.2484          0.012       134.6535          368.6        72.3891        -999.25           77.5             73         81.258         0.4302        -999.25         35.075        -999.25          5.098           3278      0.9468085
      9235.5000        -999.25        -999.25         0.4842         0.4738         0.4696         0.4637         0.4564         4.2031         0.2526          0.012       135.0495            369        71.4433        -999.25          75.75           71.6         81.258         0.4356        -999.25          32.79        -999.25         5.3171           3296      0.9095744
      9236.0000        -999.25        -999.25         0.4879         0.4756         0.4709         0.4642          0.458          4.261          0.255          0.013       135.2475          371.2        69.4182        -999.25         73.625           69.9         85.373         0.4284        -999.25          33.57        -999.25         5.0988           3296      0.8643617
      9236.5000        -999.25        -999.25         0.4762         0.4623         0.4576         0.4528         0.4489          4.288         0.2592          0.013       135.4455          373.6        68.6349        -999.25         70.625           67.5         83.316         0.4182        -999.25         33.268        -999.25         5.2763           3296      0.8005319
      9237.0000        -999.25        -999.25         0.4643         0.4499         0.4459         0.4416         0.4385         4.3266         0.2628          0.014       135.8416            378        66.9234        -999.25         70.875           67.7         86.401         0.4141        -999.25         32.665        -999.25         5.5579           3332       0.805851
      9237.5000        -999.25        -999.25         0.4657         0.4517         0.4482         0.4446         0.4425         4.3575         0.2646          0.014       136.2376          382.4        65.6744        -999.25         66.625           64.3         84.344         0.4111        -999.25         31.252        -999.25         5.4229           3350      0.7154256
