#------------------------------------------------------------------------------
# Created by    : vladimir.rabinovich
# Created on    : 09/19/2023 17:20:18
#------------------------------------------------------------------------------
~Version Information Section
VERS.           2.0     :   CWLS log ASCII Standard - VERSION 2.0
WRAP.           NO      :   One line per depth step
~Well Information Section
#MNEM       .UNIT                                         VALUE :DESCRIPTION
#------------------------------------------------------------------------------
STRT        .FT                                             780 :START DEPTH
STOP        .FT                                            9803 :STOP DEPTH
STEP        .FT                                             0.5 :STEP      
NULL        .                                           -999.25 :NULL      
COMP        .                                  SAMEDAN OIL CORP :COMPANY   
WELL        .                               OCS G04076 ST00BP00 :WELL      
FLD         .                            HIGH ISLAND BLOCK 0105 :FIELD     
LOC         .                                                   :LOCATION  
CNTY        .                           HIGH ISLAND LARGE BLOCK :LOCATION  
STAT        .                                             TEXAS :STATE     
CTRY        .                                     UNITED STATES :COUNTRY   
SRVC        .                                                   :SERVICE COMPANY
DATE        .                             9/13/2023 11:19:59 AM :LOG DATE  
API         .                                    42708401630000 :API NUMBER
UWI         .                                    42708401630000 :UNIQUE WELL ID
XCOORD      .                                  1167393.84075462 :SURFACE X 
YCOORD      .                                  10652000.2522841 :SURFACE Y 
LAT         .                                        29.3430877 :LATITUDE  
LON         .                                       -94.4850788 :LONGITUDE 
ELEV        .FT                                              87 :ELEVATION VALUE
ELEV_TYPE   .                                                KB :ELEVATION REFERENCE TYPE
~Curve Information Section
#MNEM       .UNIT                                      API CODE :CURVE DESCRIPTION
#------------------------------------------------------------------------------
DEPT        .FT                                                 :DEPTH     
ASFL        .OHMM                                               :          
CILD        .MMHO                                               :          
DT          .US/F                                               :          
GR          .GAPI                                               :          
GR_1        .GAPI                                               :          
GR_NORM     .GAPI                                               :GammaRay Normalized
ILD         .OHMM                                               :          
SP          .MV                                                 :          
SP_NORM     .MV                                                 :SP Normalized
VSH_GR      .V/V                                                :Volume of Shale from GR
VSH_SP      .V/V                                                :Volume of Shale from SP
~A        DEPTH           ASFL           CILD             DT             GR           GR_1        GR_NORM            ILD             SP        SP_NORM         VSH_GR         VSH_SP
# ...
      3187.5000         0.4501       2505.273        -999.25        -999.25        50.5838       70.81363         0.3584       -114.074     -0.3141022      0.8045453              1
      3188.0000         0.4445       2564.078        -999.25        -999.25        53.3525       74.15279         0.3597      -113.4868      0.2556152      0.8755913              1
      3188.5000         0.4389        2651.23        -999.25        -999.25        54.7801        75.8773         0.3609      -112.8995      0.8254395      0.9122829              1
      3189.0000         0.4334       2698.355        -999.25        -999.25        55.5427       76.80117         0.3622      -112.5869       1.120552      0.9319398              1
      3189.5000         0.4285       2723.547        -999.25        -999.25        56.3049       77.72456         0.3634      -112.2783       1.411674      0.9515863              1
      3190.0000         0.4272       2730.527        -999.25        -999.25        55.7178       77.02342         0.3656      -112.1821       1.490395      0.9366686              1
      3190.5000          0.426       2736.617        -999.25        -999.25        55.1257       76.31627         0.3678      -112.1711       1.483917      0.9216228              1
      3191.0000         0.4303       2727.652        -999.25        -999.25        54.5336       75.60912           0.37      -112.1603       1.477234      0.9065771              1
      3191.5000         0.4393       2718.684        -999.25        -999.25        54.2529       75.27689         0.3722       -112.077       1.543053      0.8995082              1
      3192.0000         0.4484       2695.172        -999.25        -999.25        54.2338       75.25961         0.3744      -111.9585       1.644073      0.8991407              1
      3192.5000         0.4574       2668.219        -999.25        -999.25        54.3018        75.3472         0.3766      -112.0862       1.498901      0.9010042              1
      3193.0000         0.4663       2641.266        -999.25        -999.25        54.6154       75.73049         0.3789      -112.5901      0.9775162      0.9091594              1
      3193.5000         0.4728        2610.09        -999.25        -999.25        54.9288       76.11353         0.3811      -113.1019      0.4482422      0.9173092              1
      3194.0000         0.4793       2577.871        -999.25        -999.25        55.2425       76.49695         0.3824      -113.6328     -0.1001358       0.925467              1
      3194.5000         0.4855       2545.633        -999.25        -999.25        55.4949       76.80654         0.3836      -114.1639     -0.6487198      0.9320541              1
      3195.0000         0.4889       2504.074        -999.25        -999.25        55.5961       76.93411         0.3847      -114.6709      -1.173203      0.9347684              1
      3195.5000         0.4922       2448.824        -999.25        -999.25        55.6974       77.06179         0.3859      -114.3832     -0.9029846      0.9374849              1
      3196.0000          0.495       2389.996        -999.25        -999.25        55.8763       77.28291         0.3871      -114.0953     -0.6325607      0.9421895              1
      3196.5000         0.4927       2333.383        -999.25        -999.25         56.289        77.7855         0.3883      -113.7837     -0.3384399      0.9528829              1
      3197.0000         0.4903       2302.992        -999.25        -999.25        56.7017        78.2881         0.3895      -113.3711     0.05667877      0.9635766              1
      3197.5000          0.488       2276.492        -999.25        -999.25        57.3412       79.06377         0.3906      -112.9584      0.4519043      0.9800801              1
      3198.0000         0.4843       2254.152        -999.25        -999.25        57.9988       79.86122         0.3924      -111.9447        1.44812      0.9970472              1
      3198.5000         0.4786       2232.156        -999.25        -999.25         58.785       80.81351         0.3947       -110.662       2.713341              1              1
      3199.0000         0.4728        2218.59        -999.25        -999.25         59.392       81.55003          0.397      -109.6034       3.754463              1              1
      3199.5000          0.467       2205.016        -999.25        -999.25        59.7406       81.97546         0.3994       -108.718       4.622383              1              1
      3200.0000         0.4612       2231.801        -999.25        -999.25        60.0893       82.40099         0.4017      -108.2133       5.109604              1              1
      3200.5000         0.4595       2259.488        -999.25        -999.25        60.2681         82.622          0.404      -107.8875       5.417931              1              1
      3201.0000         0.4591       2287.176        -999.25        -999.25        57.9128         79.792         0.4064       -108.299       4.988937      0.9955745              1
      3201.5000         0.4587       2463.855        -999.25        -999.25        57.0277       78.73209         0.4007      -108.5144       4.756065      0.9730231              1
      3202.0000         0.4596       2470.398        -999.25        -999.25        56.5551       78.16882         0.3947      -108.6702       4.582787      0.9610386              1
      3202.5000         0.4628       2471.563        -999.25        -999.25        56.0824       77.60541         0.3888       -108.826       4.409508      0.9490512              1
      3203.0000         0.4661        2472.73        -999.25        -999.25        55.6376       77.07561         0.3828      -108.9818       4.236229      0.9377791              1
      3203.5000         0.4654       2474.113        -999.25        -999.25        55.1992       76.55351         0.3769      -109.1581        4.04245      0.9266705              1
      3204.0000         0.4629        2475.84        -999.25        -999.25        54.7473       76.01515         0.3669      -109.3398       3.843269       0.915216              1
      3204.5000         0.4588       2477.563        -999.25        -999.25        53.9471       75.05746         0.3567      -109.8177       3.347885      0.8948395              1
      3205.0000         0.4545       2491.352        -999.25        -999.25        53.1472       74.10011         0.3464      -110.7184        2.42971      0.8744705              1
      3205.5000         0.4511       2506.941        -999.25        -999.25        51.8868       72.58836         0.3362      -112.6415      0.4891281      0.8423054              1
      3206.0000         0.4515       2566.965        -999.25        -999.25        50.6218       71.07104          0.326      -114.3479      -1.234749      0.8100222              1
      3206.5000         0.4519       2631.398        -999.25        -999.25        48.5854         68.625         0.3198      -115.6436      -2.547928      0.7579787      0.9789258
      3207.0000         0.4524       2692.969        -999.25        -999.25          47.43       67.23965         0.3151      -116.6587      -3.580513      0.7285033       0.939211
      3207.5000          0.454           2741        -999.25        -999.25        45.9648       65.48132         0.3104      -117.6125      -4.551796      0.6910918       0.901854
      3208.0000         0.4593       2777.379        -999.25        -999.25        44.4684       63.68541         0.3057         -118.4      -5.356773       0.652881      0.8708934
      3208.5000         0.4646       2813.754        -999.25        -999.25        43.6069       62.65392         0.3088       -119.187      -6.161247      0.6309345      0.8399521
      3209.0000         0.4699         2843.5        -999.25        -999.25        42.7626       61.64312         0.3142      -119.4857      -6.477432       0.609428      0.8277911
      3209.5000         0.4753       2871.492        -999.25        -999.25        41.9189       60.63305         0.3196      -119.6809      -6.690109      0.5879371      0.8196112
