#------------------------------------------------------------------------------
# Created by    : vladimir.rabinovich
# Created on    : 09/19/2023 17:19:55
#------------------------------------------------------------------------------
~Version Information Section
VERS.           2.0     :   CWLS log ASCII Standard - VERSION 2.0
WRAP.           NO      :   One line per depth step
~Well Information Section
#MNEM       .UNIT                                         VALUE :DESCRIPTION
#------------------------------------------------------------------------------
STRT        .FT                                            1601 :START DEPTH
STOP        .FT                                            6340 :STOP DEPTH
STEP        .FT                                             0.5 :STEP      
NULL        .                                           -999.25 :NULL      
COMP        .                 FAIRWAYS OFFSHORE EXPLORATION INC :COMPANY   
WELL        .                                ST TR 00629-L SE/4 :WELL      
FLD         .                                       BLOCK 630-L :FIELD     
LOC         .                                                   :LOCATION  
CNTY        .                      MATAGORDA ISLAND LARGE BLOCK :LOCATION  
STAT        .                                             TEXAS :STATE     
CTRY        .                                     UNITED STATES :COUNTRY   
SRVC        .                                                   :SERVICE COMPANY
DATE        .                             9/13/2023 11:19:05 AM :LOG DATE  
API         .                                    42703302840100 :API NUMBER
UWI         .                                    42703302840100 :UNIQUE WELL ID
XCOORD      .                                  449566.970470722 :SURFACE X 
YCOORD      .                                  10204940.3648147 :SURFACE Y 
LAT         .                                        28.0716107 :LATITUDE  
LON         .                                       -96.6925833 :LONGITUDE 
ELEV        .FT                                              82 :ELEVATION VALUE
ELEV_TYPE   .                                                KB :ELEVATION REFERENCE TYPE
~Curve Information Section
#MNEM       .UNIT                                      API CODE :CURVE DESCRIPTION
#------------------------------------------------------------------------------
DEPT        .FT                                                 :DEPTH     
ASFL        .OHMM                                               :          
CILD        .MMHO                                               :          
GR          .GAPI                                               :          
GR_NORM     .GAPI                                               :GammaRay Normalized
ILD         .OHMM                                               :          
SP          .MV                                                 :          
SP_NORM     .MV                                                 :SP Normalized
VSH_GR      .V/V                                                :Volume of Shale from GR
VSH_SP      .V/V                                                :Volume of Shale from SP
~A        DEPTH           ASFL           CILD             GR        GR_NORM            ILD             SP        SP_NORM         VSH_GR         VSH_SP
# ...
      4754.5000         0.5667       3756.844        37.5343       39.41013         0.2751      -108.9849      -70.24363      0.1363856              0
      4755.0000         0.5636       3861.441        37.5765       39.45869         0.2768      -109.4269      -70.68367      0.1374189              0
      4755.5000         0.5616       3914.699        37.6188       39.50736         0.2776      -109.7922        -71.047      0.1384545              0
      4756.0000         0.5595        3942.75        37.7316       39.64096         0.2783      -110.0505      -71.30334       0.141297              0
      4756.5000          0.574       3941.133          37.86       39.79334          0.279      -110.1542      -71.40508      0.1445392              0
      4757.0000         0.5996       3884.688        37.8062       39.72626         0.2798      -110.2314      -71.48032       0.143112              0
      4757.5000         0.6298       3816.965         37.386       39.21789         0.2798      -110.2476      -71.49455      0.1322955              0
      4758.0000         0.6412       3774.227        36.7758       38.48064         0.2797      -110.2635      -71.50848      0.1166094              0
      4758.5000         0.6526       3733.648        38.4084        40.4448         0.2796      -110.2797      -71.52274         0.1584              0
      4759.0000         0.6598       3719.316        38.4698       40.51648         0.2795      -110.2958      -71.53687      0.1599252              0
      4759.5000          0.666        3705.18        37.1159       38.88348         0.2798      -110.3639        -71.603      0.1251803              0
      4760.0000         0.6745       3656.262        36.3468       37.95485         0.2815       -110.478      -71.71513      0.1054222              0
      4760.5000         0.7016       3475.063        37.0414       38.78921         0.2847      -110.5922      -71.82738      0.1231746              0
      4761.0000         0.7465       3082.996        38.4108       40.43634         0.2958      -110.7063      -71.93951        0.15822              0
      4761.5000         0.8451       3016.891        39.7803        42.0836          0.307      -110.6376      -71.86886       0.193268              0
      4762.0000         0.8898       2967.066        41.0541       43.61559         0.3182      -110.4985      -71.72778      0.2258636              0
      4762.5000         0.9241       2941.324        42.1628       44.94872         0.3267      -110.2749      -71.50223      0.2542281              0
      4763.0000         0.9444       2915.578        42.3306       45.14856           0.33      -109.9381      -71.16347      0.2584799              0
      4763.5000         0.9588       2888.262        42.4878       45.33563         0.3333      -109.5455      -70.76891      0.2624603              0
      4764.0000         0.9581        2940.93        42.5461       45.40358         0.3367       -109.146      -70.36745       0.263906              0
      4764.5000         0.9436       3038.859        42.6045       45.47165         0.3418      -108.6677      -69.88718      0.2653542    0.001635123
      4765.0000         0.9187       2840.301        42.6628       45.53961         0.3472       -107.875      -69.09251      0.2668002     0.01315197
      4765.5000         0.8898       2115.504        42.6734       45.55011         0.3532      -106.2592      -67.47475      0.2670236     0.03659776
      4766.0000         0.9141        1893.26         42.658       45.52929         0.3711      -103.6047      -64.81829      0.2665807     0.07509723
      4766.5000         1.0204       2151.598        42.6189       45.47993         0.4091       -96.5378      -57.74943      0.2655304      0.1775445
      4767.0000         1.1588       1562.246         42.463       43.20333         0.4648       -90.2109      -51.42057      0.2170921      0.2692671
      4767.5000          1.372       1421.111        39.5729       39.49767         0.5805       -87.2783        -48.486      0.1382483      0.3117971
      4768.0000         1.8322       1254.574        37.1284       36.36298          2.194       -85.1702      -46.37594     0.07155268      0.3423777
      4768.5000          2.864       668.4609        35.1146       33.78018          5.663       -84.0466      -45.25038     0.01659961      0.3586902
      4769.0000         3.5086       166.3984        33.9562       32.29344          8.426       -82.8696      -44.07141              0      0.3757766
      4769.5000         4.2027       110.8862        34.1909       32.59176          9.237       -81.7131      -42.91295              0       0.392566
      4770.0000         4.6217        86.3179        37.0933       36.30835         9.3762       -80.8335      -42.03139     0.07039042      0.4053421
      4770.5000         3.8578        140.604        37.6001       36.95533         9.2683       -85.5923      -46.78823     0.08415587      0.3364025
      4771.0000         1.8592        204.502        38.1073       37.60281         4.2863        -87.924      -49.11797      0.0979322      0.3026381
      4771.5000          1.586       524.4814        38.8435       38.54373         4.8104       -90.2854       -51.4774      0.1179517      0.2684435
      4772.0000         1.4666       649.5312        39.3448       39.18365         3.3164       -92.7747      -53.96474      0.1315671      0.2323951
      4772.5000         1.2781       885.8018        39.6216       39.53592         0.8213       -94.5836      -55.77168      0.1390622      0.2062075
      4773.0000         0.9831        1031.84        39.8986       39.88845         0.6282       -95.2993      -56.48542      0.1465627      0.1958635
      4773.5000         0.8981       1637.473        40.1539       40.21316         0.5117       -95.9301      -57.11425      0.1534715      0.1867499
      4774.0000         0.8356       2121.781        40.1912       40.25854         0.4647       -96.4202      -57.60239      0.1544371      0.1796756
      4774.5000         0.7688       2684.555        40.2285       40.30392         0.4388       -96.8389      -58.01913      0.1554026      0.1736358
      4775.0000         0.7491       3000.637        40.2658       40.34931          0.413       -97.3221      -58.50036      0.1563683      0.1666614
      4775.5000         0.7535       3041.535          40.74       40.95451         0.3888       -96.9041       -58.0804      0.1692448      0.1727478
      4776.0000         0.7628       3071.961        41.2956       41.66402         0.3649        -96.458      -57.63234      0.1843408      0.1792415
      4776.5000          0.772       3001.738        42.0194       42.58905          0.356       -96.0989      -57.27128      0.2040223      0.1844742
      4777.0000         0.7658       2873.453        41.4315       41.83333         0.3733       -95.7397      -56.91011      0.1879432      0.1897085
      4777.5000          0.759       2537.633         40.843       41.07683         0.3906       -95.8484      -57.01685      0.1718475      0.1881616
      4778.0000         0.7523       2327.352        40.6996       40.89067          0.408       -96.2759      -57.44239      0.1678867      0.1819943
      4778.5000         0.7431       2209.805        41.6283       42.07825         0.4326       -96.9332      -58.09772      0.1931543      0.1724967
      4779.0000         0.7296       2115.699        42.6066       43.32939         0.4633       -98.5653      -59.72786      0.2197743      0.1488715
      4779.5000         0.7181       2002.322        43.5682       44.55913           0.48       -99.5033      -60.66391      0.2459389      0.1353057
      4780.0000         0.7154       1936.121        44.1459       45.29695          0.489      -100.4419      -61.60054      0.2616373      0.1217312
      4780.5000          0.716       1836.963        44.0894       45.22215         0.4731      -101.5636      -62.72028      0.2600456      0.1055032
