#------------------------------------------------------------------------------
# Created by    : vladimir.rabinovich
# Created on    : 09/19/2023 17:19:43
#------------------------------------------------------------------------------
~Version Information Section
VERS.           2.0     :   CWLS log ASCII Standard - VERSION 2.0
WRAP.           NO      :   One line per depth step
~Well Information Section
#MNEM       .UNIT                                         VALUE :DESCRIPTION
#------------------------------------------------------------------------------
STRT        .FT                                            1054 :START DEPTH
STOP        .FT                                           13910 :STOP DEPTH
STEP        .FT                                             0.5 :STEP      
NULL        .                                           -999.25 :NULL      
COMP        .                                            MTS LP :COMPANY   
WELL        .                                ST TR 00061-L SW/4 :WELL      
FLD         .                                           WILDCAT :FIELD     
LOC         .                                                   :LOCATION  
CNTY        .                           HIGH ISLAND LARGE BLOCK :LOCATION  
STAT        .                                             TEXAS :STATE     
CTRY        .                                     UNITED STATES :COUNTRY   
SRVC        .                                                   :SERVICE COMPANY
DATE        .                             9/13/2023 11:19:15 AM :LOG DATE  
API         .                                    42708302730000 :API NUMBER
UWI         .                                    42708302730000 :UNIQUE WELL ID
XCOORD      .                                  1164861.29381137 :SURFACE X 
YCOORD      .                                   10674042.082625 :SURFACE Y 
LAT         .                                        29.4036169 :LATITUDE  
LON         .                                       -94.4939126 :LONGITUDE 
ELEV        .FT                                              78 :ELEVATION VALUE
ELEV_TYPE   .                                                KB :ELEVATION REFERENCE TYPE
~Curve Information Section
#MNEM       .UNIT                                      API CODE :CURVE DESCRIPTION
#------------------------------------------------------------------------------
DEPT        .FT                                                 :DEPTH     
ASFL        .OHMM                                               :          
CILD        .MMHO                                               :          
ILD         .OHMM                                               :          
SP          .MV                                                 :          
SP_NORM     .MV                                                 :SP Normalized
VSH_SP      .V/V                                                :Volume of Shale from SP
~A        DEPTH           ASFL           CILD            ILD             SP        SP_NORM         VSH_SP
# ...
      7020.0000         0.5856       2045.334         0.5515       -88.3147      -10.06108      0.8853028
      7020.5000         0.6297       1824.689         0.5805       -93.0547      -14.83729      0.8248445
      7021.0000         0.7045       1604.045         0.6091       -94.9049      -16.72369       0.800966
      7021.5000          0.804       1380.402         0.6376       -96.8167      -18.67169      0.7763077
      7022.0000         0.8696       1351.127         0.6595        -99.024       -20.9152      0.7479089
      7022.5000         0.8971       1327.525         0.6758      -101.4532       -23.3806      0.7167013
      7023.0000         0.9147       1333.125          0.692      -104.1115       -26.0751      0.6825936
      7023.5000         0.9323       1381.336         0.6754      -107.1812        -29.181      0.6432785
      7024.0000         0.9499       1510.717         0.6103      -111.5861       -33.6221       0.587062
      7024.5000         0.9394       1882.848         0.5452       -115.996      -38.06821      0.5307822
      7025.0000         0.9009        2279.73         0.4832      -122.9729      -45.08131      0.4420088
      7025.5000          0.855       2591.738         0.4225      -131.3022      -53.44681      0.3361163
      7026.0000         0.7831       2880.168         0.3683      -133.0305      -55.21131      0.3137809
      7026.5000         0.7371       3168.207         0.3189      -133.9875      -56.20452      0.3012086
      7027.0000         0.6811       3659.402         0.2831       -134.946      -57.19922      0.2886175
      7027.5000         0.6277       4337.445         0.2501      -136.2024      -58.49181      0.2722555
      7028.0000         0.5893       4427.234          0.229      -137.4797      -59.80533      0.2556288
      7028.5000         0.5695       4585.797         0.2133      -138.6414      -61.00323      0.2404655
      7029.0000         0.5582       4706.625         0.1975      -139.5234      -61.92143      0.2288426
      7029.5000         0.5653       4790.031         0.2134      -137.5747      -60.00893      0.2530515
      7030.0000         0.5786       4647.289         0.2305      -135.5916      -58.06203      0.2776959
      7030.5000         0.5971       4079.863         0.2504      -134.6443      -57.15093      0.2892287
      7031.0000          0.624       3229.508         0.2797      -133.6982      -56.24104      0.3007464
      7031.5000         0.6803       2810.125         0.3091      -134.1626      -56.74164      0.2944096
      7032.0000         0.7018       2719.328         0.3385      -135.4485      -58.06374      0.2776741
      7032.5000         0.6998        2718.32          0.329      -138.0229      -60.67435      0.2446285
      7033.0000         0.6613       2786.844         0.3144      -141.7407      -64.42835      0.1971095
      7033.5000         0.6181        3142.27         0.2998      -145.2463      -67.97015      0.1522765
      7034.0000         0.5726       3635.824         0.2852      -147.3108      -70.07085      0.1256854
      7034.5000         0.5272       4101.086         0.2697      -148.8206      -71.61685      0.1061158
      7035.0000         0.4859       5195.859         0.2537      -149.3508      -72.18325      0.0989462
      7035.5000         0.4592       5654.836         0.2404      -149.8811      -72.74976     0.09177525
      7036.0000         0.4366       6027.352         0.2286      -150.1147      -73.01956     0.08835997
      7036.5000         0.4153       6589.086         0.2168      -150.1174      -73.05846     0.08786754
      7037.0000         0.4176       6511.086         0.2102      -149.7092      -72.68646     0.09257642
      7037.5000         0.4198       6091.406         0.2141      -148.2002      -71.21366      0.1112195
      7038.0000          0.422       5671.727         0.2179      -145.1355      -68.18517      0.1495549
      7038.5000         0.4266       5385.758         0.2217      -142.2483      -65.33418      0.1856434
      7039.0000         0.4335       5415.617         0.2251      -139.6812      -62.80327      0.2176801
      7039.5000         0.4404       5459.727         0.2269      -137.1609      -60.31918      0.2491244
      7040.0000         0.4474       5243.406         0.2286      -134.7463      -57.94078      0.2792306
      7040.5000         0.4444       5232.109         0.2304      -133.0366      -56.26729      0.3004141
      7041.0000         0.4383       5341.453         0.2321      -131.3269      -54.59379      0.3215976
      7041.5000         0.4148       5409.578         0.2366       -129.053      -52.35608       0.349923
      7042.0000         0.3893       5462.086         0.2419      -126.6412      -49.98048      0.3799939
      7042.5000         0.3798       5393.906         0.2473      -123.7169      -47.09239       0.416552
      7043.0000         0.3702        5060.68         0.2499      -121.3099      -44.72159      0.4465622
      7043.5000         0.3796       4630.836          0.252      -118.8488      -42.29669      0.4772571
      7044.0000         0.3897       4604.977          0.254      -116.2817      -39.76579      0.5092937
      7044.5000         0.3997        4596.93          0.256      -119.7727      -43.29299      0.4646457
      7045.0000         0.4097       4631.773          0.258      -120.5819       -44.1384      0.4539442
      7045.5000         0.4191       4664.289         0.2601      -121.0284       -44.6211      0.4478342
      7046.0000         0.4159       4645.797         0.2519      -121.5415       -45.1704       0.440881
      7046.5000         0.4133       4673.523         0.2432      -122.0823      -45.74741      0.4335772
      7047.0000         0.4167       6136.594         0.2344       -122.623      -46.32431      0.4262746
      7047.5000         0.4201       6332.781         0.2279      -123.1268      -46.86431      0.4194391
      7048.0000         0.4235       6407.836         0.2219      -123.6196      -47.39331      0.4127429
      7048.5000         0.4278       6446.836         0.2159      -123.8105      -47.62041      0.4098682
      7049.0000         0.4338       6471.398         0.2099      -117.6317      -41.47781      0.4876226
      7049.5000         0.4197       5962.914          0.211      -106.2598      -30.14212      0.6311124
      7050.0000         0.4027       4882.867         0.2127        -92.493      -16.41152      0.8049175
      7050.5000         0.3869       4746.117         0.2153       -88.9529      -12.90763      0.8492705
      7051.0000         0.3793       4609.375         0.2185       -89.8151      -13.80603      0.8378984
      7051.5000         0.3748       4354.148         0.2218       -94.7399      -18.76703      0.7751009
      7052.0000         0.3936       4255.023         0.2251      -102.5446      -26.60793       0.675849
      7052.5000          0.413       4202.953         0.2283      -110.3494      -34.44894      0.5765957
      7053.0000         0.4325       4171.422         0.2316      -118.5778      -42.71353      0.4719806
      7053.5000          0.452       4250.797         0.2349      -125.0719      -49.24384      0.3893185
      7054.0000         0.4714       4427.234         0.2351      -129.1812      -53.38934      0.3368438
      7054.5000         0.4886       4929.438         0.2295      -133.2388      -57.48315      0.2850235
      7055.0000         0.5025         5394.5          0.224      -135.9661      -60.24664      0.2500425
      7055.5000         0.5163       5502.172         0.2184      -137.7102      -62.02695      0.2275069
      7056.0000         0.5188       5541.219         0.2136      -139.1687      -63.52165      0.2085867
      7056.5000         0.4886       5562.195         0.2089      -140.3943      -64.78345      0.1926145
      7057.0000         0.4608       5490.969         0.2042      -141.5693      -65.99466      0.1772828
      7057.5000         0.4457       5407.961         0.2013      -142.2039      -66.66546      0.1687917
