#------------------------------------------------------------------------------
# Created by    : vladimir.rabinovich
# Created on    : 09/19/2023 17:21:04
#------------------------------------------------------------------------------
~Version Information Section
VERS.           2.0     :   CWLS log ASCII Standard - VERSION 2.0
WRAP.           NO      :   One line per depth step
~Well Information Section
#MNEM       .UNIT                                         VALUE :DESCRIPTION
#------------------------------------------------------------------------------
STRT        .FT                                            4500 :START DEPTH
STOP        .FT                                           11014 :STOP DEPTH
STEP        .FT                                             0.5 :STEP      
NULL        .                                           -999.25 :NULL      
COMP        .                              FIELDWOOD ENERGY LLC :COMPANY   
WELL        .                               OCS G06156 ST00BP00 :WELL      
FLD         .                            HIGH ISLAND BLOCK 0116 :FIELD     
LOC         .                                                   :LOCATION  
CNTY        .                           HIGH ISLAND LARGE BLOCK :LOCATION  
STAT        .                                             TEXAS :STATE     
CTRY        .                                     UNITED STATES :COUNTRY   
SRVC        .                                                   :SERVICE COMPANY
DATE        .                             9/13/2023 11:19:57 AM :LOG DATE  
API         .                                    42708404240000 :API NUMBER
UWI         .                                    42708404240000 :UNIQUE WELL ID
XCOORD      .                                  1333979.30181128 :SURFACE X 
YCOORD      .                                  10635798.2403082 :SURFACE Y 
LAT         .                                         29.303317 :LATITUDE  
LON         .                                        -93.961735 :LONGITUDE 
ELEV        .FT                                             101 :ELEVATION VALUE
ELEV_TYPE   .                                                KB :ELEVATION REFERENCE TYPE
~Curve Information Section
#MNEM       .UNIT                                      API CODE :CURVE DESCRIPTION
#------------------------------------------------------------------------------
DEPT        .FT                                                 :DEPTH     
AT10        .OHMM                                               :          
AT20        .OHMM                                               :          
AT30        .OHMM                                               :          
AT60        .OHMM                                               :          
AT90        .OHMM                                               :          
CALI        .IN                                                 :          
DCAL        .IN                                                 :          
DPHI        .DEC                                                :          
DRHO        .G/C3                                               :          
DT2R        .US/F                                               :          
DT4P        .US/F                                               :          
GR          .GAPI                                               :          
GR_NORM     .GAPI                                               :GammaRay Normalized
NPOR        .DEC                                                :          
SP          .MV                                                 :          
SP_NORM     .MV                                                 :SP Normalized
TENS        .LBF                                                :          
VSH_GR      .V/V                                                :Volume of Shale from GR
VSH_SP      .V/V                                                :Volume of Shale from SP
~A        DEPTH           AT10           AT20           AT30           AT60           AT90           CALI           DCAL           DPHI           DRHO           DT2R           DT4P             GR        GR_NORM           NPOR             SP        SP_NORM           TENS         VSH_GR         VSH_SP
# ...
      5769.0000         0.6406         0.6282         0.6784         0.6788         0.6947        11.3839        -999.25         0.2628        -0.0456       273.0151       111.5691        49.9716       53.48925        -999.25       -46.9953      -28.72611       3166.367      0.4359415       0.589627
      5769.5000         0.6002         0.6244         0.6477         0.6655         0.6745        11.4535        -999.25          0.264        -0.0426       280.5674       114.2567        51.3695         55.115        -999.25       -44.8825      -25.12889       3166.867      0.4705319      0.6410158
      5770.0000         0.5972         0.6239         0.6488         0.6659         0.6793        11.5532        -999.25         0.2479        -0.0347       286.1196       117.3434        54.4682       58.71841        -999.25       -42.4688      -21.01972       3217.262      0.5472003      0.6997182
      5770.5000         0.6134         0.6271         0.6518         0.6663         0.6846        11.6429        -999.25         0.2282        -0.0258       288.0776       118.7317        58.6744       63.60962        -999.25       -40.3535      -17.41825       3247.703      0.6512685      0.7511678
      5771.0000         0.6325         0.6345         0.6703         0.6731         0.6912        11.7827        -999.25         0.2204        -0.0238       279.6401       118.2225        62.3754       67.91339        -999.25       -38.9412      -15.01286       3228.242      0.7428381      0.7855306
      5771.5000         0.6532         0.6497          0.689         0.6802         0.6978        11.8223        -999.25          0.224        -0.0229       266.0161       116.2159        65.7797       71.87215        -999.25       -38.5302      -14.31107       3228.742      0.8270671      0.7955562
      5772.0000         0.6563         0.6642          0.703         0.6917         0.7028        11.8838        -999.25         0.2257        -0.0218       256.5464       115.1448         67.896       74.33326        -999.25       -39.2594      -15.54919       3217.563      0.8794311      0.7778687
      5772.5000         0.6542         0.6767          0.715         0.7039         0.7051        11.9138        -999.25         0.2293        -0.0228       248.5518       115.2448        68.5972       75.14887        -999.25       -39.9599      -16.73849       3227.543      0.8967845      0.7608787
      5773.0000          0.652         0.6837         0.7166         0.7108         0.7032        11.9539        -999.25         0.2377        -0.0228       246.5508       116.2433        68.2965        74.7995        -999.25       -39.8594      -16.56498       3197.602      0.8893511      0.7633575
      5773.5000         0.6499         0.6844         0.7138         0.7075          0.702        11.9639        -999.25         0.2485        -0.0238       256.1357       119.0386        66.7931       73.05164        -999.25       -38.8568      -14.85664       3127.742      0.8521626      0.7877623
      5774.0000         0.6478         0.6819          0.711         0.6994         0.7007         11.984        -999.25         0.2527        -0.0228       276.1284       121.7391        66.8937        73.1689        -999.25       -37.0544      -11.78753       3097.805      0.8546574      0.8316067
      5774.5000         0.6457         0.6825         0.7098          0.702         0.7013         11.994        -999.25         0.2485        -0.0198       295.3145        123.337        67.3944        73.7514        -999.25       -35.4508      -9.056662        3067.84       0.867051      0.8706191
      5775.0000         0.6436         0.6852         0.7091         0.7081         0.7019         11.984        -999.25         0.2455        -0.0188       313.6865       124.2351        68.3962       74.91655        -999.25       -34.7494      -7.860785       3067.863      0.8918415      0.8877031
      5775.5000         0.6415         0.6879         0.7093         0.7136         0.7012        11.9739        -999.25         0.2455        -0.0158       322.8755       125.0352        68.8977       75.49997        -999.25       -33.9473      -6.493574       3087.852      0.9042547      0.9072347
      5776.0000         0.6394         0.6918         0.7098         0.7181         0.7003        11.9639        -999.25         0.2437        -0.0138       330.4731        125.834        69.2981       75.96584        -999.25       -33.5471      -5.810153       3097.805      0.9141667      0.9169978
      5776.5000         0.6373          0.696         0.7101         0.7226         0.6991        11.9539        -999.25         0.2395        -0.0138       337.2627       126.7332        69.6993       76.43262        -999.25       -33.8477      -6.319063       3077.844      0.9240983      0.9097277
      5777.0000         0.6359         0.7002         0.7101         0.7206         0.6982        11.9338        -999.25         0.2377        -0.0158       343.6582       126.8331             70       76.78255        -999.25       -34.3486      -7.168765       3057.883      0.9315437      0.8975891
      5777.5000           0.64         0.6989           0.71         0.7173         0.6982        11.9439        -999.25         0.2413        -0.0208       349.6494       127.9315        69.7996        76.5498        -999.25       -34.9499      -8.189291       3047.902      0.9265916      0.8830101
      5778.0000         0.6454         0.6964         0.7096         0.7138         0.6982         12.004        -999.25         0.2431        -0.0287       350.4492       129.6313        69.4989       76.20044        -999.25       -35.3506      -8.868515       3067.973      0.9191583      0.8733069
      5778.5000         0.6485         0.6941          0.709         0.7103         0.7008         12.014        -999.25         0.2479        -0.0377       351.2485       131.5286        69.1984        75.8513        -999.25       -35.1503      -8.525198       3077.844      0.9117297      0.8782114
      5779.0000         0.6418         0.6928         0.7086         0.7076         0.7034        11.9739        -999.25         0.2509        -0.0467       350.0498       131.5283        69.2982       75.96763        -999.25       -34.8499      -8.011577       3067.863      0.9142048      0.8855489
      5779.5000         0.6336         0.6917          0.709         0.7056         0.7041        11.9339        -999.25         0.2515        -0.0487       345.6523        130.729        69.6993        76.4343        -999.25       -34.7495      -7.838234       3077.844       0.924134      0.8880252
      5780.0000         0.6257         0.6917         0.7094         0.7027         0.7047        11.9439        -999.25         0.2455        -0.0467       342.8569       129.7302        69.7996       76.55119        -999.25       -34.7495       -7.83571       3117.762      0.9266211      0.8880613
      5780.5000          0.621         0.6916         0.7095         0.6987         0.7047        11.9539        -999.25         0.2401        -0.0427       347.6543       130.2302             70        76.7845        -999.25       -34.7495      -7.833185       3137.723      0.9315851      0.8880973
      5781.0000         0.6241         0.6916         0.7067         0.6951         0.7047         11.984        -999.25         0.2389        -0.0417       361.6387       131.9277        69.7996       76.55175        -999.25       -34.5491        -7.4897       3117.762       0.926633      0.8930043
      5781.5000         0.6368         0.6915         0.7039         0.6933         0.7052         11.994        -999.25         0.2383        -0.0367       372.8237       132.7271        69.4989       76.20239        -999.25       -34.5491      -7.487178       3077.844      0.9191998      0.8930403
      5782.0000         0.6429         0.6915         0.7012         0.6915         0.7058        12.0021        -999.25         0.2378        -0.0309       372.0273       131.8291        69.0802       75.71581        -999.25       -35.0504      -8.337562       3049.648      0.9088469       0.880892
