#------------------------------------------------------------------------------
# Created by    : vladimir.rabinovich
# Created on    : 09/19/2023 17:20:10
#------------------------------------------------------------------------------
~Version Information Section
VERS.           2.0     :   CWLS log ASCII Standard - VERSION 2.0
WRAP.           NO      :   One line per depth step
~Well Information Section
#MNEM       .UNIT                                         VALUE :DESCRIPTION
#------------------------------------------------------------------------------
STRT        .FT                                            1664 :START DEPTH
STOP        .FT                                            5300 :STOP DEPTH
STEP        .FT                                             0.5 :STEP      
NULL        .                                           -999.25 :NULL      
COMP        .                       CORPUS CHRISTI OIL & GAS CO :COMPANY   
WELL        .                                ST TR 00597-L NE/4 :WELL      
FLD         .                                           WILDCAT :FIELD     
LOC         .                                                   :LOCATION  
CNTY        .                      MATAGORDA ISLAND LARGE BLOCK :LOCATION  
STAT        .                                             TEXAS :STATE     
CTRY        .                                     UNITED STATES :COUNTRY   
SRVC        .                                                   :SERVICE COMPANY
DATE        .                             9/13/2023 11:12:01 AM :LOG DATE  
API         .                                    42703301570000 :API NUMBER
UWI         .                                    42703301570000 :UNIQUE WELL ID
XCOORD      .                                   499677.54355151 :SURFACE X 
YCOORD      .                                  10240770.6634848 :SURFACE Y 
LAT         .                                        28.1741034 :LATITUDE  
LON         .                                       -96.5406837 :LONGITUDE 
ELEV        .FT                                              79 :ELEVATION VALUE
ELEV_TYPE   .                                                KB :ELEVATION REFERENCE TYPE
~Curve Information Section
#MNEM       .UNIT                                      API CODE :CURVE DESCRIPTION
#------------------------------------------------------------------------------
DEPT        .FT                                                 :DEPTH     
ASFL        .OHMM                                               :          
CILD        .MMHO                                               :          
ILD         .OHMM                                               :          
SP          .MV                                                 :          
SP_NORM     .MV                                                 :SP Normalized
VSH_SP      .V/V                                                :Volume of Shale from SP
~A        DEPTH           ASFL           CILD            ILD             SP        SP_NORM         VSH_SP
# ...
      3108.0000         1.0198        876.961         1.1403       -68.5329    -0.09980774              1
      3108.5000         1.0684       845.0445         1.1834       -67.9341      0.5020065              1
      3109.0000         1.1762       797.1599         1.2545       -67.6347      0.8044205              1
      3109.5000          1.284       757.2594         1.3206       -67.0359       1.406235              1
      3110.0000         1.3918       709.3748         1.4097       -67.0359       1.409241              1
      3110.5000         1.4997       669.4742         1.4937       -70.6595      -2.211349      0.9944382
      3111.0000         1.6075       645.5418         1.5491       -74.2832      -5.832039      0.8991569
      3111.5000         1.7153       637.5775         1.5684       -78.4131      -9.958931      0.7905545
      3112.0000         1.8231        605.661         1.6511       -79.6252      -11.16801      0.7587364
      3112.5000          1.931       613.6647         1.5956       -80.8373      -12.37711      0.7269183
      3113.0000         2.0528       637.6366         1.5955       -82.0494       -13.5862      0.6951001
      3113.5000         1.9889       677.5765         1.5356       -82.9041      -14.43788      0.6726874
      3114.0000          1.925       701.5484         1.4956         -81.99      -13.52077      0.6968219
      3114.5000         1.8611       725.5203         1.4357       -81.0759      -12.60366      0.7209563
      3115.0000         1.7886       757.4762         1.3957       -80.1618      -11.68655      0.7450909
      3115.5000          1.785        781.448         1.3358       -79.6107      -11.13244      0.7596726
      3116.0000         1.7846       813.4039         1.2958       -81.7315      -13.25023      0.7039413
      3116.5000          1.843        861.328         1.2359       -83.8523      -15.36802        0.64821
      3117.0000         1.9046       901.2679          1.176       -85.9731       -17.4858      0.5924789
      3117.5000         1.7795       973.1441          1.136       -88.0939       -19.6036      0.5367474
      3118.0000         1.6544       1037.036         1.0561        -89.491      -20.99768       0.500061
      3118.5000         1.5293       1076.976         1.0361       -86.8221      -18.32577      0.5703745
      3119.0000         1.4042       1092.964         0.9961       -84.1533      -15.65396      0.6406853
      3119.5000         1.2791       1100.968         0.9562       -80.2095      -11.70715      0.7445486
      3120.0000         1.1362       1100.987         0.9083       -83.0158      -14.51044       0.670778
      3120.5000         1.2618       1077.055         0.9285        -85.822      -17.31363      0.5970098
      3121.0000         1.3874       1061.107         0.9424       -88.6283      -20.11692       0.523239
      3121.5000         1.5131       1037.174         0.9642       -91.4345       -22.9201      0.4494709
      3122.0000         1.6387       997.2736         1.0027       -93.3832      -24.86579      0.3982686
      3122.5000         1.7604        949.389         1.0533       -93.3832      -24.86279      0.3983478
      3123.0000         1.6556       909.4885         1.0995       -86.8192      -18.29577       0.571164
      3123.5000         1.5508       869.5879           1.15       -80.2552      -11.72876        0.74398
      3124.0000          1.446       845.6555         1.1825       -72.1257      -3.596252      0.9579933
      3124.5000         1.3362       845.6752         1.1825       -73.2677      -4.735237      0.9280201
      3125.0000         1.4035       853.6789         1.1714       -74.4098      -5.874321      0.8980442
      3125.5000         1.4709       869.6668         1.1499       -75.5518      -7.013321      0.8680705
      3126.0000         1.5382       885.6546         1.1291       -76.6939      -8.152405      0.8380946
      3126.5000         1.6003       893.6583          1.119       -78.1137      -9.569191      0.8008108
      3127.0000         1.5052       901.6621         1.1091       -76.3212      -7.773682       0.848061
      3127.5000           1.41       909.6658         1.0993       -74.5287      -5.978172      0.8953112
      3128.0000         1.3149       917.6696         1.0897       -72.7361      -4.182556      0.9425643
      3128.5000         1.2198       925.6733         1.0803       -70.9436      -2.387054      0.9898143
      3129.0000         1.1247       941.6612          1.062       -69.1511     -0.5915375              1
      3129.5000         1.0296        965.633         1.0356       -66.1377       2.424873              1
      3130.0000         0.9439       997.5889         1.0024       -66.1377       2.427879              1
      3130.5000         0.9319       1013.577         0.9866       -65.5389       3.029694              1
      3131.0000         0.9158       1053.517         0.9492       -65.5389       3.032707              1
      3131.5000         0.8918       1077.489         0.9281       -64.6707       3.903915              1
      3132.0000         0.8758       1093.476         0.9145       -65.2695       3.308128              1
      3132.5000         0.8638        1101.48         0.9079       -66.1377        2.44294              1
      3133.0000         0.8558       1125.452         0.8885       -67.6347      0.9489517              1
      3133.5000         0.8598       1133.456         0.8823       -69.4311     -0.8444366              1
      3134.0000         0.8678       1141.459         0.8761       -68.5329     0.05677795              1
      3134.5000         0.8717       1125.511         0.8885       -67.3353       1.257393              1
      3135.0000         0.8877       1125.531         0.8885       -66.7365       1.859192              1
      3135.5000         0.8957       1117.566         0.8948       -65.8383       2.760406              1
      3136.0000         0.8997       1093.634         0.9144       -66.1377        2.46402              1
      3136.5000         0.9117       1069.702         0.9348       -67.0359       1.568832              1
      3137.0000         0.9197       1053.753          0.949       -67.6347      0.9730453              1
      3137.5000         0.9317       1037.805         0.9636       -67.3353       1.275459              1
      3138.0000         0.9397       1021.856         0.9786       -67.3353       1.278465              1
      3138.5000         0.9517       997.9239         1.0021       -67.3353       1.281479              1
      3139.0000         0.9597       997.9436         1.0021       -66.7665       1.853287              1
      3139.5000         0.9597       966.0272         1.0352       -67.6647      0.9580917              1
      3140.0000         0.9597        982.015         1.0183       -68.5629     0.06291199              1
      3140.5000         0.9597       974.0506         1.0266       -69.4611     -0.8322754              1
      3141.0000         0.9597       982.0544         1.0183       -70.3293      -1.697472              1
      3141.5000         0.9757        966.106         1.0351       -70.9281      -2.293259      0.9922827
      3142.0000         0.9757       942.1736         1.0614       -71.2275      -2.589645       0.984483
      3142.5000         0.9997        902.273         1.1083       -70.9281      -2.287239      0.9924411
      3143.0000         1.0397       862.3725         1.1596       -70.9281      -2.284225      0.9925204
      3143.5000         1.0757       774.5874          1.291       -71.2275      -2.580612      0.9847207
      3144.0000         1.1993       718.7188         1.3914       -72.4251      -3.775208       0.953284
      3144.5000         1.3229       662.8502         1.5086       -73.9221      -5.269188      0.9139687
      3145.0000         1.4465       606.9815         1.6475       -75.1197      -6.463776      0.8825322
      3145.5000         1.5701        559.097         1.7886       -75.4191       -6.76017      0.8747324
