#------------------------------------------------------------------------------
# Created by    : vladimir.rabinovich
# Created on    : 09/19/2023 17:20:48
#------------------------------------------------------------------------------
~Version Information Section
VERS.           2.0     :   CWLS log ASCII Standard - VERSION 2.0
WRAP.           NO      :   One line per depth step
~Well Information Section
#MNEM       .UNIT                                         VALUE :DESCRIPTION
#------------------------------------------------------------------------------
STRT        .FT                                             495 :START DEPTH
STOP        .FT                                            6623 :STOP DEPTH
STEP        .FT                                             0.5 :STEP      
NULL        .                                           -999.25 :NULL      
COMP        .                                      SHELL OIL CO :COMPANY   
WELL        .                                     ST TR 00691-L :WELL      
FLD         .                                           WILDCAT :FIELD     
LOC         .                                                   :LOCATION  
CNTY        .                      MATAGORDA ISLAND LARGE BLOCK :LOCATION  
STAT        .                                             TEXAS :STATE     
CTRY        .                                     UNITED STATES :COUNTRY   
SRVC        .                                                   :SERVICE COMPANY
DATE        .                             9/13/2023 11:12:05 AM :LOG DATE  
API         .                                    42703000200000 :API NUMBER
UWI         .                                    42703000200000 :UNIQUE WELL ID
XCOORD      .                                  411465.852171861 :SURFACE X 
YCOORD      .                                  10158718.0598508 :SURFACE Y 
LAT         .                                        27.9414781 :LATITUDE  
LON         .                                       -96.8060481 :LONGITUDE 
ELEV        .FT                                              11 :ELEVATION VALUE
ELEV_TYPE   .                                                KB :ELEVATION REFERENCE TYPE
~Curve Information Section
#MNEM       .UNIT                                      API CODE :CURVE DESCRIPTION
#------------------------------------------------------------------------------
DEPT        .FT                                                 :DEPTH     
ASN         .OHMM                                               :          
CILD        .OHMM                                               :          
ILD         .OHMM                                               :          
SP          .MV                                                 :          
SP_NORM     .MV                                                 :SP Normalized
VSH_SP      .V/V                                                :Volume of Shale from SP
~A        DEPTH            ASN           CILD            ILD             SP        SP_NORM         VSH_SP
# ...
      4561.0000         0.6632       1785.246         0.5275       -51.6152        -8.8511      0.8406721
      4561.5000         0.6603        1811.68         0.5215       -52.2364        -9.4732      0.8262047
      4562.0000         0.6574       1849.682         0.5167       -52.6776        -9.9154      0.8159209
      4562.5000         0.6545       1881.789         0.5127       -52.9935       -10.2322      0.8085535
      4563.0000          0.652       1903.088         0.5087       -52.5294        -9.7691      0.8193232
      4563.5000           0.65       1917.158          0.507       -52.0649        -9.3056      0.8301023
      4564.0000          0.662       1919.572         0.5084       -51.6852        -8.9268      0.8389117
      4564.5000         0.6753        1822.93         0.5104       -51.4302        -8.6728      0.8448186
      4565.0000         0.6923       1780.629         0.5232        -51.224        -8.4675       0.849593
      4565.5000         0.7092       1738.646         0.5359       -51.3347        -8.5792      0.8469954
      4566.0000         0.7251       1690.178         0.5486       -51.4453        -8.6908         0.8444
      4566.5000         0.7405       1600.219          0.569       -51.6401        -8.8865      0.8398488
      4567.0000         0.7559        1518.17          0.599       -51.8967        -9.1441      0.8338581
      4567.5000         0.7719       1472.367          0.629       -52.1534        -9.4017      0.8278674
      4568.0000         0.7879       1456.412          0.659       -52.4034        -9.6527      0.8220302
      4568.5000         0.8085        1301.23         0.6902       -52.6458         -9.896      0.8163721
      4569.0000         0.8303       1261.631         0.7282       -52.8311       -10.0823      0.8120396
      4569.5000         0.8561       1222.031         0.7662       -52.9139       -10.1661      0.8100907
      4570.0000         0.8847       1182.432         0.8041       -52.9966       -10.2497      0.8081465
      4570.5000         0.9214       1142.832         0.8421        -52.886       -10.1401      0.8106954
      4571.0000         0.9719       1103.232         0.8888       -52.4387        -9.6937      0.8210768
      4571.5000         1.0485       1063.633         0.9369       -51.9103        -9.1663      0.8333418
      4572.0000         1.1007       1022.535         0.9851       -51.3821        -8.6391      0.8456023
      4572.5000         1.1309       953.3096         1.0339       -51.4981         -8.756      0.8428837
      4573.0000         1.1594       901.0342         1.0875       -51.6239        -8.8828      0.8399349
      4573.5000         1.1944       861.3115         1.1412       -51.8517        -9.1115      0.8346163
      4574.0000         1.2769       837.8027          1.199       -52.0795        -9.3403      0.8292953
      4574.5000         1.3347       821.1348          1.248       -52.3073        -9.5691      0.8239744
      4575.0000         1.3896       808.2744         1.1559        -52.535        -9.7977      0.8186581
      4575.5000         1.2595        797.957         1.0637       -52.7628       -10.0265      0.8133372
      4576.0000         1.1141       959.2051         0.9582       -53.0385       -10.3031      0.8069047
      4576.5000         0.9688       1086.553         0.8483       -58.5212       -15.7868      0.6793767
      4577.0000         0.8458       2002.326         0.7432       -66.2673       -23.5339      0.4992116
      4577.5000           0.79       2039.986         0.6561       -67.4382       -24.7057      0.4719605
      4578.0000          0.768       2129.477         0.5692       -68.6091       -25.8776       0.444707
      4578.5000         0.7545       2592.488         0.4868       -69.7799       -27.0493      0.4174581
      4579.0000         0.7496         3055.5         0.4009       -70.9508       -28.2212      0.3902046
      4579.5000         0.7446       3483.434         0.3369       -72.1217       -29.3931      0.3629512
      4580.0000         0.7392       3542.906         0.2918       -73.2717        -30.544       0.336186
      4580.5000         0.7331       3576.266         0.2563       -74.1664       -31.4397      0.3153558
      4581.0000         0.7303       3597.406         0.2318       -75.4056       -32.6798      0.2865163
      4581.5000         0.7324       3613.141         0.2272       -75.8774       -33.1526       0.275521
      4582.0000         0.7239       3628.875         0.2402       -76.3141       -33.5903      0.2653418
      4582.5000         0.7154       3644.609         0.2487       -76.9298       -34.2069      0.2510023
      4583.0000          0.706       3632.152         0.2624       -77.7413       -35.0194      0.2321069
      4583.5000         0.6953       3452.285         0.2879       -78.5767       -35.8557      0.2126581
      4584.0000         0.7055        3237.68         0.3136       -79.1331       -36.4131      0.1996953
      4584.5000         0.7003       3023.074         0.3395       -78.2106       -35.4916      0.2211256
      4585.0000         0.6951       2808.469         0.3655       -74.3093       -31.5912      0.3118325
      4585.5000         0.6877       2593.863         0.3928       -70.4595       -27.7424      0.4013396
      4586.0000         0.7092       2379.262         0.4209       -65.8396       -23.1234      0.5087581
      4586.5000         0.7959       1996.492         0.4489       -60.3055       -17.5903      0.6374349
      4587.0000         0.8386       1996.313         0.4761       -56.4178       -13.7035      0.7278256
      4587.5000         0.9385       1894.465          0.499       -49.3547        -6.6414      0.8920605
      4588.0000         0.9975       1734.691          0.522       -48.0648        -5.3525      0.9220349
      4588.5000         0.9646       1671.951         0.5449       -47.5157        -4.8043      0.9347837
      4589.0000         0.9371       1711.623         0.5658       -47.1459        -4.4355      0.9433604
      4589.5000         0.9161       1734.273          0.572       -46.9166        -4.2071      0.9486721
      4590.0000         0.9043       1756.947         0.5783       -46.7458        -4.0373      0.9526209
      4590.5000         0.8951       1776.551         0.5845       -46.5671        -3.8596      0.9567535
      4591.0000         0.8927       1793.256         0.5866       -46.3793        -3.6727         0.9611
      4591.5000         0.9003       1571.943         0.5849       -46.1659        -3.4603      0.9660395
      4592.0000         0.9093       1529.961         0.5833       -45.9164        -3.2117       0.971821
      4592.5000         0.9163       1533.326         0.5901       -45.5996        -2.8959      0.9791651
      4593.0000         0.9123       1541.992         0.6038       -45.2381        -2.5354      0.9875488
      4593.5000         0.9045       1550.652         0.6174       -44.9583        -2.2565      0.9940349
      4594.0000          0.896       1564.967         0.6203       -44.8424        -2.1416       0.996707
      4594.5000         0.8875       1582.852         0.6172       -44.9376        -2.2377      0.9944721
      4595.0000          0.879       1600.723          0.614       -45.0327        -2.3338      0.9922372
      4595.5000         0.8735       1615.965         0.6098       -45.2798        -2.5819      0.9864674
      4596.0000         0.8689       1630.496         0.6038       -45.5485        -2.8515      0.9801977
      4596.5000         0.8689       1643.922         0.5979       -45.7197        -3.0237       0.976193
      4597.0000         0.8688       1656.303         0.5919       -45.7233        -3.0282      0.9760883
      4597.5000         0.8745       1664.809         0.5859       -45.6995        -3.0054      0.9766186
      4598.0000         0.8814       1637.951         0.5799       -45.5469        -2.8538      0.9801442
      4598.5000         0.8828       1502.963         0.5812       -45.3942         -2.702      0.9836744
