#------------------------------------------------------------------------------
# Created by    : vladimir.rabinovich
# Created on    : 09/19/2023 17:21:52
#------------------------------------------------------------------------------
~Version Information Section
VERS.           2.0     :   CWLS log ASCII Standard - VERSION 2.0
WRAP.           NO      :   One line per depth step
~Well Information Section
#MNEM       .UNIT                                         VALUE :DESCRIPTION
#------------------------------------------------------------------------------
STRT        .FT                                            1924 :START DEPTH
STOP        .FT                                            6497 :STOP DEPTH
STEP        .FT                                             0.5 :STEP      
NULL        .                                           -999.25 :NULL      
COMP        .                                ATP OIL & GAS CORP :COMPANY   
WELL        .                               OCS G12451 ST00BP00 :WELL      
FLD         .                                           WILDCAT :FIELD     
LOC         .                                                   :LOCATION  
CNTY        .                                BRAZOS LARGE BLOCK :LOCATION  
STAT        .                                             TEXAS :STATE     
CTRY        .                                     UNITED STATES :COUNTRY   
SRVC        .                                                   :SERVICE COMPANY
DATE        .                             9/13/2023 11:09:51 AM :LOG DATE  
API         .                                    42704402900000 :API NUMBER
UWI         .                                    42704402900000 :UNIQUE WELL ID
XCOORD      .                                  861130.254262163 :SURFACE X 
YCOORD      .                                  10349158.9913488 :SURFACE Y 
LAT         .                                        28.4964901 :LATITUDE  
LON         .                                       -95.4265639 :LONGITUDE 
ELEV        .FT                                              91 :ELEVATION VALUE
ELEV_TYPE   .                                                KB :ELEVATION REFERENCE TYPE
~Curve Information Section
#MNEM       .UNIT                                      API CODE :CURVE DESCRIPTION
#------------------------------------------------------------------------------
DEPT        .FT                                                 :DEPTH     
CALI        .IN                                                 :          
DPHI        .G/C3                                               :          
DRHO        .G/C3                                               :          
GR          .GAPI                                               :          
GR_NORM     .GAPI                                               :GammaRay Normalized
ILD         .OHMM                                               :          
ILM         .OHMM                                               :          
NPHI        .%                                                  :          
SFL         .OHMM                                               :          
SP          .MV                                                 :          
SP_NORM     .MV                                                 :SP Normalized
VSH_GR      .V/V                                                :Volume of Shale from GR
VSH_SP      .V/V                                                :Volume of Shale from SP
~A        DEPTH           CALI           DPHI           DRHO             GR        GR_NORM            ILD            ILM           NPHI            SFL             SP        SP_NORM         VSH_GR         VSH_SP
# ...
      3197.0000        -999.25        -999.25        -999.25        93.2762       70.79945         0.7517         0.6811        -999.25         0.7431       -63.3687     -0.5780029      0.8042437              1
      3197.5000        -999.25        -999.25        -999.25        94.3998       72.05192         0.7385         0.6862        -999.25         0.7019       -64.1195      -1.328804      0.8308918      0.9937962
      3198.0000        -999.25        -999.25        -999.25        95.1888       72.96977         0.7248         0.6919        -999.25         0.6979       -64.9655      -2.174805      0.8504207      0.9778339
      3198.5000        -999.25        -999.25        -999.25        94.5374       72.44724         0.7086         0.6955        -999.25         0.7009        -65.351      -2.560303      0.8393029      0.9705603
      3199.0000        -999.25        -999.25        -999.25        89.0392        67.0779         0.6919         0.6923        -999.25         0.7132        -66.173      -3.382301      0.7250618      0.9550509
      3199.5000        -999.25        -999.25        -999.25        87.2583       65.42587         0.6761         0.6828        -999.25         0.7651       -67.7141      -4.923409       0.689912      0.9259734
      3200.0000        -999.25        -999.25        -999.25        86.8895       65.18593         0.6645         0.6678        -999.25         0.8708       -69.8536      -7.062904       0.684807      0.8856056
      3200.5000        -999.25        -999.25        -999.25        86.7363       65.16158         0.6534         0.6554        -999.25         0.9283       -72.0433      -9.252602       0.684289      0.8442906
      3201.0000        -999.25        -999.25        -999.25        85.8778       64.43195         0.6423         0.6439        -999.25         0.9529       -74.2258       -11.4351      0.6687649      0.8031113
      3201.5000        -999.25        -999.25        -999.25        85.7581       64.44112         0.6318         0.6368        -999.25         0.9608       -74.8358       -12.0451      0.6689599      0.7916018
      3202.0000        -999.25        -999.25        -999.25        86.6965       65.50838         0.6241         0.6294        -999.25         0.9345       -74.6201      -11.82941      0.6916676      0.7956716
      3202.5000        -999.25        -999.25        -999.25        87.5918       66.53253          0.619         0.6223        -999.25         0.8833        -73.864       -11.0733      0.7134581      0.8099377
      3203.0000        -999.25        -999.25        -999.25        88.4966        67.5662         0.6184         0.6264        -999.25         0.8383       -72.6487      -9.858002       0.735451      0.8328679
      3203.5000        -999.25        -999.25        -999.25         90.428       69.62646         0.6169          0.626        -999.25         0.8213       -71.2985      -8.507805      0.7792865      0.8583433
      3204.0000        -999.25        -999.25        -999.25        92.5105       71.83782         0.6181         0.6301        -999.25         0.8115       -69.9701      -7.179405      0.8263366      0.8834075
      3204.5000        -999.25        -999.25        -999.25        94.4542       73.91039         0.6233         0.6328        -999.25          0.784       -68.4509      -5.660202      0.8704337      0.9120716
      3205.0000        -999.25        -999.25        -999.25        97.6852       77.27026          0.633         0.6335        -999.25         0.7421       -67.0068      -4.216103      0.9419203      0.9393188
      3205.5000        -999.25        -999.25        -999.25       101.5311       81.24501         0.6432          0.635        -999.25         0.7007       -65.8688      -3.078102              1      0.9607905
      3206.0000        -999.25        -999.25        -999.25       102.6631       82.50587         0.6598         0.6408        -999.25         0.6724       -65.6716      -2.880905              1      0.9645112
      3206.5000        -999.25        -999.25        -999.25       101.9111       81.88274         0.6785         0.6494        -999.25         0.6714       -65.8964      -3.105705              1      0.9602697
      3207.0000        -999.25        -999.25        -999.25       101.6677        81.7682         0.6978         0.6622        -999.25         0.7044       -66.1321      -3.341408              1      0.9558225
      3207.5000        -999.25        -999.25        -999.25       102.1072       82.33656         0.7075         0.6664        -999.25         0.7281       -66.4702      -3.679504              1      0.9494433
      3208.0000        -999.25        -999.25        -999.25       102.6758       83.03402         0.7146         0.6743        -999.25         0.7131       -66.6414      -3.850708              1      0.9462131
      3208.5000        -999.25        -999.25        -999.25       102.1573       82.64439         0.7223         0.6797        -999.25          0.714       -66.7727      -3.982002              1      0.9437358
      3209.0000        -999.25        -999.25        -999.25       101.3348       81.95075         0.7285         0.6852        -999.25         0.7461       -66.9456      -4.154907              1      0.9404734
      3209.5000        -999.25        -999.25        -999.25        98.3218       79.06661         0.7208         0.6848        -999.25         0.7915        -67.215      -4.424301      0.9801407      0.9353905
      3210.0000        -999.25        -999.25        -999.25        95.4993       76.37297         0.7231         0.6839        -999.25         0.7879       -67.0563      -4.265602      0.9228292      0.9383849
      3210.5000        -999.25        -999.25        -999.25        94.3044       75.30693         0.7225         0.6806        -999.25         0.7278       -66.6208      -3.830101      0.9001474      0.9466019
      3211.0000        -999.25        -999.25        -999.25        96.2053        77.3367         0.7162         0.6791        -999.25         0.6876       -66.7843      -3.993607       0.943334      0.9435169
      3211.5000        -999.25        -999.25        -999.25       101.0222       82.28246         0.7084         0.6767        -999.25         0.6874       -67.2372      -4.446503              1      0.9349716
      3212.0000        -999.25        -999.25        -999.25       102.0814       83.47052         0.7005         0.6771        -999.25          0.715       -67.5509      -4.760208              1      0.9290527
      3212.5000        -999.25        -999.25        -999.25        99.9912       81.50919         0.7048         0.6751        -999.25          0.774       -67.6344      -4.843704              1      0.9274773
      3213.0000        -999.25        -999.25        -999.25        93.2833       74.93015         0.7098         0.6789        -999.25         0.8444       -68.0533      -5.262604      0.8921309      0.9195735
      3213.5000        -999.25        -999.25        -999.25        91.1001       72.87581         0.7233         0.6917        -999.25         0.8719       -69.3986      -6.607903      0.8484215      0.8941905
      3214.0000        -999.25        -999.25        -999.25        91.6622       73.56677         0.7364         0.6989        -999.25         0.8801       -69.6202      -6.829506      0.8631228      0.8900093
      3214.5000        -999.25        -999.25        -999.25        93.2965       75.32993         0.7437         0.6959        -999.25         0.8804       -68.9911      -6.200401      0.9006369      0.9018792
      3215.0000        -999.25        -999.25        -999.25        93.9061        76.0684         0.7433         0.6945        -999.25         0.8528       -68.5203      -5.729607      0.9163489      0.9107621
      3215.5000        -999.25        -999.25        -999.25        92.9303       75.22146         0.7408         0.6928        -999.25         0.8458       -68.2889      -5.498207      0.8983289      0.9151282
