#------------------------------------------------------------------------------
# Created by    : vladimir.rabinovich
# Created on    : 09/19/2023 17:21:33
#------------------------------------------------------------------------------
~Version Information Section
VERS.           2.0     :   CWLS log ASCII Standard - VERSION 2.0
WRAP.           NO      :   One line per depth step
~Well Information Section
#MNEM       .UNIT                                         VALUE :DESCRIPTION
#------------------------------------------------------------------------------
STRT        .FT                                            3683 :START DEPTH
STOP        .FT                                            9328 :STOP DEPTH
STEP        .FT                                             0.5 :STEP      
NULL        .                                           -999.25 :NULL      
COMP        .                                SHELL OFFSHORE INC :COMPANY   
WELL        .                               OCS G11316 ST00BP00 :WELL      
FLD         .                                           WILDCAT :FIELD     
LOC         .                                                   :LOCATION  
CNTY        .                             GALVESTON LARGE BLOCK :LOCATION  
STAT        .                                             TEXAS :STATE     
CTRY        .                                     UNITED STATES :COUNTRY   
SRVC        .                                                   :SERVICE COMPANY
DATE        .                             9/13/2023 11:19:34 AM :LOG DATE  
API         .                                    42706402670000 :API NUMBER
UWI         .                                    42706402670000 :UNIQUE WELL ID
XCOORD      .                                  1097534.45360284 :SURFACE X 
YCOORD      .                                  10461685.9172371 :SURFACE Y 
LAT         .                                         28.817107 :LATITUDE  
LON         .                                        -94.695737 :LONGITUDE 
ELEV        .FT                                              91 :ELEVATION VALUE
ELEV_TYPE   .                                                KB :ELEVATION REFERENCE TYPE
~Curve Information Section
#MNEM       .UNIT                                      API CODE :CURVE DESCRIPTION
#------------------------------------------------------------------------------
DEPT        .FT                                                 :DEPTH     
CALI        .IN                                                 :          
CALI_1      .IN                                                 :          
CILD        .MMHO                                               :          
DRHO        .G/C3                                               :          
DT          .US/F                                               :          
GR          .GAPI                                               :          
GR_1        .GAPI                                               :          
GR_NORM     .GAPI                                               :GammaRay Normalized
ILD         .OHMM                                               :          
ILM         .OHMM                                               :          
NPHI        .%                                                  :          
RHOB        .G/C3                                               :          
SFL         .OHMM                                               :          
SP          .MV                                                 :          
SP_NORM     .MV                                                 :SP Normalized
VSH_GR      .V/V                                                :Volume of Shale from GR
VSH_SP      .V/V                                                :Volume of Shale from SP
~A        DEPTH           CALI         CALI_1           CILD           DRHO             DT             GR           GR_1        GR_NORM            ILD            ILM           NPHI           RHOB            SFL             SP        SP_NORM         VSH_GR         VSH_SP
# ...
      7163.0000        13.8067        13.8332       1631.055         0.0341       109.3169        67.4841        64.9989       76.32993         0.6074         0.5701        34.7258         2.3807         0.7233       -29.6181      -1.238932      0.9219133      0.9793512
      7163.5000        13.7995          13.84       1676.275         0.0244        109.847        69.1676        67.3561        80.0135         0.6022         0.5626        37.3185         2.3826           0.73       -29.1048     -0.4049031              1      0.9932516
      7164.0000        13.7999        13.8323       1725.527         0.0163       110.4547        70.8881        69.1678       82.84473         0.5778         0.5469        39.0262         2.3785         0.7101       -28.6432      0.3453791              1              1
      7164.5000        13.8019        13.8385       1770.012         0.0069       111.1067        72.2728          70.55       85.00488         0.5539         0.5299        39.9343         2.3683         0.6758       -28.7188      0.2254875              1              1
      7165.0000        13.7979        13.8266       1812.727         0.0008       111.7247        73.2367        71.5892       86.62907          0.542         0.5165        40.1556         2.3544         0.6622       -28.9517     -0.1492055              1      0.9975132
      7165.5000        13.7924        13.8014       1862.566         0.0009       112.2777        74.1438        72.3247       87.77874         0.5351         0.5094        39.0901         2.3447         0.6677       -29.2458     -0.6230311              1      0.9896162
      7166.0000        13.7833        13.7791       1880.361          0.003        112.902        74.8899        73.3639       89.40294         0.5317          0.503        38.0705         2.3398         0.6632        -29.191     -0.5316967              1      0.9911384
      7166.5000        13.7967        13.7821       1899.088         0.0033       113.3521        75.3361        74.5055       91.18715         0.5277         0.4969        37.4956          2.342         0.6469       -29.1989     -0.5419264              1      0.9909679
      7167.0000        13.8757        13.8103       1960.432         0.0016        112.983        74.7708        75.1624         92.214         0.5239         0.4929          37.05         2.3474         0.6266       -29.2944     -0.6940516              1      0.9884325
      7167.5000        13.9673        13.8686       1982.059        -0.0014       112.3883        72.2605        74.2969       90.86211         0.5213         0.4919        36.6083         2.3531         0.6073        -29.446     -0.9370478              1      0.9843825
      7168.0000        14.0617        13.9465       1925.238        -0.0062       111.4667        69.1478        70.8265       85.44006         0.5192         0.4887         36.239         2.3516         0.6132       -29.1964     -0.5301705              1      0.9911638
      7168.5000        14.1487        14.0354       1947.553        -0.0106       110.5918        67.4138        68.0325        81.0749         0.5154         0.4769        36.2007         2.3292         0.6404       -28.8697    0.001597318              1              1
      7169.0000        14.2252          14.12       2078.105        -0.0148       110.0769        66.2438        66.9551       79.39192         0.5097         0.4311        37.4703         2.2947         0.6679       -28.9887     -0.1885978      0.9870622      0.9968567
      7169.5000        14.2882        14.2005       2119.098        -0.0199       109.6965        65.5033        66.1171         78.083         0.5086         0.4116         40.835         2.2508         0.6951       -29.4985      -1.011822      0.9592128      0.9831363
      7170.0000        14.2943        14.2271       1934.381        -0.0206       109.3392        65.0917        65.1508        76.5736         0.5253         0.4275        44.8453         2.2042         0.7206       -29.9101      -1.675979      0.9270979       0.972067
      7170.5000        14.2798        14.2321       1699.428        -0.0118        109.157        64.9285        64.5765       75.67671         0.5606         0.5064        46.9814            2.2         0.7423       -30.2063      -2.153206      0.9080151      0.9641132
      7171.0000        14.2984        14.2212       1550.984         -0.001       108.9878        65.3866        64.8268       76.06825         0.6081         0.5922        48.4369         2.2205         0.7569        -30.196      -2.133952      0.9163458      0.9644341
      7171.5000        14.2847        14.2012       1412.766         0.0034       108.6938        66.7065        66.1639       78.15793         0.6522         0.6507        48.5105         2.2465         0.7625       -30.0583      -1.908334       0.960807      0.9681944
      7172.0000        14.2633          14.19       1336.676         0.0079       108.2778        69.9155        70.7377       85.30495         0.6832         0.5478        47.8427          2.265          0.715       -30.3056      -2.306348              1      0.9615608
      7172.5000        14.2258        14.1625       1924.354         0.0126        108.595        72.5839        72.0594       87.37056         0.5375         0.4436        47.0505         2.2798         0.6339       -30.4733      -2.575429              1      0.9570762
      7173.0000        14.1548        14.1006       2073.387         0.0059       109.7463        72.1123        71.1572       85.96132         0.4959          0.411        46.3492         2.2916          0.625        -30.256      -2.220871              1      0.9629855
      7173.5000        14.0736        14.0108       1953.648        -0.0064       111.0219        67.9309        67.6277       80.44693         0.5086         0.4346        45.7512         2.2994         0.6537       -29.8916      -1.628034              1      0.9728661
      7174.0000        13.9946        13.9189       1707.488        -0.0172       111.8341        65.5958        65.0656       76.44409         0.5563         0.4967        45.0632         2.3093         0.6859       -29.4917     -0.9776945      0.9243424      0.9837051
      7174.5000         13.922         13.834       1656.934        -0.0152         111.64        63.9124        63.5649       74.09972          0.599         0.5368        44.0822         2.3195         0.6942       -29.0573      -0.271473      0.8744621      0.9954755
      7175.0000        13.8597        13.8146       1669.002        -0.0012       110.9678        63.9698        63.9228       74.65938         0.6078          0.536        43.1525         2.3313         0.6796       -28.7337      0.2552742      0.8863698              1
      7175.5000        13.8429         13.829        1728.23         0.0121       109.8668         64.556        64.3837       75.37998         0.5887         0.5252        42.0815          2.343         0.6623       -28.9381    -0.07325417      0.9017017      0.9987791
      7176.0000        13.8665        13.8478        1806.68         0.0196       108.5802        65.2583        64.7107       75.89137         0.5569         0.5094        40.6729          2.346         0.6526       -29.3436     -0.7275273      0.9125824      0.9878746
      7176.5000        13.8874          13.89        1739.93         0.0122       108.4192        65.3317        64.8591        76.1237         0.5374         0.5411        38.4639         2.3422         0.6538       -29.7222      -1.338231      0.9175254      0.9776962
      7177.0000        13.8909        13.8952       1648.701          0.002       109.1786        65.5625        65.1572       76.58994         0.6131         0.5727        36.5867         2.3306         0.6595       -29.7762       -1.42313      0.9274454      0.9762812
      7177.5000         13.888        13.8711       1677.111        -0.0108        109.769        67.0695        66.3787       78.49898         0.6197         0.5361         34.952         2.3158         0.6739       -29.6191      -1.166088      0.9680634      0.9805652
