#------------------------------------------------------------------------------
# Created by    : vladimir.rabinovich
# Created on    : 09/19/2023 17:21:34
#------------------------------------------------------------------------------
~Version Information Section
VERS.           2.0     :   CWLS log ASCII Standard - VERSION 2.0
WRAP.           NO      :   One line per depth step
~Well Information Section
#MNEM       .UNIT                                         VALUE :DESCRIPTION
#------------------------------------------------------------------------------
STRT        .FT                                            4495 :START DEPTH
STOP        .FT                                            9058 :STOP DEPTH
STEP        .FT                                             0.5 :STEP      
NULL        .                                           -999.25 :NULL      
COMP        .                          SEAGULL ENERGY E & P INC :COMPANY   
WELL        .                               OCS G11322 ST00BP00 :WELL      
FLD         .                                           WILDCAT :FIELD     
LOC         .                                                   :LOCATION  
CNTY        .                             GALVESTON LARGE BLOCK :LOCATION  
STAT        .                                             TEXAS :STATE     
CTRY        .                                     UNITED STATES :COUNTRY   
SRVC        .                                                   :SERVICE COMPANY
DATE        .                             9/13/2023 11:19:34 AM :LOG DATE  
API         .                                    42706402570000 :API NUMBER
UWI         .                                    42706402570000 :UNIQUE WELL ID
XCOORD      .                                  1032943.49501878 :SURFACE X 
YCOORD      .                                  10418025.6284813 :SURFACE Y 
LAT         .                                         28.694364 :LATITUDE  
LON         .                                        -94.895236 :LONGITUDE 
ELEV        .FT                                              97 :ELEVATION VALUE
ELEV_TYPE   .                                                KB :ELEVATION REFERENCE TYPE
~Curve Information Section
#MNEM       .UNIT                                      API CODE :CURVE DESCRIPTION
#------------------------------------------------------------------------------
DEPT        .FT                                                 :DEPTH     
CALI        .IN                                                 :          
DCAL        .IN                                                 :          
DPHI        .%                                                  :          
DRHO        .G/C3                                               :          
GR          .GAPI                                               :          
GR_1        .GAPI                                               :          
GR_NORM     .GAPI                                               :GammaRay Normalized
ILD         .OHMM                                               :          
ILM         .OHMM                                               :          
NPHI        .%                                                  :          
SGRD        .OHMM                                               :          
SP          .MV                                                 :          
SP_NORM     .MV                                                 :SP Normalized
VSH_GR      .V/V                                                :Volume of Shale from GR
VSH_SP      .V/V                                                :Volume of Shale from SP
~A        DEPTH           CALI           DCAL           DPHI           DRHO             GR           GR_1        GR_NORM            ILD            ILM           NPHI           SGRD             SP        SP_NORM         VSH_GR         VSH_SP
# ...
      7215.0000        -999.25         1.6207        24.2807        -0.0307        -999.25        69.2463       74.86063         0.4676         0.4804        48.0305         0.6846       -50.3865      -8.164276      0.8906516      0.8639287
      7215.5000        -999.25         1.6103        24.1956        -0.0331        -999.25        68.1548       73.48809         0.4578         0.4737        48.5839         0.6706       -50.1396      -7.917374      0.8614487      0.8680438
      7216.0000        -999.25         1.5896        24.2656        -0.0352        -999.25        66.2753       71.12465         0.4502         0.4671        49.2769         0.6575       -50.6187      -8.396473      0.8111628      0.8600588
      7216.5000        -999.25         1.5662        24.5002        -0.0357        -999.25        63.8342       68.05502         0.4441         0.4605         49.852         0.6458         -51.64      -9.417774      0.7458514      0.8430371
      7217.0000        -999.25         1.5527        24.7947        -0.0354        -999.25         63.389       67.49519         0.4405         0.4541        50.5038         0.6364       -52.9039      -10.68167      0.7339401      0.8219721
      7217.5000        -999.25          1.539        25.0592        -0.0334        -999.25        63.1802       67.23262         0.4384          0.452        50.6234         0.6355       -54.0981      -11.87587      0.7283536      0.8020688
      7218.0000        -999.25         1.5247        25.1451        -0.0314        -999.25        62.8639       66.83488         0.4375          0.451        49.8629         0.6411       -54.0863      -11.86407       0.719891      0.8022654
      7218.5000        -999.25         1.5063        25.0256        -0.0296        -999.25        63.9947       68.25684          0.437         0.4514        49.5248         0.6484       -53.3268      -11.10458      0.7501456      0.8149237
      7219.0000        -999.25         1.4852        24.8246        -0.0274        -999.25        65.5808       70.25134         0.4366         0.4519        49.0976          0.657       -52.7468      -10.52457      0.7925816      0.8245904
      7219.5000        -999.25         1.4745        24.7117        -0.0216        -999.25        64.6733       69.11017         0.4371         0.4525        48.5847         0.6661       -52.3943      -10.17207      0.7683014      0.8304654
      7220.0000        -999.25         1.4634        25.0834        -0.0153        -999.25        64.6536        69.0854         0.4385         0.4532        48.4279         0.6726       -52.1164      -9.894176      0.7677744      0.8350971
      7220.5000        -999.25         1.4537        25.1005        -0.0099        -999.25        64.9734       69.48754         0.4402          0.454        48.9028         0.6736       -51.7274      -9.505177      0.7763306      0.8415804
      7221.0000        -999.25         1.4542        24.7133        -0.0081        -999.25        63.7184        67.9094          0.442         0.4545        49.7371         0.6671       -51.1257      -8.903477      0.7427532      0.8516087
      7221.5000        -999.25         1.4659        24.7854        -0.0062        -999.25        62.0034       65.75282         0.4441         0.4546        50.4197         0.6553       -50.1011      -7.878876      0.6968686      0.8686854
      7222.0000        -999.25         1.4829        24.8915        -0.0072        -999.25        61.2498       64.80518         0.4469         0.4544         50.694         0.6502       -48.8925      -6.670277       0.676706      0.8888287
      7222.5000        -999.25         1.4996        24.8654        -0.0109        -999.25        61.1196       64.64146         0.4493         0.4536          50.54         0.6483       -48.0797      -5.857475      0.6732227      0.9023754
      7223.0000        -999.25         1.5295        24.9081        -0.0128        -999.25        61.1938       64.73476         0.4517          0.453        50.2691         0.6489       -47.8238      -5.601574      0.6752076      0.9066404
      7223.5000        -999.25         1.5671        24.2197        -0.0161        -999.25        61.7568       65.44273         0.4529         0.4534        50.2678          0.653       -47.6504      -5.428173       0.690271      0.9095305
      7224.0000        -999.25         1.6052        23.9077        -0.0214        -999.25        62.9451       66.93698         0.4538         0.4538        50.4465         0.6586       -47.5229      -5.300674      0.7220634      0.9116554
      7224.5000        -999.25         1.6403        25.0113        -0.0278        -999.25        62.9591       66.95459         0.4525         0.4545         51.065         0.6639       -47.3931      -5.170876      0.7224381      0.9138187
      7225.0000        -999.25         1.6234        25.6081        -0.0339        -999.25        63.0556       67.07594         0.4505         0.4554         51.524         0.6649       -47.2537      -5.031475      0.7250201      0.9161421
      7225.5000        -999.25         1.5872        25.3159        -0.0368        -999.25        63.6014       67.76227         0.4477         0.4561        51.1899         0.6677       -47.1492      -4.926975      0.7396227      0.9178838
      7226.0000        -999.25          1.551        25.0076        -0.0387        -999.25        64.5563       68.96304         0.4456         0.4567        50.6149         0.6683       -47.2055      -4.983276      0.7651711      0.9169454
      7226.5000        -999.25         1.5114        24.8995        -0.0375        -999.25        66.2306       71.06844         0.4441         0.4578        50.8384         0.6639       -47.3033      -5.081074      0.8099669      0.9153154
      7227.0000        -999.25         1.4638        24.5204        -0.0355        -999.25        68.7242        74.2041         0.4425         0.4583        50.8054         0.6539       -47.4184      -5.196175       0.876683      0.9133971
      7227.5000        -999.25          1.422        24.5417        -0.0325        -999.25        69.0994       74.67592         0.4406         0.4577        50.4476         0.6429       -47.4078      -5.185574      0.8867217      0.9135738
      7228.0000        -999.25         1.3934        24.8576        -0.0291        -999.25        69.6501       75.36841         0.4389          0.456        50.5667         0.6321        -47.278      -5.055775      0.9014555      0.9157371
      7228.5000        -999.25         1.4548        25.1672        -0.0265        -999.25        67.2854       72.39484         0.4372         0.4542        51.3179         0.6333       -46.9818      -4.759575      0.8381882      0.9206737
      7229.0000        -999.25         1.5549        25.3849        -0.0246        -999.25        64.7207       69.16978         0.4398         0.4522        51.2111         0.6417       -46.6694      -4.447174      0.7695699      0.9258804
      7229.5000        -999.25          1.635         25.771        -0.0257        -999.25         63.506        67.6423         0.4406           0.45        52.1321         0.6514       -46.3478      -4.125576      0.7370703      0.9312404
      7230.0000        -999.25         1.6823        26.3857        -0.0308        -999.25        63.8661       68.09514         0.4408         0.4476        53.0844         0.6585       -46.0101      -3.787876      0.7467051      0.9368687
      7230.5000        -999.25         1.7022        26.5809        -0.0366        -999.25        64.3018       68.64302         0.4377         0.4443        53.2481         0.6598       -45.8932      -3.670975      0.7583621      0.9388171
      7231.0000        -999.25          1.704        26.1606        -0.0405        -999.25        65.0199       69.54601         0.4332         0.4399        52.6381         0.6567       -46.0047      -3.782475      0.7775746      0.9369587
      7231.5000        -999.25         1.7044        25.8203        -0.0438        -999.25        65.7386       70.44977         0.4278         0.4348        52.0463         0.6509       -46.1392      -3.916973      0.7968036      0.9347171
