#------------------------------------------------------------------------------
# Created by    : vladimir.rabinovich
# Created on    : 09/19/2023 17:20:32
#------------------------------------------------------------------------------
~Version Information Section
VERS.           2.0     :   CWLS log ASCII Standard - VERSION 2.0
WRAP.           NO      :   One line per depth step
~Well Information Section
#MNEM       .UNIT                                         VALUE :DESCRIPTION
#------------------------------------------------------------------------------
STRT        .FT                                             642 :START DEPTH
STOP        .FT                                           11989 :STOP DEPTH
STEP        .FT                                             0.5 :STEP      
NULL        .                                           -999.25 :NULL      
COMP        .                       CORPUS CHRISTI OIL & GAS CO :COMPANY   
WELL        .                               OCS G05177 ST00BP00 :WELL      
FLD         .                              GALVESTON BLOCK 0151 :FIELD     
LOC         .                                                   :LOCATION  
CNTY        .                             GALVESTON LARGE BLOCK :LOCATION  
STAT        .                                             TEXAS :STATE     
CTRY        .                                     UNITED STATES :COUNTRY   
SRVC        .                                                   :SERVICE COMPANY
DATE        .                             9/13/2023 11:19:27 AM :LOG DATE  
API         .                                    42706401010000 :API NUMBER
UWI         .                                    42706401010000 :UNIQUE WELL ID
XCOORD      .                                   1130272.6689428 :SURFACE X 
YCOORD      .                                  10609756.0111422 :SURFACE Y 
LAT         .                                         29.225567 :LATITUDE  
LON         .                                        -94.599775 :LONGITUDE 
ELEV        .FT                                              83 :ELEVATION VALUE
ELEV_TYPE   .                                                KB :ELEVATION REFERENCE TYPE
~Curve Information Section
#MNEM       .UNIT                                      API CODE :CURVE DESCRIPTION
#------------------------------------------------------------------------------
DEPT        .FT                                                 :DEPTH     
ASN         .OHMM                                               :          
CILD        .MMHO                                               :          
DT          .US/F                                               :          
ILD         .OHMM                                               :          
RHOB        .G/CC                                               :          
SP          .MV                                                 :          
SP_NORM     .MV                                                 :SP Normalized
VSH_SP      .V/V                                                :Volume of Shale from SP
~A        DEPTH            ASN           CILD             DT            ILD           RHOB             SP        SP_NORM         VSH_SP
# ...
     11203.0000         1.5627       835.5996        89.7145         1.1896         2.4759        -50.013      -3.685703      0.9473471
     11203.5000         1.5361       839.1133        90.3417          1.189         2.4673       -50.1133      -3.789673      0.9458618
     11204.0000         1.5144       845.5234        90.9837         1.1885         2.4426        -50.094       -3.77404      0.9460852
     11204.5000            1.5        853.582        91.1319         1.1879         2.4379       -50.0596      -3.743305      0.9465242
     11205.0000         1.4866       861.6523        90.6763         1.1873         2.4595       -50.0252      -3.712574      0.9469633
     11205.5000         1.4821       869.7227        90.5301         1.1868         2.4829       -50.0113      -3.702339      0.9471095
     11206.0000         1.4832       877.1279        90.6953         1.1862         2.5063       -50.0352      -3.729904      0.9467157
     11206.5000         1.4843        878.334        91.6318          1.184         2.5257       -50.0591      -3.757477      0.9463218
     11207.0000         1.4855        879.541        92.4136         1.1812         2.5195        -50.084      -3.786041      0.9459137
     11207.5000         1.4863       880.7471        92.5746         1.1784         2.5079       -50.1133      -3.819012      0.9454427
     11208.0000         1.4872       881.7852        92.1208         1.1755         2.5016       -50.1426      -3.851978      0.9449717
     11208.5000         1.4881       881.7852        92.5936         1.1727         2.5031       -50.1718      -3.884842      0.9445022
     11209.0000          1.489       881.7852        92.7567         1.1699         2.5015       -50.1926      -3.909313      0.9441527
     11209.5000          1.494       873.7646        92.2817          1.167         2.4938       -50.1916       -3.91198      0.9441146
     11210.0000         1.5027       864.6738        91.2289         1.1632         2.4891       -50.1906      -3.914646      0.9440765
     11210.5000         1.5115       856.3545        89.8431         1.1592         2.4983        -50.169      -3.896713      0.9443327
     11211.0000         1.5209       850.3105        89.6968         1.1551         2.4983       -50.1007      -3.832081       0.945256
     11211.5000         1.5224       844.2549        89.7074          1.151         2.4959       -50.0324      -3.767445      0.9461794
     11212.0000         1.5129       842.4736        90.3345          1.147         2.4865       -49.9641      -3.702816      0.9471026
     11212.5000         1.5055       843.2412        90.9617         1.1429         2.4748       -49.9175      -3.659882       0.947716
     11213.0000         1.5017       846.0459        91.5888         1.1428         2.4711       -49.9518      -3.697853      0.9471735
     11213.5000         1.4991       850.4854        91.9066         1.1428         2.4857       -49.9861      -3.735817      0.9466312
     11214.0000         1.4979       854.9248        91.7604         1.1429         2.5265       -50.0204      -3.773785      0.9460888
     11214.5000         1.4967       859.3643        91.2889         1.1429          2.599       -49.9968      -3.753853      0.9463735
     11215.0000         1.4942        859.501        90.5398         1.1422         2.5797       -49.9642      -3.724918      0.9467869
     11215.5000         1.4888        859.501        90.3935         1.1408         2.5195       -49.9314      -3.695786       0.947203
     11216.0000         1.4834        859.501        90.4041         1.1393         2.4986        -49.894      -3.662056      0.9476849
     11216.5000         1.4713        859.501        90.4125         1.1379         2.5078       -49.8279      -3.599621      0.9485769
     11217.0000         1.4559        859.501        90.2663         1.1364         2.5008       -49.7619      -3.537292      0.9494672
     11217.5000         1.4406       861.1797        89.8085          1.135          2.483       -49.6957      -3.474758      0.9503606
     11218.0000         1.4252       863.5918        89.6623         1.1343         2.4775       -49.6298      -3.412521      0.9512497
     11218.5000         1.4605       866.0977        89.8275         1.1336         2.4814       -49.5773      -3.363693      0.9519472
     11219.0000         1.5039       870.3135        90.1453         1.1328         2.4937       -49.5571      -3.347157      0.9521835
     11219.5000         1.5278       874.4297        90.7863         1.1321         2.4944       -49.6055      -3.399223      0.9514397
     11220.0000         1.5479       878.0479        91.4017         1.1314         2.4843       -49.8553      -3.652695      0.9478186
     11220.5000         1.5931       862.6846        92.4929         1.1356         2.4711       -50.1531      -3.954159       0.943512
     11221.0000         1.6564       843.9316        93.5841         1.1409         2.4734        -50.627      -4.431725      0.9366897
     11221.5000         1.6892       825.1289        92.8191         1.1462         2.4873       -51.1021      -4.910496        0.92985
     11222.0000         1.7113       805.4814        89.2699         1.1515         2.5119       -51.6215      -5.433559      0.9223777
     11222.5000         1.7228       785.7832        86.3395         1.1585         2.4987       -52.1531       -5.96883       0.914731
     11223.0000          1.699       775.8975        84.6464         1.1687         2.4686       -52.7648      -6.584198      0.9059401
     11223.5000         1.6753       771.9863        82.9534         1.1789         2.4654       -53.4282      -7.251263      0.8964105
     11224.0000         1.6539       770.6865        84.5086         1.1891         2.4538       -53.7827      -7.609432      0.8912938
     11224.5000         1.6336       781.4307        86.4332         1.1994         2.4244       -52.9359        -6.7663      0.9033386
     11225.0000          1.618       792.1748        89.5795         1.2054         2.4059       -51.9858      -5.819866       0.916859
     11225.5000         1.6094       802.9443        91.9606         1.2016         2.4235       -51.0356      -4.873333      0.9303809
     11226.0000         1.6007       813.4893        91.5029         1.1966         2.4474       -50.8701      -4.711498      0.9326929
     11226.5000         1.5914       824.0098        90.1213          1.188         2.4728       -51.1925      -5.037571      0.9280347
     11227.0000         1.5817       829.5596         89.047         1.1794         2.5028       -51.5144      -5.363136      0.9233838
     11227.5000         1.5719       830.1621        88.5893         1.1708         2.5083       -51.8369      -5.689301      0.9187243
     11228.0000         1.5627       830.7656        88.9092         1.1636         2.4819       -52.1587      -6.014771      0.9140747
     11228.5000         1.5585       830.5322        90.7737         1.1677         2.4695       -52.1454      -6.005138      0.9142123
     11229.0000         1.5609        830.165        92.1743         1.1717         2.5099       -52.1268      -5.990204      0.9144257
     11229.5000         1.5636       829.7969        92.6543         1.1758         2.5214       -51.8928      -5.759872      0.9177161
     11230.0000         1.5672       829.4297        92.4784         1.1797         2.5048       -51.5864      -5.457138      0.9220409
     11230.5000         1.5707        828.957        91.8923         1.1828         2.4546       -51.2799      -5.154308       0.926367
     11231.0000         1.5742       828.3936        91.1273          1.186          2.507       -50.9734      -4.851475      0.9306932
     11231.5000         1.5778       827.8301        90.6696         1.1891         2.5239        -50.667       -4.54874       0.935018
     11232.0000         1.5868       824.4893        90.3687         1.1923         2.5192       -50.4888       -4.37421      0.9375113
