#------------------------------------------------------------------------------
# Created by    : vladimir.rabinovich
# Created on    : 09/19/2023 17:20:32
#------------------------------------------------------------------------------
~Version Information Section
VERS.           2.0     :   CWLS log ASCII Standard - VERSION 2.0
WRAP.           NO      :   One line per depth step
~Well Information Section
#MNEM       .UNIT                                         VALUE :DESCRIPTION
#------------------------------------------------------------------------------
STRT        .FT                                             502 :START DEPTH
STOP        .FT                                            9122 :STOP DEPTH
STEP        .FT                                             0.5 :STEP      
NULL        .                                           -999.25 :NULL      
COMP        .                       BLUE DOLPHIN EXPLORATION CO :COMPANY   
WELL        .                                OCS 00714 ST00BP00 :WELL      
FLD         .                              GALVESTON BLOCK 0288 :FIELD     
LOC         .                                                   :LOCATION  
CNTY        .                             GALVESTON LARGE BLOCK :LOCATION  
STAT        .                                             TEXAS :STATE     
CTRY        .                                     UNITED STATES :COUNTRY   
SRVC        .                                                   :SERVICE COMPANY
DATE        .                             9/13/2023 11:19:24 AM :LOG DATE  
API         .                                    42706000680000 :API NUMBER
UWI         .                                    42706000680000 :UNIQUE WELL ID
XCOORD      .                                  1088404.51782723 :SURFACE X 
YCOORD      .                                  10474534.8869196 :SURFACE Y 
LAT         .                                        28.8520809 :LATITUDE  
LON         .                                       -94.7248272 :LONGITUDE 
ELEV        .FT                                              85 :ELEVATION VALUE
ELEV_TYPE   .                                                KB :ELEVATION REFERENCE TYPE
~Curve Information Section
#MNEM       .UNIT                                      API CODE :CURVE DESCRIPTION
#------------------------------------------------------------------------------
DEPT        .FT                                                 :DEPTH     
ASN         .OHMM                                               :          
ASN_1       .OHMM                                               :          
DT          .US/F                                               :          
ILD         .OHMM                                               :          
LAT         .OHMM                                               :          
LN          .OHMM                                               :          
SP          .MV                                                 :          
SP_NORM     .MV                                                 :SP Normalized
VSH_SP      .V/V                                                :Volume of Shale from SP
~A        DEPTH            ASN          ASN_1             DT            ILD            LAT             LN             SP        SP_NORM         VSH_SP
# ...
      2675.0000        -999.25         0.7795        -999.25        -999.25         0.5832         0.7324       -55.2785      -19.45611      0.2901495
      2675.5000        -999.25         0.7735        -999.25        -999.25         0.5765          0.716       -54.6993      -18.87029       0.312681
      2676.0000        -999.25         0.7636        -999.25        -999.25         0.5697         0.7044       -54.4212      -18.58558      0.3236317
      2676.5000        -999.25         0.7516        -999.25        -999.25         0.5707         0.6928       -54.6796      -18.83736      0.3139478
      2677.0000        -999.25         0.7432        -999.25        -999.25           0.58         0.6816       -55.5889      -19.74004      0.2792292
      2677.5000        -999.25         0.7464        -999.25        -999.25         0.6157         0.6706       -56.6531      -20.79762       0.238553
      2678.0000        -999.25         0.7604        -999.25        -999.25         0.6469         0.6596       -57.3883      -21.52621      0.2105305
      2678.5000        -999.25         0.7781        -999.25        -999.25         0.6772          0.652       -57.1418      -21.27309      0.2202659
      2679.0000        -999.25         0.8024        -999.25        -999.25          0.715         0.6446       -56.4985      -20.62317      0.2452627
      2679.5000        -999.25         0.8255        -999.25        -999.25         0.7536         0.6372       -55.2988      -19.41685      0.2916596
      2680.0000        -999.25         0.8466        -999.25        -999.25         0.7965         0.6282       -53.4113      -17.52273      0.3645103
      2680.5000        -999.25          0.861        -999.25        -999.25         0.8608         0.6184       -51.3425      -15.44731      0.4443342
      2681.0000        -999.25         0.8545        -999.25        -999.25         0.9547         0.6087       -49.1801      -13.27829      0.5277579
      2681.5000        -999.25         0.8299        -999.25        -999.25         1.0821          0.596       -46.2897      -10.38128      0.6391816
      2682.0000        -999.25         0.8209        -999.25        -999.25         1.1918         0.5831       -43.7763      -7.861259      0.7361054
      2682.5000        -999.25         0.8276        -999.25        -999.25         1.2592         0.5742       -41.5461      -5.624443      0.8221368
      2683.0000        -999.25          0.838        -999.25        -999.25         1.3372         0.5683       -40.4415      -4.513226      0.8648759
      2683.5000        -999.25         0.8486        -999.25        -999.25         1.4192         0.5624       -40.3874      -4.452507      0.8672113
      2684.0000        -999.25          0.858        -999.25        -999.25         1.4514         0.5629        -40.827      -4.885487      0.8505582
      2684.5000        -999.25         0.8604        -999.25        -999.25         1.4911         0.5647       -41.1614      -5.213268      0.8379512
      2685.0000        -999.25         0.8552        -999.25        -999.25         1.5119         0.5664       -40.9946      -5.039852      0.8446211
      2685.5000        -999.25         0.8483        -999.25        -999.25         1.5102         0.5679       -40.3514      -4.390034      0.8696141
      2686.0000        -999.25         0.8466        -999.25        -999.25         1.5085         0.5694       -40.5982      -4.630219      0.8603762
      2686.5000        -999.25         0.8497        -999.25        -999.25         1.5122         0.5708       -40.1938        -4.2192      0.8761846
      2687.0000        -999.25          0.857        -999.25        -999.25         1.5086         0.5747       -39.6738      -3.692581      0.8964392
      2687.5000        -999.25         0.8662        -999.25        -999.25         1.4976           0.58       -39.5466      -3.558762      0.9015861
      2688.0000        -999.25         0.8717        -999.25        -999.25         1.4831         0.5853        -39.517      -3.522541      0.9029792
      2688.5000        -999.25         0.8711        -999.25        -999.25         1.4659         0.5902       -39.5905      -3.589424      0.9004068
      2689.0000        -999.25         0.8723        -999.25        -999.25         1.4375          0.595       -39.5615       -3.55381      0.9017766
      2689.5000        -999.25         0.8734        -999.25        -999.25         1.3996         0.5998       -38.9882      -2.973892      0.9240811
      2690.0000        -999.25         0.8745        -999.25        -999.25         1.3584         0.6091       -38.2176      -2.196674      0.9539741
      2690.5000        -999.25         0.8759        -999.25        -999.25         1.3094         0.6256       -38.3426      -2.315056      0.9494209
      2691.0000        -999.25         0.8783        -999.25        -999.25          1.272         0.6421       -38.9709      -2.936737      0.9255101
      2691.5000        -999.25         0.8802        -999.25        -999.25         1.2398         0.6525       -39.6346      -3.593819      0.9002377
      2692.0000        -999.25         0.8801        -999.25        -999.25         1.2132         0.6561       -40.4102      -4.362797      0.8706617
      2692.5000        -999.25         0.8745        -999.25        -999.25         1.1897         0.6598       -40.9502      -4.896179      0.8501469
      2693.0000        -999.25         0.8613        -999.25        -999.25         1.1732         0.6471       -40.9329      -4.872265      0.8510667
      2693.5000        -999.25         0.8428        -999.25        -999.25         1.1609         0.6345       -40.6099      -4.542648      0.8637443
      2694.0000        -999.25         0.8348        -999.25        -999.25         1.1531         0.6221       -40.1747       -4.10083      0.8807373
      2694.5000        -999.25         0.8412        -999.25        -999.25         1.1374         0.6097       -39.3694       -3.28891       0.911965
      2695.0000        -999.25         0.8422        -999.25        -999.25         1.1096         0.6136        -38.504      -2.416893      0.9455041
      2695.5000        -999.25         0.8361        -999.25        -999.25         1.0785         0.6233       -37.8746      -1.780872      0.9699665
      2696.0000        -999.25         0.8299        -999.25        -999.25         1.0442         0.6412       -37.6331      -1.532753      0.9795095
      2696.5000        -999.25         0.8263        -999.25        -999.25           1.01         0.6633       -37.7054      -1.598438      0.9769831
      2697.0000        -999.25         0.8365        -999.25        -999.25         0.9656         0.6855       -37.9072      -1.793621      0.9694761
      2697.5000        -999.25         0.8578        -999.25        -999.25         0.9204         0.7087       -38.4413      -2.321102      0.9491884
      2698.0000        -999.25         0.8906        -999.25        -999.25         0.8743         0.7319       -38.7342      -2.607384      0.9381775
      2698.5000        -999.25         0.9211        -999.25        -999.25         0.8292          0.752       -38.1753      -2.041866      0.9599282
      2699.0000        -999.25         0.9427        -999.25        -999.25         0.7962         0.7711       -37.5025      -1.362446      0.9860598
      2699.5000        -999.25         0.9566        -999.25        -999.25         0.7701         0.7899       -37.2171      -1.070427      0.9972913
      2700.0000        -999.25         0.9625        -999.25        -999.25          0.761         0.8014       -37.4523      -1.299011      0.9884996
      2700.5000        -999.25         0.9697        -999.25        -999.25         0.7547         0.8129       -37.8116      -1.651695      0.9749348
      2701.0000        -999.25         0.9808        -999.25        -999.25           0.77         0.7963       -38.0989      -1.932377      0.9641393
