#------------------------------------------------------------------------------
# Created by    : vladimir.rabinovich
# Created on    : 09/19/2023 17:19:44
#------------------------------------------------------------------------------
~Version Information Section
VERS.           2.0     :   CWLS log ASCII Standard - VERSION 2.0
WRAP.           NO      :   One line per depth step
~Well Information Section
#MNEM       .UNIT                                         VALUE :DESCRIPTION
#------------------------------------------------------------------------------
STRT        .FT                                             490 :START DEPTH
STOP        .FT                                           13420 :STOP DEPTH
STEP        .FT                                             0.5 :STEP      
NULL        .                                           -999.25 :NULL      
COMP        .                                 MESA PETROLEUM CO :COMPANY   
WELL        .                                     ST TR 00012-L :WELL      
FLD         .                                           WILDCAT :FIELD     
LOC         .                                                   :LOCATION  
CNTY        .                           HIGH ISLAND LARGE BLOCK :LOCATION  
STAT        .                                             TEXAS :STATE     
CTRY        .                                     UNITED STATES :COUNTRY   
SRVC        .                                                   :SERVICE COMPANY
DATE        .                             9/13/2023 11:19:15 AM :LOG DATE  
API         .                                    42708302120000 :API NUMBER
UWI         .                                    42708302120000 :UNIQUE WELL ID
XCOORD      .                                  1361115.25412243 :SURFACE X 
YCOORD      .                                  10723579.9964947 :SURFACE Y 
LAT         .                                        29.5453665 :LATITUDE  
LON         .                                       -93.8786547 :LONGITUDE 
ELEV        .FT                                              80 :ELEVATION VALUE
ELEV_TYPE   .                                                KB :ELEVATION REFERENCE TYPE
~Curve Information Section
#MNEM       .UNIT                                      API CODE :CURVE DESCRIPTION
#------------------------------------------------------------------------------
DEPT        .FT                                                 :DEPTH     
ASFL        .OHMM                                               :          
CILD        .MMHO                                               :          
GR          .GAPI                                               :          
GR_NORM     .GAPI                                               :GammaRay Normalized
ILD         .OHMM                                               :          
SP          .MV                                                 :          
SP_NORM     .MV                                                 :SP Normalized
VSH_GR      .V/V                                                :Volume of Shale from GR
~A        DEPTH           ASFL           CILD             GR        GR_NORM            ILD             SP        SP_NORM         VSH_GR
# ...
      2201.0000          0.475       2521.688        39.9176       33.41585         0.6482      -161.3228      -10.24059    0.008847906
      2201.5000         0.4714       2570.309        40.1023       33.62369         0.6472      -161.3521      -10.28453     0.01327003
      2202.0000         0.4679       2579.453        40.3722       33.92794         0.6462      -161.3713      -10.31839     0.01974349
      2202.5000         0.4643       2547.707        40.7296       34.33123         0.6472      -161.3818      -10.34354     0.02832413
      2203.0000         0.4619       2474.043        41.7045       35.43337         0.6487      -161.3071      -10.28348     0.05177388
      2203.5000         0.4622       2402.789        42.7595       36.62615         0.6503      -161.2324      -10.22345     0.07715209
      2204.0000         0.4626       2371.824        43.8348       37.84192         0.6507      -161.1118      -10.11749      0.1030195
      2204.5000          0.463       2336.258        45.1865       39.37048           0.65      -160.9888      -10.00914      0.1355421
      2205.0000         0.4633       2294.207        47.0084       41.43119         0.6492      -160.7573      -9.792282       0.179387
      2205.5000         0.4637       2248.949        48.7834       43.43883         0.6484      -160.5378      -9.587433      0.2221028
      2206.0000         0.4641       2215.078        49.7265       44.50497         0.6487      -160.3325       -9.39679      0.2447865
      2206.5000         0.4645       2180.004        50.9161       45.85008         0.6491       -160.127      -9.205933       0.273406
      2207.0000         0.4648        2194.09        50.6958       45.59956         0.6495      -159.8887      -8.982285      0.2680758
      2207.5000         0.4652       2228.305        50.3813       45.24244         0.6528      -159.7002      -8.808426      0.2604775
      2208.0000         0.4656       2273.109        49.8099       44.59458          0.656      -159.8086      -8.931473      0.2466931
      2208.5000         0.4652       2299.148        49.4668       44.20508         0.6584      -159.9202      -9.057724       0.238406
      2209.0000         0.4645       2323.488        49.1946       43.89583         0.6587      -160.1187      -9.270874      0.2318262
      2209.5000         0.4639       2333.875        48.2197        42.7913         0.6591      -160.3315      -9.498322      0.2083256
      2210.0000         0.4632       2319.488        47.9645       42.50129         0.6584      -160.5518      -9.733276      0.2021552
      2210.5000         0.4626       2290.789        48.9446       43.60931         0.6574      -160.7346      -9.930725      0.2257301
      2211.0000         0.4617       2259.602        48.3943       42.98532         0.6564      -160.9128      -10.12357      0.2124536
      2211.5000           0.46       2231.035        47.4098       41.86994         0.6543      -161.1113      -10.33672      0.1887221
      2212.0000         0.4584       2218.746        46.9622       41.36217          0.652      -161.3098      -10.54987      0.1779186
      2212.5000         0.4567        2224.25         46.671       41.03142         0.6497      -161.4722      -10.72693      0.1708813
      2213.0000         0.4556       2238.207        46.4152       40.74073          0.648      -161.5989      -10.86829      0.1646964
      2213.5000         0.4577        2282.25        46.1885       40.48297         0.6465      -161.7219      -11.00592      0.1592121
      2214.0000         0.4589       2367.137        44.6698       38.76301         0.6449      -161.8379      -11.13658      0.1226172
      2214.5000         0.4563       2414.621        42.4677       36.26963         0.6434      -161.9539      -11.26723     0.06956661
      2215.0000         0.4537       2469.012        40.4122       33.94215         0.6419      -161.9573      -11.28528     0.02004575
      2215.5000         0.4511       2555.742        38.4969       31.77335         0.6404      -161.9563      -11.29892              0
      2216.0000         0.4483       2615.691        37.1178       30.21137         0.6386      -161.9531      -11.31036              0
      2216.5000         0.4435       2659.152         36.546       29.56306         0.6366      -161.8652      -11.23712              0
      2217.0000         0.4416       2688.125        36.7355       29.77633         0.6346      -161.8037      -11.19026              0
      2217.5000          0.443       2712.246         37.166       30.26234         0.6333      -161.7561      -11.15732              0
      2218.0000          0.452       2732.496        38.0804         31.296         0.6336      -161.6677      -11.08356              0
      2218.5000         0.4637       2741.832        38.7073       32.00429          0.634       -161.283      -10.71352              0
      2219.0000         0.4758       2663.867        39.3068       32.68158         0.6371       -160.812      -10.25716              0
      2219.5000         0.4883       2505.141        40.1956       33.68626         0.6447      -160.3921      -9.851913     0.01460136
      2220.0000         0.5033       2395.086        41.0905       34.69785         0.6522      -160.1562      -9.630661     0.03612453
      2220.5000         0.5262        2219.41        41.9396       35.65762         0.6593      -159.8467        -9.3358     0.05654509
      2221.0000         0.5401       2105.711        42.6794       36.49368         0.6661      -159.7087      -9.212448     0.07433352
      2221.5000         0.5357       2046.293        43.6757       37.62003         0.6729      -159.6265      -9.144913      0.0982985
      2222.0000         0.5307       1930.283        44.4862       38.53611         0.6797      -159.6582      -9.191269      0.1177895
      2222.5000         0.5255       1861.168        45.3583       39.52189         0.6887      -159.7175      -9.265213      0.1387636
      2223.0000         0.5194       1775.766          46.31       40.59777         0.7012      -159.6792      -9.241562      0.1616548
      2223.5000         0.5172        1758.26        47.1598       41.55832         0.7135      -159.6218      -9.198807       0.182092
      2224.0000         0.5282       1740.139        48.0099       42.51921         0.7256      -159.5645      -9.156158      0.2025365
      2224.5000         0.5392       1720.652        49.1567        43.8159         0.7377      -159.3772      -8.983505      0.2301254
      2225.0000         0.5569        1670.41        50.1381       44.92538         0.7499      -158.6025       -8.22345      0.2537314
      2225.5000         0.6029       1642.238        51.1767       46.09961         0.7686      -157.5906      -7.226212       0.278715
      2226.0000         0.6514       1587.049        52.5447       47.64662         0.7908       -156.835       -6.48526      0.3116302
      2226.5000         0.6855       1521.896        53.9841       49.27444         0.8175      -155.9001      -5.565002      0.3462648
      2227.0000         0.6812       1442.486        55.8338       51.36662         0.8323      -155.3245      -5.004044      0.3907792
      2227.5000         0.6827       1356.924         57.353       53.08475         0.8456      -154.7959      -4.490097      0.4273351
      2228.0000         0.7326       1238.502        58.7682       54.68518         0.8872      -155.4624      -5.171249      0.4613869
      2228.5000         0.7622       1214.033         46.001       40.23491         0.9255      -156.1711      -5.894592      0.1539343
      2229.0000         0.7797       1225.873        39.9831       33.42307         0.9205      -157.1025      -6.840637    0.009001387
      2229.5000         0.7664       1248.934        39.2422       32.58337         0.9155      -159.3188      -9.071594              0
      2230.0000         0.7515       1290.355        38.8774       32.16931         0.9053      -161.2158      -10.98325              0
