#------------------------------------------------------------------------------
# Created by    : vladimir.rabinovich
# Created on    : 09/19/2023 17:20:12
#------------------------------------------------------------------------------
~Version Information Section
VERS.           2.0     :   CWLS log ASCII Standard - VERSION 2.0
WRAP.           NO      :   One line per depth step
~Well Information Section
#MNEM       .UNIT                                         VALUE :DESCRIPTION
#------------------------------------------------------------------------------
STRT        .FT                                             970 :START DEPTH
STOP        .FT                                            6500 :STOP DEPTH
STEP        .FT                                             0.5 :STEP      
NULL        .                                           -999.25 :NULL      
COMP        .                                CONTINENTAL OIL CO :COMPANY   
WELL        .                               OCS G03106 ST00BP00 :WELL      
FLD         .                       MATAGORDA ISLAND BLOCK 0687 :FIELD     
LOC         .                                                   :LOCATION  
CNTY        .                      MATAGORDA ISLAND LARGE BLOCK :LOCATION  
STAT        .                                             TEXAS :STATE     
CTRY        .                                     UNITED STATES :COUNTRY   
SRVC        .                                                   :SERVICE COMPANY
DATE        .                             9/13/2023 11:12:09 AM :LOG DATE  
API         .                                    42703400330000 :API NUMBER
UWI         .                                    42703400330000 :UNIQUE WELL ID
XCOORD      .                                  468864.661343862 :SURFACE X 
YCOORD      .                                  10154488.9405743 :SURFACE Y 
LAT         .                                         27.934663 :LATITUDE  
LON         .                                        -96.628194 :LONGITUDE 
ELEV        .FT                                              96 :ELEVATION VALUE
ELEV_TYPE   .                                                KB :ELEVATION REFERENCE TYPE
~Curve Information Section
#MNEM       .UNIT                                      API CODE :CURVE DESCRIPTION
#------------------------------------------------------------------------------
DEPT        .FT                                                 :DEPTH     
ASFL        .OHMM                                               :          
CALI        .IN                                                 :          
CILD        .MMHO                                               :          
DRHO        .G/C3                                               :          
DT          .US/F                                               :          
DTL         .US/F                                               :          
GR          .GAPI                                               :          
GR_1        .GAPI                                               :          
GR_NORM     .GAPI                                               :GammaRay Normalized
ILD         .OHMM                                               :          
ILM         .OHMM                                               :          
NPHI        .%                                                  :          
RHOB        .G/C3                                               :          
SFL         .OHMM                                               :          
SP          .MV                                                 :          
SP_NORM     .MV                                                 :SP Normalized
VSH_GR      .V/V                                                :Volume of Shale from GR
VSH_SP      .V/V                                                :Volume of Shale from SP
~A        DEPTH           ASFL           CALI           CILD           DRHO             DT            DTL             GR           GR_1        GR_NORM            ILD            ILM           NPHI           RHOB            SFL             SP        SP_NORM         VSH_GR         VSH_SP
# ...
      5394.0000         0.9783        12.3134       2915.039         0.0354        -999.25       107.7789        34.3875        39.8374       56.69423         0.3081        -999.25        34.5687         2.1983         0.9724       -95.1765       -57.4406      0.5041326     0.04412756
      5394.5000         0.9622        11.9411       3090.379           0.04        -999.25       112.1412        33.6984        39.3111       55.83774         0.3103        -999.25        33.9076          2.223         0.9726       -95.2993       -57.5634      0.4859093     0.04201034
      5395.0000         0.9449        11.7151       3348.457         0.0307        -999.25       115.9803        33.5762        38.5184       54.54739         0.3125        -999.25        33.0942         2.2125          0.954       -95.0742       -57.3384      0.4584551     0.04588962
      5395.5000         0.9276        11.6031       3479.352         0.0241        -999.25       120.1403        34.3698        37.5074       52.90151         0.3146        -999.25        32.9919          2.196         0.9339        -94.849       -57.1131      0.4234363     0.04977417
      5396.0000         0.9058        11.5116       3581.574         0.0275        -999.25        122.821        34.7413        36.7286        51.6338         0.3168        -999.25        33.8262         2.1816         0.8832         -94.59       -56.8541      0.3964639     0.05423967
      5396.5000         0.8799        11.4154       3599.695         0.0305        -999.25       119.1682         35.046        36.2913       50.92242          0.319        -999.25        35.5267         2.1865         0.7956       -94.2426       -56.5067       0.381328     0.06022933
      5397.0000         0.8539        11.3691       3443.992         0.0311        -999.25       109.7627        34.8912        36.0508       50.53138         0.3308        -999.25         36.274         2.1963         0.7023       -93.8953       -56.1595      0.3730081     0.06621552
      5397.5000         0.8415        11.3526       3247.063         0.0282        -999.25        95.5607        34.8094        35.9998       50.44898         0.3642        -999.25        36.6884         2.2137          0.705        -93.548       -55.8121      0.3712549     0.07220518
      5398.0000         0.8308        11.3174       3004.617         0.0222        -999.25        87.4333        34.8295        36.2997       50.93805         0.3976        -999.25        36.6535         2.2359         0.7342        -92.689       -54.9532      0.3816606     0.08701377
      5398.5000         0.8614         11.196       2824.684         0.0168        -999.25        82.8145        34.8495        36.5745       51.38625          0.431        -999.25        35.4009         2.2901         1.9197       -91.8138       -54.0779      0.3911967      0.1021052
      5399.0000         0.9778          10.98       2648.855         0.0136        -999.25        90.8037         34.925         36.555       51.35514         0.4644        -999.25        30.8789         2.3536          2.564       -91.2113       -53.4755      0.3905348      0.1124914
      5399.5000         1.1572        10.8599       2468.926         0.0237        -999.25       100.1895        35.0184        36.1035       50.62047         0.4641        -999.25        21.0221          2.436         3.1547       -90.6807       -52.9449      0.3749036      0.1216396
      5400.0000         1.4624        10.8181       2349.266          0.043        -999.25         108.08        34.5048        35.7396       50.02847           0.43        -999.25        19.7266         2.5185         3.8804       -90.5752       -52.8394      0.3623078      0.1234586
      5400.5000         1.4983        10.8122       2305.602         0.0611        -999.25       115.6694        34.3355        36.0643       50.55793         0.3959        -999.25        19.7295          2.493         2.7746       -90.7291       -52.9933      0.3735731      0.1208052
      5401.0000         1.3739        10.8204       2489.438         0.0552        -999.25       120.1798        34.5137        37.3308       52.62139         0.3618        -999.25        22.5096         2.3987         1.7085       -91.3292       -53.5933      0.4174763      0.1104603
      5401.5000         1.1678        10.8378       2575.008           0.04        -999.25       116.4491        34.9133        39.7289       56.52762         0.3276        -999.25        26.5343         2.3043         1.0247       -91.4907       -53.7548      0.5005877      0.1076759
      5402.0000         1.0864        10.8698       2660.676         0.0256        -999.25       112.7185        35.5692        41.7263       59.78127         0.3416        -999.25        31.2569         2.2101         0.8259       -90.8298        -53.094      0.5698143      0.1190689
      5402.5000         1.0287         10.929       2684.023         0.0165        -999.25       107.6013        33.0124        40.6114       57.96618         0.3665        -999.25        34.0923         2.1679         0.7806        -89.663       -51.9272      0.5311952      0.1391862
      5403.0000         0.9795        11.0299       2421.844         0.0089        -999.25        95.5212        31.9756        38.9283        55.2257         0.3914        -999.25        35.4183         2.1897         0.7975       -88.0378        -50.302      0.4728873      0.1672069
      5403.5000         0.9505        11.1457       2159.469         0.0033        -999.25        84.9709        30.9377        37.0535       52.17303         0.4293        -999.25        34.1563         2.2313         0.8633       -86.0208       -48.2849      0.4079369      0.2019845
      5404.0000         1.0152        11.2798       1897.289          0.002        -999.25        80.1448         31.472        35.7779       50.09621         0.4928        -999.25        30.1577         2.2906         1.0912        -83.139       -45.4031      0.3637492      0.2516707
      5404.5000            1.4        11.3989       1635.111         0.0154        -999.25        86.9349        32.7827         35.415       49.50585         0.5563        -999.25           21.8          2.488         1.4952       -80.2671       -42.5312      0.3511883      0.3011862
      5405.0000         1.4921        11.4672       1372.736         0.0409        -999.25        97.0806        34.3181        35.2949        49.3109         0.6198        -999.25        19.5288         2.5963         1.8239       -75.9064       -38.1706      0.3470405      0.3763689
      5405.5000         1.5511        11.4865       1207.262         0.0771        -999.25        98.1564        35.6626         35.297       49.31514         0.6833        -999.25        19.1595         2.5988         1.7421        -73.489       -35.7531      0.3471306        0.41805
      5406.0000         1.5974        11.4614       1092.291         0.0698        -999.25        98.6813        35.0337        35.5082       49.65975         0.7575        -999.25        21.4976         2.4979         1.7149       -72.2391       -34.5032      0.3544627         0.4396
      5406.5000         1.6428        11.4433       1032.215         0.0537        -999.25       101.8389        34.4047        35.8738       50.25583         0.8393        -999.25        24.6186         2.3758         1.9189       -72.0819       -34.3461      0.3671452      0.4423086
      5407.0000         1.7064         11.441       982.0322          0.036        -999.25       103.6119         32.693        36.1354       50.68252          0.921        -999.25        25.1573          2.367         2.0342       -72.6863       -34.9505      0.3762239      0.4318879
      5407.5000         1.6825        11.4689       962.0068         0.0349        -999.25       103.7513         31.168        35.8159       50.16283         0.9073        -999.25         25.675         2.3561          1.834       -74.7764       -37.0405      0.3651666      0.3958534
