#------------------------------------------------------------------------------
# Created by    : vladimir.rabinovich
# Created on    : 09/19/2023 17:22:29
#------------------------------------------------------------------------------
~Version Information Section
VERS.           2.0     :   CWLS log ASCII Standard - VERSION 2.0
WRAP.           NO      :   One line per depth step
~Well Information Section
#MNEM       .UNIT                                         VALUE :DESCRIPTION
#------------------------------------------------------------------------------
STRT        .FT                                             272 :START DEPTH
STOP        .FT                                            9222 :STOP DEPTH
STEP        .FT                                             0.5 :STEP      
NULL        .                                           -999.25 :NULL      
COMP        .                   MCMORAN OFFSHORE EXPLORATION CO :COMPANY   
WELL        .                               OCS G03108 ST00BP00 :WELL      
FLD         .                       MATAGORDA ISLAND BLOCK 0700 :FIELD     
LOC         .                                                   :LOCATION  
CNTY        .                      MATAGORDA ISLAND LARGE BLOCK :LOCATION  
STAT        .                                             TEXAS :STATE     
CTRY        .                                     UNITED STATES :COUNTRY   
SRVC        .                                                   :SERVICE COMPANY
DATE        .                             9/13/2023 11:12:09 AM :LOG DATE  
API         .                                    42703400850000 :API NUMBER
UWI         .                                    42703400850000 :UNIQUE WELL ID
XCOORD      .                                  483045.974763742 :SURFACE X 
YCOORD      .                                  10146137.6323278 :SURFACE Y 
LAT         .                                         27.912878 :LATITUDE  
LON         .                                       -96.5835889 :LONGITUDE 
ELEV        .FT                                              85 :ELEVATION VALUE
ELEV_TYPE   .                                                KB :ELEVATION REFERENCE TYPE
~Curve Information Section
#MNEM       .UNIT                                      API CODE :CURVE DESCRIPTION
#------------------------------------------------------------------------------
DEPT        .FT                                                 :DEPTH     
CILD        .MMHO                                               :          
DT          .US/F                                               :          
GR          .GAPI                                               :          
GR_NORM     .GAPI                                               :GammaRay Normalized
ILD         .OHMM                                               :          
ILM         .OHMM                                               :          
SFL         .OHMM                                               :          
SP          .MV                                                 :          
SP_NORM     .MV                                                 :SP Normalized
VSH_GR      .V/V                                                :Volume of Shale from GR
VSH_SP      .V/V                                                :Volume of Shale from SP
~A        DEPTH           CILD             DT             GR        GR_NORM            ILD            ILM            SFL             SP        SP_NORM         VSH_GR         VSH_SP
# ...
      2679.5000       973.5811       157.8748        58.8394       75.50994         1.0274         0.9134         0.7962       -32.1979        -2.0092      0.9044668       0.999632
      2680.0000       1004.081       158.7488        58.9644       75.65695         0.9959         0.9017         0.7665       -31.8239        -1.6352      0.9075947              1
      2680.5000        1035.43       157.9026        59.1614       75.88904         0.9613         0.8982         0.7605       -32.9042        -2.7155      0.9125327        0.97138
      2681.0000       1066.691       154.9177        59.3945       76.16371         0.9246          0.893         0.7668       -34.1929        -4.0042      0.9183769       0.919832
      2681.5000       1092.889       151.5505        59.6582       76.47449         0.9055         0.8849         0.7753       -34.5946        -4.4059      0.9249893       0.903764
      2682.0000           1113       148.8594        59.9429       76.81007         0.8891         0.8736         0.7872       -34.2739        -4.0852      0.9321291       0.916592
      2682.5000       1126.561       147.2981        60.7402       77.75043         0.8752         0.8549         0.7996       -33.3809        -3.1922      0.9521369       0.952312
      2683.0000       1137.734       149.1104         62.075         79.325         0.8627         0.8342         0.8078       -32.9537         -2.765      0.9856384         0.9694
      2683.5000       1148.639       151.4031        63.8193       81.38261         0.8527         0.8161         0.7981       -32.9247         -2.736              1        0.97056
      2684.0000         1159.6        153.322        66.0396       84.00198         0.8455         0.8013         0.7654       -33.2278        -3.0391              1       0.958436
      2684.5000       1170.012       155.2405        68.7739       87.22781         0.8422         0.7913         0.7289       -34.1416        -3.9529              1       0.921884
      2685.0000        1181.15       157.3142        70.9768       89.82664         0.8399         0.7844         0.7062        -35.014        -4.8253              1       0.886988
      2685.5000       1189.582       158.6543        72.5433       91.67458           0.84         0.7827         0.6935       -34.8209        -4.6322              1       0.894712
      2686.0000        1185.07       158.2393        71.9127        90.9302         0.8439         0.7895         0.6859        -33.925        -3.7363              1       0.930548
      2686.5000       1169.969       157.3306        70.4967         89.259         0.8489            0.8         0.6987       -33.0383        -2.8496              1       0.966016
      2687.0000       1154.135        156.886        70.0824       88.76981         0.8544         0.8103         0.7356       -32.4206        -2.2319              1       0.990724
      2687.5000       1138.773       158.0193        70.6451       89.43338         0.8594         0.8106         0.7698       -32.3485        -2.1598              1       0.993608
      2688.0000       1125.504       160.5728        71.3816       90.30201         0.8639         0.8031         0.7947       -32.3004        -2.1117              1       0.995532
      2688.5000       1115.631       163.5759        71.3887       90.31005         0.8678         0.7918         0.8024       -32.1671        -1.9784              1              1
      2689.0000       1115.125       166.5559        69.8884       88.53949         0.8631         0.7806         0.7836       -31.6755        -1.4868              1              1
      2689.5000       1120.672       169.4915        68.7426       87.18722          0.858         0.7693         0.7462       -31.0208        -0.8321              1              1
      2690.0000        1142.75       172.6533        68.2057       86.55338         0.8465         0.7577         0.7133        -30.327        -0.1383              1              1
      2690.5000       1175.955       175.8547        67.7915       86.06419         0.8289         0.7441         0.6909       -29.9459         0.2428              1              1
      2691.0000       1210.193       178.5566        68.0956       86.42265         0.8092         0.7313         0.6725       -30.2576        -0.0689              1              1
      2691.5000       1249.826       180.2075        70.7129       89.51042         0.7933         0.7207         0.6631       -30.7354        -0.5467              1              1
      2692.0000       1274.857       180.5071        72.7802       91.94926         0.7827         0.7134         0.6589       -30.9088        -0.7201              1              1
      2692.5000       1286.641       180.7249        71.7136       90.69044         0.7763          0.709         0.6557       -30.8088        -0.6201              1              1
      2693.0000       1289.049       180.9558        70.4435        89.1915         0.7733         0.7053         0.6525       -30.4269        -0.2382              1              1
      2693.5000       1286.807       181.0896        70.2468       88.95895         0.7722         0.7009         0.6542       -30.4747         -0.286              1              1
      2694.0000       1281.271       181.5593        72.3931         91.491         0.7721         0.7009         0.6558       -30.7074        -0.5187              1              1
      2694.5000       1280.209       183.6001        74.2771       93.71356         0.7711         0.7006         0.6551         -31.07        -0.8813              1              1
      2695.0000       1289.191         184.79        74.3912       93.84784         0.7693         0.6981         0.6538       -31.3991        -1.2104              1              1
      2695.5000       1308.369       185.4976        73.1044       92.32919          0.763          0.689         0.6519       -31.4743        -1.2856              1              1
      2696.0000       1331.529       185.7888        71.9083       90.91756         0.7529         0.6793          0.647       -32.3908        -2.2021              1       0.991916
      2696.5000       1357.197        185.687         70.881       89.70511         0.7369         0.6705         0.6365       -33.9089        -3.7202              1       0.931192
      2697.0000       1390.637       185.6489        70.2208       88.92567         0.7152         0.6581         0.6187       -32.8917         -2.703              1        0.97188
      2697.5000        1431.18        185.667         70.267       88.97983         0.6903         0.6449         0.5994       -31.8388        -1.6501              1              1
      2698.0000       1468.516       185.6858        72.3969       91.49253          0.671         0.6333         0.5874       -31.5729        -1.3842              1              1
      2698.5000       1500.381       185.4521        74.4547       93.92017         0.6588         0.6279          0.585       -31.4074        -1.2187              1              1
      2699.0000       1525.361       184.9858        75.0848       94.66326         0.6498         0.6267         0.5894       -31.1886        -0.9999              1              1
      2699.5000       1536.529       184.5354        75.7223       95.41508         0.6475         0.6283         0.5898       -30.9546        -0.7659              1              1
      2700.0000       1538.152       183.6255        76.8257       96.71662         0.6497          0.633         0.5883        -30.981        -0.7923              1              1
      2700.5000       1507.189        183.719        78.8528       99.10791          0.668         0.6421         0.5942       -30.8715        -0.6828              1              1
      2701.0000       1458.777       184.4307        78.0522       98.16293         0.6902         0.6547         0.6025       -30.9315        -0.7428              1              1
      2701.5000       1403.824       185.2524        74.6088       94.09974         0.7127         0.6714         0.6169       -30.9275        -0.7388              1              1
