#------------------------------------------------------------------------------
# Created by    : vladimir.rabinovich
# Created on    : 09/19/2023 17:20:32
#------------------------------------------------------------------------------
~Version Information Section
VERS.           2.0     :   CWLS log ASCII Standard - VERSION 2.0
WRAP.           NO      :   One line per depth step
~Well Information Section
#MNEM       .UNIT                                         VALUE :DESCRIPTION
#------------------------------------------------------------------------------
STRT        .FT                                             502 :START DEPTH
STOP        .FT                                            9122 :STOP DEPTH
STEP        .FT                                             0.5 :STEP      
NULL        .                                           -999.25 :NULL      
COMP        .                       BLUE DOLPHIN EXPLORATION CO :COMPANY   
WELL        .                                OCS 00714 ST00BP00 :WELL      
FLD         .                              GALVESTON BLOCK 0288 :FIELD     
LOC         .                                                   :LOCATION  
CNTY        .                             GALVESTON LARGE BLOCK :LOCATION  
STAT        .                                             TEXAS :STATE     
CTRY        .                                     UNITED STATES :COUNTRY   
SRVC        .                                                   :SERVICE COMPANY
DATE        .                             9/13/2023 11:19:24 AM :LOG DATE  
API         .                                    42706000680000 :API NUMBER
UWI         .                                    42706000680000 :UNIQUE WELL ID
XCOORD      .                                  1088404.51782723 :SURFACE X 
YCOORD      .                                  10474534.8869196 :SURFACE Y 
LAT         .                                        28.8520809 :LATITUDE  
LON         .                                       -94.7248272 :LONGITUDE 
ELEV        .FT                                              85 :ELEVATION VALUE
ELEV_TYPE   .                                                KB :ELEVATION REFERENCE TYPE
~Curve Information Section
#MNEM       .UNIT                                      API CODE :CURVE DESCRIPTION
#------------------------------------------------------------------------------
DEPT        .FT                                                 :DEPTH     
ASN         .OHMM                                               :          
ASN_1       .OHMM                                               :          
DT          .US/F                                               :          
ILD         .OHMM                                               :          
LAT         .OHMM                                               :          
LN          .OHMM                                               :          
SP          .MV                                                 :          
SP_NORM     .MV                                                 :SP Normalized
VSH_SP      .V/V                                                :Volume of Shale from SP
~A        DEPTH            ASN          ASN_1             DT            ILD            LAT             LN             SP        SP_NORM         VSH_SP
# ...
      1933.0000        -999.25         0.6662        -999.25        -999.25         0.4642         0.2445       -43.0967      -17.44655      0.3674402
      1933.5000        -999.25         0.6544        -999.25        -999.25         0.4709         0.2425       -43.3916       -17.7346      0.3563617
      1934.0000        -999.25         0.6399        -999.25        -999.25         0.4762         0.2404       -43.7577      -18.09384      0.3425448
      1934.5000        -999.25         0.6297        -999.25        -999.25         0.4795         0.2384       -43.9237      -18.25297      0.3364242
      1935.0000        -999.25         0.6264        -999.25        -999.25         0.4828         0.2382       -43.6569      -17.97931      0.3469496
      1935.5000        -999.25         0.6265        -999.25        -999.25         0.4819          0.238       -42.8796      -17.19515      0.3771096
      1936.0000        -999.25         0.6134        -999.25        -999.25         0.4786         0.2379       -42.1332      -16.44189      0.4060811
      1936.5000        -999.25         0.5947        -999.25        -999.25         0.4752         0.2377       -41.7444      -16.04623       0.421299
      1937.0000        -999.25         0.5903        -999.25        -999.25         0.4725         0.2375       -42.1946      -16.48956      0.4042475
      1937.5000        -999.25         0.5962        -999.25        -999.25         0.4699         0.2374       -43.0497      -17.33781      0.3716228
      1938.0000        -999.25         0.6046        -999.25        -999.25         0.4673         0.2372        -43.674      -17.95524      0.3478752
      1938.5000        -999.25         0.6066        -999.25        -999.25         0.4653         0.2363       -43.8701      -18.14448      0.3405969
      1939.0000        -999.25          0.603        -999.25        -999.25         0.4635         0.2348       -43.7829      -18.05042      0.3442145
      1939.5000        -999.25         0.5983        -999.25        -999.25         0.4617         0.2332       -43.3494      -17.61006      0.3611515
      1940.0000        -999.25         0.5936        -999.25        -999.25         0.4611         0.2305       -42.3977       -16.6515      0.3980192
      1940.5000        -999.25         0.5937        -999.25        -999.25         0.4607         0.2262       -41.3765      -15.62344      0.4375601
      1941.0000        -999.25         0.6025        -999.25        -999.25         0.4603         0.2218       -41.1106      -15.35068      0.4480509
      1941.5000        -999.25         0.6121        -999.25        -999.25         0.4607         0.2175       -41.0146      -15.24781      0.4520071
      1942.0000        -999.25         0.6163        -999.25        -999.25         0.4614         0.2179        -40.988      -15.21435      0.4532941
      1942.5000        -999.25         0.6112        -999.25        -999.25         0.4621         0.2187       -41.6003      -15.81979       0.430008
      1943.0000        -999.25         0.6069        -999.25        -999.25         0.4604         0.2195       -41.4378      -15.65043      0.4365218
      1943.5000        -999.25         0.6039        -999.25        -999.25         0.4569         0.2189       -40.3952      -14.60097      0.4768858
      1944.0000        -999.25         0.6046        -999.25        -999.25         0.4535         0.2177       -40.2968      -14.49571      0.4809343
      1944.5000        -999.25         0.6104        -999.25        -999.25         0.4413         0.2165       -40.6679      -14.85995      0.4669251
      1945.0000        -999.25         0.6234        -999.25        -999.25         0.4291         0.2151        -41.077      -15.26219      0.4514544
      1945.5000        -999.25         0.6416        -999.25        -999.25         0.4239         0.2121       -41.4386      -15.61692      0.4378106
      1946.0000        -999.25          0.648        -999.25        -999.25         0.4263         0.2091       -41.7039      -15.87536      0.4278706
      1946.5000        -999.25         0.6502        -999.25        -999.25         0.4331         0.2061       -41.8279       -15.9925      0.4233653
      1947.0000        -999.25         0.6502        -999.25        -999.25         0.4504         0.2042       -41.6478      -15.80554      0.4305561
      1947.5000        -999.25         0.6491        -999.25        -999.25         0.4697          0.205       -41.1483      -15.29918      0.4500315
      1948.0000        -999.25         0.6506        -999.25        -999.25         0.5041         0.2058       -40.2944      -14.43842      0.4831378
      1948.5000        -999.25          0.657        -999.25        -999.25          0.537         0.2066       -38.5209      -12.65806      0.5516132
      1949.0000        -999.25         0.6672        -999.25        -999.25         0.5666         0.2073       -35.7865      -9.916796      0.6570463
      1949.5000        -999.25         0.6816        -999.25        -999.25         0.5808          0.208       -32.0668      -6.190235      0.8003756
      1950.0000        -999.25         0.6943        -999.25        -999.25         0.5873         0.2088       -30.0363      -4.152874      0.8787356
      1950.5000        -999.25         0.7087        -999.25        -999.25          0.589         0.2095       -31.2589      -5.368612      0.8319765
      1951.0000        -999.25         0.7156        -999.25        -999.25          0.587         0.2101       -34.1312      -8.234051      0.7217673
      1951.5000        -999.25         0.6923        -999.25        -999.25         0.5681         0.2107       -36.3956      -10.49159      0.6349388
      1952.0000        -999.25          0.642        -999.25        -999.25         0.5453         0.2112        -38.569      -12.65813      0.5516104
      1952.5000        -999.25         0.6193        -999.25        -999.25         0.5176         0.2144       -40.4509      -14.53317      0.4794935
      1953.0000        -999.25         0.6069        -999.25        -999.25         0.4861         0.2221        -42.096      -16.17141      0.4164843
      1953.5000        -999.25         0.5951        -999.25        -999.25         0.4525         0.2298       -42.9858      -17.05435      0.3825251
      1954.0000        -999.25         0.5967        -999.25        -999.25         0.4274         0.2375       -43.3179      -17.37959      0.3700159
      1954.5000        -999.25           0.61        -999.25        -999.25         0.4095         0.2435       -42.7943      -16.84912      0.3904184
      1955.0000        -999.25         0.6286        -999.25        -999.25         0.3916         0.2491       -42.0732      -16.12116      0.4184168
      1955.5000        -999.25         0.6357        -999.25        -999.25         0.3875         0.2547       -41.4889         -15.53      0.4411538
      1956.0000        -999.25         0.6311        -999.25        -999.25         0.3835         0.2591       -41.2938      -15.32804      0.4489216
      1956.5000        -999.25         0.6328        -999.25        -999.25         0.3906         0.2597       -41.7458      -15.77318      0.4318008
      1957.0000        -999.25         0.6414        -999.25        -999.25         0.4068         0.2602       -42.3691      -16.38962      0.4080917
      1957.5000        -999.25         0.6615        -999.25        -999.25         0.4209         0.2606        -43.067      -17.08066      0.3815131
      1958.0000        -999.25         0.6899        -999.25        -999.25         0.4288         0.2601       -43.6194      -17.62619       0.360531
      1958.5000        -999.25         0.6902        -999.25        -999.25         0.4351         0.2595       -44.0566      -18.05653      0.3439795
      1959.0000        -999.25         0.6689        -999.25        -999.25         0.4372         0.2589       -44.3391      -18.33217       0.333378
