#------------------------------------------------------------------------------
# Created by    : vladimir.rabinovich
# Created on    : 09/19/2023 17:20:25
#------------------------------------------------------------------------------
~Version Information Section
VERS.           2.0     :   CWLS log ASCII Standard - VERSION 2.0
WRAP.           NO      :   One line per depth step
~Well Information Section
#MNEM       .UNIT                                         VALUE :DESCRIPTION
#------------------------------------------------------------------------------
STRT        .FT                                             396 :START DEPTH
STOP        .FT                                           11006 :STOP DEPTH
STEP        .FT                                             0.5 :STEP      
NULL        .                                           -999.25 :NULL      
COMP        .                                 CALIFORNIA CO THE :COMPANY   
WELL        .                                OCS 00507 ST00BP00 :WELL      
FLD         .                            HIGH ISLAND BLOCK 0052 :FIELD     
LOC         .                                                   :LOCATION  
CNTY        .                           HIGH ISLAND LARGE BLOCK :LOCATION  
STAT        .                                             TEXAS :STATE     
CTRY        .                                     UNITED STATES :COUNTRY   
SRVC        .                                                   :SERVICE COMPANY
DATE        .                             9/13/2023 11:19:15 AM :LOG DATE  
API         .                                    42708000170000 :API NUMBER
UWI         .                                    42708000170000 :UNIQUE WELL ID
XCOORD      .                                  1293108.02889945 :SURFACE X 
YCOORD      .                                   10685731.628563 :SURFACE Y 
LAT         .                                         29.439677 :LATITUDE  
LON         .                                        -94.091453 :LONGITUDE 
ELEV        .FT                                              70 :ELEVATION VALUE
ELEV_TYPE   .                                                KB :ELEVATION REFERENCE TYPE
~Curve Information Section
#MNEM       .UNIT                                      API CODE :CURVE DESCRIPTION
#------------------------------------------------------------------------------
DEPT        .FT                                                 :DEPTH     
ASN         .OHMM                                               :          
CILD        .MMHO                                               :          
ILM         .OHMM                                               :          
SP          .MV                                                 :          
SP_NORM     .MV                                                 :SP Normalized
VSH_SP      .V/V                                                :Volume of Shale from SP
~A        DEPTH            ASN           CILD            ILM             SP        SP_NORM         VSH_SP
# ...
     10238.0000         0.5989       2793.379         0.4089       -50.3146        -5.2398      0.9485746
     10238.5000         0.5998       2800.188         0.4099       -49.9462        -4.8661      0.9545063
     10239.0000         0.6006        2783.98         0.4116       -49.5778        -4.4924      0.9604381
     10239.5000         0.6014       2767.793         0.4135       -49.0157        -3.9249       0.969446
     10240.0000         0.6022       2751.605         0.4154       -46.8629        -1.7668              1
     10240.5000          0.603       2724.289         0.4173       -44.7012         0.4002              1
     10241.0000         0.6038       2696.867         0.4192       -46.0883        -0.9815              1
     10241.5000         0.6046       2669.441         0.4211       -47.4732        -2.3611      0.9942682
     10242.0000         0.6054       2642.719         0.4231       -48.4697        -3.3523      0.9785349
     10242.5000         0.6062       2627.738          0.425       -48.7383        -3.6156      0.9743556
     10243.0000          0.607        2612.73         0.4269       -47.8716        -2.7435      0.9881984
     10243.5000         0.6079        2597.75         0.4288       -47.0049        -1.8715              1
     10244.0000         0.6089       2582.766         0.4307       -46.3846        -1.2459              1
     10244.5000         0.6099       2579.426         0.4326       -45.7909        -0.6468              1
     10245.0000         0.6109       2576.793         0.4345        -45.276        -0.1266              1
     10245.5000         0.6119       2578.781         0.4365        -46.561        -1.4063              1
     10246.0000         0.6129       2592.031         0.4381       -47.7906        -2.6305      0.9899921
     10246.5000         0.6139       2605.309         0.4396        -48.978        -3.8126      0.9712286
     10247.0000         0.6149       2618.559          0.441       -50.1676        -4.9969      0.9524301
     10247.5000         0.6159       2631.813         0.4425        -50.931        -5.7549      0.9403984
     10248.0000         0.6169       2632.773         0.4439       -51.5392        -6.3578      0.9308286
     10248.5000         0.6179       2626.695         0.4454       -52.1473        -6.9606      0.9212603
     10249.0000          0.619       2620.605         0.4469       -51.5414        -6.3493      0.9309635
     10249.5000           0.62       2614.516         0.4483       -49.4507        -4.2533      0.9642333
     10250.0000          0.621       2607.367         0.4498       -47.3644        -2.1617      0.9974333
     10250.5000          0.622        2600.16         0.4513       -45.5135        -0.3054              1
     10251.0000         0.6225       2592.965         0.4527       -44.0376         1.1758              1
     10251.5000         0.6225       2585.758         0.4542       -44.2151         1.0036              1
     10252.0000         0.6225       2578.551         0.4556       -45.3803        -0.1562              1
     10252.5000         0.6225       2571.355         0.4571       -47.5287        -2.2993      0.9952492
     10253.0000         0.6225       2564.148         0.4582       -49.4307         -4.196      0.9651428
     10253.5000         0.6224       2557.051         0.4593       -50.2208        -4.9807      0.9526873
     10254.0000         0.6224        2550.48         0.4604       -49.6105        -4.3651      0.9624587
     10254.5000         0.6224       2543.898         0.4615       -48.9991        -3.7484      0.9722476
     10255.0000         0.6224       2537.316         0.4625       -48.3887        -3.1326      0.9820222
     10255.5000         0.6224       2530.746         0.4636       -47.7151        -2.4537      0.9927984
     10256.0000         0.6224       2524.164         0.4647       -47.0227         -1.756              1
     10256.5000         0.6224       2514.117         0.4657       -46.3302        -1.0581              1
     10257.0000         0.6223       2503.473         0.4668       -45.7543        -0.4769              1
     10257.5000         0.6223       2492.805         0.4679       -45.4591        -0.1764              1
     10258.0000         0.6223       2482.141          0.469       -45.7604        -0.4723              1
     10258.5000         0.6223       2471.492           0.47       -46.1588        -0.8654              1
     10259.0000          0.622       2470.238         0.4693       -46.5566        -1.2579              1
     10259.5000         0.6214       2472.539         0.4665       -46.1255        -0.8214              1
     10260.0000         0.6209       2572.012         0.4637       -45.6877        -0.3783              1
     10260.5000         0.6203       2668.742          0.461       -45.2499         0.0648              1
     10261.0000         0.6198       2729.344         0.4582       -44.8121          0.508              1
     10261.5000         0.6193       2732.961         0.4554       -44.3744          0.951              1
     10262.0000         0.6187       2736.578         0.4526       -43.9366         1.3941              1
     10262.5000         0.6182       2740.195         0.4498       -43.7772         1.5589              1
     10263.0000         0.6176       2744.465          0.447       -43.6638         1.6776              1
     10263.5000         0.6171       2753.797         0.4442       -43.5503         1.7964              1
     10264.0000         0.6166       2763.148         0.4414       -44.0176         1.3345              1
     10264.5000          0.616        2772.48         0.4387       -47.9238        -2.5664      0.9910095
     10265.0000         0.6155       2782.602         0.4359       -52.0208        -6.6581      0.9260619
     10265.5000         0.6145       2805.117          0.433       -53.3291         -7.961       0.905381
     10266.0000         0.6119        2827.59         0.4301       -53.0645        -7.6911       0.909665
     10266.5000         0.6094       2880.949         0.4273       -52.7993        -7.4206      0.9139587
     10267.0000         0.6068       2952.008         0.4244       -52.4114        -7.0273      0.9202016
     10267.5000         0.6043       2972.859         0.4215       -51.9509        -6.5615      0.9275953
     10268.0000         0.6017       2987.629         0.4186       -51.4904        -6.0957      0.9349889
     10268.5000         0.5992       2991.777         0.4157       -51.0287        -5.6286      0.9424032
     10269.0000         0.5966       2995.914         0.4128       -50.1387        -4.7333      0.9566143
     10269.5000         0.5941       3000.063         0.4099       -49.2243        -3.8136      0.9712127
     10270.0000         0.5915       3004.305         0.4071       -48.3077        -2.8916      0.9858476
     10270.5000         0.5889       3008.555         0.4042       -47.3933        -1.9719              1
     10271.0000         0.5864       3014.785         0.4013       -46.4767          -1.05              1
     10271.5000         0.5836       3024.469         0.3984       -47.3356        -1.9035              1
     10272.0000         0.5809       3045.059         0.3955       -48.5408        -3.1034      0.9824857
     10272.5000         0.5782       3087.289         0.3926       -49.7437         -4.301      0.9634762
     10273.0000         0.5755       3114.406         0.3894       -50.9488        -5.5007      0.9444333
     10273.5000         0.5728       3140.605         0.3858       -50.4283        -4.9749      0.9527794
     10274.0000         0.5701       3168.641         0.3822       -49.7936        -4.3349      0.9629381
     10274.5000         0.5673       3198.387         0.3786       -49.0878        -3.6237       0.974227
     10275.0000         0.5652       3225.613          0.375       -48.3077        -2.8383      0.9866937
     10275.5000         0.5643       3235.297         0.3713       -47.5287         -2.054      0.9991429
