#------------------------------------------------------------------------------
# Created by    : vladimir.rabinovich
# Created on    : 09/19/2023 17:21:52
#------------------------------------------------------------------------------
~Version Information Section
VERS.           2.0     :   CWLS log ASCII Standard - VERSION 2.0
WRAP.           NO      :   One line per depth step
~Well Information Section
#MNEM       .UNIT                                         VALUE :DESCRIPTION
#------------------------------------------------------------------------------
STRT        .FT                                            1924 :START DEPTH
STOP        .FT                                            6497 :STOP DEPTH
STEP        .FT                                             0.5 :STEP      
NULL        .                                           -999.25 :NULL      
COMP        .                                ATP OIL & GAS CORP :COMPANY   
WELL        .                               OCS G12451 ST00BP00 :WELL      
FLD         .                                           WILDCAT :FIELD     
LOC         .                                                   :LOCATION  
CNTY        .                                BRAZOS LARGE BLOCK :LOCATION  
STAT        .                                             TEXAS :STATE     
CTRY        .                                     UNITED STATES :COUNTRY   
SRVC        .                                                   :SERVICE COMPANY
DATE        .                             9/13/2023 11:09:51 AM :LOG DATE  
API         .                                    42704402900000 :API NUMBER
UWI         .                                    42704402900000 :UNIQUE WELL ID
XCOORD      .                                  861130.254262163 :SURFACE X 
YCOORD      .                                  10349158.9913488 :SURFACE Y 
LAT         .                                        28.4964901 :LATITUDE  
LON         .                                       -95.4265639 :LONGITUDE 
ELEV        .FT                                              91 :ELEVATION VALUE
ELEV_TYPE   .                                                KB :ELEVATION REFERENCE TYPE
~Curve Information Section
#MNEM       .UNIT                                      API CODE :CURVE DESCRIPTION
#------------------------------------------------------------------------------
DEPT        .FT                                                 :DEPTH     
CALI        .IN                                                 :          
DPHI        .G/C3                                               :          
DRHO        .G/C3                                               :          
GR          .GAPI                                               :          
GR_NORM     .GAPI                                               :GammaRay Normalized
ILD         .OHMM                                               :          
ILM         .OHMM                                               :          
NPHI        .%                                                  :          
SFL         .OHMM                                               :          
SP          .MV                                                 :          
SP_NORM     .MV                                                 :SP Normalized
VSH_GR      .V/V                                                :Volume of Shale from GR
VSH_SP      .V/V                                                :Volume of Shale from SP
~A        DEPTH           CALI           DPHI           DRHO             GR        GR_NORM            ILD            ILM           NPHI            SFL             SP        SP_NORM         VSH_GR         VSH_SP
# ...
      3482.0000        -999.25        -999.25        -999.25        36.0903        35.2552         0.3063         0.3305        -999.25         0.4207      -115.0699      -52.27921     0.04798289     0.03246782
      3482.5000        -999.25        -999.25        -999.25         36.112       35.27118         0.3003         0.3288        -999.25         0.4899      -114.9541      -52.16341     0.04832304     0.03465271
      3483.0000        -999.25        -999.25        -999.25        35.9093       35.10079         0.2984         0.3248        -999.25         0.5473      -115.4885      -52.69781      0.0446977     0.02456967
      3483.5000        -999.25        -999.25        -999.25        35.4723       34.73579         0.2993         0.3232        -999.25         0.5289      -115.7272      -52.93651     0.03693179     0.02006588
      3484.0000        -999.25        -999.25        -999.25         35.561       34.80743         0.3002         0.3224        -999.25         0.4979      -115.5289       -52.7382     0.03845596     0.02380745
      3484.5000        -999.25        -999.25        -999.25        36.7827       35.82012         0.2974         0.3213        -999.25         0.4953      -115.5126      -52.72191     0.06000251     0.02411493
      3485.0000        -999.25        -999.25        -999.25        38.6578       37.37551         0.2951         0.3195        -999.25         0.5175      -115.7882      -52.99751     0.09309598       0.018915
      3485.5000        -999.25        -999.25        -999.25        38.6859       37.39682         0.2936         0.3188        -999.25         0.5569      -115.9635      -53.17281     0.09354945     0.01560744
      3486.0000        -999.25        -999.25        -999.25        38.0948       36.90383         0.2929         0.3179        -999.25          0.584      -116.2826      -53.49191     0.08306016    0.009586694
      3486.5000        -999.25        -999.25        -999.25        37.4955       36.40402         0.2923         0.3163        -999.25         0.5834      -116.6771      -53.88641     0.07242592    0.002143284
      3487.0000        -999.25        -999.25        -999.25        37.1907       36.14882         0.2914         0.3153        -999.25         0.5629      -116.8757      -54.08501     0.06699623              0
      3487.5000        -999.25        -999.25        -999.25        37.0496       36.02959         0.2918         0.3136        -999.25         0.5609      -117.0552       -54.2645     0.06445938              0
      3488.0000        -999.25        -999.25        -999.25        37.4826        36.3872         0.2924         0.3132        -999.25         0.5648      -117.3883       -54.5976     0.07206807              0
      3488.5000        -999.25        -999.25        -999.25        38.0699       36.87297          0.293         0.3111        -999.25         0.5631      -117.7688       -54.9781     0.08240355              0
      3489.0000        -999.25        -999.25        -999.25        38.8056       37.48199         0.2928         0.3099        -999.25         0.5509      -117.6949      -54.90421     0.09536159              0
      3489.5000        -999.25        -999.25        -999.25        39.2526       37.85123         0.2951         0.3107        -999.25         0.5556      -117.5194      -54.72871      0.1032178              0
      3490.0000        -999.25        -999.25        -999.25        39.2432       37.84139         0.3013         0.3156        -999.25         0.5726      -117.5933       -54.8026      0.1030083              0
      3490.5000        -999.25        -999.25        -999.25        38.5591       37.27116         0.3131         0.3195        -999.25         0.5824      -117.7057      -54.91501     0.09087566              0
      3491.0000        -999.25        -999.25        -999.25        37.5309       36.41511         0.3198         0.3279        -999.25         0.5884       -117.774      -54.98331     0.07266195              0
      3491.5000        -999.25        -999.25        -999.25        36.3122       35.40085         0.3221         0.3363        -999.25         0.6153      -117.9565       -55.1658     0.05108188              0
      3492.0000        -999.25        -999.25        -999.25        35.4827       34.70984         0.3203         0.3385        -999.25         0.7282      -118.3251      -55.53441     0.03637963              0
      3492.5000        -999.25        -999.25        -999.25        34.8648       34.19459         0.3217         0.3359        -999.25         0.7686       -118.426      -55.63531     0.02541684              0
      3493.0000        -999.25        -999.25        -999.25        34.5788       33.95501         0.3215         0.3324        -999.25         0.7269      -118.2622       -55.4715     0.02031935              0
      3493.5000        -999.25        -999.25        -999.25         34.173       33.61592         0.3214         0.3286        -999.25         0.6218      -117.8794      -55.08871     0.01310462              0
      3494.0000        -999.25        -999.25        -999.25        34.1902       33.62817         0.3122         0.3207        -999.25         0.5586      -117.4977      -54.70701     0.01336532              0
      3494.5000        -999.25        -999.25        -999.25        34.8047       34.13653          0.302         0.3163        -999.25         0.5546      -117.4568      -54.66611     0.02418145              0
      3495.0000        -999.25        -999.25        -999.25         36.715       35.72116         0.2946         0.3132        -999.25         0.5598      -117.3164       -54.5257     0.05789704              0
      3495.5000        -999.25        -999.25        -999.25        38.3741       37.09715         0.2913         0.3124        -999.25         0.5624      -117.4391      -54.64841      0.0871733              0
      3496.0000        -999.25        -999.25        -999.25        39.7699       38.25444         0.2935         0.3131        -999.25         0.5698      -117.3535      -54.56281      0.1117967              0
      3496.5000        -999.25        -999.25        -999.25        40.0728       38.50399          0.297         0.3138        -999.25         0.5647      -117.2024      -54.41171      0.1171062              0
      3497.0000        -999.25        -999.25        -999.25        39.1488        37.7345         0.2994         0.3162        -999.25         0.5584      -117.0938      -54.30311      0.1007341              0
      3497.5000        -999.25        -999.25        -999.25        37.8286       36.63593          0.301         0.3189        -999.25         0.5311      -116.7961       -54.0054     0.07736012              0
      3498.0000        -999.25        -999.25        -999.25        36.5751       35.59275         0.3029         0.3239        -999.25         0.5365      -116.4227        -53.632     0.05516499    0.006943325
      3498.5000        -999.25        -999.25        -999.25        36.2371       35.30999         0.3038         0.3279        -999.25         0.5377      -116.1185       -53.3278     0.04914864     0.01268293
      3499.0000        -999.25        -999.25        -999.25        37.5394       36.38962         0.3035         0.3294        -999.25         0.6099      -115.8619      -53.07121     0.07211953     0.01752443
      3499.5000        -999.25        -999.25        -999.25        39.0389       37.63305         0.3029         0.3296        -999.25         0.9961      -115.6572      -52.86651     0.09857543     0.02138663
      3500.0000        16.3258        33.4378        -0.0005        40.9385       39.20879         0.3097         0.3357        41.7812         1.1463      -115.4524      -52.66171      0.1321019     0.02525085
      3500.5000        16.4753        33.9229         0.0221        42.9431       40.87175         0.3126         0.3374         43.407         1.8234      -115.1094       -52.3187       0.167484     0.03172259
