#------------------------------------------------------------------------------
# Created by    : vladimir.rabinovich
# Created on    : 09/19/2023 17:20:40
#------------------------------------------------------------------------------
~Version Information Section
VERS.           2.0     :   CWLS log ASCII Standard - VERSION 2.0
WRAP.           NO      :   One line per depth step
~Well Information Section
#MNEM       .UNIT                                         VALUE :DESCRIPTION
#------------------------------------------------------------------------------
STRT        .FT                                             400 :START DEPTH
STOP        .FT                                           11002 :STOP DEPTH
STEP        .FT                                             0.5 :STEP      
NULL        .                                           -999.25 :NULL      
COMP        .                            STANOLIND OIL & GAS CO :COMPANY   
WELL        .                                     ST TR 00245-L :WELL      
FLD         .                              GALVESTON BLOCK 0245 :FIELD     
LOC         .                                                   :LOCATION  
CNTY        .                             GALVESTON LARGE BLOCK :LOCATION  
STAT        .                                             TEXAS :STATE     
CTRY        .                                     UNITED STATES :COUNTRY   
SRVC        .                                                   :SERVICE COMPANY
DATE        .                             9/13/2023 11:19:42 AM :LOG DATE  
API         .                                    42706000160000 :API NUMBER
UWI         .                                    42706000160000 :UNIQUE WELL ID
XCOORD      .                                  1024804.26554262 :SURFACE X 
YCOORD      .                                  10549089.4715911 :SURFACE Y 
LAT         .                                        29.0543948 :LATITUDE  
LON         .                                       -94.9272588 :LONGITUDE 
ELEV        .FT                                              11 :ELEVATION VALUE
ELEV_TYPE   .                                                KB :ELEVATION REFERENCE TYPE
~Curve Information Section
#MNEM       .UNIT                                      API CODE :CURVE DESCRIPTION
#------------------------------------------------------------------------------
DEPT        .FT                                                 :DEPTH     
ASN         .OHMM                                               :          
LAT         .OHMM                                               :          
LN          .OHMM                                               :          
SP          .MV                                                 :          
SP_NORM     .MV                                                 :SP Normalized
VSH_SP      .V/V                                                :Volume of Shale from SP
~A        DEPTH            ASN            LAT             LN             SP        SP_NORM         VSH_SP
# ...
      2528.0000          0.618         0.5049         0.2239       -105.376      -41.46089     0.08426458
      2528.5000         0.5851          0.501          0.219      -104.8762      -40.92558     0.09701011
      2529.0000         0.5691         0.4973         0.2142      -104.3767      -40.39056      0.1097485
      2529.5000         0.5556         0.4967         0.2094       -103.877      -39.85535      0.1224917
      2530.0000         0.5456          0.496         0.2046      -103.3774      -39.32024      0.1352325
      2530.5000           0.54         0.4954         0.1998      -103.2777      -39.18503      0.1384517
      2531.0000         0.5475         0.4948          0.195      -103.3622      -39.23401      0.1372855
      2531.5000         0.5797         0.4942         0.1902      -103.4465       -39.2828      0.1361238
      2532.0000         0.6338         0.4935         0.1872       -103.531      -39.33178      0.1349576
      2532.5000         0.6688         0.4895          0.187      -103.6155      -39.38077      0.1337912
      2533.0000         0.6819         0.4817         0.1869      -103.6998      -39.42955      0.1326298
      2533.5000         0.6765         0.4739         0.1867      -103.7843      -39.47855      0.1314632
      2534.0000         0.6711         0.4466         0.1866      -103.8688      -39.52753       0.130297
      2534.5000         0.6536         0.4332         0.1864      -103.9532      -39.57642       0.129133
      2535.0000         0.6101         0.4381         0.1862      -104.0288       -39.6165      0.1281786
      2535.5000         0.5654         0.4431         0.1861      -104.0845      -39.63669      0.1276979
      2536.0000         0.5339          0.448         0.1863        -104.14      -39.65668       0.127222
      2536.5000          0.519         0.4529         0.1881      -104.1957      -39.67686      0.1267413
      2537.0000         0.5176         0.4536           0.19      -104.2513      -39.69695      0.1262632
      2537.5000         0.5202         0.4523         0.1918      -104.3069      -39.71703      0.1257849
      2538.0000         0.5228         0.4511         0.1937      -104.3625      -39.73712      0.1253066
      2538.5000         0.5253         0.4498         0.1955      -104.4182       -39.7573      0.1248262
      2539.0000         0.5319         0.4511         0.1974      -104.4738       -39.7774      0.1243477
      2539.5000           0.55         0.4548         0.2072      -104.4987      -39.76678      0.1246004
      2540.0000         0.5677         0.4585         0.2174      -104.3259      -39.55846      0.1295604
      2540.5000         0.5831         0.4622         0.2277      -104.1532      -39.35025      0.1345178
      2541.0000         0.5924          0.466          0.238      -103.9805      -39.14204      0.1394753
      2541.5000         0.6007         0.4697         0.2482      -103.8077      -38.93372      0.1444352
      2542.0000         0.6072         0.4734         0.2585      -103.6112      -38.70171      0.1499592
      2542.5000         0.6048         0.4826         0.2687      -102.8833       -37.9383      0.1681357
      2543.0000         0.6012         0.4922         0.2753      -102.1554      -37.17489      0.1863122
      2543.5000         0.5952         0.5018         0.2783      -101.4274      -36.41137      0.2044912
      2544.0000         0.5817         0.5114         0.2813      -100.6995      -35.64796      0.2226677
      2544.5000         0.5544         0.5211         0.2843       -99.9716      -34.88455       0.240844
      2545.0000         0.5168         0.5307         0.2873       -97.6571      -32.53453      0.2967969
      2545.5000         0.4801         0.5403         0.2903        -94.079      -28.92092      0.3828352
      2546.0000         0.4417         0.5499         0.2933        -90.501       -25.3074      0.4688714
      2546.5000          0.412         0.5576         0.2963       -85.1096      -19.88049      0.5980837
      2547.0000         0.3743         0.5619         0.2993       -79.0983      -13.83367      0.7420554
      2547.5000         0.3429         0.5663         0.3014       -77.7473      -12.44717      0.7750674
      2548.0000         0.3185         0.5706         0.3002       -76.6152      -11.27955      0.8028679
      2548.5000         0.3036         0.5749         0.2989       -75.4827      -10.11153      0.8306777
      2549.0000           0.29         0.5793         0.2976       -74.3505      -8.943825      0.8584803
      2549.5000         0.2768         0.5836         0.2963       -73.2179      -7.775711      0.8862926
      2550.0000         0.2729         0.5879         0.2951       -72.0852      -6.607498      0.9141072
      2550.5000         0.2769         0.5818         0.2938       -70.9531      -5.439888      0.9419074
      2551.0000            0.3         0.5757         0.2926       -69.8204      -4.271667      0.9697222
      2551.5000         0.4052         0.5695         0.2933       -68.6884      -3.104156      0.9975201
      2552.0000         0.5429         0.5633          0.294       -67.5558      -1.936043              1
      2552.5000         0.6069         0.5572         0.2947       -68.2458      -2.590523              1
      2553.0000         0.6605          0.551         0.2954        -71.594      -5.903221      0.9308757
      2553.5000         0.6872         0.5449         0.2962       -74.9644      -9.238106      0.8514737
      2554.0000         0.7388         0.5387         0.2972       -78.3789      -12.61709      0.7710217
      2554.5000         0.8718         0.5326            0.3       -81.7946      -15.99728       0.690541
      2555.0000         0.8953         0.5264         0.3028       -85.2101      -19.37726      0.6100653
      2555.5000         0.9126           0.52         0.3056       -88.6246      -22.77444      0.5291799
      2556.0000         0.9267         0.5128         0.2989       -93.2183       -27.3766      0.4196047
      2556.5000         0.9364         0.5056         0.2889       -97.8107      -31.97747      0.3100602
      2557.0000         0.9361         0.4985          0.279      -101.7677      -35.94294      0.2156443
      2557.5000         0.9346         0.4913          0.269       -105.116       -39.2997      0.1357215
      2558.0000         0.9331         0.4841         0.2593      -107.7366      -41.92877     0.07312448
      2558.5000         0.9334         0.4769         0.2521      -109.4355      -43.63613     0.03247306
      2559.0000         0.9377         0.4697         0.2448      -111.1345       -45.3436              0
      2559.5000         0.9523         0.4625         0.2376      -112.8335      -47.05106              0
      2560.0000         0.9825         0.4616          0.241      -113.4651      -47.69113              0
      2560.5000          1.013          0.462         0.2548      -113.1962      -47.43069              0
      2561.0000         1.0263         0.4625         0.2686      -112.9272      -47.17016              0
      2561.5000         1.0309          0.463         0.2824      -112.6582      -46.90962              0
      2562.0000         1.0268         0.4634         0.2962      -112.3892      -46.64909              0
      2562.5000         1.0165         0.4639         0.3103      -112.1202      -46.38855              0
      2563.0000         0.9985         0.4643          0.327      -111.8513      -46.12812              0
      2563.5000         0.9408         0.4648         0.3437      -111.5648      -45.85007              0
      2564.0000          0.874         0.4653         0.3604      -109.7129      -44.00665     0.02365131
      2564.5000         0.8149         0.4657         0.3771      -107.8608      -42.16301     0.06754739
      2565.0000         0.7308         0.4667         0.3938      -106.0088      -40.31947      0.1114411
      2565.5000         0.6913         0.4681         0.4105      -104.1558      -38.47494      0.1553586
