#------------------------------------------------------------------------------
# Created by    : vladimir.rabinovich
# Created on    : 09/19/2023 17:21:03
#------------------------------------------------------------------------------
~Version Information Section
VERS.           2.0     :   CWLS log ASCII Standard - VERSION 2.0
WRAP.           NO      :   One line per depth step
~Well Information Section
#MNEM       .UNIT                                         VALUE :DESCRIPTION
#------------------------------------------------------------------------------
STRT        .FT                                          2542.5 :START DEPTH
STOP        .FT                                            8214 :STOP DEPTH
STEP        .FT                                             0.5 :STEP      
NULL        .                                           -999.25 :NULL      
COMP        .                          SEAGULL ENERGY E & P INC :COMPANY   
WELL        .                               OCS G12505 ST00BP00 :WELL      
FLD         .                              GALVESTON BLOCK 0357 :FIELD     
LOC         .                                                   :LOCATION  
CNTY        .                             GALVESTON LARGE BLOCK :LOCATION  
STAT        .                                             TEXAS :STATE     
CTRY        .                                     UNITED STATES :COUNTRY   
SRVC        .                                                   :SERVICE COMPANY
DATE        .                             9/13/2023 11:19:54 AM :LOG DATE  
API         .                                    42706403610000 :API NUMBER
UWI         .                                    42706403610000 :UNIQUE WELL ID
XCOORD      .                                  1003713.76055251 :SURFACE X 
YCOORD      .                                  10412171.7759297 :SURFACE Y 
LAT         .                                          28.67696 :LATITUDE  
LON         .                                        -94.986081 :LONGITUDE 
ELEV        .FT                                              96 :ELEVATION VALUE
ELEV_TYPE   .                                                KB :ELEVATION REFERENCE TYPE
~Curve Information Section
#MNEM       .UNIT                                      API CODE :CURVE DESCRIPTION
#------------------------------------------------------------------------------
DEPT        .FT                                                 :DEPTH     
AT10        .OHMM                                               :          
AT20        .OHMM                                               :          
AT30        .OHMM                                               :          
AT60        .OHMM                                               :          
AT90        .OHMM                                               :          
DCAL        .IN                                                 :          
DPSS        .V/V                                                :          
DTLF        .US/FT                                              :          
DTLN        .US/FT                                              :          
GR          .GAPI                                               :          
GR_NORM     .GAPI                                               :GammaRay Normalized
NPSS        .V/V                                                :Neutron Porosity Sandstone
SP          .MV                                                 :          
SP_NORM     .MV                                                 :SP Normalized
TENS        .LB                                                 :          
VSH_GR      .V/V                                                :Volume of Shale from GR
VSH_SP      .V/V                                                :Volume of Shale from SP
~A        DEPTH           AT10           AT20           AT30           AT60           AT90           DCAL           DPSS           DTLF           DTLN             GR        GR_NORM           NPSS             SP        SP_NORM           TENS         VSH_GR         VSH_SP
# ...
      6007.5000         0.6439         0.6375         0.6247         0.6184         0.6061           2.08         0.2244          117.8          118.4        97.7133       82.26488         0.3972         2.3465      -2.504225       3083.333              1      0.9642254
      6008.0000         0.6506         0.6441         0.6312         0.6248         0.6123           2.08          0.216          117.8          118.4        96.9084       81.29939         0.4164         2.3564      -2.497418       3083.333              1      0.9643226
      6008.5000         0.6642         0.6508         0.6377         0.6313         0.6186           2.08           0.18          117.8          118.4        96.3053       80.57604         0.4188         1.9663      -2.890612       3083.333              1      0.9587055
      6009.0000         0.6644         0.6577         0.6444         0.6378          0.625           2.08         0.1447          117.6          118.2        97.5331       82.04978           0.42         1.9762      -2.883806       3083.333              1      0.9588028
      6009.5000         0.6646         0.6579         0.6445          0.638         0.6251           2.08         0.1282          117.6          118.2       101.3861       86.67376           0.42         1.9861         -2.877       3083.333              1         0.9589
      6010.0000         0.6581         0.6447         0.6447         0.6381         0.6251           2.12         0.1529            118          118.6        101.396       86.68603         0.4212          1.996      -2.870193       3083.333              1      0.9589972
      6010.5000         0.6581         0.6448         0.6252         0.6188         0.6062           2.12           0.18          118.4            119            100        85.0112           0.42            1.6      -3.269287       3083.333              1      0.9532959
      6011.0000         0.6514         0.6448         0.6252         0.6188         0.6062           2.08         0.1944          118.8          119.4            100       85.01159         0.4176            1.4       -3.47238       3083.333              1      0.9503946
      6011.5000         0.6448         0.6448         0.6252         0.6188         0.6062           2.04         0.2028            119          119.6            102       87.41197         0.4296            1.2      -3.675474       3083.333              1      0.9474933
      6012.0000         0.6448         0.6382         0.6252         0.6188         0.6062           2.04         0.2136          119.2          119.8          103.4       89.09235         0.4404            0.8      -4.078568       3083.333              1      0.9417347
      6012.5000         0.6448         0.6382         0.6252         0.6188         0.6062           2.04         0.2304          119.4            120          102.2       87.65273         0.4428            0.4      -4.481661       3166.667              1      0.9359763
      6013.0000         0.6382         0.6316         0.6252         0.6188         0.6062           2.04         0.2388          119.6       120.1961        99.3878       84.27847         0.4368            0.2      -4.684755       3166.667              1       0.933075
      6013.5000         0.6316         0.6316         0.6252         0.6188         0.6062           2.04         0.2544          119.8       120.3922        98.1633       82.80946         0.4356            0.4      -4.487848       3166.667              1      0.9358879
      6014.0000         0.6252         0.6252         0.6125         0.6062         0.5948           2.04         0.2748          119.6       120.1961        98.9796       83.78939         0.4476            0.6      -4.290942       3166.667              1      0.9387009
      6014.5000         0.6188         0.6188         0.6125         0.6062         0.5948           2.04         0.2868          119.2          119.8        99.5918       84.52441         0.4464              1      -3.894036       3166.667              1      0.9443709
      6015.0000         0.6252         0.6125         0.6188         0.6125            0.6           2.08         0.2868          118.8          119.4        99.5918        84.5248         0.4428            1.4      -3.497129       3166.667              1       0.950041
      6015.5000         0.6382         0.6316         0.6252         0.6188         0.6062           2.08          0.294          117.8          118.4        99.1837       84.03545          0.432            1.4      -3.500223       3166.667              1      0.9499968
      6016.0000         0.6718         0.6649         0.6514         0.6448         0.6316           2.12         0.3036          116.4            117        97.1429       81.58688           0.42            0.8      -4.103316       3166.667              1      0.9413812
      6016.5000         0.7126            0.7         0.6858         0.6787         0.6649           2.12         0.2964          114.4            115         95.102       79.13817         0.3996            0.2       -4.70641       3166.667      0.9816632      0.9327655
      6017.0000          0.745         0.7319         0.7189         0.7126            0.7           2.16         0.2712          112.6          113.2        92.8571       76.44468         0.3864        -0.4082      -5.317704       3166.667      0.9243549      0.9240328
      6017.5000          0.772         0.7652         0.7384         0.7319         0.7189            2.2         0.2484          110.6          111.2        91.8367       75.22057         0.3756        -1.6327      -6.545298       3166.667      0.8983101      0.9064957
      6018.0000         0.7929         0.7859         0.7652         0.7584          0.745            2.2         0.2268            110          110.6        91.2245       74.48632         0.3732        -1.8367      -6.752391       3166.667      0.8826877      0.9035373
      6018.5000         0.7859         0.8073         0.7652         0.7584          0.745            2.2         0.2076       109.7959          110.4        92.0408       75.46625         0.3924        -1.8367      -6.755485       3166.667      0.9035372      0.9034931
      6019.0000          0.772         0.7859         0.7517          0.745         0.7319            2.2         0.2052            110          110.6        93.4694       77.18095         0.3948        -0.8163      -5.738178       3166.667      0.9400203       0.918026
      6019.5000         0.7517         0.7584         0.7384         0.7319         0.7189           2.16         0.2112            111          111.6        93.8776       77.67118         0.3924        -0.2041      -5.129072       3166.667      0.9504507      0.9267275
      6020.0000         0.7384         0.7384         0.7189         0.7126            0.7           2.12         0.2172            112          112.6        93.6735       77.42664         0.3984            0.4      -4.528066       3166.667      0.9452476      0.9353133
      6020.5000         0.7189         0.7126         0.7063            0.7         0.6858           2.12         0.2232          112.8          113.4        93.2653       76.93717         0.4092            0.8      -4.131159       3166.667      0.9348335      0.9409835
      6021.0000            0.7         0.6928         0.6858         0.6787         0.6649           2.16         0.2256            113          113.6        92.2449       75.71307         0.4152            1.8      -3.134253       3166.667      0.9087888      0.9552249
      6021.5000            0.7         0.6858         0.6858         0.6787         0.6649            2.2         0.2208          112.8          113.4        92.2449       75.71346          0.414            2.4      -2.537346       3166.667      0.9087971      0.9637522
      6022.0000         0.7126            0.7         0.6858         0.6787         0.6649           2.16         0.2136          112.4            113        92.2449       75.71384         0.4104            2.2       -2.74044       3166.667       0.908805      0.9608508
