#------------------------------------------------------------------------------
# Created by    : vladimir.rabinovich
# Created on    : 09/19/2023 17:19:46
#------------------------------------------------------------------------------
~Version Information Section
VERS.           2.0     :   CWLS log ASCII Standard - VERSION 2.0
WRAP.           NO      :   One line per depth step
~Well Information Section
#MNEM       .UNIT                                         VALUE :DESCRIPTION
#------------------------------------------------------------------------------
STRT        .FT                                             290 :START DEPTH
STOP        .FT                                         11377.5 :STOP DEPTH
STEP        .FT                                             0.5 :STEP      
NULL        .                                           -999.25 :NULL      
COMP        .                         SONAT EXPLORATION GOM INC :COMPANY   
WELL        .                               OCS G04571 ST00BP00 :WELL      
FLD         .                                           WILDCAT :FIELD     
LOC         .                                                   :LOCATION  
CNTY        .                           HIGH ISLAND LARGE BLOCK :LOCATION  
STAT        .                                             TEXAS :STATE     
CTRY        .                                     UNITED STATES :COUNTRY   
SRVC        .                                                   :SERVICE COMPANY
DATE        .                             9/13/2023 11:19:19 AM :LOG DATE  
API         .                                    42708401190000 :API NUMBER
UWI         .                                    42708401190000 :UNIQUE WELL ID
XCOORD      .                                  1324427.25220013 :SURFACE X 
YCOORD      .                                  10679041.7751219 :SURFACE Y 
LAT         .                                         29.422046 :LATITUDE  
LON         .                                        -93.992863 :LONGITUDE 
ELEV        .FT                                             116 :ELEVATION VALUE
ELEV_TYPE   .                                                KB :ELEVATION REFERENCE TYPE
~Curve Information Section
#MNEM       .UNIT                                      API CODE :CURVE DESCRIPTION
#------------------------------------------------------------------------------
DEPT        .FT                                                 :DEPTH     
ASFL        .OHMM                                               :          
CALI        .IN                                                 :          
CILD        .MMHO                                               :          
GR          .GAPI                                               :          
GR_NORM     .GAPI                                               :GammaRay Normalized
ILD         .OHMM                                               :          
RHOB        .G/C3                                               :          
SP          .MV                                                 :          
SP_NORM     .GAPI                                               :SP Normalized
VSH_GR      .V/V                                                :Volume of Shale from GR
VSH_SP      .V/V                                                :Volume of Shale from SP
~A        DEPTH           ASFL           CALI           CILD             GR        GR_NORM            ILD           RHOB             SP        SP_NORM         VSH_GR         VSH_SP
# ...
      4722.5000         0.5013         16.096       2616.105        66.4449       77.38255         0.4321         2.2301       -63.9985      -13.02524      0.9443097      0.8139251
      4723.0000         0.4989        16.1465       2730.316        66.9069       78.05149         0.4292         2.2108       -64.7865      -13.77023      0.9585423      0.8032824
      4723.5000         0.4964        16.2084       2794.352        66.6621       77.69704         0.4276          2.186       -65.5363      -14.47956      0.9510008      0.7931491
      4724.0000         0.4939        16.2667        2823.66        66.4172       77.34245         0.4261         2.1743       -66.1925      -15.10153      0.9434565      0.7842638
      4724.5000         0.4915        16.2931       2821.934        66.1725       76.98816         0.4245         2.1866       -66.5005      -15.39853      0.9359183      0.7800211
      4725.0000         0.4887        16.1924       2810.992        65.9277       76.63371         0.4229         2.1989       -66.6135      -15.51351      0.9283769      0.7783784
      4725.5000         0.4857        15.9735       2788.164        65.5527       76.09074         0.4214         2.2072       -66.4052      -15.32861      0.9168243      0.7810198
      4726.0000         0.4826        15.8753       2764.395        65.1615       75.52433         0.4198          2.223       -65.5641      -14.55311       0.904773      0.7920984
      4726.5000         0.4795        15.8153       2701.898        64.7703       74.95792         0.4183          2.253       -64.3331       -13.4137      0.8927218      0.8083758
      4727.0000         0.4765        15.7843       2648.992        64.3793        74.3918         0.4177         2.2659       -63.6528      -12.78827      0.8806766      0.8173104
      4727.5000         0.4734        15.7443       2600.059        63.9881       73.82538         0.4172         2.2417       -63.0392       -12.2251       0.868625      0.8253557
      4728.0000         0.4714        15.6962       2569.258        63.5969       73.25898         0.4167         2.2056       -62.4321      -11.66799      0.8565741      0.8333144
      4728.5000         0.4721        15.6261        2545.09        63.8248       73.58894         0.4162          2.191       -62.3032      -11.55721      0.8635944       0.834897
      4729.0000         0.4728         15.591       2520.945        64.4595       74.50792         0.4157          2.206       -62.1742      -11.44633      0.8831472       0.836481
      4729.5000         0.4751        15.6258       2493.918        65.6458       76.22556         0.4152         2.2441       -61.4953      -10.82221      0.9196927       0.845397
      4730.0000         0.4818        15.7599       2466.449        66.8322       77.94334         0.4147         2.2709       -61.6778      -11.00206      0.9562412      0.8428277
      4730.5000         0.4885        15.9989       2450.602        67.7631       79.29118         0.4142          2.274       -62.0267      -11.33722      0.9849188      0.8380396
      4731.0000         0.4952        15.8828       2441.645         68.548       80.42762         0.4137         2.2682       -62.3752      -11.67201              1       0.833257
      4731.5000         0.5019        15.6893       2440.484        69.3335       81.56495         0.4132           2.25       -62.7211      -12.00437              1       0.828509
      4732.0000         0.5038        15.5224       2445.594        70.1184        82.7014         0.4127         2.2416       -62.9517      -12.22912              1      0.8252983
      4732.5000         0.5034        15.3823       2450.703        70.6111       83.41478          0.411         2.2362       -63.1824      -12.45396              1      0.8220863
      4733.0000         0.5025        15.3366       2464.512        70.8508       83.76183         0.4094         2.2244       -63.4131       -12.6788              1      0.8188742
      4733.5000         0.4979        15.1995       2483.836        71.0903        84.1086         0.4077         2.2019       -63.5606      -12.82599              1      0.8167716
      4734.0000         0.4933        15.0599       2503.172        71.3301       84.45581         0.4061         2.1865       -63.1945      -12.49382              1      0.8215169
      4734.5000         0.4887        14.9613       2525.418        70.8864       83.81339         0.4045         2.1899       -62.8283      -12.16155              1      0.8262635
      4735.0000          0.484        14.9472       2551.199        70.0621        82.6199         0.4028          2.213       -62.4621      -11.82929              1      0.8310102
      4735.5000         0.4816        15.0573        2576.66        66.2816       77.14612         0.4012         2.2321       -61.8825      -11.29785      0.9392791      0.8386022
      4736.0000         0.4796        15.1521       2598.766        63.3547       72.90829         0.3995          2.239       -61.2263      -10.69491      0.8491125      0.8472155
      4736.5000         0.4775        15.2046       2620.875        63.9263        73.7359         0.3979         2.2273       -60.1754      -9.723594      0.8667213      0.8610915
      4737.0000         0.4758        15.1575       2641.949        64.9808       75.26271         0.3962         2.2027       -58.6377      -8.297927      0.8992066      0.8814582
      4737.5000         0.4757        15.0875       2660.754        65.8339       76.49789         0.3953         2.1947       -64.8304       -14.0873      0.9254871      0.7987528
      4738.0000         0.4756        15.0076       2679.543        66.4147       77.33883         0.3952         2.2007       -66.8074      -15.94203      0.9433793      0.7722568
      4738.5000         0.4755        14.9721       2698.109        66.9949       78.17892         0.3951         2.2113       -68.4341      -17.46979      0.9612537      0.7504315
      4739.0000         0.4791        15.0286       2715.301        67.5757       79.01984         0.3949          2.213       -69.5314      -18.50347      0.9791455      0.7356648
      4739.5000         0.4858        15.0605       2715.957        68.1954       79.91708         0.3948         2.2139       -68.7446      -17.77864      0.9982358      0.7460195
      4740.0000         0.4924        15.0599       2696.582         68.937       80.99086         0.3947         2.2237       -67.6714      -16.78651              1      0.7601928
      4740.5000          0.501         15.043       2667.324        69.6787       82.06477         0.3946         2.2385       -66.5977      -15.79391              1      0.7743728
      4741.0000         0.5165        15.0833       2628.473        70.3535        83.0418         0.3944         2.2468       -65.5244      -14.80168              1      0.7885474
      4741.5000          0.502        15.1614       2589.625        71.0061        83.9867         0.3943         2.2439       -64.5781      -13.92799              1      0.8010287
      4742.0000         0.4944        15.2584        2551.77        71.6586       84.93144         0.3942         2.2281       -63.6868      -13.10563              1      0.8127767
      4742.5000         0.4868        15.3736       2517.516        72.3105       85.87533          0.394         2.2183       -62.8339      -12.31911              1      0.8240127
      4743.0000         0.4785        15.4977       2483.266        73.9602       88.26392         0.3961         2.2229       -62.0093        -11.559              1      0.8348714
      4743.5000         0.4695        15.6196       2454.945        75.3878       90.33092         0.3988         2.2294        -61.217      -10.82904              1      0.8452994
      4744.0000         0.4632        15.7419       2429.512        75.8864       91.05284         0.4016          2.235       -60.3387      -10.01882              1       0.856874
      4744.5000         0.4634        15.8658       2404.289        70.3406       83.02312         0.4044         2.2339        -59.088       -8.86102              1       0.873414
