#------------------------------------------------------------------------------
# Created by    : vladimir.rabinovich
# Created on    : 09/19/2023 17:21:24
#------------------------------------------------------------------------------
~Version Information Section
VERS.           2.0     :   CWLS log ASCII Standard - VERSION 2.0
WRAP.           NO      :   One line per depth step
~Well Information Section
#MNEM       .UNIT                                         VALUE :DESCRIPTION
#------------------------------------------------------------------------------
STRT        .FT                                            4000 :START DEPTH
STOP        .FT                                            8085 :STOP DEPTH
STEP        .FT                                             0.5 :STEP      
NULL        .                                           -999.25 :NULL      
COMP        .                             WALTER OIL & GAS CORP :COMPANY   
WELL        .                               OCS G09047 ST00BP00 :WELL      
FLD         .                              GALVESTON BLOCK 0351 :FIELD     
LOC         .                                                   :LOCATION  
CNTY        .                             GALVESTON LARGE BLOCK :LOCATION  
STAT        .                                             TEXAS :STATE     
CTRY        .                                     UNITED STATES :COUNTRY   
SRVC        .                                                   :SERVICE COMPANY
DATE        .                             9/13/2023 11:19:36 AM :LOG DATE  
API         .                                    42706402000000 :API NUMBER
UWI         .                                    42706402000000 :UNIQUE WELL ID
XCOORD      .                                  1036183.96101641 :SURFACE X 
YCOORD      .                                  10437562.0132666 :SURFACE Y 
LAT         .                                        28.7482272 :LATITUDE  
LON         .                                       -94.8860948 :LONGITUDE 
ELEV        .FT                                              80 :ELEVATION VALUE
ELEV_TYPE   .                                                KB :ELEVATION REFERENCE TYPE
~Curve Information Section
#MNEM       .UNIT                                      API CODE :CURVE DESCRIPTION
#------------------------------------------------------------------------------
DEPT        .FT                                                 :DEPTH     
CALI        .IN                                                 :          
DRHO        .G/C3                                               :          
GR          .GAPI                                               :          
GR_NORM     .GAPI                                               :GammaRay Normalized
ILD         .OHMM                                               :          
ILM         .OHMM                                               :          
NPHI        .%                                                  :          
RHOB        .G/C3                                               :          
SFL         .OHMM                                               :          
SP          .MV                                                 :          
SP_NORM     .MV                                                 :SP Normalized
VSH_GR      .V/V                                                :Volume of Shale from GR
VSH_SP      .V/V                                                :Volume of Shale from SP
~A        DEPTH           CALI           DRHO             GR        GR_NORM            ILD            ILM           NPHI           RHOB            SFL             SP        SP_NORM         VSH_GR         VSH_SP
# ...
      6185.0000         9.6116         0.1043        65.3668       54.48163          0.558          0.604        34.3448         2.3624         0.7788       -57.7209      -12.07624       0.457056      0.8274822
      6185.5000          9.618         0.0789        69.4636       59.03363         0.5728           0.61        35.8392         2.3604         0.7539       -54.5934      -8.954334      0.5539071      0.8720809
      6186.0000         9.6243         0.0762        73.8297       63.88485         0.5818         0.6142        36.2007         2.3563         0.7299       -51.7787      -6.145229      0.6571245       0.912211
      6186.5000          9.655         0.0823        78.6991        69.2953         0.5903         0.6184         35.798         2.3537         0.7265       -50.0198      -4.391918      0.7722403      0.9372583
      6187.0000         9.6881         0.0921         82.183        73.1663         0.5989         0.6227        35.3951         2.3541          0.729        -49.393       -3.77071      0.8546021      0.9461327
      6187.5000         9.7223         0.0857        84.6675       75.92686         0.6021         0.6236        35.2342         2.3605         0.7437       -49.2609      -3.644199      0.9133375        0.94794
      6188.0000         9.7627         0.0775        85.0687       76.37263         0.6028          0.624        35.1227         2.3641         0.7599        -49.363      -3.751892       0.922822      0.9464015
      6188.5000         9.8031         0.0751         82.619       73.65075         0.6035         0.6244        35.2981         2.3633         0.7579       -50.1305      -4.524986      0.8649095      0.9353573
      6189.0000         9.8436         0.0731         80.522       71.32075         0.6032         0.6259        35.5608          2.361         0.7516       -50.3157      -4.715778       0.815335      0.9326317
      6189.5000         9.8939         0.0835        79.6205       70.31908         0.5948         0.6293        35.8369         2.3579         0.7454       -50.0513       -4.45697      0.7940229       0.936329
      6190.0000         9.9477         0.0974        82.7587       73.80597         0.5864         0.6328        36.2772         2.3551          0.741       -49.6526      -4.063862      0.8682121      0.9419448
      6190.5000        10.0015         0.1052        86.0074       77.41563         0.5782         0.6361        36.7171         2.3534         0.7366       -50.0098      -4.426655      0.9450135      0.9367621
      6191.0000        10.0328         0.1131        85.7722        77.1543         0.5664         0.6392        37.1447         2.3516         0.7323       -50.6202      -5.042645      0.9394533      0.9279622
      6191.5000         9.9854         0.1176        83.7906       74.95253         0.5549         0.6422        37.2454         2.3585         0.7432       -52.7019      -7.129936       0.892607      0.8981438
      6192.0000         9.8493         0.1216        81.5664       72.48119         0.5428         0.6257        37.0967         2.3656         0.7614       -55.0888      -9.522427      0.8400252      0.8639653
      6192.5000         9.7856         0.1038        78.9542       69.57875         0.5308         0.6034        35.9711         2.3675         0.7955       -59.3773      -13.81652      0.7782713      0.8026211
      6193.0000         9.7644         0.0783        75.7167       65.98152         0.5231         0.5822        34.9774          2.363         0.8236       -66.5079      -20.95271      0.7017345      0.7006756
      6193.5000         9.7789         0.0654        71.0829       60.83286         0.5182         0.5711        34.5382         2.3499         0.8129       -70.4036      -24.85401      0.5921885      0.6449428
      6194.0000         9.7935         0.0693        68.0055       57.41352         0.5153         0.5625        35.7672         2.3485         0.7691       -67.7839      -22.23989      0.5194367      0.6822872
      6194.5000          9.885         0.0728         72.304       62.18964         0.5157         0.5608        36.8306         2.3526         0.7292       -60.6733      -15.13489      0.6210561      0.7837873
      6195.0000         9.9763         0.0757        79.8099       70.52953         0.5162         0.5609        37.8303         2.3538         0.7171       -56.1935      -10.66068      0.7985005      0.8477045
      6195.5000        10.0286         0.0787        82.6472       73.68208         0.5207         0.5617        38.7761         2.3265         0.7086       -55.4069      -9.879669      0.8655762      0.8588619
      6196.0000          9.977         0.0812        85.0692       76.37319         0.5289         0.5661        39.5648         2.3006         0.7131       -55.6954      -10.17376      0.9228339      0.8546605
      6196.5000           9.87         0.0836        86.6868       78.17052         0.5372         0.5706        39.6633         2.2949         0.7184       -55.8925      -10.37646       0.961075      0.8517649
      6197.0000         9.7821          0.086        87.7676       79.37141         0.5427         0.5751        39.6784         2.3037         0.7225       -55.4566      -9.946148      0.9866259      0.8579122
      6197.5000         9.7278         0.0889        88.5626       80.25475         0.5441         0.5755        39.7428         2.3147         0.7243       -54.7592      -9.254341              1      0.8677951
      6198.0000         9.6736         0.0921        88.4387       80.11708         0.5456         0.5728        39.9161         2.3228         0.7261       -54.4489      -8.949631              1      0.8721482
      6198.5000         9.6203         0.0952        87.6616       79.25363          0.547         0.5701        40.1647         2.3272         0.7198       -54.2187      -8.725025      0.9841198      0.8753568
      6199.0000         9.5676         0.0966        87.7068       79.30386         0.5453         0.5674        40.5889          2.329         0.7114       -54.1517      -8.663616      0.9851886      0.8762341
      6199.5000          9.513         0.0959        90.5886       82.50586         0.5428         0.5652        40.8857         2.3331         0.7193       -51.2657      -5.783211              1      0.9173827
      6200.0000         9.4552         0.0952        93.8838       86.16719         0.5404         0.5644         40.134         2.3434         0.8146       -48.7562      -3.279297              1      0.9531529
      6200.5000         9.3976         0.0945        92.9805       85.16352          0.538         0.5636         39.871         2.3507         0.8253       -46.5107      -1.039391              1      0.9851516
      6201.0000         9.3464         0.0945         92.061       84.14185         0.5359         0.5628        39.6834         2.3523         0.8246       -45.7407     -0.2749825              1      0.9960717
      6201.5000          9.298         0.0993        91.5957       83.62486         0.5338          0.562        39.7325         2.3512         0.8239       -45.3788     0.08132553              1              1
      6202.0000         9.2622          0.104        91.5764       83.60342         0.5317         0.5616        39.7817         2.3463          0.823       -45.0167      0.4378319              1              1
      6202.5000         9.2893         0.1088        91.6261       83.65863         0.5301         0.5617        39.7388         2.3427         0.8216        -44.939      0.5099411              1              1
      6203.0000         9.3164         0.1067        91.4862       83.50319         0.5298         0.5618        39.6896         2.3396         0.8201       -44.8906      0.5527496              1              1
      6203.5000         9.3518          0.104        91.3242        83.3232         0.5295         0.5619        39.4285         2.3392         0.8187       -44.8423      0.5954552              1              1
