#------------------------------------------------------------------------------
# Created by    : vladimir.rabinovich
# Created on    : 09/19/2023 17:20:33
#------------------------------------------------------------------------------
~Version Information Section
VERS.           2.0     :   CWLS log ASCII Standard - VERSION 2.0
WRAP.           NO      :   One line per depth step
~Well Information Section
#MNEM       .UNIT                                         VALUE :DESCRIPTION
#------------------------------------------------------------------------------
STRT        .FT                                             510 :START DEPTH
STOP        .FT                                            9509 :STOP DEPTH
STEP        .FT                                             0.5 :STEP      
NULL        .                                           -999.25 :NULL      
COMP        .                       BLUE DOLPHIN EXPLORATION CO :COMPANY   
WELL        .                                OCS 00714 ST00BP00 :WELL      
FLD         .                              GALVESTON BLOCK 0288 :FIELD     
LOC         .                                                   :LOCATION  
CNTY        .                             GALVESTON LARGE BLOCK :LOCATION  
STAT        .                                             TEXAS :STATE     
CTRY        .                                     UNITED STATES :COUNTRY   
SRVC        .                                                   :SERVICE COMPANY
DATE        .                             9/13/2023 11:19:25 AM :LOG DATE  
API         .                                    42706000660000 :API NUMBER
UWI         .                                    42706000660000 :UNIQUE WELL ID
XCOORD      .                                  1093932.46617998 :SURFACE X 
YCOORD      .                                  10479390.8980397 :SURFACE Y 
LAT         .                                         28.865655 :LATITUDE  
LON         .                                       -94.7077791 :LONGITUDE 
ELEV        .FT                                              83 :ELEVATION VALUE
ELEV_TYPE   .                                                KB :ELEVATION REFERENCE TYPE
~Curve Information Section
#MNEM       .UNIT                                      API CODE :CURVE DESCRIPTION
#------------------------------------------------------------------------------
DEPT        .FT                                                 :DEPTH     
ASN         .OHMM                                               :          
CALI        .IN                                                 :          
DT          .US/F                                               :          
IL          .OHMM                                               :          
SP          .MV                                                 :          
SP_NORM     .MV                                                 :SP Normalized
VSH_SP      .V/V                                                :Volume of Shale from SP
~A        DEPTH            ASN           CALI             DT             IL             SP        SP_NORM         VSH_SP
# ...
      8885.0000         1.3939        -999.25        -999.25          0.998       -52.4694      -13.67531       0.692755
      8885.5000         1.3568        -999.25        -999.25         1.0095       -50.6574      -11.87035      0.7402539
      8886.0000         1.3992        -999.25        -999.25         1.0203       -48.1351      -9.355095      0.8064449
      8886.5000         1.5258        -999.25        -999.25         1.0161        -46.358      -7.585037      0.8530253
      8887.0000         1.6512        -999.25        -999.25          1.012       -46.3388      -7.572876      0.8533454
      8887.5000         1.7401        -999.25        -999.25         0.9755        -48.144       -9.38512      0.8056547
      8888.0000         1.7289        -999.25        -999.25         0.9254       -53.6339      -14.88206      0.6609984
      8888.5000         1.6355        -999.25        -999.25          0.913       -55.6234       -16.8786      0.6084579
      8889.0000         1.4667        -999.25        -999.25          0.922       -57.3589      -18.62114      0.5626016
      8889.5000         1.3156        -999.25        -999.25         0.9098       -57.3522      -18.62148      0.5625926
      8890.0000         1.2411        -999.25        -999.25          0.892        -54.659      -15.93533      0.6332809
      8890.5000         1.2194        -999.25        -999.25         0.8743       -53.6165      -14.89987      0.6605298
      8891.0000         1.1981        -999.25        -999.25         0.8593       -52.4131      -13.70351      0.6920129
      8891.5000          1.213        -999.25        -999.25         0.8542       -50.3787      -11.67615      0.7453644
      8892.0000         1.2824        -999.25        -999.25         0.8807        -49.553      -10.85749       0.766908
      8892.5000         1.3897        -999.25        -999.25         0.9131       -52.8785      -14.19003      0.6792096
      8893.0000         1.4316        -999.25        -999.25         0.9482       -58.6786      -19.99717      0.5263902
      8893.5000         1.4139        -999.25        -999.25         0.9535       -60.7727      -22.09832      0.4710969
      8894.0000         1.3806        -999.25        -999.25         0.9464       -56.6643      -17.99696      0.5790275
      8894.5000         1.3267        -999.25        -999.25         0.9262       -51.5297       -12.8694      0.7139632
      8895.0000         1.2712        -999.25        -999.25         0.9005       -50.1876      -11.53434      0.7490963
      8895.5000         1.2262        -999.25        -999.25         0.8727       -51.4037      -12.75748      0.7169083
      8896.0000         1.1989        -999.25        -999.25         0.8457       -54.2858      -15.64662      0.6408784
      8896.5000         1.1624        -999.25        -999.25         0.8131       -58.8315      -20.19936      0.5210693
      8897.0000         1.1516        -999.25        -999.25         0.7759       -60.7244       -22.0993      0.4710709
      8897.5000         1.1747        -999.25        -999.25         0.7559       -58.6179      -19.99985      0.5263198
      8898.0000         1.2455        -999.25        -999.25         0.7526       -63.5704      -24.95939      0.3958056
      8898.5000         1.2967        -999.25        -999.25         0.7553       -68.4893      -29.88533      0.2661754
      8899.0000         1.3265        -999.25        -999.25         0.7531       -72.6976      -34.10067      0.1552454
      8899.5000         1.3305        -999.25        -999.25          0.751       -73.5935      -35.00361      0.1314839
      8900.0000         1.2962        -999.25        -999.25         0.7519       -72.6752      -34.09235      0.1554644
      8900.5000         1.2711        -999.25        -999.25         0.7628       -68.4172      -29.84139      0.2673318
      8901.0000         1.2633        -999.25        -999.25         0.7963       -63.0129      -24.44414      0.4093648
      8901.5000         1.2798        -999.25        -999.25         0.8499        -58.184      -19.62228      0.5362559
      8902.0000         1.2637        -999.25        -999.25         0.9048       -54.8164      -16.26172      0.6246916
      8902.5000         1.2719        -999.25        -999.25         0.9532       -52.6245      -14.07686      0.6821879
      8903.0000         1.2709        -999.25        -999.25         0.9804       -50.7923      -12.25171      0.7302183
      8903.5000         1.2785        -999.25        -999.25         0.9965          -50.2      -11.66644        0.74562
      8904.0000         1.2988        -999.25        -999.25         1.0064       -49.2782      -10.75168      0.7696926
      8904.5000         1.2866        -999.25        -999.25         1.0247       -48.9073      -10.38783      0.7792678
      8905.0000         1.2882        -999.25        -999.25         1.0332       -50.9879      -12.47547      0.7243298
      8905.5000         1.3092        -999.25        -999.25         1.0177       -51.3431      -12.83771      0.7147971
      8906.0000         1.3185        -999.25        -999.25         0.9621       -51.7882      -13.28985      0.7028986
      8906.5000         1.2754        -999.25        -999.25         0.9088       -57.9637      -19.47239      0.5402002
      8907.0000         1.1781        -999.25        -999.25         0.8296       -60.4647      -21.98043      0.4741991
      8907.5000         1.1464        -999.25        -999.25         0.7798       -60.1421      -21.66488      0.4825033
      8908.0000         1.1277        -999.25        -999.25         0.7594       -61.5651      -23.09492      0.4448706
      8908.5000         1.1392        -999.25        -999.25         0.7462       -69.7391      -31.27596      0.2295801
      8909.0000         1.1405        -999.25        -999.25         0.7279       -71.8995       -33.4434      0.1725422
      8909.5000         1.1224        -999.25        -999.25          0.707       -73.6149      -35.16584      0.1272147
      8910.0000         1.1238        -999.25        -999.25         0.6843       -74.7749      -36.33289       0.096503
      8910.5000         1.1407        -999.25        -999.25         0.6767       -75.8557      -37.42072     0.06787571
      8911.0000         1.1228        -999.25        -999.25         0.6794        -76.416      -37.98807     0.05294559
      8911.5000         1.0955        -999.25        -999.25         0.6981       -74.2308       -35.8099      0.1102657
      8912.0000         1.0803        -999.25        -999.25         0.7182       -71.2814      -32.86755      0.1876961
      8912.5000          1.085        -999.25        -999.25         0.7429       -69.3143      -30.90749      0.2392766
      8913.0000         1.0223        -999.25        -999.25         0.7678       -70.0685      -31.66873       0.219244
      8913.5000         0.9907        -999.25        -999.25         0.7905       -67.2843      -28.89157       0.292327
      8914.0000         0.9971        -999.25        -999.25         0.8017       -62.8674      -24.48172      0.4083759
      8914.5000         1.0328        -999.25        -999.25         0.8033       -65.7645      -27.38586      0.3319511
      8915.0000         1.0663        -999.25        -999.25         0.7884       -69.3345       -30.9629      0.2378185
      8915.5000         1.0649        -999.25        -999.25         0.7651       -68.7994      -30.43484      0.2517148
      8916.0000         1.0864        -999.25        -999.25         0.7348       -69.4648      -31.10728       0.234019
      8916.5000         1.1112        -999.25        -999.25         0.7075       -72.0098      -33.65932      0.1668599
      8917.0000         1.1234        -999.25        -999.25          0.686       -74.9705      -36.62706     0.08876158
      8917.5000         1.1221        -999.25        -999.25         0.6842       -76.3823      -38.04591     0.05142352
      8918.0000         1.1185        -999.25        -999.25         0.6978       -75.7977      -37.46835     0.06662248
