#------------------------------------------------------------------------------
# Created by    : vladimir.rabinovich
# Created on    : 09/19/2023 17:20:03
#------------------------------------------------------------------------------
~Version Information Section
VERS.           2.0     :   CWLS log ASCII Standard - VERSION 2.0
WRAP.           NO      :   One line per depth step
~Well Information Section
#MNEM       .UNIT                                         VALUE :DESCRIPTION
#------------------------------------------------------------------------------
STRT        .FT                                             945 :START DEPTH
STOP        .FT                                           12004 :STOP DEPTH
STEP        .FT                                             0.5 :STEP      
NULL        .                                           -999.25 :NULL      
COMP        .                                    EXXON CO U S A :COMPANY   
WELL        .                                     ST TR 00819-L :WELL      
FLD         .                                           WILDCAT :FIELD     
LOC         .                                                   :LOCATION  
CNTY        .                        MUSTANG ISLAND LARGE BLOCK :LOCATION  
STAT        .                                             TEXAS :STATE     
CTRY        .                                     UNITED STATES :COUNTRY   
SRVC        .                                                   :SERVICE COMPANY
DATE        .                             9/13/2023 11:18:55 AM :LOG DATE  
API         .                                    42702301310000 :API NUMBER
UWI         .                                    42702301310000 :UNIQUE WELL ID
XCOORD      .                                  274042.524369281 :SURFACE X 
YCOORD      .                                  9990401.22532542 :SURFACE Y 
LAT         .                                        27.4671591 :LATITUDE  
LON         .                                       -97.2129423 :LONGITUDE 
ELEV        .FT                                              93 :ELEVATION VALUE
ELEV_TYPE   .                                                KB :ELEVATION REFERENCE TYPE
~Curve Information Section
#MNEM       .UNIT                                      API CODE :CURVE DESCRIPTION
#------------------------------------------------------------------------------
DEPT        .FT                                                 :DEPTH     
ASFL        .OHMM                                               :          
CILD        .MMHO                                               :          
GR          .GAPI                                               :          
GR_NORM     .GAPI                                               :GammaRay Normalized
ILD         .OHMM                                               :          
SP          .MV                                                 :          
SP_NORM     .MV                                                 :SP Normalized
VSH_GR      .V/V                                                :Volume of Shale from GR
VSH_SP      .V/V                                                :Volume of Shale from SP
~A        DEPTH           ASFL           CILD             GR        GR_NORM            ILD             SP        SP_NORM         VSH_GR         VSH_SP
# ...
     10511.5000         0.8382         1500.6        -999.25        -999.25         0.8203       -39.4861      -1.661694        -999.25      0.9883913
     10512.0000         0.8343       1520.059        -999.25        -999.25         0.8113       -39.9794      -2.152988        -999.25      0.9797722
     10512.5000         0.8325        1527.33        -999.25        -999.25         0.8147       -40.5347      -2.706276        -999.25      0.9700654
     10513.0000          0.833       1519.189        -999.25        -999.25         0.8396        -41.183       -3.35257        -999.25      0.9587268
     10513.5000         0.8496       1494.021        -999.25        -999.25         0.8645       -41.8325      -4.000061        -999.25      0.9473674
     10514.0000         0.8661        1434.75        -999.25        -999.25         0.8894       -42.4808      -4.646355        -999.25      0.9360288
     10514.5000         0.8967       1363.168        -999.25        -999.25         0.9143       -43.2802      -5.443745        -999.25      0.9220396
     10515.0000         0.9481       1284.039        -999.25        -999.25         0.9453       -44.0921      -6.253635        -999.25       0.907831
     10515.5000         1.0249       1213.053        -999.25        -999.25         0.9801        -44.904      -7.063526        -999.25      0.8936223
     10516.0000         1.1329       1145.938        -999.25        -999.25         1.0149        -46.907      -9.064522        -999.25      0.8585172
     10516.5000         1.2417       1090.936        -999.25        -999.25         1.0498        -49.624      -11.77951        -999.25      0.8108858
     10517.0000         1.3196       1038.813        -999.25        -999.25         1.0846       -50.0435        -12.197        -999.25      0.8035614
     10517.5000         1.3611       1003.518        -999.25        -999.25         1.1069       -50.4308      -12.58229        -999.25      0.7968019
     10518.0000         1.3831       971.0771        -999.25        -999.25         1.1272       -50.9118      -13.06129        -999.25      0.7883985
     10518.5000         1.4029       957.4502        -999.25        -999.25         1.1474       -51.4274      -13.57487        -999.25      0.7793882
     10519.0000         1.4233       943.8242        -999.25        -999.25         1.1549       -52.1711      -14.31657        -999.25       0.766376
     10519.5000         1.4556       937.6494        -999.25        -999.25         1.1381       -52.9446      -15.08806        -999.25      0.7528411
     10520.0000         1.5397       935.8652        -999.25        -999.25         1.1212       -54.4481      -16.58955        -999.25      0.7264991
     10520.5000         1.6612       944.2949        -999.25        -999.25         1.1044       -56.3098      -18.44924        -999.25      0.6938729
     10521.0000         1.7874       955.4395        -999.25        -999.25         1.0875       -57.3726      -19.51004        -999.25      0.6752625
     10521.5000         1.8231        966.584        -999.25        -999.25         1.0594        -57.577      -19.71243        -999.25      0.6717119
     10522.0000         1.6931       995.3262        -999.25        -999.25         1.0292       -57.6453      -19.77872        -999.25      0.6705487
     10522.5000         1.5708       1039.904        -999.25        -999.25          0.999       -57.7135      -19.84491        -999.25      0.6693876
     10523.0000         1.4994       1085.674        -999.25        -999.25         0.9687       -57.7817       -19.9111        -999.25      0.6682263
     10523.5000         1.4336       1131.939        -999.25        -999.25         0.9385       -58.3574      -20.48479        -999.25      0.6581616
     10524.0000         1.3715       1286.918        -999.25        -999.25         0.9083       -59.5795      -21.70488        -999.25      0.6367564
     10524.5000         1.3096       1376.471        -999.25        -999.25         0.8779       -60.8042      -22.92757        -999.25      0.6153057
     10525.0000         1.1477        1439.02        -999.25        -999.25         0.8475       -62.0263      -24.14767        -999.25      0.5939006
     10525.5000         1.2391       1484.689        -999.25        -999.25          0.817       -79.3024      -41.42176        -999.25      0.2908464
     10526.0000         1.3188       1511.445        -999.25        -999.25         0.7866       -81.6821      -43.79945        -999.25      0.2491325
     10526.5000         1.4093       1526.959        -999.25        -999.25         0.7561       -82.7307      -44.84604        -999.25      0.2307712
     10527.0000         1.5036       1517.303        -999.25        -999.25         0.7399       -83.6356      -45.74893        -999.25       0.214931
     10527.5000         1.5845        1481.91        -999.25        -999.25         0.7427       -83.8854      -45.99672        -999.25      0.2105838
     10528.0000         1.6354       1417.277        -999.25        -999.25         0.7455       -76.2928      -38.40212        -999.25      0.3438225
     10528.5000         1.7081       1330.404        -999.25        -999.25         0.7482       -70.5366      -32.64391        -999.25      0.4448438
     10529.0000         1.8403       1221.789        -999.25        -999.25         0.7602       -67.3784       -29.4837        -999.25      0.5002859
     10529.5000         1.8636       1109.998        -999.25        -999.25          0.792       -64.1111      -26.21439        -999.25      0.5576423
     10530.0000         1.3931       1029.281        -999.25        -999.25         0.8238       -60.8042      -22.90548        -999.25      0.6156933
     10530.5000         1.2913       982.2217        -999.25        -999.25         0.8556       -57.0063      -19.10558        -999.25      0.6823583
     10531.0000         1.2303       996.6172        -999.25        -999.25         0.8844        -45.717      -7.814266        -999.25      0.8804514
     10531.5000         1.1741       1026.551        -999.25        -999.25         0.9111       -44.2867      -6.381958        -999.25      0.9055797
     10532.0000         1.1272       1056.484        -999.25        -999.25         0.9379       -43.4339      -5.527149        -999.25      0.9205763
     10532.5000         1.0829       1094.707        -999.25        -999.25         0.9524       -42.8935      -4.984741        -999.25      0.9300923
     10533.0000         1.0484       1138.393        -999.25        -999.25         0.9545       -42.3531      -4.442333        -999.25      0.9396082
     10533.5000         1.0341       1048.244        -999.25        -999.25         0.9565       -41.8591      -3.946323        -999.25      0.9483101
     10534.0000         1.0395       991.2559        -999.25        -999.25         0.9585       -41.5598      -3.645016        -999.25      0.9535962
     10534.5000         1.0736       946.9268        -999.25        -999.25         0.9826       -41.2605      -3.343708        -999.25      0.9588823
     10535.0000         1.1434       911.7305        -999.25        -999.25         1.0124       -40.9692        -3.0504        -999.25      0.9640281
     10535.5000         1.2819       885.3213        -999.25        -999.25         1.0422       -40.7306      -2.809788        -999.25      0.9682493
     10536.0000         1.3976         866.21        -999.25        -999.25         1.0912        -40.492      -2.569183        -999.25      0.9724705
     10536.5000         1.5766       847.0977        -999.25        -999.25         1.1607       -40.2534      -2.328571        -999.25      0.9766917
     10537.0000         1.5529       838.9941        -999.25        -999.25         1.2151       -40.0853      -2.158466        -999.25       0.979676
     10537.5000         1.4537       856.2813        -999.25        -999.25         1.1857       -39.9926      -2.063755        -999.25      0.9813376
