#------------------------------------------------------------------------------
# Created by    : vladimir.rabinovich
# Created on    : 09/19/2023 17:22:53
#------------------------------------------------------------------------------
~Version Information Section
VERS.           2.0     :   CWLS log ASCII Standard - VERSION 2.0
WRAP.           NO      :   One line per depth step
~Well Information Section
#MNEM       .UNIT                                         VALUE :DESCRIPTION
#------------------------------------------------------------------------------
STRT        .FT                                             252 :START DEPTH
STOP        .FT                                           11321 :STOP DEPTH
STEP        .FT                                             0.5 :STEP      
NULL        .                                           -999.25 :NULL      
COMP        .                          HUMBLE OIL & REFINING CO :COMPANY   
WELL        .                                OCS 00615 ST00BP00 :WELL      
FLD         .                                           WILDCAT :FIELD     
LOC         .                                                   :LOCATION  
CNTY        .                             GALVESTON LARGE BLOCK :LOCATION  
STAT        .                                             TEXAS :STATE     
CTRY        .                                     UNITED STATES :COUNTRY   
SRVC        .                                                   :SERVICE COMPANY
DATE        .                             9/13/2023 11:19:42 AM :LOG DATE  
API         .                                    42706000270000 :API NUMBER
UWI         .                                    42706000270000 :UNIQUE WELL ID
XCOORD      .                                  1043929.24471964 :SURFACE X 
YCOORD      .                                  10527500.2798036 :SURFACE Y 
LAT         .                                         28.995876 :LATITUDE  
LON         .                                        -94.866344 :LONGITUDE 
ELEV        .FT                                              67 :ELEVATION VALUE
ELEV_TYPE   .                                                KB :ELEVATION REFERENCE TYPE
~Curve Information Section
#MNEM       .UNIT                                      API CODE :CURVE DESCRIPTION
#------------------------------------------------------------------------------
DEPT        .FT                                                 :DEPTH     
LAT         .OHMM                                               :          
LN          .OHMM                                               :          
SN          .OHMM                                               :          
SP          .MV                                                 :          
SP_NORM     .MV                                                 :SP Normalized
VSH_SP      .V/V                                                :Volume of Shale from SP
~A        DEPTH            LAT             LN             SN             SP        SP_NORM         VSH_SP
# ...
     10550.0000         0.3139         0.4923         0.4558       -41.7886       -2.76421       0.971545
     10550.5000         0.3123          0.492         0.4548       -41.8434      -2.819008      0.9706612
     10551.0000         0.3116         0.4917         0.4538       -41.8306       -2.80621      0.9708676
     10551.5000          0.311         0.4914         0.4528       -41.7389      -2.714508      0.9723467
     10552.0000         0.3104         0.4911         0.4518       -41.6448      -2.620407      0.9738644
     10552.5000         0.3098         0.4909         0.4508       -41.5195       -2.49511      0.9758853
     10553.0000         0.3092         0.4906         0.4498       -41.3943      -2.369907      0.9779047
     10553.5000         0.3089         0.4903         0.4488       -41.2693      -2.244907      0.9799209
     10554.0000         0.3085           0.49         0.4478        -41.144       -2.11961      0.9819418
     10554.5000         0.3081         0.4897         0.4468        -41.019       -1.99461      0.9839579
     10555.0000         0.3078         0.4894         0.4463       -40.8938      -1.869408      0.9859773
     10555.5000         0.3074         0.4891         0.4464       -40.8057      -1.781307      0.9873983
     10556.0000         0.3071         0.4888         0.4466       -40.7339      -1.709507      0.9885563
     10556.5000         0.3067         0.4885         0.4467       -40.6621      -1.637711      0.9897143
     10557.0000         0.3064         0.4883         0.4468       -40.5903       -1.56591      0.9908724
     10557.5000         0.3056          0.488         0.4469       -40.5186      -1.494209      0.9920289
     10558.0000         0.3045         0.4877          0.447       -40.4468      -1.422409       0.993187
     10558.5000         0.3034         0.4874         0.4471        -40.375      -1.350609       0.994345
     10559.0000         0.3022         0.4871         0.4473        -40.377      -1.352608      0.9943128
     10559.5000         0.3011         0.4862         0.4474       -40.4489      -1.424507      0.9931531
     10560.0000         0.2999         0.4842         0.4475       -40.5206      -1.496208      0.9919966
     10560.5000         0.2988         0.4822         0.4476       -40.5924      -1.568008      0.9908386
     10561.0000         0.2976         0.4802         0.4477       -40.6643      -1.639908      0.9896789
     10561.5000         0.2965         0.4782         0.4478       -40.7361      -1.711708      0.9885209
     10562.0000         0.2995         0.4763          0.448       -40.8079      -1.783508      0.9873627
     10562.5000         0.3076         0.4743         0.4481       -40.8798      -1.855408      0.9862031
     10563.0000         0.3157         0.4723         0.4482       -40.9515      -1.927109      0.9850466
     10563.5000         0.3238         0.4703         0.4483       -41.0233      -1.998909      0.9838886
     10564.0000          0.332         0.4683         0.4484       -41.0951      -2.070709      0.9827305
     10564.5000         0.3401         0.4663         0.4485       -41.2573       -2.23291      0.9801143
     10565.0000         0.3482         0.4643         0.4487        -41.425      -2.400608      0.9774095
     10565.5000         0.3563         0.4623         0.4488       -41.5928      -2.568409      0.9747031
     10566.0000         0.3644         0.4603         0.4489       -41.7605      -2.736111      0.9719982
     10566.5000         0.3752         0.4583          0.449       -41.8235       -2.79911      0.9709821
     10567.0000         0.3864         0.4563         0.4491       -41.8522      -2.827808      0.9705192
     10567.5000         0.3976         0.4544         0.4482        -41.881      -2.856609      0.9700547
     10568.0000          0.403         0.4524         0.4464       -41.9097      -2.885307      0.9695918
     10568.5000         0.3957         0.4504         0.4446        -41.998       -2.97361      0.9681676
     10569.0000         0.3884         0.4484         0.4428       -42.3799      -3.355511      0.9620079
     10569.5000          0.381         0.4464          0.441       -42.7622      -3.737808      0.9558418
     10570.0000         0.3737         0.4444         0.4392        -42.845       -3.82061      0.9545063
     10570.5000         0.3639         0.4427         0.4374       -42.7058      -3.681408      0.9567515
     10571.0000         0.3538         0.4424         0.4356       -42.5667      -3.542309       0.958995
     10571.5000         0.3438         0.4422         0.4338       -42.4275      -3.403111      0.9612402
     10572.0000         0.3337         0.4419         0.4321       -42.2883      -3.263908      0.9634854
     10572.5000         0.3236         0.4416          0.431       -42.1492      -3.124809      0.9657289
     10573.0000         0.3136         0.4414           0.43         -42.01      -2.985607      0.9679741
     10573.5000         0.3035         0.4411         0.4289       -41.8708      -2.846409      0.9702192
     10574.0000         0.2934         0.4408         0.4278       -41.7317       -2.70731      0.9724628
     10574.5000         0.2882         0.4406         0.4267       -41.5679       -2.54351      0.9751047
     10575.0000         0.2854         0.4403         0.4256       -41.3086       -2.28421      0.9792869
     10575.5000         0.2825         0.4408         0.4245       -41.0488       -2.02441      0.9834772
     10576.0000         0.2796         0.4416         0.4235       -40.7891      -1.764709       0.987666
     10576.5000         0.2767         0.4423         0.4223       -40.5293       -1.50491      0.9918563
     10577.0000         0.2738         0.4431         0.4208       -40.4521      -1.427708      0.9931015
     10577.5000         0.2709         0.4439         0.4193       -41.0146      -1.990208      0.9840289
     10578.0000          0.268         0.4446         0.4177       -41.5771      -2.552708      0.9749563
     10578.5000         0.2653         0.4454         0.4162       -41.5901      -2.565708      0.9747466
     10579.0000         0.2647         0.4461         0.4147       -41.4873       -2.46291      0.9764047
     10579.5000          0.264         0.4469         0.4132       -41.3845      -2.360107      0.9780628
     10580.0000         0.2633         0.4477         0.4117       -41.2817      -2.257309      0.9797208
     10580.5000         0.2627         0.4484         0.4101        -41.179       -2.15461      0.9813772
     10581.0000         0.2627         0.4483         0.4087       -41.0762      -2.051807      0.9830354
     10581.5000          0.271         0.4476         0.4075       -41.0762      -2.051807      0.9830354
     10582.0000         0.2792         0.4469         0.4063       -41.2036      -2.179211      0.9809805
     10582.5000         0.2875         0.4461          0.405       -41.4482      -2.423809      0.9770353
     10583.0000         0.2929         0.4454         0.4038        -42.041      -3.016609       0.967474
     10583.5000          0.272         0.4447         0.4026       -42.6338      -3.609409      0.9579127
     10584.0000         0.2511          0.444         0.4013        -43.043      -4.018608      0.9513128
     10584.5000         0.2303         0.4433         0.4001       -42.9255      -3.901108      0.9532079
     10585.0000         0.2121         0.4425         0.3988       -42.8083      -3.783909      0.9550983
     10585.5000         0.2072         0.4409         0.3973       -42.6912      -3.666809       0.956987
     10586.0000          0.231         0.4393         0.3959        -42.574       -3.54961      0.9588773
     10586.5000         0.2547         0.4377         0.3944       -42.4568      -3.432407      0.9607676
     10587.0000         0.2785         0.4361          0.393       -42.5942      -3.569809      0.9585515
     10587.5000         0.3023         0.4345         0.3928       -42.8525       -3.82811      0.9543853
