#------------------------------------------------------------------------------
# Created by    : vladimir.rabinovich
# Created on    : 09/19/2023 17:19:40
#------------------------------------------------------------------------------
~Version Information Section
VERS.           2.0     :   CWLS log ASCII Standard - VERSION 2.0
WRAP.           NO      :   One line per depth step
~Well Information Section
#MNEM       .UNIT                                         VALUE :DESCRIPTION
#------------------------------------------------------------------------------
STRT        .FT                                             305 :START DEPTH
STOP        .FT                                          9892.5 :STOP DEPTH
STEP        .FT                                             0.5 :STEP      
NULL        .                                           -999.25 :NULL      
COMP        .                         ATLANTIC RICHFIELD CO THE :COMPANY   
WELL        .                               OCS G07247 ST00BP00 :WELL      
FLD         .                                           WILDCAT :FIELD     
LOC         .                                                   :LOCATION  
CNTY        .                             GALVESTON LARGE BLOCK :LOCATION  
STAT        .                                             TEXAS :STATE     
CTRY        .                                     UNITED STATES :COUNTRY   
SRVC        .                                                   :SERVICE COMPANY
DATE        .                             9/13/2023 11:19:27 AM :LOG DATE  
API         .                                    42706401220000 :API NUMBER
UWI         .                                    42706401220000 :UNIQUE WELL ID
XCOORD      .                                  995038.545578968 :SURFACE X 
YCOORD      .                                  10445559.0196594 :SURFACE Y 
LAT         .                                         28.768363 :LATITUDE  
LON         .                                        -95.014888 :LONGITUDE 
ELEV        .FT                                              98 :ELEVATION VALUE
ELEV_TYPE   .                                                KB :ELEVATION REFERENCE TYPE
~Curve Information Section
#MNEM       .UNIT                                      API CODE :CURVE DESCRIPTION
#------------------------------------------------------------------------------
DEPT        .FT                                                 :DEPTH     
ALL         .OHMM                                               :          
CILD        .MMHO                                               :          
GR          .GAPI                                               :          
GR_NORM     .GAPI                                               :GammaRay Normalized
ILD         .OHMM                                               :          
SP          .MV                                                 :          
VSH_GR      .V/V                                                :Volume of Shale from GR
~A        DEPTH            ALL           CILD             GR        GR_NORM            ILD             SP         VSH_GR
# ...
      9216.0000         0.7737       1335.557        78.4744       84.82885         0.7486        23.8122              1
      9216.5000         0.7696       1347.918         78.787       85.17618         0.7506        23.8192              1
      9217.0000          0.766       1360.303        78.2245       84.55118         0.7526        23.8261              1
      9217.5000         0.7623       1372.662        77.3235       83.55006         0.7547        23.8331              1
      9218.0000         0.7587       1385.047        76.4238        82.5504         0.7567        23.7974              1
      9218.5000         0.7553        1394.51        75.1565       81.14229         0.7587        23.7009              1
      9219.0000         0.7549       1399.904        72.8213       78.54762         0.7607        23.6043      0.9690982
      9219.5000         0.7545       1405.301        70.7502        76.2464         0.7627        23.5078      0.9201362
      9220.0000          0.754       1410.697        69.1382       74.45528         0.7648        23.4112      0.8820273
      9220.5000         0.7548       1408.744        68.1628       73.37151         0.7669        23.3148      0.8589684
      9221.0000         0.7573       1406.414         70.092       75.51507         0.7689        23.2193      0.9045759
      9221.5000         0.7599       1404.086        72.0236       77.66129          0.771        23.1942      0.9502401
      9222.0000         0.7625       1401.756        72.5128       78.20485          0.773        23.1689      0.9618053
      9222.5000         0.7655        1399.09        72.3855        78.0634         0.7751        23.1437      0.9587957
      9223.0000         0.7692       1396.102        72.2581       77.92184         0.7771        23.1186      0.9557839
      9223.5000         0.7729       1393.119        71.3113       76.86984         0.7792        23.1134      0.9334009
      9224.0000         0.7758       1390.131         71.077       76.60951         0.7795        23.1428       0.927862
      9224.5000         0.7773        1387.15        71.6873       77.28762         0.7788        23.1722      0.9422898
      9225.0000         0.7789       1384.168        72.2987       77.96695         0.7781        23.2016      0.9567436
      9225.5000         0.7785       1381.941        72.9089       78.64495         0.7774        23.1894      0.9711692
      9226.0000         0.7777       1380.438        73.4675       79.26562         0.7767        23.1349      0.9843748
      9226.5000         0.7769       1378.938        73.7756       79.60795          0.776        23.0804      0.9916584
      9227.0000         0.7761        1382.16        74.0837       79.95029         0.7753        23.0258      0.9989423
      9227.5000          0.773       1388.365        74.3918       80.29262         0.7746        22.9713              1
      9228.0000         0.7696       1395.133           74.7       80.63506         0.7739        22.9168              1
      9228.5000         0.7662       1406.414        75.0087       80.97807         0.7732        22.8703              1
      9229.0000         0.7628       1417.674        75.5973       81.63206         0.7725        22.8919              1
      9229.5000         0.7586       1428.932        76.2075       82.31006          0.772        22.9136              1
      9230.0000         0.7544       1441.244        75.3319       81.33718         0.7715        22.9353              1
      9230.5000         0.7503       1456.264        74.0609       79.92495         0.7711        23.0184      0.9984032
      9231.0000         0.7461       1471.309        72.7876       78.51018         0.7706        23.1396      0.9683017
      9231.5000         0.7421       1486.352        72.2903       77.95762         0.7701        23.2606      0.9565451
      9232.0000         0.7382       1501.395        71.8602       77.47973         0.7697        23.3946      0.9463772
      9232.5000         0.7342       1514.785        71.4302       77.00195         0.7692        23.6087      0.9362118
      9233.0000         0.7305       1527.936        71.0879       76.62162         0.7688        23.8225      0.9281196
      9233.5000          0.727       1541.088        70.9955       76.51895         0.7681        24.0342      0.9259351
      9234.0000         0.7235       1554.238        70.9032        76.4164         0.7664        24.2454      0.9237531
      9234.5000         0.7212       1566.479         71.038       76.56618         0.7647        24.4562        0.92694
      9235.0000         0.7204        1578.17        71.5858       77.17484          0.763        24.6277      0.9398903
      9235.5000         0.7196       1585.416        72.1323       77.78207         0.7614        24.7649      0.9528099
      9236.0000         0.7188       1588.686        72.9678        78.7104         0.7597        24.9006      0.9725616
      9236.5000         0.7195        1586.77        73.8627       79.70473          0.758        24.9545      0.9937178
      9237.0000         0.7213       1581.402        74.7577       80.69917         0.7563        25.0084              1
      9237.5000         0.7232       1576.037        75.6526       81.69351         0.7547        24.9376              1
      9238.0000         0.7251       1563.629        76.4983       82.63318          0.753        24.8523              1
      9238.5000         0.7294       1544.346        77.2994       83.52328         0.7513        24.7475              1
      9239.0000         0.7342       1525.063        78.1007       84.41362         0.7496        24.5559              1
      9239.5000         0.7391       1506.617         78.741       85.12506         0.7482        24.3646              1
      9240.0000         0.7442       1488.195        79.4966       85.96461         0.7468         24.173              1
      9240.5000         0.7494       1469.775        79.0281       85.44406         0.7455        23.9817              1
      9241.0000         0.7543       1457.031        78.2773       84.60984         0.7441        23.7901              1
      9241.5000         0.7577       1447.246        77.0448        83.2404         0.7427        23.7003              1
      9242.0000         0.7612       1437.447        75.8099       81.86829         0.7414        23.6441              1
      9242.5000         0.7646       1431.887        74.5775       80.49895           0.74        23.5879              1
      9243.0000         0.7653       1429.705        73.0663       78.81984         0.7387        23.5317      0.9748902
      9243.5000          0.766       1427.521        71.6537       77.25029         0.7373        23.4755      0.9414955
      9244.0000         0.7666       1429.324        72.5042       78.19529         0.7359        23.4193      0.9616019
      9244.5000         0.7665       1431.828        73.3534       79.13885         0.7346        23.3537      0.9816776
      9245.0000         0.7659        1434.33        73.8561        79.6974         0.7349        23.2806      0.9935617
      9245.5000         0.7653       1436.834        73.8706       79.71351         0.7373        23.2075      0.9939044
      9246.0000         0.7648        1440.34        73.8853       79.72984         0.7397        23.1343       0.994252
      9246.5000         0.7638       1445.258        73.7273       79.55429         0.7421        23.0611      0.9905168
      9247.0000         0.7627       1450.174        73.4972       79.29862         0.7445        22.9879      0.9850771
      9247.5000         0.7615       1455.096        73.2672       79.04306         0.7469        22.9514      0.9796396
      9248.0000         0.7604       1460.014        73.0371        78.7874         0.7493        22.9277         0.9742
      9248.5000         0.7592       1464.889        72.8071       78.53185         0.7517        22.9039      0.9687626
      9249.0000          0.761       1468.002        72.5771       78.27629         0.7539        22.8802      0.9633253
