#------------------------------------------------------------------------------
# Created by    : vladimir.rabinovich
# Created on    : 09/19/2023 17:20:12
#------------------------------------------------------------------------------
~Version Information Section
VERS.           2.0     :   CWLS log ASCII Standard - VERSION 2.0
WRAP.           NO      :   One line per depth step
~Well Information Section
#MNEM       .UNIT                                         VALUE :DESCRIPTION
#------------------------------------------------------------------------------
STRT        .FT                                             309 :START DEPTH
STOP        .FT                                            9124 :STOP DEPTH
STEP        .FT                                             0.5 :STEP      
NULL        .                                           -999.25 :NULL      
COMP        .                         SONAT EXPLORATION GOM INC :COMPANY   
WELL        .                               OCS G03084 ST00BP00 :WELL      
FLD         .                                           WILDCAT :FIELD     
LOC         .                                                   :LOCATION  
CNTY        .                      MATAGORDA ISLAND LARGE BLOCK :LOCATION  
STAT        .                                             TEXAS :STATE     
CTRY        .                                     UNITED STATES :COUNTRY   
SRVC        .                                                   :SERVICE COMPANY
DATE        .                             9/13/2023 11:12:09 AM :LOG DATE  
API         .                                    42703400260000 :API NUMBER
UWI         .                                    42703400260000 :UNIQUE WELL ID
XCOORD      .                                  563826.313549269 :SURFACE X 
YCOORD      .                                  10238444.2560225 :SURFACE Y 
LAT         .                                         28.172716 :LATITUDE  
LON         .                                        -96.341662 :LONGITUDE 
ELEV        .FT                                              97 :ELEVATION VALUE
ELEV_TYPE   .                                                KB :ELEVATION REFERENCE TYPE
~Curve Information Section
#MNEM       .UNIT                                      API CODE :CURVE DESCRIPTION
#------------------------------------------------------------------------------
DEPT        .FT                                                 :DEPTH     
ASFL        .OHMM                                               :          
CILD        .MMHO                                               :          
DT          .US/F                                               :          
GR          .GAPI                                               :          
GR_NORM     .GAPI                                               :GammaRay Normalized
ILD         .OHMM                                               :          
SP          .MV                                                 :          
SP_NORM     .MV                                                 :SP Normalized
VSH_GR      .V/V                                                :Volume of Shale from GR
VSH_SP      .V/V                                                :Volume of Shale from SP
~A        DEPTH           ASFL           CILD             DT             GR        GR_NORM            ILD             SP        SP_NORM         VSH_GR         VSH_SP
# ...
      5576.5000          0.945       1994.939        97.5591        -999.25        -999.25         0.3377      -125.6091      -49.36088        -999.25      0.2443613
      5577.0000         0.9728       2011.502        99.5072        -999.25        -999.25         0.3217      -126.3702       -50.1265        -999.25      0.2323985
      5577.5000         1.0088       2012.564         95.333        -999.25        -999.25         0.3057      -126.7813      -50.54211        -999.25      0.2259046
      5578.0000         1.0913       2011.746        88.8226        -999.25        -999.25         0.2977      -127.0548      -50.82012        -999.25      0.2215606
      5578.5000         1.1327       2019.414         82.978        -999.25        -999.25         0.2992      -127.3282      -51.09803        -999.25      0.2172183
      5579.0000         1.1553       2033.357        86.4789        -999.25        -999.25         0.3007      -127.9263      -51.70065        -999.25      0.2078024
      5579.5000         1.1162       2047.301       100.3611        -999.25        -999.25         0.3022      -128.5496      -52.32846        -999.25      0.1979928
      5580.0000         1.0697       2081.609       118.5326        -999.25        -999.25         0.3037      -129.5176      -53.30096        -999.25      0.1827976
      5580.5000         1.0313       2117.141       119.5317        -999.25        -999.25         0.3053      -130.5496      -54.33749        -999.25      0.1666018
      5581.0000         0.9623       2155.332        115.807        -999.25        -999.25         0.3068      -131.2595       -55.0519        -999.25      0.1554391
      5581.5000         0.9156        2189.77       114.4342        -999.25        -999.25          0.309      -131.7249       -55.5218        -999.25      0.1480968
      5582.0000         0.8818        2223.48       115.1246        -999.25        -999.25         0.3111      -132.0029      -55.80431        -999.25      0.1436826
      5582.5000         0.8513       2253.934       121.4147        -999.25        -999.25         0.3133      -132.2812      -56.08714        -999.25      0.1392635
      5583.0000         0.8619       2271.559       123.6007        -999.25        -999.25         0.3155      -132.5593      -56.36974        -999.25      0.1348479
      5583.5000         0.8872        2230.18       118.1595        -999.25        -999.25         0.3211      -132.6416      -56.45656        -999.25      0.1334913
      5584.0000         0.9175       2188.848       114.1406        -999.25        -999.25         0.3276      -132.7183      -56.53777        -999.25      0.1322223
      5584.5000         0.9582        2134.07       111.4437        -999.25        -999.25         0.3341      -132.7532      -56.57718        -999.25      0.1316066
      5585.0000          0.994       2077.254       104.6079        -999.25        -999.25         0.3406      -132.7756       -56.6041        -999.25       0.131186
      5585.5000         1.0231       2024.916        97.2336        -999.25        -999.25         0.3524      -132.8882       -56.7212        -999.25      0.1293563
      5586.0000         1.0545       1977.012        94.7396        -999.25        -999.25         0.3644      -133.0679      -56.90542        -999.25      0.1264778
      5586.5000         1.0446       1929.107        91.1339        -999.25        -999.25         0.3763      -133.2471      -57.08913        -999.25      0.1236074
      5587.0000         1.0237       1879.061        92.5436        -999.25        -999.25         0.3883      -134.0044      -57.85094        -999.25      0.1117041
      5587.5000         1.0028       1827.572       106.4858        -999.25        -999.25         0.3907      -135.2102      -59.06126        -999.25     0.09279287
      5588.0000         0.9691        1842.41       109.8488        -999.25        -999.25         0.3851      -137.3955      -61.25106        -999.25     0.05857718
      5588.5000         0.9167       2075.012       115.1246        -999.25        -999.25         0.3705      -139.0945      -62.95457        -999.25     0.03195977
      5589.0000           0.84       2146.172       123.7172        -999.25        -999.25         0.3482       -140.387      -64.25158        -999.25     0.01169407
      5589.5000          0.792       2277.137       121.4747        -999.25        -999.25         0.3258      -141.4563       -65.3254        -999.25              0
      5590.0000         0.7507       2442.063       113.6624        -999.25        -999.25         0.3034      -142.3418      -66.21541        -999.25              0
      5590.5000         0.7386       2543.047        96.8755        -999.25        -999.25         0.2835      -143.0591      -66.93723        -999.25              0
      5591.0000         0.7607       2547.277        86.6692        -999.25        -999.25          0.266      -143.4451      -67.32774        -999.25              0
      5591.5000         0.7828       2551.516        82.2522        -999.25        -999.25         0.2485      -143.4736      -67.36076        -999.25              0
      5592.0000          0.775       2567.328         82.162        -999.25        -999.25          0.231      -143.5022      -67.39386        -999.25              0
      5592.5000         0.7237        2607.09       111.1183        -999.25        -999.25         0.2134      -143.5308      -67.42699        -999.25              0
      5593.0000         0.6969       2834.164        121.605        -999.25        -999.25         0.1959      -143.7275      -67.62818        -999.25              0
      5593.5000         0.6702       2958.758       128.1353        -999.25        -999.25         0.1797      -143.9475      -67.85269        -999.25              0
      5594.0000         0.6428        3083.25        117.233        -999.25        -999.25         0.1674      -143.3906      -67.30031        -999.25              0
      5594.5000         0.6139        3207.84        111.564        -999.25        -999.25         0.1551      -142.0027      -65.91692        -999.25              0
      5595.0000         0.5894       3332.434       111.6866        -999.25        -999.25         0.1427      -140.5522      -64.47094        -999.25    0.008266568
      5595.5000         0.5844       3456.926       112.0269        -999.25        -999.25         0.1304      -137.0312      -60.95445        -999.25     0.06321168
      5596.0000         0.5899       3581.516       109.5232        -999.25        -999.25         0.1194      -134.0239      -57.95166        -999.25      0.1101303
      5596.5000         0.5953       3467.285       107.2947        -999.25        -999.25         0.1131      -132.5996      -56.53187        -999.25      0.1323146
      5597.0000         0.6008       3329.047       106.0577        -999.25        -999.25         0.1068      -130.6431      -54.57989        -999.25      0.1628143
      5597.5000         0.6044       3242.602        106.894        -999.25        -999.25         0.1225      -128.2651      -52.20641        -999.25      0.1998999
      5598.0000         0.6019       3072.195       109.1151        -999.25        -999.25         0.1437      -117.7135      -41.65931        -999.25      0.3646983
      5598.5000         0.5994       2770.125       110.7032        -999.25        -999.25         0.1648      -115.1133      -39.06362        -999.25      0.4052559
      5599.0000         0.5969        2521.84        111.297        -999.25        -999.25         0.1858      -112.6047      -36.55953        -999.25      0.4443823
      5599.5000         0.6209       2351.832       111.1357        -999.25        -999.25         0.2058       -110.621      -34.58035        -999.25       0.475307
      5600.0000         0.6527       2370.637       110.2424        -999.25        -999.25         0.2701      -110.3895      -34.35336        -999.25      0.4788537
      5600.5000         0.6824        2313.48       109.7522        -999.25        -999.25         0.2743      -122.2416      -46.20998        -999.25      0.2935941
