#------------------------------------------------------------------------------
# Created by    : vladimir.rabinovich
# Created on    : 09/19/2023 17:21:03
#------------------------------------------------------------------------------
~Version Information Section
VERS.           2.0     :   CWLS log ASCII Standard - VERSION 2.0
WRAP.           NO      :   One line per depth step
~Well Information Section
#MNEM       .UNIT                                         VALUE :DESCRIPTION
#------------------------------------------------------------------------------
STRT        .FT                                          2542.5 :START DEPTH
STOP        .FT                                            8214 :STOP DEPTH
STEP        .FT                                             0.5 :STEP      
NULL        .                                           -999.25 :NULL      
COMP        .                          SEAGULL ENERGY E & P INC :COMPANY   
WELL        .                               OCS G12505 ST00BP00 :WELL      
FLD         .                              GALVESTON BLOCK 0357 :FIELD     
LOC         .                                                   :LOCATION  
CNTY        .                             GALVESTON LARGE BLOCK :LOCATION  
STAT        .                                             TEXAS :STATE     
CTRY        .                                     UNITED STATES :COUNTRY   
SRVC        .                                                   :SERVICE COMPANY
DATE        .                             9/13/2023 11:19:54 AM :LOG DATE  
API         .                                    42706403610000 :API NUMBER
UWI         .                                    42706403610000 :UNIQUE WELL ID
XCOORD      .                                  1003713.76055251 :SURFACE X 
YCOORD      .                                  10412171.7759297 :SURFACE Y 
LAT         .                                          28.67696 :LATITUDE  
LON         .                                        -94.986081 :LONGITUDE 
ELEV        .FT                                              96 :ELEVATION VALUE
ELEV_TYPE   .                                                KB :ELEVATION REFERENCE TYPE
~Curve Information Section
#MNEM       .UNIT                                      API CODE :CURVE DESCRIPTION
#------------------------------------------------------------------------------
DEPT        .FT                                                 :DEPTH     
AT10        .OHMM                                               :          
AT20        .OHMM                                               :          
AT30        .OHMM                                               :          
AT60        .OHMM                                               :          
AT90        .OHMM                                               :          
DCAL        .IN                                                 :          
DPSS        .V/V                                                :          
DTLF        .US/FT                                              :          
DTLN        .US/FT                                              :          
GR          .GAPI                                               :          
GR_NORM     .GAPI                                               :GammaRay Normalized
NPSS        .V/V                                                :Neutron Porosity Sandstone
SP          .MV                                                 :          
SP_NORM     .MV                                                 :SP Normalized
TENS        .LB                                                 :          
VSH_GR      .V/V                                                :Volume of Shale from GR
VSH_SP      .V/V                                                :Volume of Shale from SP
~A        DEPTH           AT10           AT20           AT30           AT60           AT90           DCAL           DPSS           DTLF           DTLN             GR        GR_NORM           NPSS             SP        SP_NORM           TENS         VSH_GR         VSH_SP
# ...
      8167.5000         0.8146         0.8371         0.8295          0.822         0.8073          -7.04        -999.25        -999.25        -999.25        -999.25        -999.25        -999.25        -0.3922      -2.836913       3666.667        -999.25      0.9594727
      8168.0000         0.8447         0.8524         0.8447         0.8371          0.822          -7.04        -999.25        -999.25        -999.25        -999.25        -999.25        -999.25              0       -2.54424       3666.667        -999.25      0.9636537
      8168.5000         0.8838         0.8759          0.868         0.8601         0.8447          -7.04        -999.25        -999.25        -999.25        -999.25        -999.25        -999.25            0.4      -2.243767       3666.667        -999.25      0.9679462
      8169.0000            0.9            0.9         0.8919         0.8838          0.868          -7.04        -999.25        -999.25        -999.25        -999.25        -999.25        -999.25            0.8      -1.943293       3666.667        -999.25      0.9722387
      8169.5000         0.9404         0.9404         0.9322          0.924         0.9079          -7.04        -999.25        -999.25        -999.25        -999.25        -999.25        -999.25            0.6       -2.24282       3666.667        -999.25      0.9679597
      8170.0000         1.0184         0.9826          0.974         0.9655         0.9487          -7.04        -999.25        -999.25        -999.25        -999.25        -999.25        -999.25            0.2      -2.742346       3666.667        -999.25      0.9608237
      8170.5000         1.0277         1.0184         1.0092              1         0.9826          -7.04        -999.25        -999.25        -999.25        -999.25        -999.25        -999.25            0.2      -2.841873       3666.667        -999.25      0.9594018
      8171.0000              1         0.9913         0.9826          0.974          0.957          -7.04        -999.25        -999.25        -999.25        -999.25        -999.25        -999.25            0.4      -2.741399       3666.667        -999.25      0.9608372
      8171.5000         0.9487          0.957         0.9487         0.9404          0.924          -7.04        -999.25        -999.25        -999.25        -999.25        -999.25        -999.25            0.8      -2.440926       3666.667        -999.25      0.9651296
      8172.0000         0.9404         0.9404         0.9322          0.924         0.9079          -7.04        -999.25        -999.25        -999.25        -999.25        -999.25        -999.25            0.8      -2.540452       3666.667        -999.25      0.9637078
      8172.5000         0.9404         0.9322         0.9159         0.9079         0.8919          -7.04        -999.25        -999.25        -999.25        -999.25        -999.25        -999.25            0.6      -2.839979       3666.667        -999.25      0.9594288
      8173.0000          0.957          0.957         0.9079            0.9         0.8838          -7.04        -999.25        -999.25        -999.25        -999.25        -999.25        -999.25            0.6      -2.939506       3666.667        -999.25       0.958007
      8173.5000         0.9322         0.9322         0.9079            0.9         0.8838          -7.04        -999.25        -999.25        -999.25        -999.25        -999.25        -999.25            0.6      -3.039032       3666.667        -999.25      0.9565852
      8174.0000            0.9            0.9         0.8838         0.8759         0.8601          -7.04        -999.25        -999.25        -999.25        -999.25        -999.25        -999.25            0.6      -3.138558       3666.667        -999.25      0.9551635
      8174.5000         0.8759          0.868         0.8838         0.8759         0.8601          -7.04        -999.25        -999.25        -999.25        -999.25        -999.25        -999.25            0.6      -3.238085       3666.667        -999.25      0.9537417
      8175.0000         0.8759         0.8601          0.868         0.8601         0.8447          -7.04        -999.25        -999.25        -999.25        -999.25        -999.25        -999.25              1      -2.937612       3666.667        -999.25      0.9580341
      8175.5000         0.8919          0.868         0.8759          0.868         0.8524          -7.04        -999.25        -999.25        -999.25        -999.25        -999.25        -999.25            1.2      -2.837138       3666.667        -999.25      0.9594694
      8176.0000            0.9         0.8919         0.8838         0.8759         0.8601          -7.04        -999.25        -999.25        -999.25        -999.25        -999.25        -999.25            1.2      -2.936664       3666.667        -999.25      0.9580476
      8176.5000         0.9159            0.9         0.8919         0.8838          0.868          -7.04        -999.25        -999.25        -999.25        -999.25        -999.25        -999.25              1      -3.236191       3666.667        -999.25      0.9537687
      8177.0000         0.9159            0.9         0.8919         0.8838          0.868          -7.04        -999.25        -999.25        -999.25        -999.25        -999.25        -999.25            1.2      -3.135718       3666.667        -999.25       0.955204
      8177.5000            0.9         0.8919         0.8838         0.8759         0.8601          -7.04        -999.25        -999.25        -999.25        -999.25        -999.25        -999.25            1.4      -3.035244       3666.667        -999.25      0.9566393
      8178.0000         0.8524         0.8601         0.8524         0.8447         0.8295          -7.04        -999.25        -999.25        -999.25        -999.25        -999.25        -999.25            1.6      -2.934771       3666.667        -999.25      0.9580747
      8178.5000          0.822         0.8295          0.822         0.8146            0.8          -7.04        -999.25        -999.25        -999.25        -999.25        -999.25        -999.25            1.8      -2.834297       3666.667        -999.25        0.95951
      8179.0000         0.7924            0.8         0.7924         0.7849         0.7701          -7.04        -999.25        -999.25        -999.25        -999.25        -999.25        -999.25            1.6      -3.133824       3666.667        -999.25      0.9552311
      8179.5000         0.7627         0.7701         0.7627         0.7555         0.7412          -7.04        -999.25        -999.25        -999.25        -999.25        -999.25        -999.25            1.6       -3.23335       3666.667        -999.25      0.9538093
      8180.0000         0.7342         0.7412         0.7342         0.7272         0.7135          -7.04        -999.25        -999.25        -999.25        -999.25        -999.25        -999.25            1.6      -3.332877       3666.667        -999.25      0.9523875
      8180.5000         0.7135         0.7135         0.7135         0.7067         0.6933          -7.08        -999.25        -999.25        -999.25        -999.25        -999.25        -999.25              2      -3.032403       3666.667        -999.25      0.9566799
      8181.0000         0.7067         0.7067         0.7135         0.7067         0.6933          -7.08        -999.25        -999.25        -999.25        -999.25        -999.25        -999.25            2.2       -2.93193       3666.667        -999.25      0.9581153
      8181.5000         0.7135         0.7135         0.7203         0.7135            0.7          -7.08        -999.25        -999.25        -999.25        -999.25        -999.25        -999.25            2.6      -2.631456       3666.667        -999.25      0.9624078
      8182.0000         0.7272         0.7412         0.7342         0.7272         0.7135          -7.08        -999.25        -999.25        -999.25        -999.25        -999.25        -999.25            3.2      -2.130983       3666.667        -999.25      0.9695574
