#------------------------------------------------------------------------------
# Created by    : vladimir.rabinovich
# Created on    : 09/19/2023 17:20:24
#------------------------------------------------------------------------------
~Version Information Section
VERS.           2.0     :   CWLS log ASCII Standard - VERSION 2.0
WRAP.           NO      :   One line per depth step
~Well Information Section
#MNEM       .UNIT                                         VALUE :DESCRIPTION
#------------------------------------------------------------------------------
STRT        .FT                                            1590 :START DEPTH
STOP        .FT                                            8991 :STOP DEPTH
STEP        .FT                                             0.5 :STEP      
NULL        .                                           -999.25 :NULL      
COMP        .                                 C & K OFFSHORE CO :COMPANY   
WELL        .                                OCS 00507 ST00BP00 :WELL      
FLD         .                                           WILDCAT :FIELD     
LOC         .                                                   :LOCATION  
CNTY        .                           HIGH ISLAND LARGE BLOCK :LOCATION  
STAT        .                                             TEXAS :STATE     
CTRY        .                                     UNITED STATES :COUNTRY   
SRVC        .                                                   :SERVICE COMPANY
DATE        .                             9/13/2023 11:19:15 AM :LOG DATE  
API         .                                    42708300260000 :API NUMBER
UWI         .                                    42708300260000 :UNIQUE WELL ID
XCOORD      .                                  1287575.74118613 :SURFACE X 
YCOORD      .                                  10681645.7296129 :SURFACE Y 
LAT         .                                         29.428295 :LATITUDE  
LON         .                                        -94.108714 :LONGITUDE 
ELEV        .FT                                              73 :ELEVATION VALUE
ELEV_TYPE   .                                                KB :ELEVATION REFERENCE TYPE
~Curve Information Section
#MNEM       .UNIT                                      API CODE :CURVE DESCRIPTION
#------------------------------------------------------------------------------
DEPT        .FT                                                 :DEPTH     
ASN         .OHMM                                               :          
CALI        .IN                                                 :          
CILD        .MMHO                                               :          
DT          .US/F                                               :          
GR          .GAPI                                               :          
GR_NORM     .GAPI                                               :GammaRay Normalized
ILD         .OHMM                                               :          
SP          .MV                                                 :          
SP_NORM     .MV                                                 :SP Normalized
VSH_GR      .V/V                                                :Volume of Shale from GR
VSH_SP      .V/V                                                :Volume of Shale from SP
~A        DEPTH            ASN           CALI           CILD             DT             GR        GR_NORM            ILD             SP        SP_NORM         VSH_GR         VSH_SP
# ...
      6517.5000         0.4507        11.0852       4609.406       116.9071        59.0843       60.10538         0.1595      -102.9904      -61.15643      0.5767102      0.1263368
      6518.0000         0.4382        10.8808       4694.594       117.2263        59.9379       61.17237         0.1469      -106.4996      -64.66181      0.5994122     0.07625983
      6518.5000         0.4245         10.574       5195.281       117.8088        60.4417       61.80212         0.1343      -110.0403      -68.19868      0.6128111     0.02573308
      6519.0000         0.4108        10.2476       5254.492        118.126          59.67        60.8375         0.1251      -111.3724      -69.52698      0.5922872    0.006757464
      6519.5000         0.3972         10.326       5277.734        117.873        58.1193       58.89912         0.1228      -110.7067      -68.85746      0.5510452       0.016322
      6520.0000         0.3877        10.4249        5305.75       117.2748        57.8274       58.53425         0.1308      -107.8899      -66.03684      0.5432819     0.05661654
      6520.5000         0.3965        10.4968       5151.289       116.4489        57.6822       58.35275         0.1475      -105.9993      -64.14243      0.5394202     0.08367964
      6521.0000         0.4053         10.513       4867.164       115.3695        56.8864         57.358         0.1643      -102.8356      -60.97491      0.5182553      0.1289299
      6521.5000         0.4152        10.3905       4800.336       114.8704        58.9626       59.95325          0.181        -98.882       -57.0175      0.5734734      0.1854643
      6522.0000         0.4161        10.3285       4651.305       115.8655        61.5686       63.21075         0.2108       -94.9282      -53.05988      0.6427819      0.2420018
      6522.5000         0.4086        10.3761       4470.578       117.6565        62.9501       64.93762         0.2518        -97.599      -55.72686      0.6795239       0.203902
      6523.0000         0.4011        10.5199       4194.313       119.1332        64.6613       67.07663         0.2974      -102.2864      -60.41045      0.7250347      0.1369936
      6523.5000         0.3933        10.4871           3854       120.4172        66.9965       69.99562         0.3473       -96.4957      -54.61592      0.7871408      0.2197725
      6524.0000         0.3855        10.4532           3458       119.1936        70.2971       74.12137         0.3971       -84.4451      -42.56151      0.8749228      0.3919784
      6524.5000         0.4198        10.4976       3090.785       116.2034        72.7794       77.22426          0.447       -67.8518      -25.96439      0.9409417      0.6290801
      6525.0000         0.5076         10.536       2329.656       109.9023        74.8949       79.86862         0.4858       -50.8091      -8.917881      0.9972047      0.8726017
      6525.5000         0.5889        10.3926       1946.408       100.3645        76.4594       81.82425         0.5206       -48.3606      -6.465561              1      0.9076349
      6526.0000         0.6213        10.2264       1933.793        94.4464        71.2861       75.35763         0.4943       -46.9467      -5.047848      0.9012261      0.9278879
      6526.5000         0.6535        10.1619       1966.063        95.0984        67.1593       70.19913          0.468       -46.0119      -4.109234      0.7914708      0.9412966
      6527.0000         0.6851        10.1592       1998.406        98.1737         65.738        68.4225         0.4417       -47.7241      -5.817612      0.7536702      0.9168913
      6527.5000         0.7061        10.1777        2105.34         106.71        66.4264         69.283         0.4154       -49.7634        -7.8531      0.7719787      0.8878129
      6528.0000         0.7237        10.2204        2234.27       112.9617        67.6342       70.79276          0.389       -53.2603      -11.34618      0.8041012      0.8379117
      6528.5000         0.7353        10.2749        2293.48       115.9271        69.8359       73.54488         0.3816       -58.1474      -16.22947       0.862657      0.7681505
      6529.0000         0.7443        10.3138       2340.891       119.6031         70.825       74.78125         0.3815       -61.4926      -19.57085      0.8889627      0.7204164
      6529.5000         0.6657        10.3438         2331.5       122.8104        70.6084        74.5105         0.3914       -60.6833      -18.75773      0.8832021      0.7320324
      6530.0000         0.6206        10.3702       2297.164       125.2356        71.5059       75.63237         0.4052       -59.8422      -17.91282      0.9070717      0.7441026
      6530.5000          0.593        10.3934       2232.625       124.2882        74.6573       79.57162          0.419       -59.0853       -17.1521      0.9908856        0.75497
      6531.0000         0.5788        10.4132       2184.258       122.5094        77.2889       82.86113         0.4327       -54.3435      -12.40648              1      0.8227645
      6531.5000         0.5703        10.4471       2147.934       121.3177        78.6901       84.61263         0.4465        -49.671      -7.730167              1       0.889569
      6532.0000         0.5746        10.5134       2113.152        120.397        79.9272         86.159         0.4603       -46.7007       -4.75605              1      0.9320564
      6532.5000         0.5788        10.5231       2080.063       120.2617        81.2607       87.82587          0.474       -44.5942      -2.645737              1      0.9622037
      6533.0000         0.5831        10.4712       2051.277       120.8423        83.3859       90.48238         0.4878       -42.7571     -0.8048172              1      0.9885026
      6533.5000         0.5873        10.4483       2017.316        121.369        84.9989       92.49863         0.4874       -41.9565  -0.0004043579              1      0.9999942
      6534.0000         0.5915        10.4418       2025.451       121.7911        84.3809       91.72612         0.4815         -41.33      0.6299133              1              1
      6534.5000         0.5954        10.4447        2049.41       121.5012        82.0712         88.839         0.4756       -40.8344        1.12933              1              1
      6535.0000         0.5994        10.4762       2092.652       121.1763        81.3804        87.9755         0.4589       -40.8822       1.085346              1              1
      6535.5000         0.5998        10.5126       2132.359       120.9717        81.9623       88.70288         0.4415         -40.93       1.041363              1              1
      6536.0000         0.5912        10.4733       2157.238        120.892        82.0128       88.76601         0.4241       -40.9778      0.9973793              1              1
      6536.5000         0.5834        10.4358       2182.121       120.7417        81.8303       88.53787         0.4068       -41.0256      0.9533958              1              1
      6537.0000         0.5797        10.4018       2204.461       121.2537        81.9181       88.64762         0.4015       -41.2296       0.753212              1              1
      6537.5000         0.5775        10.3192       2222.004       122.3478        82.8875       89.85938         0.3993       -41.5023      0.4843292              1              1
      6538.0000         0.5831        10.1635       2239.516       123.0941        85.0146       92.51825         0.4076       -42.7771     -0.7866554              1      0.9887621
      6538.5000         0.5887        10.2347       2255.727       123.7257        85.0186       92.52325         0.4184       -44.1337      -2.139442              1      0.9694365
      6539.0000         0.5943        10.3949       2218.293       123.1014        82.0083       88.76038         0.4291       -45.9395      -3.941422              1       0.943694
      6539.5000          0.596        10.5816       2153.012       120.1384        77.8325       83.54062         0.4398        -47.608       -5.60611              1      0.9199127
