#------------------------------------------------------------------------------
# Created by    : vladimir.rabinovich
# Created on    : 09/19/2023 17:22:53
#------------------------------------------------------------------------------
~Version Information Section
VERS.           2.0     :   CWLS log ASCII Standard - VERSION 2.0
WRAP.           NO      :   One line per depth step
~Well Information Section
#MNEM       .UNIT                                         VALUE :DESCRIPTION
#------------------------------------------------------------------------------
STRT        .FT                                             252 :START DEPTH
STOP        .FT                                           11321 :STOP DEPTH
STEP        .FT                                             0.5 :STEP      
NULL        .                                           -999.25 :NULL      
COMP        .                          HUMBLE OIL & REFINING CO :COMPANY   
WELL        .                                OCS 00615 ST00BP00 :WELL      
FLD         .                                           WILDCAT :FIELD     
LOC         .                                                   :LOCATION  
CNTY        .                             GALVESTON LARGE BLOCK :LOCATION  
STAT        .                                             TEXAS :STATE     
CTRY        .                                     UNITED STATES :COUNTRY   
SRVC        .                                                   :SERVICE COMPANY
DATE        .                             9/13/2023 11:19:42 AM :LOG DATE  
API         .                                    42706000270000 :API NUMBER
UWI         .                                    42706000270000 :UNIQUE WELL ID
XCOORD      .                                  1043929.24471964 :SURFACE X 
YCOORD      .                                  10527500.2798036 :SURFACE Y 
LAT         .                                         28.995876 :LATITUDE  
LON         .                                        -94.866344 :LONGITUDE 
ELEV        .FT                                              67 :ELEVATION VALUE
ELEV_TYPE   .                                                KB :ELEVATION REFERENCE TYPE
~Curve Information Section
#MNEM       .UNIT                                      API CODE :CURVE DESCRIPTION
#------------------------------------------------------------------------------
DEPT        .FT                                                 :DEPTH     
LAT         .OHMM                                               :          
LN          .OHMM                                               :          
SN          .OHMM                                               :          
SP          .MV                                                 :          
SP_NORM     .MV                                                 :SP Normalized
VSH_SP      .V/V                                                :Volume of Shale from SP
~A        DEPTH            LAT             LN             SN             SP        SP_NORM         VSH_SP
# ...
      5382.0000         0.2931         0.3774         1.3007      -174.0383       -76.7205     0.01661682
      5382.5000         0.2765         0.3661         1.2618      -174.3486      -77.03535     0.01252796
      5383.0000         0.2599         0.3548         1.2226      -174.6589       -77.3502    0.008439003
      5383.5000         0.2378         0.3464         1.2372       -174.969      -77.66483    0.004352916
      5384.0000         0.2013         0.3543         1.2547      -175.2449      -77.94528   0.0007106236
      5384.5000         0.1649         0.3621         1.2405      -175.4612      -78.16611              0
      5385.0000         0.1284           0.37         1.2093      -175.6772      -78.38667              0
      5385.5000         0.1026         0.3778         1.1254      -175.8936       -78.6076              0
      5386.0000         0.1119         0.3857         1.0211      -176.1099      -78.82845              0
      5386.5000         0.1272         0.3935         0.8813      -176.3259      -79.04899              0
      5387.0000         0.1457         0.4011          0.721      -176.0586      -78.78623              0
      5387.5000         0.1337         0.4084           0.64      -175.6611      -78.39328              0
      5388.0000         0.1176         0.4157         0.5948      -173.8203      -76.55702     0.01873997
      5388.5000         0.1026          0.423         0.6608      -169.9297      -72.67097     0.06920822
      5389.0000         0.0877         0.4304         0.7326       -166.043      -68.78881      0.1196258
      5389.5000         0.0901         0.4377         0.8226      -162.1523      -64.90265      0.1700955
      5390.0000         0.1111          0.445         0.9124      -154.3359      -57.09081       0.271548
      5390.5000         0.1321         0.4524         0.7936      -148.6484      -51.40784      0.3453527
      5391.0000         0.1532          0.459         0.8964      -144.7061      -47.47009      0.3964924
      5391.5000         0.1728         0.4591         1.0248      -143.5752      -46.34372      0.4111205
      5392.0000         0.1852         0.4593         1.1157      -144.9492      -47.72227      0.3932172
      5392.5000         0.1975          0.461         1.1789      -146.3242      -49.10181      0.3753011
      5393.0000         0.2098         0.4634         1.2414      -147.6992      -50.48136      0.3573849
      5393.5000         0.2222         0.4658         1.2941      -149.0732      -51.85989      0.3394819
      5394.0000         0.2238         0.4682         1.3468      -150.4482      -53.23944      0.3215657
      5394.5000         0.2111         0.4706         1.3803      -151.8223      -54.61808      0.3036613
      5395.0000         0.1983          0.482          1.391      -153.1973      -55.99763      0.2857451
      5395.5000         0.1855         0.4939         1.3717      -154.5723      -57.37717       0.267829
      5396.0000         0.1728         0.5059          1.344      -155.9463      -58.75572      0.2499257
      5396.5000           0.16         0.5098         1.3186      -156.9883      -59.80225      0.2363344
      5397.0000         0.1473         0.5079         1.2978      -158.0146      -60.83311      0.2229467
      5397.5000          0.149         0.4999         1.2769        -159.04      -61.86304      0.2095709
      5398.0000         0.1698         0.4902         1.2904      -160.4043      -63.23189      0.1917937
      5398.5000         0.1907         0.4806         1.3063      -161.8916      -64.72373      0.1724191
      5399.0000         0.2115         0.4709         1.3223      -163.3789      -66.21558      0.1530444
      5399.5000         0.2323         0.4612         1.3741      -164.5088      -67.35002      0.1383114
      5400.0000         0.2565         0.4515          1.427      -165.2783      -68.12407      0.1282588
      5400.5000         0.2819         0.4419         1.4811      -166.0488       -68.8991      0.1181935
      5401.0000         0.3074         0.4333         1.5411      -166.8193      -69.67416      0.1081278
      5401.5000         0.3328          0.426         1.5688      -167.4922      -70.35159     0.09932996
      5402.0000         0.3582         0.4187         1.4412      -164.7363      -67.60023      0.1350619
      5402.5000         0.3832         0.4115         1.0635      -161.9805      -64.84898      0.1707925
      5403.0000         0.3624         0.4044         0.9165      -159.0078      -61.88082        0.20934
      5403.5000         0.3415         0.4002         0.8202       -154.793      -57.67056      0.2640187
      5404.0000         0.3242          0.396         0.7245       -150.582      -53.46411      0.3186479
      5404.5000         0.3093         0.3918         0.6805      -147.6523      -50.53895       0.356637
      5405.0000         0.2943         0.3876         0.6464      -145.2598      -48.15099      0.3876494
      5405.5000         0.2793         0.3841         0.6422      -142.8672      -45.76294      0.4186631
      5406.0000         0.2644         0.3806         0.6587      -138.8203      -41.72058      0.4711613
      5406.5000         0.2494         0.3771         0.6752      -133.2031      -36.10792       0.544053
      5407.0000         0.2403         0.3736         0.6916      -130.1562      -33.06557       0.583564
      5407.5000         0.2404         0.3733         0.7081      -129.2588      -32.17271      0.5951595
      5408.0000         0.2406         0.3735         0.7276      -133.7031      -36.62155      0.5373824
      5408.5000         0.2407         0.3736         0.7794      -139.3125       -42.2355      0.4644741
      5409.0000         0.2409         0.3738         0.8311       -144.793      -47.72054      0.3932397
      5409.5000          0.241         0.3739         0.8809       -149.832      -52.76408      0.3277392
      5410.0000         0.2412         0.3673         0.9291      -155.1211      -58.05772      0.2589906
      5410.5000         0.2413         0.3602          0.946      -160.9844      -63.92558      0.1827847
      5411.0000         0.2415         0.3531         0.8661      -166.8437      -69.78942      0.1066309
      5411.5000         0.2229         0.3708         0.7837      -165.5469      -68.49716      0.1234135
      5412.0000         0.2008         0.3902         0.6519      -161.1719      -64.12671      0.1801726
      5412.5000         0.1787         0.4096          0.581      -154.6641      -57.62344      0.2646307
      5413.0000         0.1566          0.429         0.6172      -149.9395      -52.90338      0.3259301
      5413.5000         0.1344         0.4484         0.6883       -147.041      -50.00943      0.3635139
      5414.0000         0.1214         0.4678         0.8076      -146.4497      -49.42268      0.3711341
      5414.5000         0.1104         0.4872         1.0583      -147.1572      -50.13471      0.3618869
      5415.0000         0.0994         0.5053         1.2206      -147.8604      -50.84245      0.3526954
      5415.5000         0.0885         0.5068         1.3751      -148.5635      -51.55011      0.3435051
      5416.0000         0.0775         0.5084         1.5268      -149.2666      -52.25774       0.334315
      5416.5000         0.0643         0.5099         1.5996      -149.9702      -52.96589      0.3251183
      5417.0000         0.0496         0.5115          1.661      -150.6733      -53.67352      0.3159283
      5417.5000         0.0349         0.5131         1.6418      -151.3765      -54.38127      0.3067367
      5418.0000         0.0277         0.5146         1.6225      -151.5696      -54.57891        0.30417
      5418.5000          0.049         0.5162         1.6134       -151.762      -54.77586      0.3016123
      5419.0000         0.0703         0.5177         1.6148      -151.9541       -54.9725      0.2990584
      5419.5000         0.0916         0.5193         1.6161      -152.1462      -55.16914      0.2965046
