#------------------------------------------------------------------------------
# Created by    : vladimir.rabinovich
# Created on    : 09/19/2023 17:22:17
#------------------------------------------------------------------------------
~Version Information Section
VERS.           2.0     :   CWLS log ASCII Standard - VERSION 2.0
WRAP.           NO      :   One line per depth step
~Well Information Section
#MNEM       .UNIT                                         VALUE :DESCRIPTION
#------------------------------------------------------------------------------
STRT        .FT                                            2222 :START DEPTH
STOP        .FT                                            8603 :STOP DEPTH
STEP        .FT                                             0.5 :STEP      
NULL        .                                           -999.25 :NULL      
COMP        .                                    HRUBETZ OIL CO :COMPANY   
WELL        .                                     ST TR 00028-L :WELL      
FLD         .                                           WILDCAT :FIELD     
LOC         .                                                   :LOCATION  
CNTY        .                           HIGH ISLAND LARGE BLOCK :LOCATION  
STAT        .                                             TEXAS :STATE     
CTRY        .                                     UNITED STATES :COUNTRY   
SRVC        .                                                   :SERVICE COMPANY
DATE        .                             9/13/2023 11:19:15 AM :LOG DATE  
API         .                                    42708303040000 :API NUMBER
UWI         .                                    42708303040000 :UNIQUE WELL ID
XCOORD      .                                  1211101.11829014 :SURFACE X 
YCOORD      .                                  10709910.5532953 :SURFACE Y 
LAT         .                                         29.503814 :LATITUDE  
LON         .                                       -94.3499952 :LONGITUDE 
ELEV        .FT                                              60 :ELEVATION VALUE
ELEV_TYPE   .                                                KB :ELEVATION REFERENCE TYPE
~Curve Information Section
#MNEM       .UNIT                                      API CODE :CURVE DESCRIPTION
#------------------------------------------------------------------------------
DEPT        .FT                                                 :DEPTH     
CALI        .IN                                                 :          
GR          .GAPI                                               :          
GR_NORM     .GAPI                                               :GammaRay Normalized
ILD         .OHMM                                               :          
ILM         .OHMM                                               :          
RHOB        .G/C3                                               :          
SFL         .OHMM                                               :          
SP          .MV                                                 :          
SP_NORM     .MV                                                 :SP Normalized
VSH_GR      .V/V                                                :Volume of Shale from GR
VSH_SP      .V/V                                                :Volume of Shale from SP
~A        DEPTH           CALI             GR        GR_NORM            ILD            ILM           RHOB            SFL             SP        SP_NORM         VSH_GR         VSH_SP
# ...
      6474.5000        13.3246        47.7234       55.79516         1.5877         1.4393         2.3247         1.4754       -77.8043      -2.118401      0.4850034      0.9866857
      6475.0000        13.2957        46.5827       54.27853         1.3728         1.3361         2.3291         1.4763       -76.3223     -0.6479111      0.4527346              1
      6475.5000        13.3033        48.0898       56.28292         1.1731         1.0927         2.3234         1.2967        -75.703    -0.04011536      0.4953812              1
      6476.0000        13.3556        54.5187       64.83224         1.0104         0.8097         2.2898         1.1696       -75.0839      0.5674896      0.6772816              1
      6476.5000        13.4244        61.1235       73.61548         0.8722         0.6859          2.218         1.0658       -74.4637       1.176186      0.8641591              1
      6477.0000        13.4017        66.6608       80.97915         0.7577         0.6381          2.157         1.0202       -73.8409       1.787491              1              1
      6477.5000        13.3183         69.079       84.19511         0.6766         0.6008         2.1096         1.0042       -73.2922       2.324684              1              1
      6478.0000        13.2645        70.7155       86.37156         0.6251         0.5908         2.0989         1.0056       -72.9569       2.648483              1              1
      6478.5000        13.1948        69.7898       85.14083         0.5962         0.6137          2.107         1.0278        -73.021       2.572876              1              1
      6479.0000        13.0939        68.7101       83.70531         0.6264         0.6434         2.1215         1.0513       -73.0852       2.497177              1              1
      6479.5000        13.0526        67.6946       82.35517         0.7053         0.6748          2.136         1.0908       -73.2098       2.361076              1              1
      6480.0000        13.0768        67.1914       81.68626          0.786         0.7107         2.1504          1.136       -73.3848       2.174568              1              1
      6480.5000         13.104        66.6882       81.01739         0.8741         0.7486         2.1649         1.1916       -73.5597       1.988174              1              1
      6481.0000        12.9984        67.0693       81.52442         0.8865         0.7884           2.18         1.2082       -73.7346       1.801773              1              1
      6481.5000        12.9296        67.5435       82.15527         0.8623         0.7899         2.1951         1.1959       -73.9291       1.595772              1              1
      6482.0000        13.0353        67.7743       82.46243          0.839          0.755         2.2101           1.17       -74.1597       1.353668              1              1
      6482.5000         13.176        67.9827       82.73981         0.8164         0.7251         2.2228         1.1437         -74.39       1.111862              1              1
      6483.0000        13.3165        67.8359       82.54486         0.7943         0.7075         2.2297          1.118       -74.6206      0.8697662              1              1
      6483.5000        13.3869        67.6841       82.34325         0.7729         0.6903         2.2333         1.0956       -74.8002      0.6786575              1              1
      6484.0000        13.4432        67.4896       82.08486         0.7667         0.6911          2.233         1.0838       -74.6725      0.7814713              1              1
      6484.5000        13.3682        67.2952        81.8266         0.7649           0.71          2.234          1.072       -74.5449      0.8621292              1              1
      6485.0000        13.3195        67.1342       81.61276          0.763         0.7295         2.2373         1.0604       -74.4172      0.9428864              1              1
      6485.5000         13.352        67.2601       81.78045         0.7612         0.7495         2.2457         1.0595        -74.213       1.100136              1              1
      6486.0000        13.3847        67.3643       81.91927         0.7594         0.7512         2.2543         1.0713        -73.996       1.270187              1              1
      6486.5000        13.3788        66.0612       80.18668         0.7576         0.7516          2.252         1.0833       -73.7788       1.440445              1              1
      6487.0000        13.3609        64.7581       78.45408         0.7606         0.7521          2.248         1.0927       -73.5618       1.610497      0.9671081              1
      6487.5000        13.3463        63.5319       76.82375          0.765         0.7519          2.239         1.0811       -73.3613       1.764053      0.9324201              1
      6488.0000        13.3698        65.6129       79.59129         0.7694         0.7515         2.2297          1.059       -73.3408       1.737602      0.9913041              1
      6488.5000        13.5276        70.0634       85.50977         0.7738          0.751         2.2205         1.0573       -73.3203       1.711159              1              1
      6489.0000        13.7525        74.1815       90.98623         0.7783         0.7601         2.2177         1.0687       -73.9994      0.9851151              1              1
      6489.5000        14.0569        73.8054       90.48634         0.7848         0.7719         2.2165          1.101       -75.1132     -0.1756363              1              1
      6490.0000        14.3226        71.4702       87.38128         0.7918         0.7838         2.2144         1.1394       -76.2059      -1.315285              1      0.9962466
      6490.5000        14.5011        69.0277       84.13352         0.7989          0.796         2.2123         1.1615       -76.6699      -1.826225              1       0.990164
      6491.0000        14.5598        66.2456       80.43419         0.8103          0.809         2.2102         1.1622       -77.1338      -2.337074              1      0.9840825
      6491.5000        14.5849        63.5221       76.81277         0.8231         0.8227         2.1837         1.1441       -77.5978      -2.848022      0.9321865      0.9779997
      6492.0000        14.5475        61.0624       73.54214         0.8423         0.8435         2.1532         1.1125       -77.9435      -3.240669      0.8625987      0.9733254
      6492.5000        14.5099        60.2161       72.41699          0.866         0.8761         2.1323         1.0818       -78.2231      -3.567215      0.8386594      0.9694379
      6493.0000        14.4724        61.5082       74.13547         0.8746         0.8632         2.1351         1.1134       -78.5029      -3.893959      0.8752227      0.9655481
      6493.5000        14.2389        62.7991       75.85236         0.8733         0.8141         2.1573         1.1516       -78.7828       -4.22081      0.9117523       0.961657
      6494.0000        13.9531        63.9214       77.34504         0.8721         0.7714         2.1795         1.1747       -79.2955      -4.780457      0.9435115      0.9549946
      6494.5000        13.7569        64.9828       78.75672          0.869         0.7311         2.2079         1.1885       -79.8909      -5.422798      0.9735473      0.9473476
      6495.0000        13.8342        66.0441       80.16827         0.8564         0.6985         2.1908         1.1158       -80.4863      -6.065147              1      0.9397006
      6495.5000        13.9115        67.0931       81.56348          0.844         0.6951         2.1532         1.0523       -81.0825       -6.70829              1      0.9320441
      6496.0000        14.1206        68.0018       82.77212         0.8318         0.6917         2.1236          1.002       -81.4945      -7.167236              1      0.9265805
      6496.5000        14.4861        67.9896       82.75615         0.8198         0.6989         2.0944          0.987       -81.5807      -7.300392              1      0.9249953
