#------------------------------------------------------------------------------
# Created by    : vladimir.rabinovich
# Created on    : 09/19/2023 17:20:32
#------------------------------------------------------------------------------
~Version Information Section
VERS.           2.0     :   CWLS log ASCII Standard - VERSION 2.0
WRAP.           NO      :   One line per depth step
~Well Information Section
#MNEM       .UNIT                                         VALUE :DESCRIPTION
#------------------------------------------------------------------------------
STRT        .FT                                             642 :START DEPTH
STOP        .FT                                           11989 :STOP DEPTH
STEP        .FT                                             0.5 :STEP      
NULL        .                                           -999.25 :NULL      
COMP        .                       CORPUS CHRISTI OIL & GAS CO :COMPANY   
WELL        .                               OCS G05177 ST00BP00 :WELL      
FLD         .                              GALVESTON BLOCK 0151 :FIELD     
LOC         .                                                   :LOCATION  
CNTY        .                             GALVESTON LARGE BLOCK :LOCATION  
STAT        .                                             TEXAS :STATE     
CTRY        .                                     UNITED STATES :COUNTRY   
SRVC        .                                                   :SERVICE COMPANY
DATE        .                             9/13/2023 11:19:27 AM :LOG DATE  
API         .                                    42706401010000 :API NUMBER
UWI         .                                    42706401010000 :UNIQUE WELL ID
XCOORD      .                                   1130272.6689428 :SURFACE X 
YCOORD      .                                  10609756.0111422 :SURFACE Y 
LAT         .                                         29.225567 :LATITUDE  
LON         .                                        -94.599775 :LONGITUDE 
ELEV        .FT                                              83 :ELEVATION VALUE
ELEV_TYPE   .                                                KB :ELEVATION REFERENCE TYPE
~Curve Information Section
#MNEM       .UNIT                                      API CODE :CURVE DESCRIPTION
#------------------------------------------------------------------------------
DEPT        .FT                                                 :DEPTH     
ASN         .OHMM                                               :          
CILD        .MMHO                                               :          
DT          .US/F                                               :          
ILD         .OHMM                                               :          
RHOB        .G/CC                                               :          
SP          .MV                                                 :          
SP_NORM     .MV                                                 :SP Normalized
VSH_SP      .V/V                                                :Volume of Shale from SP
~A        DEPTH            ASN           CILD             DT            ILD           RHOB             SP        SP_NORM         VSH_SP
# ...
      8961.0000         0.5874       1807.877       117.7884         0.5552          2.471       -43.1893    -0.02936172      0.9995806
      8961.5000         0.5973       1769.527       116.2527         0.5597         2.4733       -43.1539    0.004928589              1
      8962.0000         0.6072       1730.529       115.1811         0.5643          2.464       -43.1223     0.03541565              1
      8962.5000         0.6082       1690.486        113.336         0.5688          2.464       -43.0933      0.0633049              1
      8963.0000         0.6049       1664.658       112.5737         0.5733         2.4624       -43.0644     0.09109116              1
      8963.5000          0.601       1655.432       112.4274         0.5707         2.4503       -43.0355      0.1188812              1
      8964.0000          0.597       1677.455       112.9052          0.568         2.4167       -42.9691       0.184166              1
      8964.5000          0.593       1723.516       114.1538         0.5653         2.3742       -42.8892      0.2629585              1
      8965.0000          0.589       1770.572       116.6397         0.5626         2.3225       -42.8093      0.3417435              1
      8965.5000          0.585       1814.344       119.8991         0.5588         2.3171       -42.7039      0.4460335              1
      8966.0000         0.5811        1857.57       122.0781         0.5502         2.3517       -42.5934      0.5554199              1
      8966.5000         0.5771       1891.891       122.3961         0.5416         2.4072        -42.483      0.6647072              1
      8967.0000         0.5731       1923.279       121.6183          0.533         2.4257       -42.3725      0.7740936              1
      8967.5000         0.5692       1949.916       121.1809         0.5243         2.4334       -42.2982      0.8472862              1
      8968.0000         0.5644       1963.744       120.8826         0.5262         2.4309       -42.2247      0.9196701              1
      8968.5000         0.5596       1977.572       121.2059         0.5286         2.4179       -42.1513      0.9919624              1
      8969.0000         0.5548       1988.285       121.8357         0.5309         2.3915        -42.105       1.037148              1
      8969.5000         0.5531       1994.037       122.4655         0.5333         2.3614       -42.1176       1.023438              1
      8970.0000         0.5556       1999.793       122.1672         0.5365         2.3698       -42.1301       1.009823              1
      8970.5000         0.5581       1959.689       121.2502         0.5412         2.3752       -42.1426       0.996212              1
      8971.0000         0.5642       1926.563       119.4052          0.546         2.3628       -42.1351       1.002602              1
      8971.5000         0.5706       1898.807       118.4882         0.5507         2.3419       -42.1174       1.019188              1
      8972.0000          0.577       1871.049        118.654         0.5555          2.338       -42.0997       1.035778              1
      8972.5000         0.5833       1844.238       118.6651         0.5602         2.3287        -42.082       1.052364              1
      8973.0000         0.5897       1820.611       118.3668         0.5633         2.3153       -42.0314       1.101856              1
      8973.5000         0.5951       1796.984       117.6045         0.5659          2.305       -41.9611        1.17104              1
      8974.0000         0.5992       1773.406       116.6875         0.5685         2.2853       -41.8907        1.24033              1
      8974.5000         0.6017       1751.123       115.4612         0.5711         2.2544       -41.8719       1.258018              1
      8975.0000         0.5857       1728.986       113.4614         0.5655         2.2389       -41.9507       1.178108              1
      8975.5000         0.5697       1707.201       111.4617         0.5534         2.2234       -42.0295       1.098194              1
      8976.0000         0.5538       1784.102       112.0915         0.5413          2.218       -42.1556      0.9709816              1
      8976.5000          0.538       1889.752       115.2356         0.5292         2.2357       -42.4052      0.7202682              1
      8977.0000         0.5244       2024.852       119.4575         0.5116         2.2542       -42.6547      0.4696579              1
      8977.5000         0.5175       2093.594       122.2382         0.4934         2.2688       -42.9679      0.1553459              1
      8978.0000         0.5107       2142.938       123.7643         0.4752         2.2834       -43.3716     -0.2494659      0.9964362
      8978.5000         0.5039       2187.457       122.9773          0.457         2.2687       -43.7753     -0.6542778      0.9906532
      8979.0000         0.4971       2224.117       120.6682         0.4399         2.2624       -43.8267     -0.7067871       0.989903
      8979.5000         0.4958       2255.055       120.3672         0.4254         2.2724       -43.6156     -0.4968033      0.9929028
      8980.0000         0.4958       2285.945       121.1544          0.411         2.2901       -43.4045     -0.2868118      0.9959027
      8980.5000         0.4957       2274.008       122.4029         0.4172         2.2986       -43.1931    -0.07652283      0.9989068
      8981.0000         0.4957       2240.531       122.8781          0.429         2.2892       -43.0245     0.09096146              1
      8981.5000         0.5055       2207.055       121.6517         0.4409         2.2915       -42.8976      0.2167549              1
      8982.0000         0.5155       2173.578       119.8067         0.4522         2.3107       -42.7705      0.3427391              1
      8982.5000         0.5241       2140.602       117.6523         0.4628         2.3286       -42.6436      0.4685287              1
      8983.0000         0.5297       2121.227       116.5806         0.4734         2.3258       -42.5538      0.5572166              1
      8983.5000         0.5353       2101.824       115.8183          0.484         2.3306       -42.4714       0.638504              1
      8984.0000         0.5409       2082.453       114.7467         0.4946          2.336       -42.3892       0.719593              1
      8984.5000         0.5465       2063.051        114.139         0.5052         2.3259       -42.4105      0.6971817              1
      8985.0000          0.552       2034.898       113.6861         0.5158          2.312       -42.5151      0.5914688              1
      8985.5000         0.5575       2004.209       113.6972         0.5262         2.3027       -42.6857      0.4197578              1
      8986.0000         0.5624       1973.518       114.1723         0.5357         2.3343       -42.8937      0.2106438              1
      8986.5000         0.5662       1951.158       116.8142         0.5452         2.3535       -43.1017    0.001533508              1
      8987.0000         0.5699       1932.953       115.3977         0.5547         2.3619       -43.2265      -0.124382      0.9982231
      8987.5000         0.5697       1930.584       113.7099         0.5642         2.3666       -43.3484     -0.2473907      0.9964659
      8988.0000         0.5678       1929.586       112.9563         0.5737         2.3757       -43.2867     -0.1868057      0.9973313
      8988.5000         0.5692       1928.586       112.8356         0.5832          2.371       -43.1338    -0.03501511      0.9994998
      8989.0000         0.5729           1925        114.087         0.5924         2.3401       -42.9808      0.1168709              1
      8989.5000         0.5832       1920.916       114.8715          0.601         2.3169       -42.8276      0.2689629              1
      8990.0000         0.6008       1916.824       113.4904         0.6095         2.3269       -42.6747      0.4207497              1
