#------------------------------------------------------------------------------
# Created by    : vladimir.rabinovich
# Created on    : 09/19/2023 17:20:01
#------------------------------------------------------------------------------
~Version Information Section
VERS.           2.0     :   CWLS log ASCII Standard - VERSION 2.0
WRAP.           NO      :   One line per depth step
~Well Information Section
#MNEM       .UNIT                                         VALUE :DESCRIPTION
#------------------------------------------------------------------------------
STRT        .FT                                            3470 :START DEPTH
STOP        .FT                                           12708 :STOP DEPTH
STEP        .FT                                             0.5 :STEP      
NULL        .                                           -999.25 :NULL      
COMP        .                                     INEXCO OIL CO :COMPANY   
WELL        .                                     ST TR 00794-L :WELL      
FLD         .                                       BLOCK 794-L :FIELD     
LOC         .                                                   :LOCATION  
CNTY        .                        MUSTANG ISLAND LARGE BLOCK :LOCATION  
STAT        .                                             TEXAS :STATE     
CTRY        .                                     UNITED STATES :COUNTRY   
SRVC        .                                                   :SERVICE COMPANY
DATE        .                             9/13/2023 11:18:55 AM :LOG DATE  
API         .                                    42702301710000 :API NUMBER
UWI         .                                    42702301710000 :UNIQUE WELL ID
XCOORD      .                                  319607.894357718 :SURFACE X 
YCOORD      .                                   10038241.944616 :SURFACE Y 
LAT         .                                        27.6026524 :LATITUDE  
LON         .                                       -97.0775955 :LONGITUDE 
ELEV        .FT                                               0 :ELEVATION VALUE
ELEV_TYPE   .                                                GL :ELEVATION REFERENCE TYPE
~Curve Information Section
#MNEM       .UNIT                                      API CODE :CURVE DESCRIPTION
#------------------------------------------------------------------------------
DEPT        .FT                                                 :DEPTH     
ASFL        .OHMM                                               :          
CILD        .MMHO                                               :          
DT          .US/F                                               :          
GR          .GAPI                                               :          
GR_NORM     .GAPI                                               :GammaRay Normalized
ILD         .OHMM                                               :          
ILM         .OHMM                                               :          
SP          .MV                                                 :          
SP_NORM     .MV                                                 :SP Normalized
VSH_GR      .V/V                                                :Volume of Shale from GR
VSH_SP      .V/V                                                :Volume of Shale from SP
~A        DEPTH           ASFL           CILD             DT             GR        GR_NORM            ILD            ILM             SP        SP_NORM         VSH_GR         VSH_SP
# ...
      4730.0000         1.0887       1214.727       111.7914        51.1116       65.77721         0.8004         0.7368       -69.9812      -11.34208      0.6973874       0.838405
      4730.5000         1.0875       1177.088        107.825           51.7       66.80295         0.8265         0.7571       -69.5833      -10.94653      0.7192116      0.8445855
      4731.0000          1.089       1139.451       103.2898        52.7722       68.67309         0.8527         0.7875       -69.3219      -10.68748      0.7590019      0.8486332
      4731.5000         1.0958       1113.168        99.6721        53.8437       70.54196         0.8788         0.8174       -69.0748      -10.44273      0.7987651      0.8524574
      4732.0000         1.1586       1095.352        98.2889        54.8318       72.26527         0.9039         0.8453       -68.9651      -10.33538      0.8354312      0.8541347
      4732.5000         1.1863       1077.535        98.1725        55.8012       73.95598          0.918         0.8737       -68.8553      -10.22793      0.8714038      0.8558136
      4733.0000         1.1913       1059.721       100.3198        56.8721        75.8238         0.9322         0.9025       -68.7455      -10.12048      0.9111447      0.8574926
      4733.5000         1.1945       1041.904       103.5693        57.6831       77.23808         0.9464         0.9278       -68.2081      -9.585426      0.9412357      0.8658527
      4734.0000         1.1977       1020.501       106.8334        57.9676       77.73345         0.9605         0.9455        -67.376      -8.755672      0.9517756      0.8788176
      4734.5000         1.2009       987.8398       109.5991        58.2518       78.22832         0.9746         0.9537       -66.1122      -7.494221      0.9623047      0.8985278
      4735.0000         1.2073       982.3447       110.3812         58.172       78.08792         0.9888         0.9565       -65.4784      -6.862774      0.9593174      0.9083942
      4735.5000         1.2123       988.9033       109.4534        57.9924       77.77336         0.9902         0.9587       -64.8685      -6.255222      0.9526247      0.9178872
      4736.0000          1.205       1004.968       108.2375        57.8127       77.45862         0.9748         0.9616       -64.4083      -5.797375       0.945928       0.925041
      4736.5000         1.1977       1027.578       108.1257        57.6331       77.14404         0.9594          0.956       -63.9482      -5.339622      0.9392348      0.9321934
      4737.0000         1.1905       1050.215       110.4449        57.4533       76.82915         0.9424         0.9387        -63.488      -4.881771      0.9325351      0.9393473
      4737.5000         1.1856       1076.787       115.3884        57.2939       76.54984         0.9141         0.9234       -62.6465      -4.042622      0.9265924       0.952459
      4738.0000         1.1821       1105.365       120.6917        57.1376       76.27595         0.8859         0.9086       -61.6179      -3.016373      0.9207649      0.9684942
      4738.5000         1.1785       1133.967       125.0785        58.4662       78.59351         0.8577         0.8916       -60.4701      -1.870918      0.9700748      0.9863919
      4739.0000         1.1723       1161.725       127.3899         59.926       81.14005         0.8294         0.8721       -59.2897     -0.6928673              1              1
      4739.5000         1.1636       1187.549       128.3948        62.4102       85.47437         0.8012         0.8522       -58.3073      0.2871819              1              1
      4740.0000         1.1549       1213.396       129.9309        65.0154       90.01994         0.7821         0.8338        -57.897      0.6951332              1              1
      4740.5000         1.1422       1239.246       132.0513        65.4592       90.79331         0.7748         0.8139        -57.487       1.102783              1              1
      4741.0000         1.1263       1262.164       134.6216        65.1544       90.26028         0.7711         0.7943       -57.3423       1.245132              1              1
      4741.5000         1.1104       1272.619       136.2354        64.8494       89.72684         0.7754         0.7855       -57.4446       1.140484              1              1
      4742.0000         1.0956       1283.072       137.8989        64.5446       89.19379         0.7796         0.7776       -57.4905       1.092232              1              1
      4742.5000         1.0814        1277.68       139.3572        64.5533       89.20783         0.7839         0.7743       -57.5365       1.043884              1              1
      4743.0000         1.0703       1264.961       140.3823         66.226       92.12594         0.7881         0.7733       -57.5825       0.995533              1              1
      4743.5000         1.0675       1250.383       141.1631         67.251       93.91367         0.7924         0.7729       -57.6201      0.9555893              1              1
      4744.0000         1.0648       1230.139       141.6367        68.2754       95.70033         0.7998         0.7778       -57.5715       1.001839              1              1
      4744.5000         1.0632       1209.895       141.6465         68.016       95.24651         0.8083         0.7871       -57.5231       1.047886              1              1
      4745.0000          1.068        1189.65       141.4412        67.0376       93.53786         0.8167         0.8031       -57.4745       1.094139              1              1
      4745.5000         1.0728       1169.406       141.1372        66.1674       92.01805         0.8251         0.8257        -57.426       1.140289              1              1
      4746.0000         1.0776       1149.768       140.6108        65.3092       90.51917         0.8336         0.8482       -57.4096       1.154339              1              1
      4746.5000         1.0821       1143.727       139.7493        64.4512       89.02067          0.842         0.8616       -57.6238      0.9377899              1              1
      4747.0000         1.0862       1137.688       138.7107        63.7718       87.83383         0.8505         0.8653       -57.8837      0.6755371              1              1
      4747.5000         1.0867       1131.516       137.5369        63.2828       86.97932         0.8587         0.8695       -58.3989      0.1579895              1              1
      4748.0000         1.0788       1124.818       136.2463        62.8426       86.20997         0.8665         0.8732       -58.9142     -0.3596611              1              1
      4748.5000         1.0709       1118.127       134.8477        63.7352       87.76659         0.8742         0.8739       -59.4324     -0.8802071              1              1
      4749.0000         1.0629       1110.365       133.7017        64.6277       89.32309          0.882         0.8758       -59.9772      -1.427357              1      0.9933226
      4749.5000         1.0554       1097.961       132.5181         63.841       87.94901         0.8898         0.8815       -60.5191      -1.971607              1      0.9848186
      4750.0000          1.048       1085.557       131.0684        62.5687       85.72746         0.8975         0.8888       -59.0655     -0.5203552              1              1
      4750.5000         1.0407       1073.152       129.7122        61.4868        83.8382         0.9053         0.8952       -58.9057     -0.3629074              1              1
      4751.0000         1.0503       1057.328       128.6184        60.4721       82.06618         0.9131         0.8996        -58.746      -0.205555              1              1
      4751.5000         1.0602       1040.721       127.4993        59.4573         80.294         0.9208         0.9027       -58.6802     -0.1421051              1              1
      4752.0000         1.0702       1024.111       126.2706        58.5515       78.71207          0.921         0.9047       -58.6784     -0.1426544      0.9725973              1
