#------------------------------------------------------------------------------
# Created by    : vladimir.rabinovich
# Created on    : 09/19/2023 17:22:32
#------------------------------------------------------------------------------
~Version Information Section
VERS.           2.0     :   CWLS log ASCII Standard - VERSION 2.0
WRAP.           NO      :   One line per depth step
~Well Information Section
#MNEM       .UNIT                                         VALUE :DESCRIPTION
#------------------------------------------------------------------------------
STRT        .FT                                          2841.5 :START DEPTH
STOP        .FT                                          6769.5 :STOP DEPTH
STEP        .FT                                             0.5 :STEP      
NULL        .                                           -999.25 :NULL      
COMP        .                      SPINNAKER EXPLORATION CO LLC :COMPANY   
WELL        .                               OCS G18941 ST00BP00 :WELL      
FLD         .                            HIGH ISLAND BLOCK 0235 :FIELD     
LOC         .                                                   :LOCATION  
CNTY        .                           HIGH ISLAND LARGE BLOCK :LOCATION  
STAT        .                                             TEXAS :STATE     
CTRY        .                                     UNITED STATES :COUNTRY   
SRVC        .                                                   :SERVICE COMPANY
DATE        .                             9/13/2023 11:20:02 AM :LOG DATE  
API         .                                    42708405540000 :API NUMBER
UWI         .                                    42708405540000 :UNIQUE WELL ID
XCOORD      .                                  1178439.61066162 :SURFACE X 
YCOORD      .                                  10526520.2311607 :SURFACE Y 
LAT         .                                         28.998365 :LATITUDE  
LON         .                                        -94.445565 :LONGITUDE 
ELEV        .FT                                              98 :ELEVATION VALUE
ELEV_TYPE   .                                                KB :ELEVATION REFERENCE TYPE
~Curve Information Section
#MNEM       .UNIT                                      API CODE :CURVE DESCRIPTION
#------------------------------------------------------------------------------
DEPT        .FT                                                 :DEPTH     
CNCF        .%                                                  :          
DCAL        .IN                                                 :          
DT24        .US/F                                               :          
GR          .GAPI                                               :          
GR_NORM     .GAPI                                               :GammaRay Normalized
M2R1        .OHMM                                               :          
M2R2        .OHMM                                               :          
M2R3        .OHMM                                               :          
M2R6        .OHMM                                               :          
M2R9        .OHMM                                               :          
M2RX        .OHMM                                               :          
PORZ        .%                                                  :          
RWAZ        .OHMM                                               :          
SPCH        .MV                                                 :          
TEN         .LB/F                                               :          
VSH_GR      .V/V                                                :Volume of Shale from GR
ZCOR        .G/CC                                               :          
~A        DEPTH           CNCF           DCAL           DT24             GR        GR_NORM           M2R1           M2R2           M2R3           M2R6           M2R9           M2RX           PORZ           RWAZ           SPCH            TEN         VSH_GR           ZCOR
# ...
      4686.5000         41.434          2.274         146.46        115.309       79.38033          0.822          0.836          0.847          0.856           0.86          0.868         27.381          0.086         -3.273        -12.649      0.9868155          0.018
      4687.0000         42.111          3.374        151.167         115.94        80.0108          0.815          0.828          0.839          0.847          0.851          0.859         27.849          0.089         -3.067        -31.493              1          0.019
      4687.5000          44.05          4.347        154.192        115.084       79.15427          0.802          0.814          0.823          0.831          0.835          0.842         28.419          0.091         -2.827        -33.566      0.9820058          0.025
      4688.0000         45.332          4.621        154.233        114.561       78.63074            0.8          0.809          0.818          0.825          0.829          0.836         28.519          0.091         -2.542        -36.923      0.9708669          0.034
      4688.5000         45.422          3.941        150.437        115.157       79.22622          0.797          0.805          0.813           0.82          0.824          0.831         28.648          0.091         -2.339        -52.835      0.9835366          0.038
      4689.0000         44.693          2.855        145.488        117.974       82.04269          0.782           0.79          0.798          0.805           0.81          0.816         28.588          0.089         -2.245        -39.083              1          0.043
      4689.5000         44.036          2.147        141.776        121.544       85.61216          0.766          0.776          0.786          0.793          0.797          0.803         28.373          0.086         -2.211          0.138              1          0.051
      4690.0000           43.9          2.115        139.171        123.055       87.12263          0.755           0.77          0.782          0.789          0.793          0.799         28.083          0.084         -2.216          5.597              1          0.052
      4690.5000         44.028          2.696        137.997        122.022       86.08911          0.744          0.762          0.776          0.783          0.788          0.793         27.923          0.082         -2.145        -19.464              1          0.043
      4691.0000         44.618          3.624        138.654        120.483       84.54958          0.733          0.751          0.765          0.772          0.778          0.782         28.151          0.083         -1.952        -28.799              1           0.03
      4691.5000         46.787          4.325        139.934        119.271       83.33706           0.73          0.744          0.757          0.764           0.77          0.774         28.588          0.085         -1.837        -18.971              1          0.017
      4692.0000         49.698          4.389        141.589        118.888       82.95353          0.734          0.743          0.752           0.76          0.765           0.77         28.875          0.086         -1.872         -5.671              1          0.009
      4692.5000         50.815          3.986        143.599        120.085       84.14999           0.73          0.734           0.74          0.749          0.754          0.758          29.06          0.086         -1.949          3.695              1          0.013
      4693.0000         49.529          3.549        144.056        121.316       85.38047          0.715          0.717          0.722          0.731          0.735          0.739          29.24          0.085         -1.924          1.768              1          0.022
      4693.5000         48.561          3.312        143.177        120.033       84.09694          0.707          0.709          0.714          0.723          0.726           0.73         29.181          0.083         -1.719        -10.689              1          0.028
      4694.0000         47.149          3.219        141.473        117.924       81.98742          0.721          0.725          0.731           0.74          0.743          0.747         28.764          0.083         -1.503        -25.378              1           0.03
      4694.5000         43.213          3.228        138.628        118.605       82.66789          0.762          0.768          0.775          0.784          0.787          0.791         28.157          0.084         -1.537        -36.101              1           0.03
      4695.0000         39.375          3.394        136.076         120.59       84.65236           0.82          0.826          0.835          0.844          0.846          0.851         27.467          0.085         -1.997        -37.958              1          0.031
      4695.5000         38.065          3.652        134.921        120.634       84.69584          0.871          0.874          0.882          0.892          0.893          0.898         26.769          0.085         -2.834        -34.522              1          0.035
      4696.0000         39.327          3.761        137.454        119.305        83.3663          0.895          0.895          0.902          0.911          0.911          0.917         26.358          0.084         -3.629        -24.884              1          0.038
      4696.5000         42.011          3.621        141.732        118.704       82.76478          0.894          0.891          0.897          0.905          0.904          0.911         26.362          0.084         -4.008         -7.281              1          0.036
      4697.0000         44.024          3.422        143.105         118.73       82.79025          0.887          0.883          0.888          0.895          0.894          0.901         26.526          0.084         -4.103         -0.652              1          0.031
      4697.5000         43.004          3.354        141.864        118.295       82.35472          0.895          0.891          0.896          0.903          0.902          0.909         26.717          0.086          -4.16         -5.766              1          0.028
      4698.0000         40.878          3.433        138.288        115.954        80.0132          0.921          0.917          0.923           0.93          0.929          0.936         27.012          0.091         -4.329          2.101              1          0.026
      4698.5000         40.767          3.622         134.03        112.123       76.18167          0.958          0.952          0.958          0.966          0.964          0.972          27.28          0.096         -4.792         13.048       0.918759          0.022
      4699.0000         42.066          3.858        133.258        109.815       73.87315          0.993          0.982          0.987          0.996          0.995          1.003         27.401            0.1         -5.504         -0.046      0.8696414           0.02
      4699.5000          43.01          3.982        136.926        109.804       73.86161          1.012          0.995          0.998          1.007          1.007          1.015         27.507          0.102         -6.153        -20.022       0.869396          0.024
      4700.0000         43.273          3.981        141.533        109.251       73.30808          1.014          0.991          0.991              1          1.001          1.009         27.617          0.102          -6.55        -28.162      0.8576187           0.03
      4700.5000         42.418          3.957        144.106        107.013       71.06956          1.016          0.988          0.985          0.995          0.997          1.004         27.514          0.101         -6.861        -28.891      0.8099906          0.036
      4701.0000         41.075          3.863         144.97        105.117       69.17303          1.028          0.995          0.991              1          1.004           1.01          27.12          0.098         -7.291        -22.923      0.7696389          0.038
