#------------------------------------------------------------------------------
# Created by    : vladimir.rabinovich
# Created on    : 09/19/2023 17:20:48
#------------------------------------------------------------------------------
~Version Information Section
VERS.           2.0     :   CWLS log ASCII Standard - VERSION 2.0
WRAP.           NO      :   One line per depth step
~Well Information Section
#MNEM       .UNIT                                         VALUE :DESCRIPTION
#------------------------------------------------------------------------------
STRT        .FT                                             495 :START DEPTH
STOP        .FT                                            6623 :STOP DEPTH
STEP        .FT                                             0.5 :STEP      
NULL        .                                           -999.25 :NULL      
COMP        .                                      SHELL OIL CO :COMPANY   
WELL        .                                     ST TR 00691-L :WELL      
FLD         .                                           WILDCAT :FIELD     
LOC         .                                                   :LOCATION  
CNTY        .                      MATAGORDA ISLAND LARGE BLOCK :LOCATION  
STAT        .                                             TEXAS :STATE     
CTRY        .                                     UNITED STATES :COUNTRY   
SRVC        .                                                   :SERVICE COMPANY
DATE        .                             9/13/2023 11:12:05 AM :LOG DATE  
API         .                                    42703000200000 :API NUMBER
UWI         .                                    42703000200000 :UNIQUE WELL ID
XCOORD      .                                  411465.852171861 :SURFACE X 
YCOORD      .                                  10158718.0598508 :SURFACE Y 
LAT         .                                        27.9414781 :LATITUDE  
LON         .                                       -96.8060481 :LONGITUDE 
ELEV        .FT                                              11 :ELEVATION VALUE
ELEV_TYPE   .                                                KB :ELEVATION REFERENCE TYPE
~Curve Information Section
#MNEM       .UNIT                                      API CODE :CURVE DESCRIPTION
#------------------------------------------------------------------------------
DEPT        .FT                                                 :DEPTH     
ASN         .OHMM                                               :          
CILD        .OHMM                                               :          
ILD         .OHMM                                               :          
SP          .MV                                                 :          
SP_NORM     .MV                                                 :SP Normalized
VSH_SP      .V/V                                                :Volume of Shale from SP
~A        DEPTH            ASN           CILD            ILD             SP        SP_NORM         VSH_SP
# ...
      2509.0000         0.7177       3568.922         0.3464       -63.8994       -18.6164      0.2087429
      2509.5000         0.6454       3648.391         0.3139        -64.886        -19.603      0.1617619
      2510.0000         0.6167       3667.207         0.2922       -65.8723       -20.5893      0.1147952
      2510.5000         0.6066       3675.313         0.2705       -66.7651       -21.4821     0.07228097
      2511.0000         0.6013       3350.461         0.2661        -67.609        -22.326     0.03209523
      2511.5000         0.5978        3285.68         0.2616       -68.9049       -23.6219              0
      2512.0000         0.5954       3220.875         0.2607       -69.2343       -23.9513              0
      2512.5000          0.597       3156.074         0.2723       -67.9143       -22.6313     0.01755714
      2513.0000         0.6005       3091.293         0.2838       -67.0331       -21.7501     0.05951909
      2513.5000          0.608       3026.488         0.2954       -67.0205       -21.7375     0.06011909
      2514.0000         0.6175       2961.711         0.3068       -67.4779       -22.1949     0.03833807
      2514.5000         0.6273       2896.906         0.3177       -67.8865       -22.6035     0.01888094
      2515.0000         0.6375       2832.125         0.3285       -68.2952       -23.0122              0
      2515.5000         0.6459       2767.324         0.3394       -67.2048       -21.9218     0.05134283
      2516.0000         0.6504       2658.129         0.3502       -66.0095       -20.7265      0.1082619
      2516.5000          0.651       2591.309         0.3611       -65.0155       -19.7325      0.1555952
      2517.0000         0.6518       2573.543         0.3719       -64.2808       -18.9978      0.1905809
      2517.5000         0.6528       2585.121         0.3729       -63.5459       -18.2629      0.2255762
      2518.0000         0.6537       2824.586         0.3718        -62.827        -17.544      0.2598095
      2518.5000         0.6462       3077.906         0.3708       -62.2959       -17.0129         0.2851
      2519.0000         0.6332       3331.324         0.3698       -63.1502       -17.8672       0.244419
      2519.5000         0.6172       3584.742         0.3681       -64.7867       -19.5037      0.1664905
      2520.0000         0.6077       3671.828         0.3567       -66.4232       -21.1402     0.08856192
      2520.5000         0.5998       3696.117         0.3454       -67.7147       -22.4317     0.02706192
      2521.0000         0.5976       3709.848         0.3341       -68.0574       -22.7744     0.01074282
      2521.5000         0.5958       3720.527         0.3227       -68.3999       -23.1169              0
      2522.0000         0.5947        3727.59         0.3118       -68.7427       -23.4597              0
      2522.5000         0.5937       3732.434         0.3038       -69.1152       -23.8322              0
      2523.0000         0.5861        3727.27         0.2958       -69.5088       -24.2258              0
      2523.5000         0.5788       3713.676         0.2878       -69.9025       -24.6195              0
      2524.0000         0.5717       3702.535         0.2798       -70.3094       -25.0264              0
      2524.5000         0.5649       3693.539         0.2717       -70.6825       -25.3995              0
      2525.0000         0.5613        3685.59         0.2664       -70.8689       -25.5859              0
      2525.5000         0.5584        3680.27          0.263       -71.0552       -25.7722              0
      2526.0000         0.5615       3665.789         0.2596       -70.7697       -25.4867              0
      2526.5000         0.5635       3625.863         0.2562       -70.1848       -24.9018              0
      2527.0000         0.5635       3574.523         0.2528          -69.6        -24.317              0
      2527.5000         0.5634         3530.5         0.2528       -68.6305       -23.3475              0
      2528.0000         0.5651         3431.5          0.255       -67.9886       -22.7056     0.01401901
      2528.5000         0.5669       3328.473         0.2571       -68.2649       -22.9819   0.0008619399
      2529.0000         0.5688       3278.102         0.2593       -68.5283       -23.2453              0
      2529.5000         0.5706       3239.387         0.2614       -68.7458       -23.4628              0
      2530.0000         0.5748       3200.672         0.2637       -68.9635       -23.6805              0
      2530.5000         0.5799       3161.957          0.266       -68.4056       -23.1226              0
      2531.0000          0.585       3121.535         0.2683       -67.6672       -22.3842     0.02932385
      2531.5000         0.5895       3083.246         0.2707       -67.2499       -21.9669     0.04919524
      2532.0000         0.5934       3077.156          0.273       -66.8323       -21.5493     0.06908099
      2532.5000         0.5966       3083.063         0.2753       -66.5602       -21.2772     0.08203806
      2533.0000         0.5945       3088.973         0.2774       -66.4408       -21.1578     0.08772378
      2533.5000         0.5925       3053.977         0.2792       -66.3214       -21.0384     0.09340949
      2534.0000         0.5912       3237.285         0.2809       -66.1644       -20.8814      0.1008858
      2534.5000         0.5914       3292.684         0.2827       -65.9058       -20.6228         0.1132
      2535.0000         0.5916       3353.434         0.2844       -65.6471       -20.3641      0.1255191
      2535.5000         0.5918       3414.184         0.2862       -64.8679       -19.5849      0.1626238
      2536.0000         0.5918        3474.91         0.2857       -64.2119       -18.9289      0.1938619
      2536.5000         0.5917        3535.66         0.2829       -64.3734       -19.0904      0.1861714
      2537.0000         0.5917       3596.387         0.2801       -63.8991       -18.6161      0.2087571
      2537.5000         0.5611       3657.137         0.2773       -62.8902       -17.6072         0.2568
      2538.0000         0.5461       3717.863         0.2745        -62.171        -16.888      0.2910476
      2538.5000         0.5647       3779.598         0.2712       -63.4588       -18.1758      0.2297238
      2539.0000         0.5698       3971.504         0.2679         -65.63        -20.347      0.1263333
      2539.5000         0.5597       3996.426         0.2646       -66.5387       -21.2557     0.08306195
      2540.0000         0.5495       3439.656         0.2623        -67.045        -21.762     0.05895242
      2540.5000         0.5394       3349.258          0.266       -67.5172       -22.2342     0.03646669
      2541.0000         0.5611       3258.855         0.2697       -67.8735       -22.5905     0.01950001
      2541.5000         0.5825       3168.453         0.2755       -68.2296       -22.9466    0.002542859
      2542.0000         0.5948       3078.051         0.2917       -68.4121       -23.1291              0
      2542.5000         0.6055       2987.652         0.3078       -68.5773       -23.2943              0
      2543.0000         0.6154        2897.25         0.3355       -68.2894       -23.0064              0
      2543.5000         0.6225       2806.801         0.3668       -67.2823       -21.9993     0.04765238
      2544.0000         0.6297       2716.398         0.3987       -65.7272       -20.4442      0.1217047
      2544.5000         0.6389       2451.188         0.4344       -63.8047       -18.5217      0.2132524
      2545.0000         0.6497        2037.75         0.4702       -57.4017       -12.1187      0.5181571
      2545.5000         0.6614       1547.771         0.5024       -54.8027        -9.5197       0.641919
      2546.0000         0.6737       1525.361         0.5315       -53.7874        -8.5044      0.6902667
      2546.5000         0.6852       1507.699         0.5588       -52.9162        -7.6332      0.7317524
