#------------------------------------------------------------------------------
# Created by    : vladimir.rabinovich
# Created on    : 09/19/2023 17:19:43
#------------------------------------------------------------------------------
~Version Information Section
VERS.           2.0     :   CWLS log ASCII Standard - VERSION 2.0
WRAP.           NO      :   One line per depth step
~Well Information Section
#MNEM       .UNIT                                         VALUE :DESCRIPTION
#------------------------------------------------------------------------------
STRT        .FT                                            1054 :START DEPTH
STOP        .FT                                           13910 :STOP DEPTH
STEP        .FT                                             0.5 :STEP      
NULL        .                                           -999.25 :NULL      
COMP        .                                            MTS LP :COMPANY   
WELL        .                                ST TR 00061-L SW/4 :WELL      
FLD         .                                           WILDCAT :FIELD     
LOC         .                                                   :LOCATION  
CNTY        .                           HIGH ISLAND LARGE BLOCK :LOCATION  
STAT        .                                             TEXAS :STATE     
CTRY        .                                     UNITED STATES :COUNTRY   
SRVC        .                                                   :SERVICE COMPANY
DATE        .                             9/13/2023 11:19:15 AM :LOG DATE  
API         .                                    42708302730000 :API NUMBER
UWI         .                                    42708302730000 :UNIQUE WELL ID
XCOORD      .                                  1164861.29381137 :SURFACE X 
YCOORD      .                                   10674042.082625 :SURFACE Y 
LAT         .                                        29.4036169 :LATITUDE  
LON         .                                       -94.4939126 :LONGITUDE 
ELEV        .FT                                              78 :ELEVATION VALUE
ELEV_TYPE   .                                                KB :ELEVATION REFERENCE TYPE
~Curve Information Section
#MNEM       .UNIT                                      API CODE :CURVE DESCRIPTION
#------------------------------------------------------------------------------
DEPT        .FT                                                 :DEPTH     
ASFL        .OHMM                                               :          
CILD        .MMHO                                               :          
ILD         .OHMM                                               :          
SP          .MV                                                 :          
SP_NORM     .MV                                                 :SP Normalized
VSH_SP      .V/V                                                :Volume of Shale from SP
~A        DEPTH           ASFL           CILD            ILD             SP        SP_NORM         VSH_SP
# ...
      3600.0000          0.984       1097.867          0.918       -75.3718      0.5595474              1
      3600.5000         0.9714       1153.805          0.874       -76.8906     -0.9401627              1
      3601.0000         0.9568       1214.391         0.7964       -77.5258      -1.556274      0.9913082
      3601.5000         0.9422       1283.672         0.7543       -77.8845      -1.895882      0.9860018
      3602.0000         0.9267       1330.922         0.7277       -78.0576      -2.049896      0.9835954
      3602.5000         0.9099       1370.938         0.7288       -78.0056      -1.978813       0.984706
      3603.0000         0.8973       1392.164           0.73       -77.9536      -1.907722      0.9858168
      3603.5000         0.8854       1410.828         0.7311       -77.9015      -1.836533      0.9869292
      3604.0000         0.8715       1416.617         0.7425       -77.8495       -1.76545      0.9880399
      3604.5000         0.8589        1412.57         0.7571       -77.7777      -1.674561        0.98946
      3605.0000         0.8532       1406.461         0.7721       -77.7034      -1.581169      0.9909192
      3605.5000         0.8486       1400.359         0.7914        -77.598       -1.45668      0.9928644
      3606.0000         0.8475       1381.641         0.8107       -77.3601      -1.199692      0.9968798
      3606.5000         0.8499        1356.32           0.83       -77.0468     -0.8673019              1
      3607.0000         0.8537       1317.078          0.844       -76.6331     -0.4345169              1
      3607.5000         0.8573        1291.25         0.8567       -76.2015     0.01617432              1
      3608.0000         0.8606       1270.195         0.8694       -75.8883       0.348465              1
      3608.5000          0.862       1250.664         0.8821       -75.5751       0.680748              1
      3609.0000         0.8585       1237.477         0.8851       -75.2577       1.017242              1
      3609.5000          0.855       1227.641          0.885       -74.8813       1.412727              1
      3610.0000         0.8491       1217.797         0.8849       -74.5004       1.812721              1
      3610.5000         0.8424       1211.188         0.8849        -74.101       2.231209              1
      3611.0000         0.8357        1206.75         0.8821       -73.6898       2.661499              1
      3611.5000         0.8296       1202.328         0.8783       -73.1803         3.0597              1
      3612.0000         0.8238       1199.984         0.8745       -73.2383       2.651741              1
      3612.5000         0.8212       1201.617         0.8708        -73.444       2.096085              1
      3613.0000          0.824        1203.25         0.8663       -73.5814       1.608734              1
      3613.5000         0.8268       1204.883         0.8611       -73.6501       1.190071              1
      3614.0000         0.8296       1206.516         0.8559       -73.3705        1.11972              1
      3614.5000         0.8321       1211.258         0.8507       -72.9938       1.146461              1
      3615.0000         0.8334       1217.047         0.8455       -72.2437       1.546608              1
      3615.5000         0.8336       1222.828         0.8403       -70.9137       2.526657              1
      3616.0000           0.83       1228.617         0.8351        -69.209       3.881393              1
      3616.5000         0.8236       1234.406         0.8333       -68.2416        4.49884              1
      3617.0000         0.8172       1243.477         0.8342       -67.4304       4.960083              1
      3617.5000         0.8107       1257.758         0.8351       -66.8228       5.217728              1
      3618.0000          0.806       1267.953          0.836       -66.3962       5.294365              1
      3618.5000         0.8098       1267.477         0.8345       -66.0199       5.320717              1
      3619.0000         0.8188       1262.836         0.8305        -65.941        5.04966              1
      3619.5000         0.8271       1255.164         0.8265       -65.9003       4.740402              1
      3620.0000         0.8347       1247.453         0.8226       -65.8828       4.407951              1
      3620.5000         0.8422       1240.578         0.8156       -65.8654       4.075386              1
      3621.0000         0.8451       1235.563         0.8053        -65.934       3.656837              1
      3621.5000         0.8402       1235.719          0.795       -66.0112       3.229683              1
      3622.0000         0.8293        1244.93         0.7847       -66.0885       2.802422              1
      3622.5000         0.8034         1273.5         0.7744       -66.3632       2.177773              1
      3623.0000         0.7778       1296.992         0.7563       -67.2329       0.958107              1
      3623.5000         0.7524        1347.18         0.7367       -68.4465     -0.6054459              1
      3624.0000         0.7291       1403.297         0.7172       -69.3804      -1.889297      0.9861047
      3624.5000         0.7103       1460.078         0.6977       -69.7064      -2.565254      0.9755429
      3625.0000         0.6971       1524.938         0.6809       -69.7477      -2.956512      0.9694295
      3625.5000         0.6856        1594.07         0.6641       -69.6217      -2.935333      0.9697604
      3626.0000         0.6748       1635.078         0.6474       -69.3654       -2.64846      0.9742428
      3626.5000         0.6655       1664.125         0.6334       -69.0741      -2.326576      0.9792722
      3627.0000         0.6574       1690.109         0.6196       -68.8086      -2.030502      0.9838984
      3627.5000         0.6491        1706.43         0.6059       -68.5648      -1.756119      0.9881856
      3628.0000          0.641       1722.758         0.5918       -68.4608      -1.621544      0.9902884
      3628.5000         0.6328       1740.617         0.5772       -68.4441      -1.574265      0.9910271
      3629.0000         0.6263       1759.672         0.5627       -68.7081      -1.807686      0.9873799
      3629.5000           0.62       1778.164         0.5464        -68.972      -2.041008      0.9837343
      3630.0000         0.6083       1805.852         0.5203       -69.5746      -2.613029      0.9747964
      3630.5000         0.5898       1858.227         0.4941       -70.7672      -3.775047      0.9566399
      3631.0000         0.5722       1925.547         0.4661       -73.1563      -6.133575      0.9197879
      3631.5000         0.5565       2118.453         0.4381       -80.5437      -13.49039      0.8048376
      3632.0000         0.5564       2383.008         0.4075       -91.3899      -24.30602      0.6358435
      3632.5000         0.5638       2647.758         0.3767      -101.1134      -33.99894      0.4843916
      3633.0000         0.5808       2821.258         0.3559      -104.3308      -37.18576      0.4345975
      3633.5000         0.6043       2947.883         0.3353      -107.0854      -39.90978      0.3920346
      3634.0000         0.6452       3150.328         0.3195      -108.7076       -41.5014      0.3671656
      3634.5000         0.6894       3292.727         0.3092      -109.6234      -42.38662      0.3533341
      3635.0000         0.7173       3363.602         0.3002       -109.101      -41.83364      0.3619744
      3635.5000         0.7079       3365.938         0.2982      -108.4387      -41.14076      0.3728006
      3636.0000         0.6945       3321.469         0.2963      -107.7919      -40.46339      0.3833846
      3636.5000          0.682       3259.406         0.2944      -109.1046      -41.74551      0.3633515
      3637.0000         0.6738       3206.633         0.2925      -111.2185      -43.82883      0.3307996
      3637.5000         0.6728       3375.375         0.2797      -115.3345      -47.91425      0.2669648
