#------------------------------------------------------------------------------
# Created by    : vladimir.rabinovich
# Created on    : 09/19/2023 17:20:09
#------------------------------------------------------------------------------
~Version Information Section
VERS.           2.0     :   CWLS log ASCII Standard - VERSION 2.0
WRAP.           NO      :   One line per depth step
~Well Information Section
#MNEM       .UNIT                                         VALUE :DESCRIPTION
#------------------------------------------------------------------------------
STRT        .FT                                             880 :START DEPTH
STOP        .FT                                           10998 :STOP DEPTH
STEP        .FT                                             0.5 :STEP      
NULL        .                                           -999.25 :NULL      
COMP        .                        HUGHES TEXAS PETROLEUM LTD :COMPANY   
WELL        .                                ST TR 00564-L NE/4 :WELL      
FLD         .                       MATAGORDA ISLAND BLOCK 0565 :FIELD     
LOC         .                                                   :LOCATION  
CNTY        .                      MATAGORDA ISLAND LARGE BLOCK :LOCATION  
STAT        .                                             TEXAS :STATE     
CTRY        .                                     UNITED STATES :COUNTRY   
SRVC        .                                                   :SERVICE COMPANY
DATE        .                             9/13/2023 11:12:01 AM :LOG DATE  
API         .                                    42703303560000 :API NUMBER
UWI         .                                    42703303560000 :UNIQUE WELL ID
XCOORD      .                                  580856.659723482 :SURFACE X 
YCOORD      .                                  10268633.8274002 :SURFACE Y 
LAT         .                                         28.256926 :LATITUDE  
LON         .                                       -96.2914173 :LONGITUDE 
ELEV        .FT                                              25 :ELEVATION VALUE
ELEV_TYPE   .                                                KB :ELEVATION REFERENCE TYPE
~Curve Information Section
#MNEM       .UNIT                                      API CODE :CURVE DESCRIPTION
#------------------------------------------------------------------------------
DEPT        .FT                                                 :DEPTH     
ASFL        .OHMM                                               :          
GR          .GAPI                                               :          
GR_NORM     .GAPI                                               :GammaRay Normalized
ILD         .OHMM                                               :          
SP          .MV                                                 :          
SP_NORM     .MV                                                 :SP Normalized
VSH_GR      .V/V                                                :Volume of Shale from GR
VSH_SP      .V/V                                                :Volume of Shale from SP
~A        DEPTH           ASFL             GR        GR_NORM            ILD             SP        SP_NORM         VSH_GR         VSH_SP
# ...
      6957.0000           0.91        -999.25        -999.25         0.8258       -35.2251      0.1608391        -999.25              1
      6957.5000         0.9263        -999.25        -999.25         0.8438       -35.1891      0.1982155        -999.25              1
      6958.0000         0.9413        -999.25        -999.25         0.8619       -35.2029       0.185791        -999.25              1
      6958.5000         0.9422        -999.25        -999.25         0.8799       -35.3688     0.02126312        -999.25              1
      6959.0000         0.9431        -999.25        -999.25         0.8936       -35.5345     -0.1430588        -999.25              1
      6959.5000          0.944        -999.25        -999.25         0.9044       -35.7004     -0.3075829        -999.25              1
      6960.0000         0.9464        -999.25        -999.25         0.9153       -35.8663     -0.4721069        -999.25              1
      6960.5000         0.9519        -999.25        -999.25         0.9261        -36.032     -0.6364326        -999.25              1
      6961.0000         0.9574        -999.25        -999.25         0.9369       -36.1979     -0.8009529        -999.25              1
      6961.5000         0.9629        -999.25        -999.25         0.9478       -36.3638     -0.9654808        -999.25              1
      6962.0000         0.9673        -999.25        -999.25         0.9586       -36.4547      -1.055004        -999.25      0.9989814
      6962.5000         0.9715        -999.25        -999.25         0.9695       -36.5226      -1.121525        -999.25      0.9977496
      6963.0000         0.9758        -999.25        -999.25         0.9763       -36.5906      -1.188152        -999.25      0.9965157
      6963.5000         0.9772        -999.25        -999.25         0.9823       -36.6585      -1.254677        -999.25      0.9952838
      6964.0000         0.9778        -999.25        -999.25         0.9883       -36.7264      -1.321198        -999.25      0.9940519
      6964.5000         0.9784        -999.25        -999.25         0.9943       -36.7944      -1.387825        -999.25      0.9928181
      6965.0000          0.985        -999.25        -999.25         1.0003       -36.8622       -1.45425        -999.25      0.9915879
      6965.5000         0.9927        -999.25        -999.25         1.0063         -36.93      -1.520676        -999.25      0.9903579
      6966.0000         1.0004        -999.25        -999.25         1.0123       -36.9838      -1.573097        -999.25      0.9893871
      6966.5000         1.0081        -999.25        -999.25         1.0074       -37.0375       -1.62542        -999.25      0.9884182
      6967.0000         1.0124        -999.25        -999.25         1.0016       -37.0914      -1.677948        -999.25      0.9874454
      6967.5000         1.0043        -999.25        -999.25         0.9958       -37.1452       -1.73037        -999.25      0.9864746
      6968.0000         0.9963        -999.25        -999.25           0.99       -37.1991      -1.782894        -999.25      0.9855019
      6968.5000         0.9883        -999.25        -999.25         0.9839       -37.2529       -1.83532        -999.25      0.9845311
      6969.0000         0.9802        -999.25        -999.25         0.9745       -37.2545      -1.835545        -999.25      0.9845269
      6969.5000         0.9697        -999.25        -999.25         0.9652       -37.2241      -1.803764        -999.25      0.9851155
      6970.0000         0.9579        -999.25        -999.25         0.9559       -37.1938      -1.772095        -999.25       0.985702
      6970.5000         0.9462        -999.25        -999.25         0.9465       -37.1635      -1.740417        -999.25      0.9862885
      6971.0000         0.9344        -999.25        -999.25         0.9372       -37.1331      -1.708637        -999.25      0.9868771
      6971.5000         0.9227        -999.25        -999.25         0.9278       -37.1028      -1.676964        -999.25      0.9874637
      6972.0000         0.9141        -999.25        -999.25         0.9185       -37.0724      -1.645187        -999.25      0.9880521
      6972.5000         0.9099        -999.25        -999.25         0.9194       -36.7449      -1.316315        -999.25      0.9941423
      6973.0000         0.9057        -999.25        -999.25         0.9266       -36.3314     -0.9014397        -999.25              1
      6973.5000         0.9015        -999.25        -999.25         0.9337       -35.9186     -0.4872589        -999.25              1
      6974.0000         0.9049        -999.25        -999.25         0.9408       -35.5051     -0.0723877        -999.25              1
      6974.5000         0.9163        -999.25        -999.25          0.948       -35.1804      0.2536888        -999.25              1
      6975.0000         0.9277        -999.25        -999.25         0.9586       -35.0494      0.3860664        -999.25              1
      6975.5000          0.939        -999.25        -999.25          0.971       -34.9186      0.5182419        -999.25              1
      6976.0000         0.9504        -999.25        -999.25         0.9833       -34.7878      0.6504173        -999.25              1
      6976.5000         0.9618        -999.25        -999.25         0.9956        -34.657      0.7825928        -999.25              1
      6977.0000         0.9732        -999.25        -999.25          1.008       -34.7365      0.7044678        -999.25              1
      6977.5000          0.986        -999.25        -999.25         1.0203       -34.8217      0.6206436        -999.25              1
      6978.0000         0.9989        -999.25        -999.25         1.0326       -34.9069      0.5368233        -999.25              1
      6978.5000         1.0119        -999.25        -999.25          1.045       -34.9922      0.4528961        -999.25              1
      6979.0000         1.0248        -999.25        -999.25         1.0443       -35.0408       0.405674        -999.25              1
      6979.5000         1.0277        -999.25        -999.25         1.0419       -35.0163      0.4315453        -999.25              1
      6980.0000         1.0259        -999.25        -999.25         1.0395       -34.9918      0.4574242        -999.25              1
      6980.5000         1.0242        -999.25        -999.25         1.0372       -34.9672      0.4833984        -999.25              1
      6981.0000         1.0225        -999.25        -999.25         1.0348       -34.9427      0.5092735        -999.25              1
      6981.5000         1.0194        -999.25        -999.25         1.0325       -34.9182      0.5351486        -999.25              1
      6982.0000         1.0007        -999.25        -999.25         1.0301        -34.787      0.6677284        -999.25              1
      6982.5000         0.9821        -999.25        -999.25         1.0277       -34.5366      0.9195023        -999.25              1
      6983.0000         0.9633        -999.25        -999.25           1.01       -34.2863       1.171177        -999.25              1
      6983.5000          0.943        -999.25        -999.25          0.991       -34.0359       1.422955        -999.25              1
      6984.0000         0.9089        -999.25        -999.25         0.9719       -33.7858       1.674427        -999.25              1
      6984.5000         0.8747        -999.25        -999.25         0.9529       -33.7687       1.692905        -999.25              1
      6985.0000         0.8525        -999.25        -999.25         0.9288       -33.8616       1.601379        -999.25              1
      6985.5000         0.8342        -999.25        -999.25         0.9033       -33.9546       1.509754        -999.25              1
      6986.0000         0.8159        -999.25        -999.25         0.8777       -34.0475       1.418232        -999.25              1
