#------------------------------------------------------------------------------
# Created by    : vladimir.rabinovich
# Created on    : 09/19/2023 17:22:18
#------------------------------------------------------------------------------
~Version Information Section
VERS.           2.0     :   CWLS log ASCII Standard - VERSION 2.0
WRAP.           NO      :   One line per depth step
~Well Information Section
#MNEM       .UNIT                                         VALUE :DESCRIPTION
#------------------------------------------------------------------------------
STRT        .FT                                            4012 :START DEPTH
STOP        .FT                                            9352 :STOP DEPTH
STEP        .FT                                             0.5 :STEP      
NULL        .                                           -999.25 :NULL      
COMP        .                                   KERR-MCGEE CORP :COMPANY   
WELL        .                                ST TR 00007-L SE/4 :WELL      
FLD         .                                           WILDCAT :FIELD     
LOC         .                                                   :LOCATION  
CNTY        .                           HIGH ISLAND LARGE BLOCK :LOCATION  
STAT        .                                             TEXAS :STATE     
CTRY        .                                     UNITED STATES :COUNTRY   
SRVC        .                                                   :SERVICE COMPANY
DATE        .                             9/13/2023 11:19:15 AM :LOG DATE  
API         .                                    42708302700000 :API NUMBER
UWI         .                                    42708302700000 :UNIQUE WELL ID
XCOORD      .                                   1285759.2062487 :SURFACE X 
YCOORD      .                                  10728779.4927599 :SURFACE Y 
LAT         .                                        29.5578886 :LATITUDE  
LON         .                                       -94.1158411 :LONGITUDE 
ELEV        .FT                                             125 :ELEVATION VALUE
ELEV_TYPE   .                                                KB :ELEVATION REFERENCE TYPE
~Curve Information Section
#MNEM       .UNIT                                      API CODE :CURVE DESCRIPTION
#------------------------------------------------------------------------------
DEPT        .FT                                                 :DEPTH     
CALI        .IN                                                 :          
CILD        .MMHO                                               :          
DPHI        .%                                                  :          
ILD         .OHMM                                               :          
ILM         .OHMM                                               :          
SFL         .OHMM                                               :          
SP          .MV                                                 :          
SP_NORM     .MV                                                 :SP Normalized
VSH_SP      .V/V                                                :Volume of Shale from SP
~A        DEPTH           CALI           CILD           DPHI            ILD            ILM            SFL             SP        SP_NORM         VSH_SP
# ...
      5787.5000        15.7932       1697.803        16.0421         0.5827         0.5943         0.7566       -70.2012        -3.5345      0.9495071
      5788.0000        15.7906       1691.625        15.9902         0.5857         0.5901         0.7639       -69.8978        -3.2311      0.9538414
      5788.5000         15.788       1687.982        16.3131         0.5886          0.587         0.7473       -68.9432        -2.2765      0.9674786
      5789.0000         15.775       1686.221        16.7502         0.5915         0.5841         0.7111       -68.0179        -1.3512      0.9806972
      5789.5000         15.761       1682.713        17.1873         0.5915         0.5878         0.6954       -67.5468        -0.8801      0.9874271
      5790.0000        15.7471       1677.686        17.4193         0.5916         0.5959         0.7039       -67.6407         -0.974      0.9860857
      5790.5000        15.7914       1684.293        17.6178         0.5903         0.5991         0.7092        -68.079        -1.4123      0.9798243
      5791.0000        15.8011       1705.842        17.4769         0.5877          0.599         0.7129       -68.2882        -1.6215      0.9768357
      5791.5000        15.8041        1738.49        17.3362         0.5691         0.5982         0.7159       -68.1439        -1.4772      0.9788972
      5792.0000        15.8251       1761.959        17.2978         0.5641         0.5911         0.7182       -67.9652        -1.2985        0.98145
      5792.5000        15.8299       1777.559        17.2978         0.5667         0.5782         0.7188       -67.7773        -1.1106      0.9841343
      5793.0000        15.8279       1769.357        17.2499         0.5697         0.5697         0.7143        -67.674        -1.0073        0.98561
      5793.5000        15.8234       1742.695        17.0941         0.5746         0.5723         0.7098       -67.6129        -0.9462      0.9864829
      5794.0000        15.8122       1685.361        16.8161           0.58         0.5893         0.7037       -67.5518        -0.8851      0.9873557
      5794.5000        15.8003       1622.521        16.0156         0.5901         0.6063         0.7012       -68.1565        -1.4898      0.9787171
      5795.0000        15.7884       1583.627        15.2144         0.6086         0.6217         0.7065       -69.0421        -2.3754      0.9660657
      5795.5000        15.7766       1558.646         14.254         0.6253         0.6331         0.7333        -70.037        -3.3703      0.9518529
      5796.0000        15.7667       1530.547        13.2832           0.64         0.6421         0.8555       -71.4382        -4.7715      0.9318357
      5796.5000        15.7662       1511.799        13.1766         0.6522         0.6508         0.9876       -72.6827         -6.016      0.9140571
      5797.0000        15.7768        1495.93        14.3844         0.6628         0.6618         0.9652       -72.9149        -6.2482        0.91074
      5797.5000        15.7915       1471.664        15.4589         0.6732         0.6757         0.8824       -72.1121        -5.4454      0.9222085
      5798.0000        15.7921       1433.211        16.4523         0.6807         0.6885         0.7816       -71.0769        -4.4102      0.9369971
      5798.5000         15.782       1407.545        17.0776         0.6874           0.71         0.6959       -69.8002        -3.1335      0.9552357
      5799.0000          15.57       1388.393        17.5398         0.6932         0.7188         0.6774       -68.5465        -1.8798      0.9731457
      5799.5000        15.4693       1379.381        17.6643         0.7255         0.7336         0.7466       -67.4492        -0.7825      0.9888214
      5800.0000        15.2484       1345.539        17.6982         0.8068          0.773         0.8189       -66.2712         0.3955              1
      5800.5000        15.9381       1238.346        17.4141         0.9044         0.8886         0.9023        -65.058         1.6087              1
      5801.0000        15.9432       1156.426        16.7219         0.9479         0.9355         0.9424       -63.8458         2.8209              1
      5801.5000        15.9482       1045.594        15.8617         0.9777         0.9653         0.9181       -63.1028         3.5639              1
      5802.0000        15.9533       980.3945        13.8777         0.9951         0.9835         0.8781       -62.7106         3.9561              1
      5802.5000        15.9584       946.0723        11.5417         1.0051          0.994         0.8807       -63.8312         2.8355              1
      5803.0000        15.9634       961.0449         9.9922         1.0032         0.9902         0.9718       -67.0708        -0.4041      0.9942272
      5803.5000        15.9685       997.3584        10.4341         0.9776         0.9781         1.0777       -71.4089        -4.7422      0.9322543
      5804.0000        15.9736       1044.021        11.9571         0.9458         0.9537         1.0789       -76.1207         -9.454      0.8649428
      5804.5000        15.9786       1137.496        13.2724         0.9099         0.9177         1.0468       -79.7753       -13.1086      0.8127343
      5805.0000        15.9837       1186.422        14.3616         0.8709         0.8788         1.0156       -83.5667          -16.9      0.7585714
      5805.5000        15.9888       1216.637        14.8568         0.8276         0.8541         0.9865       -86.1569       -19.4902      0.7215686
      5806.0000        15.9938       1249.213        14.5044          0.798         0.8428         0.9616         -86.65       -19.9833      0.7145243
      5806.5000        15.9989       1281.137        13.4771           0.78         0.8339           0.94       -85.4818       -18.8151      0.7312129
      5807.0000         16.004        1292.25        12.8267         0.7719         0.8294         0.9222       -84.3406       -17.6739      0.7475157
      5807.5000         16.009       1296.316        12.8877         0.7639         0.8251         0.9108       -83.3311       -16.6644      0.7619371
      5808.0000        16.0141       1305.871        12.9937         0.7486         0.8212         0.9097       -83.1606       -16.4939      0.7643728
      5808.5000        16.0192       1332.754        13.1037         0.7324         0.8149         0.9088       -84.1001       -17.4334      0.7509515
      5809.0000        16.0242       1390.285        13.0962         0.7044         0.7924         0.9091       -85.3616       -18.6949        0.73293
      5809.5000        16.0293       1479.875        13.0601         0.6733         0.7303         0.9082       -85.9241       -19.2574      0.7248943
      5810.0000        15.8807        1615.98        13.0525         0.6203         0.6477         0.8913       -85.5258       -18.8591      0.7305843
      5810.5000        15.5191       1776.082        13.3475         0.5534         0.5757         0.8035       -85.2572       -18.5905      0.7344214
      5811.0000        15.0462       2025.676        14.4949         0.4752         0.5122         0.7749       -86.6842       -20.0175      0.7140357
      5811.5000        14.8381       2419.043        16.5613         0.4059         0.4564         0.7936        -89.189       -22.5223      0.6782529
      5812.0000        14.7533       2747.508        18.8738         0.3396         0.4109         0.8173       -91.9135       -25.2468      0.6393315
      5812.5000        14.7334       2973.105        21.0493         0.3126          0.386         0.7981       -94.9431       -28.2764      0.5960515
      5813.0000        14.7954       3185.918        22.9537         0.2905         0.3665         0.7372      -101.6615       -34.9948      0.5000743
      5813.5000        14.9247       3363.527        24.4082         0.2782         0.3506         0.6688      -108.4288       -41.7621      0.4033986
