#------------------------------------------------------------------------------
# Created by    : vladimir.rabinovich
# Created on    : 09/19/2023 17:19:47
#------------------------------------------------------------------------------
~Version Information Section
VERS.           2.0     :   CWLS log ASCII Standard - VERSION 2.0
WRAP.           NO      :   One line per depth step
~Well Information Section
#MNEM       .UNIT                                         VALUE :DESCRIPTION
#------------------------------------------------------------------------------
STRT        .FT                                             380 :START DEPTH
STOP        .FT                                            8002 :STOP DEPTH
STEP        .FT                                             0.5 :STEP      
NULL        .                                           -999.25 :NULL      
COMP        .                               AMOCO PRODUCTION CO :COMPANY   
WELL        .                               OCS G07253 ST00BP00 :WELL      
FLD         .                                           WILDCAT :FIELD     
LOC         .                                                   :LOCATION  
CNTY        .                             GALVESTON LARGE BLOCK :LOCATION  
STAT        .                                             TEXAS :STATE     
CTRY        .                                     UNITED STATES :COUNTRY   
SRVC        .                                                   :SERVICE COMPANY
DATE        .                             9/13/2023 11:19:27 AM :LOG DATE  
API         .                                    42706401230000 :API NUMBER
UWI         .                                    42706401230000 :UNIQUE WELL ID
XCOORD      .                                  925879.569593371 :SURFACE X 
YCOORD      .                                  10358786.1357032 :SURFACE Y 
LAT         .                                         28.526408 :LATITUDE  
LON         .                                        -95.225632 :LONGITUDE 
ELEV        .FT                                             100 :ELEVATION VALUE
ELEV_TYPE   .                                                KB :ELEVATION REFERENCE TYPE
~Curve Information Section
#MNEM       .UNIT                                      API CODE :CURVE DESCRIPTION
#------------------------------------------------------------------------------
DEPT        .FT                                                 :DEPTH     
ASFL        .OHMM                                               :          
CILD        .MMHO                                               :          
GR          .GAPI                                               :          
GR_NORM     .GAPI                                               :GammaRay Normalized
ILD         .OHMM                                               :          
SP          .MV                                                 :          
SP_NORM     .MV                                                 :SP Normalized
VSH_GR      .V/V                                                :Volume of Shale from GR
VSH_SP      .V/V                                                :Volume of Shale from SP
~A        DEPTH           ASFL           CILD             GR        GR_NORM            ILD             SP        SP_NORM         VSH_GR         VSH_SP
# ...
      5971.5000          0.673       2156.063        55.6456       51.63339         0.4636       -65.0569      -25.48417      0.3964552      0.4272155
      5972.0000         0.7121       2110.613         53.808       48.23494         0.4924       -64.3162      -24.74086      0.3241476      0.4453448
      5972.5000          0.751       2025.412        51.9704        44.8365         0.5211       -63.8717      -24.29376      0.2518404      0.4562497
      5973.0000         0.7894       1922.713        50.0631       41.30863         0.5498        -64.427      -24.84646      0.1767793      0.4427692
      5973.5000         0.8277       1834.715        48.5057       38.43042         0.5778       -65.1099      -25.52676      0.1155408      0.4261766
      5974.0000         0.8453       1699.314        49.3386       39.99005         0.6058       -65.5885      -26.00276      0.1487245      0.4145669
      5974.5000         0.8606       1611.615        51.6368       44.27016         0.6339       -62.7388      -23.15045      0.2397906      0.4841353
      5975.0000         0.8754       1547.367        53.9375       48.55496         0.6619       -61.1315      -21.54055      0.3309565      0.5234012
      5975.5000         0.8844       1494.166          54.86       50.28094         0.6869       -59.6837      -20.09015      0.3676796      0.5587769
      5976.0000         0.8844       1452.768        55.4557       51.40018         0.6878       -59.0288      -19.43265      0.3914932      0.5748135
      5976.5000         0.8681       1433.992        55.2098       50.95691         0.6886       -58.3746      -18.77584       0.382062      0.5908331
      5977.0000         0.8511       1424.184         54.756       50.12765         0.6895          -58.5      -18.89864      0.3644181      0.5878379
      5977.5000         0.8343       1451.518        54.2898       49.27536         0.6903       -58.9092      -19.30524      0.3462843       0.577921
      5978.0000         0.8189       1488.367        53.2117       47.28701         0.6812       -59.3185      -19.71194      0.3039789      0.5680015
      5978.5000         0.8036       1525.018        51.2159       43.59484         0.6688       -59.3145      -19.70533      0.2254221      0.5681626
      5979.0000         0.7893       1550.316        48.7659       39.05941         0.6564       -58.7455      -19.13373      0.1289235      0.5821041
      5979.5000         0.7985       1570.217        50.5835       42.44724          0.644       -58.3851      -18.77073      0.2010051      0.5909578
      5980.0000         0.8604       1577.617        53.0162        46.9771         0.6371       -58.1623      -18.54533       0.297385      0.5964553
      5980.5000         0.9125       1540.867        57.6873       55.66278         0.6504       -57.9391      -18.31953      0.4821869      0.6019627
      5981.0000         0.9602       1504.066        58.9647       58.04769         0.6638       -57.7422      -18.12002      0.5329295      0.6068287
      5981.5000         0.9947       1414.918        56.5718       53.61826         0.7387       -57.6422      -18.01742      0.4386863      0.6093312
      5982.0000         1.0276       1332.918        53.9101       48.68978         0.8258       -57.5421      -17.91472      0.3338251      0.6118361
      5982.5000         1.0588       1202.418        51.3255       43.90443         0.9129       -55.6549      -16.02492      0.2320092      0.6579288
      5983.0000         1.0807        1102.82        48.8505       39.32259         0.9668       -53.7576      -14.12502      0.1345232      0.7042679
      5983.5000         1.0975        1046.07        47.3292       36.51137         1.0129       -52.1118      -12.47662     0.07471003      0.7444728
      5984.0000         1.1092       997.0713        55.3866       51.48412          1.059       -50.9775      -11.33971      0.3932791      0.7722022
      5984.5000         1.0771       963.8965        57.6263       55.65563         1.0534       -50.1378      -10.49741      0.4820347      0.7927462
      5985.0000         1.0262       959.0957        58.7294       57.71692         1.0153       -49.2975      -9.654507      0.5258919      0.8133047
      5985.5000         0.9821       992.9707          58.35       57.02579         0.9772       -50.2156         -10.57       0.511187      0.7909755
      5986.0000         0.9362       1026.846        59.1365       58.49929          0.939       -51.1718       -11.5236       0.542538      0.7677171
      5986.5000          0.885       1083.721        59.9824       60.08305          0.901       -52.6334       -12.9826       0.576235      0.7321317
      5987.0000         0.8426       1141.469        60.7294       61.48321          0.864       -54.3265       -14.6731      0.6060257      0.6909001
      5987.5000         0.8072       1224.818        59.9606       60.06911          0.827       -55.9749      -16.31889      0.5759385      0.6507587
      5988.0000         0.7849       1332.219        57.6425       55.77857         0.7899       -57.7365      -18.07789      0.4846504      0.6078563
      5988.5000          0.767       1438.918        55.5061       51.82535         0.7529       -60.1667      -20.50549      0.4005394      0.5486466
      5989.0000         0.7652       1519.816        54.8463       50.61362         0.7158       -62.1002      -22.43639      0.3747579      0.5015514
      5989.5000         0.7642       1613.217        55.8572       52.50374         0.6788       -63.6974      -24.03099      0.4149732      0.4626589
      5990.0000         0.7648       1706.266         55.861       52.52406         0.6418       -65.1304      -25.46138      0.4154054      0.4277711
      5990.5000         0.7654       1784.914        54.3969       49.81905          0.603       -67.3328      -27.66118      0.3578521      0.3741175
      5991.0000          0.766       1880.014         52.868       46.99374         0.5632        -70.597      -30.92278      0.2977391      0.2945664
      5991.5000         0.7667       2020.014        51.3143       44.12239         0.5234       -72.1918      -32.51498      0.2366465      0.2557322
      5992.0000         0.7438        2186.41        49.7681       41.26495         0.4836       -73.8812      -34.20178        0.17585      0.2145908
      5992.5000         0.7068       2352.809        48.2803       38.51595          0.449       -74.8312      -35.14917      0.1173606      0.1914836
      5993.0000         0.6847       2482.309        47.8757       37.77802         0.4164       -74.1334      -34.44877      0.1016601      0.2085666
      5993.5000         0.6645       2605.809        48.9887        39.8577         0.3838       -73.2998      -33.61256      0.1459085      0.2289619
      5994.0000         0.6485       2708.309        50.1017       41.93737         0.3621       -72.1993      -32.50947      0.1901567      0.2558666
      5994.5000         0.6313       2793.508        51.2135       44.01482         0.3436       -70.9705      -31.27806       0.234358       0.285901
      5995.0000         0.6213       2786.906        51.5322       44.61978         0.3748       -69.0184      -29.32336      0.2472293      0.3335765
      5995.5000         0.6603       2434.309        50.7864       43.24839         0.4383       -66.6455      -26.94786      0.2180509      0.3915156
      5996.0000         0.7071       2289.012        50.0407       41.87718         0.5017       -64.3772      -24.67695      0.1888761      0.4469036
      5996.5000         0.7571       2119.211         49.844       41.52524         0.5652       -61.0979      -21.39505      0.1813881      0.5269499
      5997.0000          0.813       1908.914        53.3997       48.14007         0.6333        -54.888      -15.18255      0.3221292      0.6784743
      5997.5000         0.8611       1801.914        58.2252       57.11244         0.7087       -52.6882      -12.98015      0.5130307      0.7321914
