#------------------------------------------------------------------------------
# Created by    : vladimir.rabinovich
# Created on    : 09/19/2023 17:22:53
#------------------------------------------------------------------------------
~Version Information Section
VERS.           2.0     :   CWLS log ASCII Standard - VERSION 2.0
WRAP.           NO      :   One line per depth step
~Well Information Section
#MNEM       .UNIT                                         VALUE :DESCRIPTION
#------------------------------------------------------------------------------
STRT        .FT                                             252 :START DEPTH
STOP        .FT                                           11321 :STOP DEPTH
STEP        .FT                                             0.5 :STEP      
NULL        .                                           -999.25 :NULL      
COMP        .                          HUMBLE OIL & REFINING CO :COMPANY   
WELL        .                                OCS 00615 ST00BP00 :WELL      
FLD         .                                           WILDCAT :FIELD     
LOC         .                                                   :LOCATION  
CNTY        .                             GALVESTON LARGE BLOCK :LOCATION  
STAT        .                                             TEXAS :STATE     
CTRY        .                                     UNITED STATES :COUNTRY   
SRVC        .                                                   :SERVICE COMPANY
DATE        .                             9/13/2023 11:19:42 AM :LOG DATE  
API         .                                    42706000270000 :API NUMBER
UWI         .                                    42706000270000 :UNIQUE WELL ID
XCOORD      .                                  1043929.24471964 :SURFACE X 
YCOORD      .                                  10527500.2798036 :SURFACE Y 
LAT         .                                         28.995876 :LATITUDE  
LON         .                                        -94.866344 :LONGITUDE 
ELEV        .FT                                              67 :ELEVATION VALUE
ELEV_TYPE   .                                                KB :ELEVATION REFERENCE TYPE
~Curve Information Section
#MNEM       .UNIT                                      API CODE :CURVE DESCRIPTION
#------------------------------------------------------------------------------
DEPT        .FT                                                 :DEPTH     
LAT         .OHMM                                               :          
LN          .OHMM                                               :          
SN          .OHMM                                               :          
SP          .MV                                                 :          
SP_NORM     .MV                                                 :SP Normalized
VSH_SP      .V/V                                                :Volume of Shale from SP
~A        DEPTH            LAT             LN             SN             SP        SP_NORM         VSH_SP
# ...
      9790.0000         0.5552         0.6532         0.6553       -33.1317      0.4341774              1
      9790.5000         0.5544         0.6593         0.6603        -33.057       0.501236              1
      9791.0000         0.5536         0.6655         0.6654       -32.9824      0.5681992              1
      9791.5000         0.5527         0.6716         0.6709       -33.2031      0.3398628              1
      9792.0000         0.5508         0.6778         0.6765       -34.2832     -0.7478752              1
      9792.5000         0.5461         0.6839         0.6821       -35.3613      -1.833618      0.9865546
      9793.0000         0.5414         0.6901         0.6876       -36.1871      -2.667053       0.973112
      9793.5000         0.5358         0.6962         0.6932       -36.1502      -2.637791       0.973584
      9794.0000         0.5283         0.7024         0.6988       -36.1133      -2.608528       0.974056
      9794.5000         0.5207          0.708         0.7043       -36.0764      -2.579266       0.974528
      9795.0000         0.5131         0.7135         0.7099       -36.0391      -2.549606      0.9750063
      9795.5000         0.5055          0.719         0.7155       -35.9965      -2.514641      0.9755703
      9796.0000          0.498         0.7245         0.7211       -35.9539      -2.479679      0.9761342
      9796.5000         0.4904           0.73         0.7257       -35.9113      -2.444717      0.9766981
      9797.0000         0.4962         0.7355           0.73       -35.8687      -2.409752      0.9772621
      9797.5000         0.5074          0.741         0.7343        -35.826      -2.374695      0.9778275
      9798.0000         0.5186         0.7465         0.7386       -35.6892      -2.245533      0.9799107
      9798.5000         0.5298          0.752          0.743       -35.5142      -2.078167      0.9826102
      9799.0000         0.5397         0.7569         0.7473       -35.3394      -1.911007      0.9853063
      9799.5000         0.5492         0.7609         0.7544       -35.1643      -1.743542      0.9880074
      9800.0000         0.5587         0.7649         0.7622       -35.0986      -1.685482      0.9889438
      9800.5000         0.5682         0.7689           0.77       -35.5781      -2.172619      0.9810868
      9801.0000         0.5777         0.7729         0.7777       -36.0586      -2.660759      0.9732136
      9801.5000         0.5845         0.7769         0.7769       -36.5381      -3.147896      0.9653565
      9802.0000         0.5904          0.781           0.77         -37.29      -3.907436      0.9531059
      9802.5000         0.5963         0.7849          0.763        -38.126      -4.751072      0.9394988
      9803.0000         0.6022         0.7797         0.7561       -38.9639      -5.596611      0.9258611
      9803.5000         0.5958         0.7743         0.7492       -39.7754      -6.415745      0.9126493
      9804.0000         0.5894         0.7495         0.7423       -39.1025      -5.750484      0.9233793
      9804.5000         0.5729         0.7346         0.7375       -37.8652      -4.520824      0.9432125
      9805.0000          0.554         0.7198         0.7327       -36.5957      -3.258961      0.9635652
      9805.5000          0.535         0.7192         0.7278       -35.3242      -1.995098        0.98395
      9806.0000         0.5282         0.7281          0.723       -34.3984      -1.076935      0.9987591
      9806.5000         0.5306          0.737         0.7182       -34.5593      -1.245472      0.9960408
      9807.0000         0.5329          0.746         0.7134       -34.7048      -1.398613      0.9935707
      9807.5000         0.5352         0.7549         0.7086       -34.5334      -1.234852      0.9962121
      9808.0000         0.5375         0.7639         0.7039       -34.3618      -1.070889      0.9988567
      9808.5000         0.5611         0.7737         0.7027       -34.1904     -0.9071236              1
      9809.0000         0.5984         0.7848         0.7016       -34.0824     -0.8067627              1
      9809.5000         0.6358         0.7959         0.6999       -34.1405     -0.8725014              1
      9810.0000         0.6724         0.7906         0.6961       -34.1987     -0.9383392              1
      9810.5000         0.7016          0.768         0.6924       -34.2568      -1.004078      0.9999343
      9811.0000         0.7044         0.7453         0.6886       -34.9434      -1.698315      0.9887369
      9811.5000         0.6976         0.7227         0.6849       -35.8677      -2.630249      0.9737056
      9812.0000         0.6909            0.7         0.6811       -36.2515       -3.02169      0.9673921
      9812.5000         0.6858         0.6773         0.6774       -36.6357      -3.413528      0.9610721
      9813.0000         0.6807         0.6672         0.6736       -36.3857      -3.171165      0.9649812
      9813.5000         0.6755         0.6639         0.6718       -35.8223      -2.615402      0.9739451
      9814.0000         0.6704         0.6606         0.6704       -35.2598      -2.060543      0.9828945
      9814.5000         0.6653         0.6573         0.6689       -34.8311      -1.639481      0.9896858
      9815.0000         0.6601          0.654         0.6675       -35.4023      -2.218319      0.9803497
      9815.5000         0.6555         0.6507          0.666       -35.9736      -2.797253      0.9710121
      9816.0000         0.6509         0.6474         0.6646       -36.3186      -3.149891      0.9653243
      9816.5000         0.6463         0.6441         0.6631       -36.4431      -3.282032      0.9631931
      9817.0000         0.6417         0.6408         0.6617       -36.5679      -3.414471      0.9610569
      9817.5000         0.6371         0.6401         0.6602       -36.6926      -3.546806      0.9589225
      9818.0000         0.6325         0.6461         0.6612       -36.8171      -3.678944      0.9567912
      9818.5000         0.6279          0.652         0.6624       -36.9419      -3.811378      0.9546552
      9819.0000         0.6233          0.658         0.6636       -37.0667      -3.943821       0.952519
      9819.5000         0.6187          0.664         0.6649       -36.9773      -3.862057      0.9538378
      9820.0000         0.6164           0.67         0.6661       -36.8083      -3.700695      0.9564404
      9820.5000         0.6149          0.685         0.6674       -36.6394      -3.539433      0.9590414
      9821.0000         0.6133         0.7033         0.6686       -36.2915      -3.199169      0.9645295
      9821.5000         0.6117         0.7217         0.6698       -35.8848       -2.80011       0.970966
      9822.0000         0.6102          0.733         0.6711        -35.478      -2.400948      0.9774041
      9822.5000         0.6086         0.7104         0.6723       -35.0713      -2.001884      0.9838406
      9823.0000         0.6081         0.6878         0.6605       -34.6699       -1.60812      0.9901916
      9823.5000         0.6092         0.6652          0.648       -35.2812      -2.227062      0.9802087
      9824.0000         0.6104         0.6426         0.6355       -35.8926        -2.8461      0.9702242
      9824.5000         0.6115         0.6325          0.623       -35.9662      -2.927338      0.9689139
      9825.0000         0.6127         0.6266         0.6105       -35.9015      -2.870274      0.9698343
      9825.5000         0.6138         0.6208         0.6072       -35.8369      -2.813309      0.9707531
      9826.0000          0.615         0.6149         0.6114       -35.7007       -2.68475      0.9728266
      9826.5000         0.6151         0.6091         0.6156       -35.4644      -2.456089      0.9765147
      9827.0000         0.6121         0.6077         0.6199        -35.228      -2.227325      0.9802044
      9827.5000          0.609         0.6141         0.6241       -34.9917      -1.998661      0.9838926
