#------------------------------------------------------------------------------
# Created by    : vladimir.rabinovich
# Created on    : 09/19/2023 17:20:33
#------------------------------------------------------------------------------
~Version Information Section
VERS.           2.0     :   CWLS log ASCII Standard - VERSION 2.0
WRAP.           NO      :   One line per depth step
~Well Information Section
#MNEM       .UNIT                                         VALUE :DESCRIPTION
#------------------------------------------------------------------------------
STRT        .FT                                             510 :START DEPTH
STOP        .FT                                            9509 :STOP DEPTH
STEP        .FT                                             0.5 :STEP      
NULL        .                                           -999.25 :NULL      
COMP        .                       BLUE DOLPHIN EXPLORATION CO :COMPANY   
WELL        .                                OCS 00714 ST00BP00 :WELL      
FLD         .                              GALVESTON BLOCK 0288 :FIELD     
LOC         .                                                   :LOCATION  
CNTY        .                             GALVESTON LARGE BLOCK :LOCATION  
STAT        .                                             TEXAS :STATE     
CTRY        .                                     UNITED STATES :COUNTRY   
SRVC        .                                                   :SERVICE COMPANY
DATE        .                             9/13/2023 11:19:25 AM :LOG DATE  
API         .                                    42706000660000 :API NUMBER
UWI         .                                    42706000660000 :UNIQUE WELL ID
XCOORD      .                                  1093932.46617998 :SURFACE X 
YCOORD      .                                  10479390.8980397 :SURFACE Y 
LAT         .                                         28.865655 :LATITUDE  
LON         .                                       -94.7077791 :LONGITUDE 
ELEV        .FT                                              83 :ELEVATION VALUE
ELEV_TYPE   .                                                KB :ELEVATION REFERENCE TYPE
~Curve Information Section
#MNEM       .UNIT                                      API CODE :CURVE DESCRIPTION
#------------------------------------------------------------------------------
DEPT        .FT                                                 :DEPTH     
ASN         .OHMM                                               :          
CALI        .IN                                                 :          
DT          .US/F                                               :          
IL          .OHMM                                               :          
SP          .MV                                                 :          
SP_NORM     .MV                                                 :SP Normalized
VSH_SP      .V/V                                                :Volume of Shale from SP
~A        DEPTH            ASN           CALI             DT             IL             SP        SP_NORM         VSH_SP
# ...
      5300.5000         0.9968        -999.25        -999.25         1.0799       -47.8782       3.315735              1
      5301.0000         1.0197        -999.25        -999.25         1.0932       -48.1723       3.031574              1
      5301.5000          1.042        -999.25        -999.25         1.1056       -48.2136        3.00021              1
      5302.0000         1.0514        -999.25        -999.25         1.1121       -48.1506       3.073143              1
      5302.5000         1.0405        -999.25        -999.25         1.1088       -48.3814        2.85228              1
      5303.0000         1.0232        -999.25        -999.25         1.1056       -48.5845       2.659119              1
      5303.5000         1.0135        -999.25        -999.25         1.0992       -48.9835       2.270054              1
      5304.0000         1.0225        -999.25        -999.25         1.0919       -49.0323       2.231194              1
      5304.5000          1.034        -999.25        -999.25         1.0672       -48.3107        2.96273              1
      5305.0000         1.0165        -999.25        -999.25         1.0547       -48.2753       3.008068              1
      5305.5000         0.9767        -999.25        -999.25          1.045       -48.6819       2.611404              1
      5306.0000         0.9563        -999.25        -999.25          1.035       -49.2311       2.072144              1
      5306.5000         0.9679        -999.25        -999.25         1.0239       -49.6721       1.641079              1
      5307.0000         0.9884        -999.25        -999.25         1.0129       -49.9985       1.324615              1
      5307.5000          0.972        -999.25        -999.25         0.9959       -50.1687       1.164352              1
      5308.0000         0.9269        -999.25        -999.25         0.9772        -50.362      0.9809914              1
      5308.5000         0.9031        -999.25        -999.25          0.952        -50.684      0.6689262              1
      5309.0000         0.9037        -999.25        -999.25         0.9308        -50.504        0.85886              1
      5309.5000         0.9256        -999.25        -999.25         0.9221       -50.5717      0.8010979              1
      5310.0000         0.9429        -999.25        -999.25         0.9276        -50.984       0.398735              1
      5310.5000         0.9539        -999.25        -999.25         0.9478       -51.7108     -0.3181267              1
      5311.0000         0.9492        -999.25        -999.25         0.9684       -53.0109      -1.608288              1
      5311.5000          0.938        -999.25        -999.25         0.9876       -54.4161      -3.003551      0.9498224
      5312.0000         0.9286        -999.25        -999.25         0.9807       -56.1381      -4.715614      0.8642193
      5312.5000         0.9335        -999.25        -999.25         0.9196        -58.506      -7.073578      0.7463211
      5313.0000           0.93        -999.25        -999.25         0.8479       -62.9136      -11.47124      0.5264379
      5313.5000         0.8878        -999.25        -999.25         0.7684       -66.8585       -15.4062        0.32969
      5314.0000         0.8451        -999.25        -999.25         0.6944       -69.6992      -18.23697      0.1881516
      5314.5000         0.7983        -999.25        -999.25          0.619       -71.0583      -19.58612      0.1206938
      5315.0000         0.7552        -999.25        -999.25         0.5508       -72.1423       -20.6602     0.06699009
      5315.5000         0.7296        -999.25        -999.25         0.5056       -72.4821      -20.99006     0.05049706
      5316.0000          0.706        -999.25        -999.25         0.4875       -71.1202      -19.61822      0.1190889
      5316.5000         0.6899        -999.25        -999.25         0.4777       -68.3368      -16.82488      0.2587559
      5317.0000         0.6859        -999.25        -999.25           0.47       -65.5106      -13.98874      0.4005629
      5317.5000          0.685        -999.25        -999.25         0.4695       -63.3955      -11.86371      0.5068146
      5318.0000         0.6815        -999.25        -999.25          0.469       -62.7317      -11.18997      0.5405014
      5318.5000         0.6701        -999.25        -999.25         0.4685       -63.8976      -12.34593      0.4827034
      5319.0000         0.6717        -999.25        -999.25         0.4875       -64.5842      -13.02259      0.4488703
      5319.5000         0.6915        -999.25        -999.25         0.5221       -63.4404      -11.86886      0.5065571
      5320.0000         0.7145        -999.25        -999.25         0.5629       -61.1411      -9.559624      0.6220188
      5320.5000         0.7301        -999.25        -999.25         0.5821       -59.5034      -7.911983      0.7044008
      5321.0000         0.7376        -999.25        -999.25         0.5921       -59.2294      -7.628052      0.7185974
      5321.5000         0.7379        -999.25        -999.25         0.5775       -62.3498      -10.73851      0.5630743
      5322.0000         0.7364        -999.25        -999.25         0.5584       -65.5286      -13.90738       0.404631
      5322.5000         0.7402        -999.25        -999.25         0.5361       -68.3749      -16.74374       0.262813
      5323.0000         0.7507        -999.25        -999.25         0.5227       -69.9812       -18.3401      0.1829948
      5323.5000         0.7582        -999.25        -999.25          0.496       -71.0527      -19.40166       0.129917
      5324.0000         0.7595        -999.25        -999.25         0.4726       -71.9199      -20.25893     0.08705368
      5324.5000         0.7543        -999.25        -999.25         0.4669        -72.433      -20.76209     0.06189556
      5325.0000         0.7465        -999.25        -999.25         0.4619       -71.8188      -20.13795     0.09310226
      5325.5000         0.7452        -999.25        -999.25         0.4614       -70.6866      -18.99582      0.1502092
      5326.0000         0.7507        -999.25        -999.25         0.4615       -69.3342      -17.63348      0.2183262
      5326.5000         0.7226        -999.25        -999.25         0.4772       -66.5979      -14.88724      0.3556379
      5327.0000          0.718        -999.25        -999.25           0.51       -61.1703      -9.449703      0.6275148
      5327.5000         0.7767        -999.25        -999.25         0.5611       -54.8441      -3.113571      0.9443215
      5328.0000         0.7981        -999.25        -999.25         0.6101       -52.2382     -0.4977341              1
      5328.5000         0.7594        -999.25        -999.25         0.6423       -51.3553      0.3951035              1
      5329.0000          0.749        -999.25        -999.25         0.6505       -53.1929       -1.43256              1
      5329.5000         0.7419        -999.25        -999.25          0.651       -56.3516      -4.581322      0.8709339
      5330.0000         0.7214        -999.25        -999.25         0.6357       -58.8452      -7.064983      0.7467508
      5330.5000         0.7131        -999.25        -999.25         0.6189       -59.7011      -7.910946      0.7044527
      5331.0000         0.7162        -999.25        -999.25          0.593       -60.3425      -8.542408      0.6728796
      5331.5000         0.7129        -999.25        -999.25         0.5698       -59.4338      -7.623772      0.7188114
      5332.0000         0.7048        -999.25        -999.25         0.5623       -54.9295      -3.109535      0.9445232
      5332.5000         0.6929        -999.25        -999.25         0.5637       -52.7744     -0.9444962              1
      5333.0000         0.6745        -999.25        -999.25         0.5709       -54.9969      -3.157059      0.9421471
      5333.5000         0.6702        -999.25        -999.25         0.5778       -58.9395      -7.089725      0.7455137
