#------------------------------------------------------------------------------
# Created by    : vladimir.rabinovich
# Created on    : 09/19/2023 17:22:21
#------------------------------------------------------------------------------
~Version Information Section
VERS.           2.0     :   CWLS log ASCII Standard - VERSION 2.0
WRAP.           NO      :   One line per depth step
~Well Information Section
#MNEM       .UNIT                                         VALUE :DESCRIPTION
#------------------------------------------------------------------------------
STRT        .FT                                            2180 :START DEPTH
STOP        .FT                                            6738 :STOP DEPTH
STEP        .FT                                             0.5 :STEP      
NULL        .                                           -999.25 :NULL      
COMP        .                          SEAGULL ENERGY E & P INC :COMPANY   
WELL        .                               OCS G08131 ST00BP00 :WELL      
FLD         .                              GALVESTON BLOCK 0384 :FIELD     
LOC         .                                                   :LOCATION  
CNTY        .                             GALVESTON LARGE BLOCK :LOCATION  
STAT        .                                             TEXAS :STATE     
CTRY        .                                     UNITED STATES :COUNTRY   
SRVC        .                                                   :SERVICE COMPANY
DATE        .                             9/13/2023 11:19:36 AM :LOG DATE  
API         .                                    42706401890000 :API NUMBER
UWI         .                                    42706401890000 :UNIQUE WELL ID
XCOORD      .                                  986765.057424596 :SURFACE X 
YCOORD      .                                  10402321.6077632 :SURFACE Y 
LAT         .                                          28.64909 :LATITUDE  
LON         .                                        -95.038398 :LONGITUDE 
ELEV        .FT                                             100 :ELEVATION VALUE
ELEV_TYPE   .                                                KB :ELEVATION REFERENCE TYPE
~Curve Information Section
#MNEM       .UNIT                                      API CODE :CURVE DESCRIPTION
#------------------------------------------------------------------------------
DEPT        .FT                                                 :DEPTH     
CALN        .IN                                                 :          
DRHO        .G/CM3                                              :          
GR          .GAPI                                               :          
GR_NORM     .GAPI                                               :GammaRay Normalized
ILD         .OHMM                                               :          
ILM         .OHMM                                               :          
NPSS        .V/V                                                :Neutron Porosity Sandstone
RHOB        .G/CM3                                              :          
SFL         .OHMM                                               :          
SP          .MV                                                 :          
SP_NORM     .MV                                                 :SP Normalized
TENN        .LB                                                 :          
VSH_GR      .V/V                                                :Volume of Shale from GR
VSH_SP      .V/V                                                :Volume of Shale from SP
~A        DEPTH           CALN           DRHO             GR        GR_NORM            ILD            ILM           NPSS           RHOB            SFL             SP        SP_NORM           TENN         VSH_GR         VSH_SP
# ...
      4322.0000        13.0036              0       105.2941       88.38364         1.0867         1.0668          0.458         2.1614         1.0867        -3.5294      -1.587652       2326.531              1      0.9773192
      4322.5000        13.0046              0       103.5294        86.7946         1.0767         1.0668         0.4614         2.1574         1.1594        -3.5294      -1.587652       2326.531              1      0.9773192
      4323.0000        13.0855          0.001       100.7843       84.32319          1.057         1.0668          0.466         2.1513         1.1487        -3.5294      -1.587652       2285.714              1      0.9773192
      4323.5000        13.1665          0.001           96.4        80.3765          1.057          1.057         0.4729         2.1514         1.0867        -3.5294      -1.587652       2285.714              1      0.9773192
      4324.0000        13.2677          0.002           95.2       79.29568          1.057         1.0473         0.4769         2.1504         1.0377        -3.7255      -1.783752       2326.531      0.9850144      0.9745178
      4324.5000        13.2087          0.002           97.2       81.09486          1.057         1.0473         0.4711         2.1485         0.9905        -4.3137      -2.371953       2326.531              1      0.9661149
      4325.0000        13.0095          0.002       101.1765        84.6729         1.0473         1.0377         0.4647         2.1466          0.981        -4.3137      -2.371953       2326.531              1      0.9661149
      4325.5000         12.579          0.003       102.9412       86.26031         1.0473         1.0281         0.4607         2.1447              1        -4.3137      -2.371953       2285.714              1      0.9661149
      4326.0000        12.3839          0.003       100.7843       84.31829         1.0377         1.0187         0.4733         2.1419         1.0093        -4.3137      -2.371953       2285.714              1      0.9661149
      4326.5000        12.2868          0.002       101.9608       85.37633         1.0377         1.0187         0.4892           2.14         1.0093        -4.3137      -2.371953       2285.714              1      0.9661149
      4327.0000        12.2289          0.001       105.8824       88.90495         1.0281         1.0093         0.4898         2.1391          0.981        -4.3137      -2.371953       2285.714              1      0.9661149
      4327.5000        12.1124         -0.001       108.8235       91.55112         1.0187              1         0.4826         2.1401         0.9352        -4.3137      -2.371953       2326.531              1      0.9661149
      4328.0000        12.1526          0.002       109.6078       92.25618         1.0187         0.9905         0.4663         2.1421         0.9087        -4.3137      -2.371953       2326.531              1      0.9661149
      4328.5000        12.3301          0.005       106.8627       89.78477         1.0281         0.9905         0.4524          2.146         0.9352        -4.3137      -2.371953       2326.531              1      0.9661149
      4329.0000        12.5466          0.002       103.9216       87.13696         1.0281         0.9905         0.4506         2.1489         0.9717        -4.3137      -2.371953       2285.714              1      0.9661149
      4329.5000        12.7045         -0.001       101.9608       85.37142         1.0281              1          0.461         2.1561              1        -4.3137      -2.371953       2326.531              1      0.9661149
      4330.0000        12.5878        -0.0049       100.3922       83.95887         1.0377         1.0281         0.4719         2.1653         0.9905        -4.3137      -2.371953       2326.531              1      0.9661149
      4330.5000        12.4118        -0.0088           97.6       81.44508         1.0567          1.047         0.4644         2.1714         0.9714        -4.3137      -2.371953       2326.531              1      0.9661149
      4331.0000        12.4902        -0.0088           93.6       77.84425         1.0661          1.076         0.4529         2.1786         0.9897        -4.3137      -2.371953       2326.531       0.954133      0.9661149
      4331.5000        12.6667        -0.0039             89       73.70344         1.0855         1.0955         0.4402         2.1898         1.0364        -4.3137      -2.371953       2326.531      0.8660306      0.9661149
      4332.0000        12.7647          0.003           86.8       71.72263          1.095         1.1258         0.4341          2.199          1.095        -4.3137      -2.371953       2326.531      0.8238857      0.9661149
      4332.5000        12.7647          0.003           88.2        72.9818         1.1047         1.1358         0.4292          2.202         1.1463        -4.5098      -2.568052       2326.531      0.8506767      0.9633135
      4333.0000        12.7451          0.003           92.4       76.76099         1.1247         1.1457         0.4182          2.202         1.1779        -4.3137      -2.371953       2326.531      0.9310848      0.9661149
      4333.5000        12.7255              0           95.4       79.46017         1.1346         1.1558         0.4068          2.199         1.1452        -4.1176      -2.175852       2326.531      0.9885144      0.9689164
      4334.0000        12.6667              0           98.6       82.33936         1.1446         1.1768         0.3978         2.1908         1.1446        -4.3137      -2.371953       2326.531              1      0.9661149
      4334.5000        12.4706         -0.002       100.9804        84.4809         1.1441         1.1763         0.3996         2.1796         1.1441        -4.5098      -2.568052       2326.531              1      0.9633135
      4335.0000        12.1569        -0.0029       104.1176       87.30356         1.1436         1.1649         0.4062         2.1684         1.1758        -4.3137      -2.371953       2367.347              1      0.9661149
      4335.5000          11.96         -0.002       105.4902       88.53809         1.1222         1.1431         0.4249         2.1582         1.2195        -3.7255      -1.783752       2367.347              1      0.9745178
      4336.0000          11.78         -0.002       106.2745       89.24314         1.1011         1.1321           0.45           2.15         1.2303        -3.1373      -1.195552       2367.347              1      0.9829207
      4336.5000          11.62         -0.001       106.4706       89.41882         1.0705         1.1108         0.4708         2.1433         1.1527        -2.7451     -0.8033524       2408.163              1      0.9885235
      4337.0000          11.54         -0.001       105.4902       88.53564         1.0504           1.07          0.492         2.1346           1.08        -2.7451     -0.8033524       2367.347              1      0.9885235
      4337.5000          11.48         -0.002       106.4706       89.41718         1.0212           1.05         0.5028         2.1288         1.0212        -2.7451     -0.8033524       2367.347              1      0.9885235
      4338.0000          11.36         -0.002       109.0196       91.71046         0.9737         1.0302         0.5028          2.124         0.9552         -2.549     -0.6072524       2367.347              1       0.991325
      4338.5000          11.34         -0.002            112       94.39201         0.9366         1.0108         0.4878         2.1202         0.9014         -2.549     -0.6072524       2367.347              1       0.991325
      4339.0000          11.38         -0.002       109.2157       91.88531         0.9273         0.9916         0.4696         2.1202         0.8611         -2.549     -0.6072524       2367.347              1       0.991325
      4339.5000          11.44         -0.001       105.8824       88.88454          0.918         0.9817         0.4627         2.1288         0.8452        -2.3529     -0.4111524       2367.347              1      0.9941264
