#------------------------------------------------------------------------------
# Created by    : vladimir.rabinovich
# Created on    : 09/19/2023 17:20:37
#------------------------------------------------------------------------------
~Version Information Section
VERS.           2.0     :   CWLS log ASCII Standard - VERSION 2.0
WRAP.           NO      :   One line per depth step
~Well Information Section
#MNEM       .UNIT                                         VALUE :DESCRIPTION
#------------------------------------------------------------------------------
STRT        .FT                                             495 :START DEPTH
STOP        .FT                                            7007 :STOP DEPTH
STEP        .FT                                             0.5 :STEP      
NULL        .                                           -999.25 :NULL      
COMP        .                                      SHELL OIL CO :COMPANY   
WELL        .                                OCS 00718 ST00BP00 :WELL      
FLD         .                                           WILDCAT :FIELD     
LOC         .                                                   :LOCATION  
CNTY        .                             GALVESTON LARGE BLOCK :LOCATION  
STAT        .                                             TEXAS :STATE     
CTRY        .                                     UNITED STATES :COUNTRY   
SRVC        .                                                   :SERVICE COMPANY
DATE        .                             9/13/2023 11:19:25 AM :LOG DATE  
API         .                                    42706000330000 :API NUMBER
UWI         .                                    42706000330000 :UNIQUE WELL ID
XCOORD      .                                  1012682.17104467 :SURFACE X 
YCOORD      .                                  10442833.5651685 :SURFACE Y 
LAT         .                                         28.761679 :LATITUDE  
LON         .                                        -94.959691 :LONGITUDE 
ELEV        .FT                                              75 :ELEVATION VALUE
ELEV_TYPE   .                                                KB :ELEVATION REFERENCE TYPE
~Curve Information Section
#MNEM       .UNIT                                      API CODE :CURVE DESCRIPTION
#------------------------------------------------------------------------------
DEPT        .FT                                                 :DEPTH     
ASN         .OHMM                                               :          
CILD        .MMHO                                               :          
DT          .US/F                                               :          
ILD         .OHMM                                               :          
LAT         .OHMM                                               :          
LN          .OHMM                                               :          
SP          .MV                                                 :          
SP_NORM     .MV                                                 :SP Normalized
VSH_SP      .V/V                                                :Volume of Shale from SP
~A        DEPTH            ASN           CILD             DT            ILD            LAT             LN             SP        SP_NORM         VSH_SP
# ...
      5265.0000         1.0685       1562.627        68.8746         0.6746        -999.25        -999.25       -51.5208       -13.3614        0.79444
      5265.5000          1.083       1573.939        69.1652         0.6808        -999.25        -999.25       -52.1219      -14.05853      0.7837149
      5266.0000         1.0814       1583.244        70.9503         0.6837        -999.25        -999.25        -52.419       -14.4031      0.7784138
      5266.5000         1.0621       1586.482         73.078         0.6777        -999.25        -999.25       -50.9122      -12.65557      0.8052989
      5267.0000         1.0344       1589.719        75.0542         0.6769        -999.25        -999.25       -49.2141      -10.68617      0.8355973
      5267.5000         1.0083       1592.957        78.0682         0.6778        -999.25        -999.25       -47.4877      -8.683962      0.8664006
      5268.0000         0.9901       1596.193        80.5713         0.6785        -999.25        -999.25       -46.8752      -7.973603      0.8773292
      5268.5000         0.9833       1589.682        81.9929         0.6779        -999.25        -999.25       -46.1167      -7.093923      0.8908627
      5269.0000         0.9782       1580.809        82.6843         0.6727        -999.25        -999.25       -45.2087      -6.040857      0.9070637
      5269.5000         0.9757       1571.928        83.2021         0.6726        -999.25        -999.25        -44.384      -5.084401      0.9217784
      5270.0000          0.982       1563.053         83.405          0.681        -999.25        -999.25       -44.2581      -4.938386      0.9240248
      5270.5000         0.9987       1546.488        82.7159         0.6973        -999.25        -999.25       -44.5966      -5.330968      0.9179851
      5271.0000          1.002       1526.658        81.7709         0.7124        -999.25        -999.25       -44.9302      -5.717864      0.9120328
      5271.5000         1.0099       1506.852        80.8646         0.7283        -999.25        -999.25       -45.0829      -5.894962      0.9093083
      5272.0000         1.0125       1487.047        79.7777         0.7461        -999.25        -999.25       -45.2059       -6.03761      0.9071137
      5272.5000         1.0255       1471.447        78.2865         0.7536        -999.25        -999.25       -45.3206      -6.170635      0.9050671
      5273.0000         1.0276       1464.094        77.6376         0.7546        -999.25        -999.25       -45.4359      -6.304359      0.9030099
      5273.5000          1.025       1456.732        77.9032           0.75        -999.25        -999.25       -45.2226      -6.056979      0.9068157
      5274.0000         1.0267       1449.373        78.5583         0.7384        -999.25        -999.25       -44.2833      -4.967612      0.9235752
      5274.5000         1.0294       1450.602        79.1581          0.723        -999.25        -999.25       -43.8633      -4.480514       0.931069
      5275.0000         1.0307       1457.516        79.6368         0.6975        -999.25        -999.25       -43.4427      -3.992716      0.9385736
      5275.5000         1.0271       1489.996        79.9286         0.6672        -999.25        -999.25       -42.9768      -3.452382      0.9468864
      5276.0000         1.0175       1575.705        79.9224         0.6393        -999.25        -999.25       -42.8868      -3.348003      0.9484922
      5276.5000         1.0048       1639.686        78.3826         0.6234        -999.25        -999.25        -43.797      -4.403623      0.9322519
      5277.0000         0.9869        1678.09        76.6844         0.6117        -999.25        -999.25       -45.5756      -6.466376      0.9005173
      5277.5000         0.9744        1711.98        75.8213         0.6001        -999.25        -999.25       -47.6065      -8.821738      0.8642809
      5278.0000         0.9693       1733.955        75.4332         0.5896        -999.25        -999.25       -49.5945      -11.12735        0.82881
      5278.5000           0.96       1755.951        75.9479         0.5817        -999.25        -999.25       -51.1488      -12.92997      0.8010774
      5279.0000         0.9398       1781.504        76.6099         0.5805        -999.25        -999.25       -51.7443      -13.62061      0.7904522
      5279.5000         0.9188       1814.924        77.0627         0.5793        -999.25        -999.25       -50.4005      -12.06212      0.8144289
      5280.0000         0.9435       1853.799        76.3792          0.578        -999.25        -999.25       -49.3884      -10.88832      0.8324873
      5280.5000         0.9918       1917.645        75.1447         0.5588        -999.25        -999.25       -50.8262      -12.55583      0.8068334
      5281.0000         0.9917        1947.42        73.8434         0.5311        -999.25        -999.25       -56.4323      -19.05758      0.7068065
      5281.5000         0.9799       1988.906        71.6874         0.4975        -999.25        -999.25       -59.9599      -23.14876      0.6438652
      5282.0000         0.9372       2036.063        68.1058          0.476        -999.25        -999.25       -65.4663      -29.53488      0.5456172
      5282.5000         0.8848       2083.219        65.2184           0.45        -999.25        -999.25       -70.7804      -35.69798      0.4508003
      5283.0000         0.8564       2130.406         64.141         0.4508        -999.25        -999.25        -73.168      -38.46703      0.4081995
      5283.5000         0.8484       2290.484         64.323         0.4799        -999.25        -999.25        -73.986      -39.41571      0.3936044
      5284.0000         0.8389       2350.574        64.9725         0.5019        -999.25        -999.25       -74.0629       -39.5049      0.3922323
      5284.5000         0.8272       2329.672        65.8198         0.5126        -999.25        -999.25       -73.7181      -39.10502      0.3983843
      5285.0000         0.8347       2304.098        67.8639         0.5114        -999.25        -999.25       -70.7782      -35.69543      0.4508396
      5285.5000         0.8451       2271.281        69.6886         0.4946        -999.25        -999.25       -69.1399      -33.79539       0.480071
      5286.0000         0.8217       2249.605        70.3695          0.475        -999.25        -999.25       -69.1439      -33.80002      0.4799997
      5286.5000         0.7943       2256.918        70.6846          0.442        -999.25        -999.25       -69.0675      -33.71142      0.4813628
      5287.0000         0.7613       2264.234        71.2737           0.41        -999.25        -999.25       -71.4053      -36.42271      0.4396506
      5287.5000         0.7293       2271.547        72.0402         0.3819        -999.25        -999.25       -74.4076      -39.90467      0.3860819
      5288.0000         0.6938       2294.328        73.1685         0.3632        -999.25        -999.25       -79.4545      -45.75788      0.2960326
      5288.5000         0.6619       2368.637        74.8101         0.3467        -999.25        -999.25       -82.1285      -48.85909      0.2483217
      5289.0000         0.6409       2470.215        76.7094         0.3255        -999.25        -999.25       -81.7368      -48.40481      0.2553107
      5289.5000         0.6334       2572.152        77.4967         0.3075        -999.25        -999.25       -78.9406      -45.16188      0.3052019
      5290.0000         0.6517       2686.609        77.7947         0.2957        -999.25        -999.25       -77.2307      -43.17879      0.3357109
      5290.5000         0.6827       2835.582        77.3385         0.2898        -999.25        -999.25       -78.1887      -44.28985      0.3186177
      5291.0000         0.6659       2984.734        76.8643         0.2864        -999.25        -999.25       -82.2296      -48.97634      0.2465178
