#------------------------------------------------------------------------------
# Created by    : vladimir.rabinovich
# Created on    : 09/19/2023 17:20:31
#------------------------------------------------------------------------------
~Version Information Section
VERS.           2.0     :   CWLS log ASCII Standard - VERSION 2.0
WRAP.           NO      :   One line per depth step
~Well Information Section
#MNEM       .UNIT                                         VALUE :DESCRIPTION
#------------------------------------------------------------------------------
STRT        .FT                                            2310 :START DEPTH
STOP        .FT                                           12118 :STOP DEPTH
STEP        .FT                                             0.5 :STEP      
NULL        .                                           -999.25 :NULL      
COMP        .                                   FOREST OIL CORP :COMPANY   
WELL        .                               OCS G01793 ST00BP00 :WELL      
FLD         .                                           WILDCAT :FIELD     
LOC         .                                                   :LOCATION  
CNTY        .                             GALVESTON LARGE BLOCK :LOCATION  
STAT        .                                             TEXAS :STATE     
CTRY        .                                     UNITED STATES :COUNTRY   
SRVC        .                                                   :SERVICE COMPANY
DATE        .                             9/13/2023 11:19:24 AM :LOG DATE  
API         .                                    42706001380000 :API NUMBER
UWI         .                                    42706001380000 :UNIQUE WELL ID
XCOORD      .                                  1024149.02927821 :SURFACE X 
YCOORD      .                                  10425384.3690734 :SURFACE Y 
LAT         .                                         28.714212 :LATITUDE  
LON         .                                        -94.923031 :LONGITUDE 
ELEV        .FT                                              60 :ELEVATION VALUE
ELEV_TYPE   .                                                KB :ELEVATION REFERENCE TYPE
~Curve Information Section
#MNEM       .UNIT                                      API CODE :CURVE DESCRIPTION
#------------------------------------------------------------------------------
DEPT        .FT                                                 :DEPTH     
ASN         .OHMM                                               :          
CALI        .IN                                                 :          
CILD        .MMHO                                               :          
DT          .US/F                                               :          
ILD         .OHMM                                               :          
RHOB        .G/C3                                               :          
SP          .MV                                                 :          
SP_NORM     .MV                                                 :SP Normalized
VSH_SP      .V/V                                                :Volume of Shale from SP
~A        DEPTH            ASN           CALI           CILD             DT            ILD           RHOB             SP        SP_NORM         VSH_SP
# ...
      6232.0000         0.5598        11.6574       2053.043       112.6577         0.5106        -999.25       -63.3008      -14.93706      0.7701991
      6232.5000         0.5731        11.6803           1912       112.2645         0.5322        -999.25        -61.831      -12.87815      0.8018746
      6233.0000         0.5864        11.7033       1742.221       112.0044         0.5538        -999.25       -60.4475      -10.94006      0.8316914
      6233.5000         0.5997        11.6952       1637.113       112.1027         0.5753        -999.25       -59.4271      -9.510317      0.8536874
      6234.0000          0.613        11.6837       1532.707       112.3895         0.5861        -999.25       -58.4055      -8.078887      0.8757094
      6234.5000         0.6232        11.6664       1524.055       112.6322         0.5925        -999.25       -57.3839      -6.647458      0.8977314
      6235.0000         0.6321         11.649       1530.063         112.23         0.5989        -999.25       -56.3622      -5.215895      0.9197555
      6235.5000         0.6411        11.6317       1544.174       111.9468         0.6054        -999.25       -55.3406      -3.784466      0.9417775
      6236.0000         0.6501        11.6207       1558.271       111.6639         0.6118        -999.25        -54.662       -2.83324      0.9564117
      6236.5000          0.651        11.6227       1572.383       111.3811         0.6182        -999.25       -55.2955      -3.718953      0.9427853
      6237.0000         0.6513        11.6247       1586.492       111.1858         0.6246        -999.25       -55.9297      -4.605643       0.929144
      6237.5000          0.652        11.6333       1600.604       111.1259         0.6311        -999.25       -57.3625      -6.610378      0.8983019
      6238.0000          0.653         11.644       1614.715       111.0659         0.6362        -999.25        -58.855      -8.698693      0.8661739
      6238.5000          0.654        11.6546       1628.813       111.0061         0.6357        -999.25       -60.3486      -10.78854      0.8340225
      6239.0000         0.6576        11.6652       1624.361       111.0265         0.6352        -999.25        -61.841      -12.87672      0.8018967
      6239.5000         0.6655         11.672       1613.131       111.4026         0.6347        -999.25       -63.1706      -14.73697      0.7732773
      6240.0000         0.6735        11.6743         1601.9       112.1631         0.6342        -999.25       -64.4438      -16.51827      0.7458728
      6240.5000         0.6716        11.6787       1613.791       112.5024         0.6336        -999.25       -64.5653      -16.68718      0.7432742
      6241.0000         0.6696         11.688       1626.668       112.8348         0.6331        -999.25       -62.2992      -13.51345      0.7921008
      6241.5000         0.6671        11.6974       1639.545       113.5693         0.6326        -999.25       -60.1376      -10.48602      0.8386766
      6242.0000         0.6627        11.7063       1652.422       114.3218         0.6321        -999.25       -60.3199      -10.74006      0.8347683
      6242.5000         0.6583        11.7128       1665.297       114.8942         0.6308        -999.25       -60.5021      -10.99395      0.8308623
      6243.0000         0.6539        11.7194       1675.061        113.814         0.6275        -999.25       -60.6844      -11.24798      0.8269541
      6243.5000         0.6495        11.7259       1672.746       112.9982         0.6243        -999.25       -60.3755      -10.81434      0.8336256
      6244.0000         0.6452        11.7267       1662.717       112.2732          0.621        -999.25       -59.6838       -9.84477       0.848542
      6244.5000         0.6408        11.7097       1650.938       111.5482         0.6177        -999.25       -58.9921      -8.875199      0.8634585
      6245.0000         0.6435        11.6927       1649.393       111.8236         0.6155        -999.25        -58.095      -7.618075      0.8827989
      6245.5000         0.6532        11.6756       1665.135       112.1951          0.616        -999.25       -56.7704       -5.76245      0.9113469
      6246.0000          0.663        11.6586       1694.105       112.5667         0.6164        -999.25       -55.5741      -4.086443      0.9371316
      6246.5000         0.6658         11.641       1723.074       112.9381         0.6168        -999.25       -56.3735      -5.204413      0.9199321
      6247.0000         0.6618        11.6286       1752.043       113.3328         0.6172        -999.25       -57.1735      -6.323226      0.9027196
      6247.5000         0.6564        11.6393       1774.156       113.4427         0.6176        -999.25       -58.2127       -7.77692      0.8803551
      6248.0000         0.6497        11.6491       1792.879       113.5527          0.618        -999.25        -60.629      -11.15856      0.8283299
      6248.5000         0.6431        11.6569       1811.625       113.6627         0.6184        -999.25       -63.0479      -14.54383      0.7762489
      6249.0000         0.6364        11.6647       1806.018       113.6377         0.6185        -999.25       -65.4016      -17.83782      0.7255719
      6249.5000         0.6297        11.6724        1788.59       113.4176         0.6169        -999.25        -66.894      -19.92599      0.6934463
      6250.0000         0.6241        11.6802       1771.189        113.056         0.6153        -999.25        -65.786      -18.37361      0.7173291
      6250.5000         0.6201         11.686       1753.764       112.6945         0.6138        -999.25        -64.678      -16.82122       0.741212
      6251.0000         0.6161        11.6886       1747.418       112.3326         0.6122        -999.25         -63.57      -15.26883      0.7650949
      6251.5000         0.6162        11.6912       1762.463       112.6565         0.6106        -999.25       -62.4633      -13.71826      0.7889498
      6252.0000         0.6147        11.6938       1777.521       113.0016         0.6091        -999.25       -63.6727      -15.41023      0.7629195
      6252.5000          0.608         11.694       1869.164       113.3469         0.6075        -999.25       -65.0286      -17.30731      0.7337337
      6253.0000         0.6012        11.6928       1984.477        113.692          0.606        -999.25       -66.3882      -19.20956      0.7044683
      6253.5000         0.5944        11.6917       1990.492        114.037         0.6044        -999.25       -67.8005       -21.1856      0.6740677
      6254.0000         0.5875        11.6905       1996.516       114.3824         0.6028        -999.25       -69.2128      -23.16162      0.6436673
      6254.5000         0.5792        11.6893       2002.531       114.2853         0.6013        -999.25        -70.625      -25.13752      0.6132689
      6255.0000         0.5709        11.6902       2008.547       114.1287         0.5997        -999.25       -71.9834      -27.03809      0.5840293
      6255.5000         0.5627        11.6919        2014.57       113.9718         0.5982        -999.25       -73.3105      -28.89485      0.5554638
      6256.0000         0.5544        11.6936       2020.586       113.8152         0.5966        -999.25       -71.2736        -26.042      0.5993539
      6256.5000         0.5584         11.702       2026.602       113.6583          0.595        -999.25       -68.9048      -22.72449      0.6503924
      6257.0000         0.5628        11.7158       2032.625       113.5017         0.5931        -999.25       -67.4136      -20.63562      0.6825289
      6257.5000         0.5675        11.7297       2054.141       113.4866         0.5884        -999.25       -65.9213      -18.54523      0.7146888
      6258.0000         0.5721        11.7435       2128.234            114         0.5837        -999.25       -64.6598      -16.77793       0.741878
