#------------------------------------------------------------------------------
# Created by    : vladimir.rabinovich
# Created on    : 09/19/2023 17:22:56
#------------------------------------------------------------------------------
~Version Information Section
VERS.           2.0     :   CWLS log ASCII Standard - VERSION 2.0
WRAP.           NO      :   One line per depth step
~Well Information Section
#MNEM       .UNIT                                         VALUE :DESCRIPTION
#------------------------------------------------------------------------------
STRT        .FT                                             671 :START DEPTH
STOP        .FT                                           10000 :STOP DEPTH
STEP        .FT                                             0.5 :STEP      
NULL        .                                           -999.25 :NULL      
COMP        .                                    MOBIL OIL CORP :COMPANY   
WELL        .                                     ST TR 00565-L :WELL      
FLD         .                                           WILDCAT :FIELD     
LOC         .                                                   :LOCATION  
CNTY        .                      MATAGORDA ISLAND LARGE BLOCK :LOCATION  
STAT        .                                             TEXAS :STATE     
CTRY        .                                     UNITED STATES :COUNTRY   
SRVC        .                                                   :SERVICE COMPANY
DATE        .                             9/13/2023 11:12:05 AM :LOG DATE  
API         .                                    42703000150000 :API NUMBER
UWI         .                                    42703000150000 :UNIQUE WELL ID
XCOORD      .                                  584511.465629887 :SURFACE X 
YCOORD      .                                  10263641.5286434 :SURFACE Y 
LAT         .                                         28.243485 :LATITUDE  
LON         .                                       -96.2796592 :LONGITUDE 
ELEV        .FT                                              11 :ELEVATION VALUE
ELEV_TYPE   .                                                KB :ELEVATION REFERENCE TYPE
~Curve Information Section
#MNEM       .UNIT                                      API CODE :CURVE DESCRIPTION
#------------------------------------------------------------------------------
DEPT        .FT                                                 :DEPTH     
SP          .MV                                                 :          
SP_NORM     .MV                                                 :SP Normalized
VSH_SP      .V/V                                                :Volume of Shale from SP
~A        DEPTH             SP        SP_NORM         VSH_SP
# ...
      1265.0000        12.0344        -3.8711              1
      1265.5000        12.0114        -3.8481              1
      1266.0000        11.9819        -3.8186              1
      1266.5000        11.9317        -3.7684              1
      1267.0000        11.8814        -3.7181              1
      1267.5000        11.6869        -3.5236              1
      1268.0000        11.9318        -3.7685              1
      1268.5000         12.414        -4.2507      0.9686625
      1269.0000        12.7609        -4.5976         0.9253
      1269.5000        13.0334        -4.8701      0.8912375
      1270.0000        13.2094        -5.0461      0.8692375
      1270.5000        13.2369        -5.0736         0.8658
      1271.0000        13.0834        -4.9201      0.8849875
      1271.5000        12.7997        -4.6364        0.92045
      1272.0000         12.516        -4.3527      0.9559125
      1272.5000        12.2918        -4.1285      0.9839375
      1273.0000        12.1384        -3.9751              1
      1273.5000        11.9851        -3.8218              1
      1274.0000        11.8318        -3.6685              1
      1274.5000        11.7589        -3.5956              1
      1275.0000        11.7255        -3.5622              1
      1275.5000        11.6922        -3.5289              1
      1276.0000         11.703        -3.5397              1
      1276.5000        11.7321        -3.5688              1
      1277.0000        11.7612        -3.5979              1
      1277.5000        11.7903         -3.627              1
      1278.0000        11.8194        -3.6561              1
      1278.5000        11.7706        -3.6073              1
      1279.0000        11.7014        -3.5381              1
      1279.5000        11.6322        -3.4689              1
      1280.0000        11.7291        -3.5658              1
      1280.5000        11.9259        -3.7626              1
      1281.0000        12.2284        -4.0651      0.9918625
      1281.5000        12.5802        -4.4169      0.9478875
      1282.0000        12.8018        -4.6385      0.9201875
      1282.5000        12.9238        -4.7605      0.9049375
      1283.0000        12.9703         -4.807       0.899125
      1283.5000        12.9116        -4.7483      0.9064625
      1284.0000        12.8555        -4.6922       0.913475
      1284.5000         12.856        -4.6927      0.9134125
      1285.0000        12.8565        -4.6932        0.91335
      1285.5000        12.8436        -4.6803      0.9149625
      1286.0000        12.8164        -4.6531      0.9183625
      1286.5000        12.7137        -4.5504         0.9312
      1287.0000         12.443        -4.2797      0.9650375
      1287.5000        12.3498        -4.1865      0.9766875
      1288.0000        12.2756        -4.1123      0.9859625
      1288.5000        12.2014        -4.0381      0.9952375
      1289.0000        12.1263         -3.963              1
      1289.5000        12.0457        -3.8824              1
      1290.0000        11.9652        -3.8019              1
      1290.5000        11.8855        -3.7222              1
      1291.0000        11.8099        -3.6466              1
      1291.5000        11.8585        -3.6952              1
      1292.0000        12.2721        -4.1088         0.9864
      1292.5000        12.9001        -4.7368         0.9079
      1293.0000        13.0925        -4.9292        0.88385
      1293.5000        13.0823         -4.919       0.885125
      1294.0000        13.0573         -4.894        0.88825
      1294.5000        12.9335        -4.7702       0.903725
      1295.0000        12.7331        -4.5698       0.928775
      1295.5000        12.5327        -4.3694       0.953825
      1296.0000          12.28        -4.1167      0.9854125
      1296.5000        11.9363         -3.773              1
      1297.0000        11.5927        -3.4294              1
      1297.5000        11.4536        -3.2903              1
      1298.0000        11.3865        -3.2232              1
      1298.5000        11.3193         -3.156              1
      1299.0000        11.4099        -3.2466              1
      1299.5000        11.5476        -3.3843              1
      1300.0000        11.7565        -3.5932              1
      1300.5000        12.0458        -3.8825              1
      1301.0000        11.9456        -3.7823              1
      1301.5000        11.8454        -3.6821              1
      1302.0000        11.6756        -3.5123              1
      1302.5000         11.468        -3.3047              1
      1303.0000        11.2808        -3.1175              1
      1303.5000        11.5254        -3.3621              1
      1304.0000          11.77        -3.6067              1
      1304.5000        12.0146        -3.8513              1
      1305.0000        12.1761        -4.0128         0.9984
      1305.5000        12.3301        -4.1668        0.97915
      1306.0000         12.319        -4.1557      0.9805375
      1306.5000        12.2994        -4.1361      0.9829875
      1307.0000        12.2798        -4.1165      0.9854375
      1307.5000        12.2603         -4.097       0.987875
      1308.0000        12.1019        -3.9386              1
      1308.5000        11.9417        -3.7784              1
      1309.0000        12.1119        -3.9486              1
      1309.5000        12.2852        -4.1219      0.9847625
      1310.0000        12.4585        -4.2952         0.9631
      1310.5000        12.9163         -4.753       0.905875
      1311.0000        13.3743         -5.211       0.848625
      1311.5000         13.719        -5.5557      0.8055375
      1312.0000        13.8953         -5.732         0.7835
      1312.5000        13.9367        -5.7734       0.778325
      1313.0000        13.8592        -5.6959      0.7880125
      1313.5000        13.6953         -5.532         0.8085
      1314.0000        13.6129        -5.4496         0.8188
      1314.5000        13.6617        -5.4984         0.8127
      1315.0000        13.7106        -5.5473      0.8065875
      1315.5000        13.7594        -5.5961      0.8004875
      1316.0000        13.7673         -5.604         0.7995
      1316.5000        13.7512        -5.5879      0.8015125
      1317.0000        13.6776        -5.5143      0.8107125
      1317.5000        13.4325        -5.2692        0.84135
      1318.0000        13.1763         -5.013       0.873375
      1318.5000        12.6829        -4.5196        0.93505
      1319.0000        12.1848        -4.0215      0.9973125
      1319.5000          11.67        -3.5067              1
      1320.0000        11.2689        -3.1056              1
      1320.5000        11.1693         -3.006              1
      1321.0000        11.2626        -3.0993              1
      1321.5000        11.3419        -3.1786              1
      1322.0000        11.3703         -3.207              1
      1322.5000        11.3976        -3.2343              1
      1323.0000        11.3983         -3.235              1
      1323.5000         11.399        -3.2357              1
      1324.0000         11.536        -3.3727              1
      1324.5000        11.6947        -3.5314              1
      1325.0000        11.9063         -3.743              1
      1325.5000        12.1402        -3.9769              1
      1326.0000        12.2505        -4.0872         0.9891
      1326.5000        12.2597        -4.0964        0.98795
      1327.0000        12.2335        -4.0702       0.991225
      1327.5000        12.0401        -3.8768              1
      1328.0000        11.8467        -3.6834              1
      1328.5000        11.5748        -3.4115              1
      1329.0000        10.9314        -2.7681              1
      1329.5000         10.399        -2.2357              1
      1330.0000         9.9412        -1.7779              1
      1330.5000         9.7577        -1.5944              1
