#------------------------------------------------------------------------------
# Created by    : vladimir.rabinovich
# Created on    : 09/19/2023 17:22:54
#------------------------------------------------------------------------------
~Version Information Section
VERS.           2.0     :   CWLS log ASCII Standard - VERSION 2.0
WRAP.           NO      :   One line per depth step
~Well Information Section
#MNEM       .UNIT                                         VALUE :DESCRIPTION
#------------------------------------------------------------------------------
STRT        .FT                                             410 :START DEPTH
STOP        .FT                                            7624 :STOP DEPTH
STEP        .FT                                             0.5 :STEP      
NULL        .                                           -999.25 :NULL      
COMP        .                                      SHELL OIL CO :COMPANY   
WELL        .                                     ST TR 00249-L :WELL      
FLD         .                                           WILDCAT :FIELD     
LOC         .                                                   :LOCATION  
CNTY        .                             GALVESTON LARGE BLOCK :LOCATION  
STAT        .                                             TEXAS :STATE     
CTRY        .                                     UNITED STATES :COUNTRY   
SRVC        .                                                   :SERVICE COMPANY
DATE        .                             9/13/2023 11:19:42 AM :LOG DATE  
API         .                                    42706000200000 :API NUMBER
UWI         .                                    42706000200000 :UNIQUE WELL ID
XCOORD      .                                  981084.037319939 :SURFACE X 
YCOORD      .                                  10535303.7769946 :SURFACE Y 
LAT         .                                         29.014458 :LATITUDE  
LON         .                                       -95.0633058 :LONGITUDE 
ELEV        .FT                                              11 :ELEVATION VALUE
ELEV_TYPE   .                                                KB :ELEVATION REFERENCE TYPE
~Curve Information Section
#MNEM       .UNIT                                      API CODE :CURVE DESCRIPTION
#------------------------------------------------------------------------------
DEPT        .FT                                                 :DEPTH     
LAT         .OHMM                                               :          
SN          .OHMM                                               :          
SP          .MV                                                 :          
SP_NORM     .MV                                                 :SP Normalized
VSH_SP      .V/V                                                :Volume of Shale from SP
~A        DEPTH            LAT             SN             SP        SP_NORM         VSH_SP
# ...
      4722.0000         0.7279         0.7477        -74.495      -2.142342      0.9845629
      4722.5000         0.7269         0.7476       -74.0942      -1.748634      0.9898833
      4723.0000           0.73         0.7461       -73.6938      -1.355339      0.9951981
      4723.5000         0.7331          0.744       -73.2935     -0.9621353              1
      4724.0000         0.7362         0.7419       -72.8928     -0.5685272              1
      4724.5000         0.7393         0.7397       -72.2861     0.03106689              1
      4725.0000         0.7424         0.7376       -71.6274      0.6826706              1
      4725.5000         0.7455         0.7354       -70.9686       1.334373              1
      4726.0000         0.7486         0.7333       -70.3098       1.986076              1
      4726.5000         0.7517         0.7311       -70.1488       2.139977              1
      4727.0000         0.7503          0.729       -70.0366       2.245079              1
      4727.5000          0.746         0.7268       -69.9244       2.350182              1
      4728.0000         0.7417         0.7301       -69.8121       2.455383              1
      4728.5000         0.7373         0.7355       -69.9788       2.281586              1
      4729.0000          0.733          0.741       -70.2339       2.019386              1
      4729.5000         0.7287         0.7465        -70.489       1.757195              1
      4730.0000         0.7244         0.7547       -70.7441       1.494987              1
      4730.5000         0.7201         0.7681       -71.2046       1.027397              1
      4731.0000         0.7158         0.7814       -71.8268      0.3980942              1
      4731.5000         0.7115         0.7947       -72.4146     -0.1968002              1
      4732.0000         0.7096          0.808       -72.7723     -0.5615997              1
      4732.5000          0.709         0.8213       -73.1301     -0.9264984              1
      4733.0000         0.7084         0.8272       -73.4879      -1.291397      0.9960622
      4733.5000         0.7079         0.8317       -74.0265       -1.83709       0.988688
      4734.0000         0.7073         0.8363       -74.6378      -2.455498      0.9803311
      4734.5000         0.7067         0.8374       -74.8717      -2.696487      0.9770745
      4735.0000         0.7062           0.83       -74.9386      -2.770493      0.9760744
      4735.5000         0.7056         0.8226       -74.9351      -2.774086      0.9760259
      4736.0000          0.705         0.8152       -74.9238      -2.769882      0.9760827
      4736.5000         0.7045         0.8078        -75.074      -2.927185      0.9739569
      4737.0000         0.7039         0.8006       -75.2382       -3.09848      0.9716421
      4737.5000         0.7033         0.7954       -75.5476      -3.414978      0.9673651
      4738.0000         0.7013         0.7903       -75.9882      -3.862679      0.9613152
      4738.5000         0.6991         0.7851        -76.429      -4.310577      0.9552625
      4739.0000         0.6969         0.7799       -76.8695      -4.758179      0.9492138
      4739.5000         0.6947         0.7747       -77.3218      -5.217575      0.9430057
      4740.0000         0.6924         0.7702       -77.7859      -5.688766      0.9366383
      4740.5000         0.6902         0.7691       -78.2496      -6.159576       0.930276
      4741.0000          0.688          0.768       -78.7136      -6.630669      0.9239099
      4741.5000         0.6858         0.7669       -79.5797       -7.50386        0.91211
      4742.0000         0.6836         0.7658        -80.484      -8.415268      0.8997937
      4742.5000         0.6814         0.7647       -80.8903      -8.828659      0.8942073
      4743.0000         0.6791         0.7636       -81.2966      -9.242058      0.8886209
      4743.5000         0.6769         0.7625       -81.6814      -9.633957      0.8833249
      4744.0000         0.6746         0.7622       -81.9926      -9.952255      0.8790236
      4744.5000         0.6721         0.7648       -82.3033      -10.27006       0.874729
      4745.0000         0.6697         0.7674       -82.3281      -10.30196      0.8742979
      4745.5000         0.6673           0.77       -82.1752      -10.15615      0.8762682
      4746.0000         0.6648         0.7727       -81.9229       -9.91095      0.8795817
      4746.5000         0.6624         0.7753       -81.6151      -9.610245      0.8836454
      4747.0000         0.6599         0.7779       -81.3075      -9.309746      0.8877062
      4747.5000         0.6575         0.7801       -80.9998      -9.009148      0.8917683
      4748.0000         0.6551         0.7782       -80.6919      -8.708344      0.8958332
      4748.5000         0.6526         0.7763       -79.9053      -7.928841       0.906367
      4749.0000         0.6502         0.7744       -79.0804      -7.111038      0.9174184
      4749.5000         0.6477         0.7725       -78.2551      -6.292831      0.9284753
      4750.0000         0.6453         0.7706       -76.7075      -4.752335      0.9492928
      4750.5000         0.6429         0.7687       -75.0131      -3.065033      0.9720942
      4751.0000         0.6441         0.7668       -73.3289      -1.387932      0.9947577
      4751.5000         0.6465         0.7649       -73.2369      -1.303032       0.995905
      4752.0000         0.6489          0.763       -73.1449      -1.218124      0.9970524
      4752.5000         0.6513         0.7612        -73.053      -1.133331      0.9981982
      4753.0000         0.6538         0.7593       -72.9611      -1.048523      0.9993443
      4753.5000         0.6562         0.7575       -72.8689     -0.9634171              1
      4754.0000         0.6586         0.7556        -72.777      -0.878624              1
      4754.5000          0.661         0.7538       -72.6494     -0.7581177              1
      4755.0000         0.6634         0.7519       -72.1223     -0.2381134              1
      4755.5000         0.6658         0.7501       -71.5957      0.2813797              1
      4756.0000         0.6682         0.7492       -71.0686       0.801384              1
      4756.5000         0.6706         0.7489       -70.5415       1.321396              1
      4757.0000         0.6722         0.7486       -70.1552       1.700592              1
      4757.5000         0.6736         0.7483       -70.3284       1.520294              1
      4758.0000          0.675         0.7481       -70.5017        1.33989              1
      4758.5000         0.6764         0.7478        -70.675       1.159492              1
      4759.0000         0.6778         0.7475       -70.8768      0.9505997              1
      4759.5000         0.6792         0.7456       -71.1199      0.7003937              1
      4760.0000         0.6806         0.7397        -71.363      0.4502029              1
      4760.5000          0.682         0.7338       -71.6063      0.1998062              1
      4761.0000         0.6834         0.7279        -71.842    -0.04299927              1
      4761.5000         0.6866          0.722       -71.3909      0.4010086              1
      4762.0000         0.6908         0.7161       -70.9399       0.844902              1
      4762.5000          0.695         0.7102       -71.0834       0.694313              1
      4763.0000         0.6992         0.7072        -71.906     -0.1353836              1
      4763.5000         0.7033         0.7046       -72.7286     -0.9650879              1
      4764.0000         0.7075         0.7019       -73.4786      -1.722183      0.9902408
      4764.5000         0.7117         0.6992       -74.1833      -2.433975      0.9806219
      4765.0000         0.7159          0.699       -74.8879      -3.145683      0.9710043
      4765.5000         0.7193         0.6997       -75.5927      -3.857574      0.9613841
