#------------------------------------------------------------------------------
# Created by    : vladimir.rabinovich
# Created on    : 09/19/2023 17:21:24
#------------------------------------------------------------------------------
~Version Information Section
VERS.           2.0     :   CWLS log ASCII Standard - VERSION 2.0
WRAP.           NO      :   One line per depth step
~Well Information Section
#MNEM       .UNIT                                         VALUE :DESCRIPTION
#------------------------------------------------------------------------------
STRT        .FT                                            4000 :START DEPTH
STOP        .FT                                            8085 :STOP DEPTH
STEP        .FT                                             0.5 :STEP      
NULL        .                                           -999.25 :NULL      
COMP        .                             WALTER OIL & GAS CORP :COMPANY   
WELL        .                               OCS G09047 ST00BP00 :WELL      
FLD         .                              GALVESTON BLOCK 0351 :FIELD     
LOC         .                                                   :LOCATION  
CNTY        .                             GALVESTON LARGE BLOCK :LOCATION  
STAT        .                                             TEXAS :STATE     
CTRY        .                                     UNITED STATES :COUNTRY   
SRVC        .                                                   :SERVICE COMPANY
DATE        .                             9/13/2023 11:19:36 AM :LOG DATE  
API         .                                    42706402000000 :API NUMBER
UWI         .                                    42706402000000 :UNIQUE WELL ID
XCOORD      .                                  1036183.96101641 :SURFACE X 
YCOORD      .                                  10437562.0132666 :SURFACE Y 
LAT         .                                        28.7482272 :LATITUDE  
LON         .                                       -94.8860948 :LONGITUDE 
ELEV        .FT                                              80 :ELEVATION VALUE
ELEV_TYPE   .                                                KB :ELEVATION REFERENCE TYPE
~Curve Information Section
#MNEM       .UNIT                                      API CODE :CURVE DESCRIPTION
#------------------------------------------------------------------------------
DEPT        .FT                                                 :DEPTH     
CALI        .IN                                                 :          
DRHO        .G/C3                                               :          
GR          .GAPI                                               :          
GR_NORM     .GAPI                                               :GammaRay Normalized
ILD         .OHMM                                               :          
ILM         .OHMM                                               :          
NPHI        .%                                                  :          
RHOB        .G/C3                                               :          
SFL         .OHMM                                               :          
SP          .MV                                                 :          
SP_NORM     .MV                                                 :SP Normalized
VSH_GR      .V/V                                                :Volume of Shale from GR
VSH_SP      .V/V                                                :Volume of Shale from SP
~A        DEPTH           CALI           DRHO             GR        GR_NORM            ILD            ILM           NPHI           RHOB            SFL             SP        SP_NORM         VSH_GR         VSH_SP
# ...
      8066.0000        10.4723        -999.25        -999.25        -999.25         0.8455         0.8172        41.8674         2.4578         0.8726       -44.5247     -0.0802536        -999.25      0.9988535
      8066.5000         10.457        -999.25        -999.25        -999.25         0.8241         0.8029        43.8981         2.4536         0.8741       -44.3466     0.09784698        -999.25              1
      8067.0000        10.4543        -999.25        -999.25        -999.25         0.8031         0.7896        45.8345         2.4512         0.8757       -44.2957      0.1487465        -999.25              1
      8067.5000        10.4516        -999.25        -999.25        -999.25         0.7826         0.7774         46.757         2.4506         0.8751       -44.2446      0.1998482        -999.25              1
      8068.0000        10.4489        -999.25        -999.25        -999.25         0.7572         0.7654        47.1377         2.4499         0.8724       -44.2416      0.2028465        -999.25              1
      8068.5000        10.4462        -999.25        -999.25        -999.25         0.7301         0.7488        47.1405         2.4496         0.8697       -44.2952      0.1492462        -999.25              1
      8069.0000        10.4433        -999.25        -999.25        -999.25          0.706         0.7301        47.1433         2.4515         0.8561       -44.3455     0.09894562        -999.25              1
      8069.5000        10.4403        -999.25        -999.25        -999.25         0.6849          0.718        47.1357         2.4534         0.8364       -44.0778      0.3666458        -999.25              1
      8070.0000        10.4373        -999.25        -999.25        -999.25         0.6651         0.7065        47.0922         2.4553         0.8173        -43.861      0.5834465        -999.25              1
      8070.5000        10.4337        -999.25        -999.25        -999.25         0.6534         0.7003        47.0488         2.4556         0.8116        -43.796      0.6484451        -999.25              1
      8071.0000        10.4272        -999.25        -999.25        -999.25         0.6479         0.6941        47.0053         2.4555         0.8071       -43.8254      0.6190453        -999.25              1
      8071.5000        10.4207        -999.25        -999.25        -999.25         0.6434          0.688        46.9971         2.4553         0.8073       -43.9387      0.5057449        -999.25              1
      8072.0000        10.4141        -999.25        -999.25        -999.25          0.641         0.6861        47.0124         2.4546         0.8076       -43.6538      0.7906456        -999.25              1
      8072.5000        10.4076        -999.25        -999.25        -999.25         0.6386          0.685        47.0278         2.4552         0.8079       -43.6069      0.8375473        -999.25              1
      8073.0000        10.4082        -999.25        -999.25        -999.25         0.6362         0.6838        47.0431         2.4573         0.8088       -43.5352      0.9092484        -999.25              1
      8073.5000        10.4092        -999.25        -999.25        -999.25         0.6368         0.6829        47.0486         2.4586         0.8099       -43.4634      0.9810448        -999.25              1
      8074.0000        10.4102        -999.25        -999.25        -999.25         0.6387         0.6831        47.0515           2.46         0.8111       -43.3935       1.050945        -999.25              1
      8074.5000        10.4112        -999.25        -999.25        -999.25         0.6406         0.6833        47.0543         2.4604         0.8114       -43.3492       1.095245        -999.25              1
      8075.0000        10.4059        -999.25        -999.25        -999.25         0.6427         0.6835        47.0386         2.4607         0.8091        -43.305       1.139446        -999.25              1
      8075.5000         10.394        -999.25        -999.25        -999.25         0.6458         0.6843        46.9876         2.4605         0.8068       -43.3845       1.059948        -999.25              1
      8076.0000         10.382        -999.25        -999.25        -999.25          0.649         0.6866        46.9368         2.4603         0.8046       -43.5384      0.9060478        -999.25              1
      8076.5000        10.3701        -999.25        -999.25        -999.25         0.6522         0.6889        46.8848         2.4608         0.8039       -43.6173      0.8271484        -999.25              1
      8077.0000        10.3579        -999.25        -999.25        -999.25         0.6547         0.6912         46.829         2.4614         0.8037       -43.4644      0.9800453        -999.25              1
      8077.5000        10.3445        -999.25        -999.25        -999.25         0.6565         0.6956        46.7721         2.4621         0.8036       -43.4691      0.9753456        -999.25              1
      8078.0000        10.3312        -999.25        -999.25        -999.25         0.6584         0.7016        46.6602         2.4626         0.8034        -43.715      0.7294464        -999.25              1
      8078.5000        10.3179        -999.25        -999.25        -999.25         0.6603         0.7075        46.4279         2.4632         0.8033       -43.5871      0.8573456        -999.25              1
      8079.0000        10.3215        -999.25        -999.25        -999.25         0.6601         0.7143        46.3615         2.4612         0.8031       -43.2188       1.225647        -999.25              1
      8079.5000        10.3256        -999.25        -999.25        -999.25         0.6597         0.7213        46.4594         2.4591         0.8036       -43.3036       1.140846        -999.25              1
      8080.0000        10.3297        -999.25        -999.25        -999.25         0.6593         0.7246        46.4825         2.4588         0.8041       -43.4442       1.000248        -999.25              1
      8080.5000        10.3273        -999.25        -999.25        -999.25         0.6588         0.7256        46.5057         2.4585         0.8096       -43.8036      0.6408463        -999.25              1
      8081.0000        10.3223        -999.25        -999.25        -999.25         0.6593         0.7265        46.5226         2.4582         0.8174       -43.8254      0.6190453        -999.25              1
      8081.5000        10.3172        -999.25        -999.25        -999.25         0.6599         0.7278        46.5363         2.4581          0.829       -43.3425       1.101948        -999.25              1
      8082.0000        10.3121        -999.25        -999.25        -999.25         0.6604         0.7291        46.5994         2.4581         0.8399       -43.1238       1.320648        -999.25              1
      8082.5000        10.3073        -999.25        -999.25        -999.25         0.6606         0.7302         46.722          2.458          0.836       -43.0291       1.415348        -999.25              1
      8083.0000        10.3025        -999.25        -999.25        -999.25         0.6599         0.7309        46.8165         2.4584          0.832        -43.066       1.378445        -999.25              1
      8083.5000        10.2978        -999.25        -999.25        -999.25         0.6592         0.7317        46.8279         2.4589         0.8178       -43.4598      0.9846458        -999.25              1
      8084.0000         10.293        -999.25        -999.25        -999.25         0.6585         0.7324        46.8393         2.4587         0.8193        -43.803      0.6414452        -999.25              1
      8084.5000        10.3012        -999.25        -999.25        -999.25         0.6581         0.7328        46.8688         2.4578         0.8263       -44.0395      0.4049454        -999.25              1
