#------------------------------------------------------------------------------
# Created by    : vladimir.rabinovich
# Created on    : 09/19/2023 17:20:31
#------------------------------------------------------------------------------
~Version Information Section
VERS.           2.0     :   CWLS log ASCII Standard - VERSION 2.0
WRAP.           NO      :   One line per depth step
~Well Information Section
#MNEM       .UNIT                                         VALUE :DESCRIPTION
#------------------------------------------------------------------------------
STRT        .FT                                            2310 :START DEPTH
STOP        .FT                                           12118 :STOP DEPTH
STEP        .FT                                             0.5 :STEP      
NULL        .                                           -999.25 :NULL      
COMP        .                                   FOREST OIL CORP :COMPANY   
WELL        .                               OCS G01793 ST00BP00 :WELL      
FLD         .                                           WILDCAT :FIELD     
LOC         .                                                   :LOCATION  
CNTY        .                             GALVESTON LARGE BLOCK :LOCATION  
STAT        .                                             TEXAS :STATE     
CTRY        .                                     UNITED STATES :COUNTRY   
SRVC        .                                                   :SERVICE COMPANY
DATE        .                             9/13/2023 11:19:24 AM :LOG DATE  
API         .                                    42706001380000 :API NUMBER
UWI         .                                    42706001380000 :UNIQUE WELL ID
XCOORD      .                                  1024149.02927821 :SURFACE X 
YCOORD      .                                  10425384.3690734 :SURFACE Y 
LAT         .                                         28.714212 :LATITUDE  
LON         .                                        -94.923031 :LONGITUDE 
ELEV        .FT                                              60 :ELEVATION VALUE
ELEV_TYPE   .                                                KB :ELEVATION REFERENCE TYPE
~Curve Information Section
#MNEM       .UNIT                                      API CODE :CURVE DESCRIPTION
#------------------------------------------------------------------------------
DEPT        .FT                                                 :DEPTH     
ASN         .OHMM                                               :          
CALI        .IN                                                 :          
CILD        .MMHO                                               :          
DT          .US/F                                               :          
ILD         .OHMM                                               :          
RHOB        .G/C3                                               :          
SP          .MV                                                 :          
SP_NORM     .MV                                                 :SP Normalized
VSH_SP      .V/V                                                :Volume of Shale from SP
~A        DEPTH            ASN           CALI           CILD             DT            ILD           RHOB             SP        SP_NORM         VSH_SP
# ...
     10127.5000         0.8826         9.0485       1147.236        91.0601         0.8778         2.3872        -62.093      -12.26353      0.8113303
     10128.0000          0.883         8.9152           1131        91.3368         0.8838         2.3916       -60.9766      -10.70057      0.8353758
     10128.5000         0.9024         8.7825       1116.811        91.6528         0.8899         2.3959       -59.9673       -9.28755      0.8571146
     10129.0000         0.9242         8.7354       1104.664        91.9688          0.896         2.3998       -61.8962      -11.98801      0.8155691
     10129.5000         0.9453         8.7093       1092.518        91.5349         0.9021         2.4037       -65.6591      -17.25607      0.7345219
     10130.0000         0.9664         8.8617       1078.152        90.3881         0.9082         2.4076       -67.8719      -20.35399      0.6868616
     10130.5000         0.9852          9.108       1094.639        89.3945         0.9143         2.4071         -69.27      -22.31133      0.6567488
     10131.0000         1.0036         9.2432       1112.744        88.5432         0.9155         2.4045       -68.7616      -21.59957       0.667699
     10131.5000         0.9991         9.2998       1130.852        88.0084         0.9165          2.402       -67.4907      -19.82031      0.6950722
     10132.0000         0.9851         9.2142       1148.957        88.8785         0.9175         2.3994       -66.5449      -18.49619      0.7154433
     10132.5000          0.971         9.0592       1166.889        94.0032         0.9185         2.3868       -65.5992      -17.17221      0.7358122
     10133.0000         0.9566         8.9147       1184.795        93.1942         0.9172         2.3742       -64.6536      -15.84837      0.7561789
     10133.5000         0.9414         8.8458       1202.678        92.0436         0.9122          2.366       -63.3415      -14.01143      0.7844396
     10134.0000         0.9683         8.7767       1216.568        90.4131         0.9071         2.3644        -68.024      -20.56693      0.6835856
     10134.5000         1.0185         8.7078       1218.363        87.9872          0.902         2.3695       -70.2444      -23.67549      0.6357617
     10135.0000         1.0684         8.7333       1210.732        87.0721          0.897         2.3747       -75.8464      -31.51829      0.5151033
     10135.5000         1.1028         8.7888       1199.186        86.1572         0.8876         2.3795       -79.0686      -36.02937       0.445702
     10136.0000         1.1324         8.8553       1187.613        85.7501          0.877         2.3825       -80.3021      -37.75627      0.4191343
     10136.5000         1.1581         8.9219       1183.623        85.3818         0.8637         2.3855       -78.7147      -35.53391      0.4533245
     10137.0000         1.1783         8.9606       1220.783        85.3967         0.8484         2.3884       -77.4637      -33.78251      0.4802691
     10137.5000         1.1574         8.8405       1281.037        88.3187          0.834         2.3914       -76.2352      -32.06261      0.5067291
     10138.0000         1.0996         8.7094       1326.727        92.3851         0.8199         2.3937       -75.0814      -30.44729      0.5315802
     10138.5000         1.0386          8.628       1350.818        93.1182         0.8059         2.3954       -73.3395      -28.00863       0.569098
     10139.0000         1.0006         8.6179       1373.613        92.7136         0.7923         2.3971       -70.9995      -24.73262      0.6194981
     10139.5000         0.9755         8.6738       1398.453        92.0273         0.7788         2.3967       -71.5801      -25.54547      0.6069927
     10140.0000         1.0488         8.8318       1418.629        91.1847         0.7653          2.393       -74.8048      -30.06005      0.5375376
     10140.5000         1.1083         9.0916       1409.738        89.5753         0.7538         2.3893       -80.6859      -38.29359      0.4108679
     10141.0000         1.1578         9.2433       1400.398        87.5933         0.7431         2.3848        -87.823      -48.28553      0.2571458
     10141.5000         1.2512         9.3649       1384.912        86.6134         0.7425          2.379       -90.9506      -52.66417       0.189782
     10142.0000          1.304         9.4009       1369.424        85.7458         0.7509         2.3733       -87.9426      -48.45296      0.2545698
     10142.5000          1.349         9.3985       1353.936        85.3138         0.7603         2.3676       -84.6831      -43.88967      0.3247744
     10143.0000         1.3318         9.3799       1338.449         84.882         0.7764         2.3731       -82.0067      -40.14271      0.3824199
     10143.5000         1.2537         9.3612       1323.135        84.5276         0.7925         2.3833       -77.4164      -33.71629      0.4812879
     10144.0000         1.0939         9.3426       1312.213        85.1649         0.8086         2.3927       -66.0529      -17.80739      0.7260401
     10144.5000         0.8862         9.3085       1324.582        87.4711         0.8247         2.4011       -60.9741      -10.69707      0.8354297
     10145.0000         0.8715         9.2568       1331.217        96.4702         0.8415         2.4089       -59.8103      -9.067748      0.8604962
     10145.5000         0.9231          9.205         1297.1        96.1006          0.863         2.4005       -59.1051      -8.080468      0.8756851
     10146.0000         0.9707         9.0189       1216.295        94.8546         0.8845         2.3908       -58.4161      -7.115869      0.8905251
     10146.5000         1.0074         8.8637       1122.521        93.9658         0.9059         2.3843       -59.8178      -9.078248      0.8603346
     10147.0000         1.0441         8.7527       1069.449        93.1206         0.9274         2.3846       -62.0357      -12.18331      0.8125644
     10147.5000         1.0919         8.6725       1036.578         92.278         0.9489         2.3861       -64.4978      -15.63025      0.7595345
     10148.0000          1.153         8.6749       1004.557        90.0391         0.9705         2.3891       -67.1194      -19.30049      0.7030694
     10148.5000         1.2497         8.7681        986.001        88.2964         0.9925         2.3928       -69.1777       -22.1821      0.6587369
     10149.0000          1.394         8.8943       967.4463        86.5636         1.0145         2.3965        -71.894      -25.98493      0.6002319
     10149.5000         1.4457         9.0821       948.8906        85.0752         1.0365         2.4002       -75.1885      -30.59723      0.5292734
     10150.0000         1.4944         9.3429       934.0518        83.7438         1.0581         2.4122       -77.6906      -34.10017      0.4753821
     10150.5000         1.5416         9.5733       919.7363        82.3651         1.0697          2.423        -78.782      -35.62813      0.4518749
     10151.0000         1.5841         9.6958       905.3965        83.2477         1.0444         2.4299       -71.6947      -25.70591      0.6045244
     10151.5000         1.5722         9.7474       924.5996        84.5391         1.0225         2.4368       -68.2856      -20.93317      0.6779513
     10152.0000         1.5238         9.7548       974.4795        85.6959         1.0015         2.4307       -67.0321      -19.17826      0.7049498
     10152.5000         1.0608         9.7575       1045.408        91.5985         0.9806         2.4241       -65.7114      -17.32929      0.7333955
     10153.0000         1.0178         9.7408        1106.76        92.3839         0.9563         2.4175       -64.3383      -15.40695        0.76297
     10153.5000         0.9873          9.724       1150.354        93.1431         0.9296         2.4104       -62.9727      -13.49511       0.792383
