#------------------------------------------------------------------------------
# Created by    : vladimir.rabinovich
# Created on    : 09/19/2023 17:20:05
#------------------------------------------------------------------------------
~Version Information Section
VERS.           2.0     :   CWLS log ASCII Standard - VERSION 2.0
WRAP.           NO      :   One line per depth step
~Well Information Section
#MNEM       .UNIT                                         VALUE :DESCRIPTION
#------------------------------------------------------------------------------
STRT        .FT                                             712 :START DEPTH
STOP        .FT                                            9469 :STOP DEPTH
STEP        .FT                                             0.5 :STEP      
NULL        .                                           -999.25 :NULL      
COMP        .                                 MESA PETROLEUM CO :COMPANY   
WELL        .                                ST TR 00279-L SW/4 :WELL      
FLD         .                                           WILDCAT :FIELD     
LOC         .                                                   :LOCATION  
CNTY        .                             GALVESTON LARGE BLOCK :LOCATION  
STAT        .                                             TEXAS :STATE     
CTRY        .                                     UNITED STATES :COUNTRY   
SRVC        .                                                   :SERVICE COMPANY
DATE        .                             9/13/2023 11:18:53 AM :LOG DATE  
API         .                                    42706300950000 :API NUMBER
UWI         .                                    42706300950000 :UNIQUE WELL ID
XCOORD      .                                  947289.050530544 :SURFACE X 
YCOORD      .                                  10490529.0152507 :SURFACE Y 
LAT         .                                         28.889695 :LATITUDE  
LON         .                                        -95.166438 :LONGITUDE 
ELEV        .FT                                              84 :ELEVATION VALUE
ELEV_TYPE   .                                                KB :ELEVATION REFERENCE TYPE
~Curve Information Section
#MNEM       .UNIT                                      API CODE :CURVE DESCRIPTION
#------------------------------------------------------------------------------
DEPT        .FT                                                 :DEPTH     
ASFL        .OHMM                                               :          
CILD        .MMHO                                               :          
GR          .GAPI                                               :          
GR_NORM     .GAPI                                               :GammaRay Normalized
ILD         .OHMM                                               :          
SP          .MV                                                 :          
SP_NORM     .MV                                                 :SP Normalized
VSH_GR      .V/V                                                :Volume of Shale from GR
VSH_SP      .V/V                                                :Volume of Shale from SP
~A        DEPTH           ASFL           CILD             GR        GR_NORM            ILD             SP        SP_NORM         VSH_GR         VSH_SP
# ...
      2461.0000         0.7207       1651.746        55.7581       74.57664         0.6364       -45.2812       2.741829      0.8846095              1
      2461.5000         0.7056       1647.264        56.6739       75.68545         0.6353       -44.6949       3.325455       0.908201              1
      2462.0000         0.6899       1642.779        57.7343       76.96906         0.6341       -44.1082       3.909481      0.9355118              1
      2462.5000         0.6718       1638.297        58.8445       78.31287          0.633       -43.3471       4.667908      0.9641035              1
      2463.0000         0.6538       1643.691        59.9245       79.62016         0.6319       -43.3849       4.627434      0.9919184              1
      2463.5000         0.6384       1656.668        60.4806       80.29413         0.6308       -43.7258       4.283859              1              1
      2464.0000         0.6332       1669.643        61.0367       80.96808         0.6298       -44.0667       3.940285              1              1
      2464.5000         0.6281       1677.086        61.5927       81.64193         0.6287       -44.4075       3.596809              1              1
      2465.0000         0.6229       1682.697        62.1488       82.31589         0.6277       -44.7483       3.253342              1              1
      2465.5000         0.6273       1688.305        62.9512        83.2876         0.6266       -45.2644       2.734566              1              1
      2466.0000         0.6447       1693.916        64.2468       84.85555         0.6256       -46.0959       1.900391              1              1
      2466.5000         0.6725       1699.523        64.0273       84.59188         0.6246       -46.9274       1.066219              1              1
      2467.0000         0.7056       1705.135         63.675       84.16768         0.6235       -48.8478     -0.8568573              1      0.9809587
      2467.5000         0.7469       1710.744        63.3226       83.74335         0.6225       -48.5806     -0.5923309              1      0.9868371
      2468.0000         0.8103       1710.334        61.8776       81.99818         0.6214       -47.1621       0.823494              1              1
      2468.5000         0.8221        1709.35        60.2385       80.01838         0.6204       -45.8018       2.181122              1              1
      2469.0000         0.8339       1708.367        55.3286       74.08463         0.6193        -44.322       3.658249       0.874141              1
      2469.5000         0.8408        1711.25        49.4291       66.95442         0.6183       -44.8787       3.098873      0.7224345              1
      2470.0000         0.8261       1714.584        47.6885       64.85191         0.6173        -45.784       2.190899      0.6777003              1
      2470.5000         0.7233       1725.787        46.7005       63.65922         0.6138       -47.7081      0.2641258      0.6523238              1
      2471.0000          0.685       1745.516        45.7125       62.46651         0.6102        -49.849      -1.879448      0.6269471      0.9582345
      2471.5000         0.6722       1765.246        45.0577       61.67662         0.6065       -52.6541      -4.687218      0.6101409      0.8958396
      2472.0000         0.6594       1784.975        44.4061        60.8906         0.6029       -51.1394      -3.175194       0.593417      0.9294401
      2472.5000         0.6466       1806.549        43.7011       60.04002         0.5992       -48.2178     -0.2562675      0.5753195      0.9943052
      2473.0000         0.6343       1856.723        42.7241       58.86061         0.5956       -48.6573     -0.6984406      0.5502259      0.9844791
      2473.5000         0.6264       1906.898        41.7471       57.68121         0.5919       -51.5242      -3.568016      0.5251322      0.9207107
      2474.0000         0.6185       1956.553         40.581       56.27321         0.5883       -60.1591      -12.20559      0.4951747      0.7287647
      2474.5000         0.6105       2004.703        39.3776       54.82012         0.5846       -67.7264      -19.77557      0.4642578       0.560543
      2475.0000         0.6019       2045.396        38.6312       53.91949          0.581       -70.5549      -22.60674      0.4450955       0.497628
      2475.5000         0.6534       2063.605        38.1426       53.33051         0.5774       -72.2682      -24.32272       0.432564      0.4594952
      2476.0000         0.7357       2081.816        38.4836       53.74444          0.574       -74.4446      -26.50179       0.441371      0.4110714
      2476.5000         0.7742       2094.098        39.1916       54.60203         0.5749       -67.0046      -19.06446      0.4596176      0.5763453
      2477.0000         0.8139       2102.102        39.8996       55.45962         0.5758       -60.7228      -12.78534      0.4778643      0.7158814
      2477.5000         0.8782       2079.086        40.7225       56.45612         0.5767       -58.9201      -10.98531      0.4990664       0.755882
      2478.0000         0.9205       2056.063        41.6383       57.56492         0.5776       -55.8514      -7.919277      0.5226578       0.824016
      2478.5000         0.9401       2033.037        42.5541       58.67384         0.5786        -49.588      -1.658554       0.546252      0.9631432
      2479.0000         0.9203       2004.852        43.4698       59.78252         0.5795       -41.7074       6.219372      0.5698408              1
      2479.5000         0.8891       1968.986        44.4897       61.01717         0.5804       -40.4752       7.448898        0.59611              1
      2480.0000         0.8487       1933.107        45.5553       62.30706         0.5813       -39.3465       8.574924      0.6235545              1
      2480.5000         0.8079        1897.23        46.6288        63.6065         0.5822       -38.6998       9.218952      0.6512022              1
      2481.0000          0.763       1878.482        46.7834       63.79509         0.5831       -39.0058       8.910278      0.6552147              1
      2481.5000          0.719       1862.801         46.437       63.37802          0.584       -42.1308       5.782604      0.6463408              1
      2482.0000         0.6899       1860.814        45.8261        62.6412         0.5849        -46.963      0.9477272      0.6306639              1
      2482.5000         0.6608        1858.83        45.0526       61.70781         0.5858       -50.1505      -2.242447      0.6108044      0.9501678
      2483.0000         0.6412       1856.844        44.3117       60.81384         0.5886       -51.9415      -4.036121      0.5917837      0.9103084
      2483.5000         0.6237       1854.859        43.4229       59.74105         0.5942       -53.8429      -5.940193      0.5689585      0.8679957
      2484.0000         0.6429       1851.563        42.2394       58.31202         0.5997       -55.8631      -7.963066      0.5385536       0.823043
      2484.5000         0.6717       1847.096        41.4165       57.31891         0.6053        -57.808      -9.910637      0.5174236      0.7797636
      2485.0000         0.7291       1842.631          40.41       56.10384         0.6109       -64.2424      -16.34771      0.4915711      0.6367175
      2485.5000          0.825       1838.164         39.293        54.7552         0.6164       -63.2473      -15.35529      0.4628766      0.6587715
      2486.0000         0.8939       1833.697        42.3004       58.39253          0.622       -61.0414      -13.15206      0.5402666       0.707732
      2486.5000          0.935        1822.66        44.2587        60.7616         0.6276       -59.1639      -11.27723      0.5906724      0.7493948
      2487.0000         0.9369       1795.906        45.8494       62.68629         0.6332       -57.4219       -9.53791      0.6316232      0.7880464
