#------------------------------------------------------------------------------
# Created by    : vladimir.rabinovich
# Created on    : 09/19/2023 17:21:35
#------------------------------------------------------------------------------
~Version Information Section
VERS.           2.0     :   CWLS log ASCII Standard - VERSION 2.0
WRAP.           NO      :   One line per depth step
~Well Information Section
#MNEM       .UNIT                                         VALUE :DESCRIPTION
#------------------------------------------------------------------------------
STRT        .FT                                            3376 :START DEPTH
STOP        .FT                                            7813 :STOP DEPTH
STEP        .FT                                             0.5 :STEP      
NULL        .                                           -999.25 :NULL      
COMP        .                                MARINER ENERGY INC :COMPANY   
WELL        .                               OCS G27491 ST00BP00 :WELL      
FLD         .                                           WILDCAT :FIELD     
LOC         .                                                   :LOCATION  
CNTY        .                             GALVESTON LARGE BLOCK :LOCATION  
STAT        .                                             TEXAS :STATE     
CTRY        .                                     UNITED STATES :COUNTRY   
SRVC        .                                                   :SERVICE COMPANY
DATE        .                             9/13/2023 11:19:33 AM :LOG DATE  
API         .                                    42706404580000 :API NUMBER
UWI         .                                    42706404580000 :UNIQUE WELL ID
XCOORD      .                                  1038987.60828679 :SURFACE X 
YCOORD      .                                  10490484.8642062 :SURFACE Y 
LAT         .                                         28.893877 :LATITUDE  
LON         .                                         -94.87996 :LONGITUDE 
ELEV        .FT                                             110 :ELEVATION VALUE
ELEV_TYPE   .                                                KB :ELEVATION REFERENCE TYPE
~Curve Information Section
#MNEM       .UNIT                                      API CODE :CURVE DESCRIPTION
#------------------------------------------------------------------------------
DEPT        .FT                                                 :DEPTH     
CALI        .IN                                                 :          
DPSS        .%                                                  :          
DRHO        .G/CM3                                              :          
GR          .GAPI                                               :          
GR_NORM     .GAPI                                               :GammaRay Normalized
M2R1        .OHMM                                               :          
M2R2        .OHMM                                               :          
M2R3        .OHMM                                               :          
M2R6        .OHMM                                               :          
M2R9        .OHMM                                               :          
M2RX        .OHMM                                               :          
NPSS        .%                                                  :Neutron Porosity Sandstone
SP          .MV                                                 :          
SP_NORM     .MV                                                 :SP Normalized
TENS        .LB                                                 :          
VSH_GR      .V/V                                                :Volume of Shale from GR
VSH_SP      .V/V                                                :Volume of Shale from SP
~A        DEPTH           CALI           DPSS           DRHO             GR        GR_NORM           M2R1           M2R2           M2R3           M2R6           M2R9           M2RX           NPSS             SP        SP_NORM           TENS         VSH_GR         VSH_SP
# ...
      7786.0000        -999.25        -999.25        -999.25        -999.25        -999.25         1.1157         1.1157         1.1362         1.1362         1.1362         1.1362        -999.25       -43.9216      0.3897781              0        -999.25              1
      7786.5000        -999.25        -999.25        -999.25        -999.25        -999.25         1.1055         1.1157         1.1157         1.1362         1.1157         1.1259        -999.25       -43.1373        1.17408              0        -999.25              1
      7787.0000        -999.25        -999.25        -999.25        -999.25        -999.25         1.0659         1.0757         1.0855         1.1055         1.0955         1.0955        -999.25       -41.5686       2.742779              0        -999.25              1
      7787.5000        -999.25        -999.25        -999.25        -999.25        -999.25         1.0467         1.0659         1.0659         1.0855         1.1055         1.0757        -999.25            -40       4.311378              0        -999.25              1
      7788.0000        -999.25        -999.25        -999.25        -999.25        -999.25         1.0955         1.1055         1.1055         1.1362         1.1466         1.1362        -999.25          -38.4       5.911377              0        -999.25              1
      7788.5000        -999.25        -999.25        -999.25        -999.25        -999.25         1.1466         1.1466         1.1571         1.1892         1.2001         1.1892        -999.25          -36.4       7.911377              0        -999.25              1
      7789.0000        -999.25        -999.25        -999.25        -999.25        -999.25         1.1466         1.1571         1.1571         1.1784         1.1892         1.2001        -999.25          -36.4       7.911377              0        -999.25              1
      7789.5000        -999.25        -999.25        -999.25        -999.25        -999.25         1.1259         1.1259         1.1362         1.1466         1.1571         1.1571        -999.25          -36.4       7.911377              0        -999.25              1
      7790.0000        -999.25        -999.25        -999.25        -999.25        -999.25         1.0955         1.1055         1.1055         1.1157         1.1259         1.1157        -999.25          -36.4       7.911377              0        -999.25              1
      7790.5000        -999.25        -999.25        -999.25        -999.25        -999.25         1.0855         1.1055         1.1157         1.1259         1.1362         1.1157        -999.25          -36.4       7.911377              0        -999.25              1
      7791.0000        -999.25        -999.25        -999.25        -999.25        -999.25         1.0855         1.1157         1.1362         1.1466         1.1571         1.1362        -999.25            -36       8.311378              0        -999.25              1
      7791.5000        -999.25        -999.25        -999.25        -999.25        -999.25         1.0855         1.1362         1.1571         1.1677         1.1571         1.1571        -999.25            -36       8.311378              0        -999.25              1
      7792.0000        -999.25        -999.25        -999.25        -999.25        -999.25         1.0562         1.1362         1.1466         1.1466         1.1362         1.1466        -999.25            -36       8.311378              0        -999.25              1
      7792.5000        -999.25        -999.25        -999.25        -999.25        -999.25         1.0184         1.1259         1.1362         1.1259         1.1157         1.1362        -999.25            -36       8.311378              0        -999.25              1
      7793.0000        -999.25        -999.25        -999.25        -999.25        -999.25         1.0372         1.1259         1.1362         1.1362         1.1362         1.1466        -999.25          -36.4       7.911377              0        -999.25              1
      7793.5000        -999.25        -999.25        -999.25        -999.25        -999.25         1.0562         1.1362         1.1571         1.1677         1.1677         1.1677        -999.25            -36       8.311378              0        -999.25              1
      7794.0000        -999.25        -999.25        -999.25        -999.25        -999.25         1.0757         1.1571         1.1892         1.2001         1.2001         1.1892        -999.25          -35.6        8.71138              0        -999.25              1
      7794.5000        -999.25        -999.25        -999.25        -999.25        -999.25         1.0955         1.1677         1.2111         1.2111         1.2222         1.2001        -999.25          -35.2       9.111378              0        -999.25              1
      7795.0000        -999.25        -999.25        -999.25        -999.25        -999.25         1.1157         1.1677         1.2111         1.2111         1.2111         1.2001        -999.25          -34.8       9.511379              0        -999.25              1
      7795.5000        -999.25        -999.25        -999.25        -999.25        -999.25         1.1259         1.1677         1.2001         1.2111         1.2001         1.2001        -999.25            -34       10.31138              0        -999.25              1
      7796.0000        -999.25        -999.25        -999.25        -999.25        -999.25         1.1362         1.1571         1.1892         1.2111         1.1892         1.1892        -999.25          -33.6       10.71138              0        -999.25              1
      7796.5000        -999.25        -999.25        -999.25        -999.25        -999.25         1.2111         1.2222         1.2561         1.2676         1.2792         1.2561        -999.25          -33.6       10.71138              0        -999.25              1
      7797.0000        -999.25        -999.25        -999.25        -999.25        -999.25         1.3389         1.3028         1.3389         1.3512         1.3636         1.3389        -999.25          -34.8       9.511379              0        -999.25              1
      7797.5000        -999.25        -999.25        -999.25        -999.25        -999.25         1.3887         1.4014         1.4402         1.4534         1.4402         1.4272        -999.25          -36.4       7.911377              0        -999.25              1
      7798.0000        -999.25        -999.25        -999.25        -999.25        -999.25         1.3512         1.3636         1.4014         1.4014         1.4272         1.4014        -999.25          -37.2       7.111378              0        -999.25              1
      7798.5000        -999.25        -999.25        -999.25        -999.25        -999.25         1.2792         1.3147         1.3512         1.3512         1.3512         1.3389        -999.25          -37.6        6.71138              0        -999.25              1
      7799.0000        -999.25        -999.25        -999.25        -999.25        -999.25         1.2334         1.3028         1.3147         1.3147         1.3028         1.3028        -999.25            -38       6.311378        40.8163        -999.25              1
      7799.5000        -999.25        -999.25        -999.25        -999.25        -999.25         1.2111         1.3028         1.3028         1.3147         1.3267         1.3028        -999.25        -999.25        -999.25        81.6327        -999.25        -999.25
      7800.0000        -999.25        -999.25        -999.25        -999.25        -999.25         1.1892         1.2792         1.2792         1.2909         1.2792         1.2676        -999.25        -999.25        -999.25        61.2245        -999.25        -999.25
      7800.5000        -999.25        -999.25        -999.25        -999.25        -999.25         1.1784         1.2222         1.2561         1.2447         1.2222         1.2447        -999.25        -999.25        -999.25         0.6122        -999.25        -999.25
