#------------------------------------------------------------------------------
# Created by    : vladimir.rabinovich
# Created on    : 09/19/2023 17:20:30
#------------------------------------------------------------------------------
~Version Information Section
VERS.           2.0     :   CWLS log ASCII Standard - VERSION 2.0
WRAP.           NO      :   One line per depth step
~Well Information Section
#MNEM       .UNIT                                         VALUE :DESCRIPTION
#------------------------------------------------------------------------------
STRT        .FT                                             609 :START DEPTH
STOP        .FT                                           12866 :STOP DEPTH
STEP        .FT                                             0.5 :STEP      
NULL        .                                           -999.25 :NULL      
COMP        .                                        SUN OIL CO :COMPANY   
WELL        .                               OCS G01769 ST00BP00 :WELL      
FLD         .                                           WILDCAT :FIELD     
LOC         .                                                   :LOCATION  
CNTY        .                             GALVESTON LARGE BLOCK :LOCATION  
STAT        .                                             TEXAS :STATE     
CTRY        .                                     UNITED STATES :COUNTRY   
SRVC        .                                                   :SERVICE COMPANY
DATE        .                             9/13/2023 11:19:24 AM :LOG DATE  
API         .                                    42706001410000 :API NUMBER
UWI         .                                    42706001410000 :UNIQUE WELL ID
XCOORD      .                                  1110717.91749569 :SURFACE X 
YCOORD      .                                  10538856.4752018 :SURFACE Y 
LAT         .                                         29.029845 :LATITUDE  
LON         .                                        -94.657945 :LONGITUDE 
ELEV        .FT                                              65 :ELEVATION VALUE
ELEV_TYPE   .                                                KB :ELEVATION REFERENCE TYPE
~Curve Information Section
#MNEM       .UNIT                                      API CODE :CURVE DESCRIPTION
#------------------------------------------------------------------------------
DEPT        .FT                                                 :DEPTH     
ASN         .OHMM                                               :          
CALI        .IN                                                 :          
CILD        .MMHO                                               :          
DT          .US/F                                               :          
ILD         .OHMM                                               :          
SP          .MV                                                 :          
SP_NORM     .MV                                                 :SP Normalized
VSH_SP      .V/V                                                :Volume of Shale from SP
~A        DEPTH            ASN           CALI           CILD             DT            ILD             SP        SP_NORM         VSH_SP
# ...
     12851.5000         0.4593         8.1832       3013.746        90.3762         0.3725       -68.1521       -28.1521      0.3829068
     12852.0000         0.4788         8.1798       2974.008        89.9562         0.3708       -67.8195       -27.8195      0.3904658
     12852.5000         0.4997         8.2007       2934.172        89.6831         0.3692       -68.0845       -28.0845      0.3844431
     12853.0000         0.5193         8.2549       2894.438        89.7899         0.3676       -68.4454       -28.4454       0.376241
     12853.5000         0.5383         8.3554       2863.039        89.5062         0.3663       -68.8549       -28.8549      0.3669342
     12854.0000          0.565         8.3984       2891.836        89.4429         0.3655       -69.2656       -29.2656      0.3575999
     12854.5000          0.594         8.2923       2920.582          89.72         0.3648       -69.6752       -29.6752      0.3482909
     12855.0000         0.6551         8.2102       2949.332        89.1409         0.3641       -70.1178       -30.1178      0.3382319
     12855.5000         0.6361         8.1816       2978.129        88.3232         0.3633       -70.7068       -30.7068      0.3248454
     12856.0000         0.5834         8.1969       3006.875        88.0466         0.3626       -71.2971       -31.2971      0.3114296
     12856.5000         0.5605         8.2192       3035.672        88.0394         0.3619       -71.5033       -31.5033      0.3067431
     12857.0000         0.5678         8.2419       3064.422        88.0319         0.3611       -71.5021       -31.5021      0.3067705
     12857.5000         0.5836        -999.25       3052.551        -999.25         0.3606       -71.5009       -31.5009      0.3067977
     12858.0000         0.5994        -999.25       3035.648        -999.25         0.3604       -71.3893       -31.3893      0.3093342
     12858.5000         0.6151        -999.25       3015.609        -999.25         0.3601       -71.1514       -31.1514       0.314741
     12859.0000         0.6172        -999.25       2989.461        -999.25         0.3599       -70.9128       -30.9128      0.3201635
     12859.5000         0.5828        -999.25       2966.012        -999.25         0.3597       -70.6749       -30.6749      0.3255706
     12860.0000          0.551        -999.25       2988.039        -999.25         0.3594       -70.4363       -30.4363      0.3309931
     12860.5000         0.5224        -999.25       3041.707        -999.25         0.3592       -70.1984       -30.1984      0.3363999
     12861.0000         0.4935        -999.25       3076.883        -999.25         0.3589       -69.9598       -29.9598      0.3418227
     12861.5000         0.4479        -999.25       3103.324        -999.25         0.3587       -69.7218       -29.7218      0.3472318
     12862.0000         0.4227        -999.25        3134.23        -999.25         0.3585       -69.3246       -29.3246      0.3562591
     12862.5000         0.4151        -999.25       3169.848        -999.25         0.3582       -68.8931       -28.8931       0.366066
     12863.0000         0.4075        -999.25       3171.059        -999.25          0.358       -68.4626       -28.4626        0.37585
     12863.5000         0.4018        -999.25       3172.266        -999.25         0.3578        -68.031        -28.031      0.3856591
     12864.0000         0.3988        -999.25       3173.473        -999.25         0.3568       -67.5587       -27.5587      0.3963932
     12864.5000         0.3958        -999.25       3173.879        -999.25         0.3555       -67.0865       -27.0865       0.407125
     12865.0000         0.3927        -999.25       3172.773        -999.25         0.3542       -66.6714       -26.6714       0.416559
     12865.5000         0.3921        -999.25       3171.668        -999.25         0.3528       -66.5913       -26.5913      0.4183795
     12866.0000         0.3924        -999.25       3170.563        -999.25         0.3515       -66.5114       -26.5114      0.4201955
