#------------------------------------------------------------------------------
# Created by    : vladimir.rabinovich
# Created on    : 09/19/2023 17:22:32
#------------------------------------------------------------------------------
~Version Information Section
VERS.           2.0     :   CWLS log ASCII Standard - VERSION 2.0
WRAP.           NO      :   One line per depth step
~Well Information Section
#MNEM       .UNIT                                         VALUE :DESCRIPTION
#------------------------------------------------------------------------------
STRT        .FT                                          2841.5 :START DEPTH
STOP        .FT                                          6769.5 :STOP DEPTH
STEP        .FT                                             0.5 :STEP      
NULL        .                                           -999.25 :NULL      
COMP        .                      SPINNAKER EXPLORATION CO LLC :COMPANY   
WELL        .                               OCS G18941 ST00BP00 :WELL      
FLD         .                            HIGH ISLAND BLOCK 0235 :FIELD     
LOC         .                                                   :LOCATION  
CNTY        .                           HIGH ISLAND LARGE BLOCK :LOCATION  
STAT        .                                             TEXAS :STATE     
CTRY        .                                     UNITED STATES :COUNTRY   
SRVC        .                                                   :SERVICE COMPANY
DATE        .                             9/13/2023 11:20:02 AM :LOG DATE  
API         .                                    42708405540000 :API NUMBER
UWI         .                                    42708405540000 :UNIQUE WELL ID
XCOORD      .                                  1178439.61066162 :SURFACE X 
YCOORD      .                                  10526520.2311607 :SURFACE Y 
LAT         .                                         28.998365 :LATITUDE  
LON         .                                        -94.445565 :LONGITUDE 
ELEV        .FT                                              98 :ELEVATION VALUE
ELEV_TYPE   .                                                KB :ELEVATION REFERENCE TYPE
~Curve Information Section
#MNEM       .UNIT                                      API CODE :CURVE DESCRIPTION
#------------------------------------------------------------------------------
DEPT        .FT                                                 :DEPTH     
CNCF        .%                                                  :          
DCAL        .IN                                                 :          
DT24        .US/F                                               :          
GR          .GAPI                                               :          
GR_NORM     .GAPI                                               :GammaRay Normalized
M2R1        .OHMM                                               :          
M2R2        .OHMM                                               :          
M2R3        .OHMM                                               :          
M2R6        .OHMM                                               :          
M2R9        .OHMM                                               :          
M2RX        .OHMM                                               :          
PORZ        .%                                                  :          
RWAZ        .OHMM                                               :          
SPCH        .MV                                                 :          
TEN         .LB/F                                               :          
VSH_GR      .V/V                                                :Volume of Shale from GR
ZCOR        .G/CC                                               :          
~A        DEPTH           CNCF           DCAL           DT24             GR        GR_NORM           M2R1           M2R2           M2R3           M2R6           M2R9           M2RX           PORZ           RWAZ           SPCH            TEN         VSH_GR           ZCOR
# ...
      2901.5000         63.157          0.082        -999.25         75.736       88.39672        -999.25        -999.25        -999.25        -999.25        -999.25        -999.25         63.362        -999.25        -99.896        -999.25              1         -0.717
      2902.0000         62.689          0.082        -999.25         70.844       83.52698        -999.25        -999.25        -999.25        -999.25        -999.25        -999.25         68.682        -999.25        -99.938        -999.25              1         -0.663
      2902.5000         63.782          0.083        -999.25         67.798       80.50323        -999.25        -999.25        -999.25        -999.25        -999.25        -999.25          70.39        -999.25       -100.043        -999.25              1          -0.65
      2903.0000         63.441          0.084        -999.25         66.101       78.82849        -999.25        -999.25        -999.25        -999.25        -999.25        -999.25         67.038        -999.25       -100.057        -999.25      0.9750743         -0.678
      2903.5000         61.491          0.083        -999.25         64.234       76.98375        -999.25        -999.25        -999.25        -999.25        -999.25        -999.25         60.809        -999.25        -99.961        -999.25      0.9358245         -0.699
      2904.0000         59.354          0.085        -999.25         62.191       74.96301        -999.25        -999.25        -999.25        -999.25        -999.25        -999.25         54.667        -999.25       -100.051        -999.25      0.8928301         -0.701
      2904.5000         57.252          0.088        -999.25         60.285       73.07927        -999.25        -999.25        -999.25        -999.25        -999.25        -999.25          50.38        -999.25       -100.451        -999.25      0.8527504         -0.699
      2905.0000         56.216          0.088        -999.25         59.076       71.89252        -999.25        -999.25        -999.25        -999.25        -999.25        -999.25          48.72        -999.25       -100.791        -999.25      0.8275003         -0.699
      2905.5000         56.626          0.086        -999.25         59.466       72.30478        -999.25        -999.25        -999.25        -999.25        -999.25        -999.25         48.212        -999.25       -100.968        -999.25      0.8362719         -0.695
      2906.0000         57.771          0.085         86.234         61.557       74.41804        -999.25        -999.25        -999.25        -999.25        -999.25        -999.25         46.645        -999.25       -101.398        -999.25      0.8812348         -0.686
      2906.5000         60.534          0.083         85.725         63.731       76.61429        -999.25        -999.25        -999.25        -999.25        -999.25        -999.25         43.434        -999.25       -101.877        -999.25      0.9279636         -0.674
      2907.0000         63.401          0.081         84.514         64.657       77.56255        -999.25        -999.25        -999.25        -999.25        -999.25        -999.25          40.76        -999.25       -101.904        -999.25      0.9481393         -0.711
      2907.5000          64.04          0.083         87.991         63.761       76.68881        -999.25        -999.25        -999.25        -999.25        -999.25        -999.25         43.562        -999.25       -101.918        -999.25      0.9295492         -0.868
      2908.0000          63.48          0.094         98.843         60.834       73.78407        -999.25        -999.25        -999.25        -999.25        -999.25        -999.25         51.027        -999.25       -102.613        -999.25      0.8677461         -1.118
      2908.5000         63.188          0.109        109.415         58.055       71.02732        -999.25        -999.25        -999.25        -999.25        -999.25        -999.25          56.05        -999.25       -103.779        -999.25      0.8090919         -1.283
      2909.0000         62.037          0.119         117.04         57.893       70.88757        -999.25        -999.25        -999.25        -999.25        -999.25        -999.25         58.304        -999.25       -104.861        -999.25      0.8061186         -1.318
      2909.5000         60.249          0.116        118.595         60.072       73.08884        -999.25        -999.25        -999.25        -999.25        -999.25        -999.25         62.351        -999.25       -105.349        -999.25       0.852954         -1.333
      2910.0000         59.938          0.102        112.366         62.431       75.47009        -999.25        -999.25        -999.25        -999.25        -999.25        -999.25         61.039        -999.25       -104.883        -999.25       0.903619         -1.187
      2910.5000         61.729           0.09        110.855         64.813       77.87435        -999.25        -999.25        -999.25        -999.25        -999.25        -999.25         54.178        -999.25       -103.978        -999.25      0.9547734         -0.935
      2911.0000         62.846          0.088        115.543         66.664       79.74761        -999.25        -999.25        -999.25        -999.25        -999.25        -999.25         49.848        -999.25       -103.356        -999.25        0.99463          -0.77
      2911.5000         60.238           0.09        116.387           67.3       80.40587        -999.25        -999.25        -999.25        -999.25        -999.25        -999.25           50.1        -999.25       -103.176        -999.25              1         -0.725
      2912.0000         57.675          0.091        120.387         67.792       80.92012        -999.25        -999.25        -999.25        -999.25        -999.25        -999.25         50.782        -999.25       -103.137        -999.25              1         -0.722
      2912.5000         58.634          0.091        127.256          68.12       81.27039        -999.25        -999.25        -999.25        -999.25        -999.25        -999.25         50.655        -999.25        -103.21        -999.25              1         -0.716
      2913.0000         61.951          0.089        131.608         67.098       80.27064        -999.25        -999.25        -999.25        -999.25        -999.25        -999.25          50.59        -999.25       -103.535        -999.25              1          -0.71
      2913.5000         64.215          0.089        139.222         65.487       78.68189        -999.25        -999.25        -999.25        -999.25        -999.25        -999.25         50.966        -999.25       -103.968        -999.25      0.9719552         -0.708
      2914.0000         64.826          0.091        144.442         65.207       78.42415        -999.25        -999.25        -999.25        -999.25        -999.25        -999.25         50.956        -999.25       -104.152        -999.25      0.9664713         -0.713
      2914.5000         66.567          0.093        143.686         65.853       79.09241        -999.25        -999.25        -999.25        -999.25        -999.25        -999.25         50.151        -999.25       -103.965        -999.25      0.9806895         -0.718
      2915.0000         68.498          0.092         141.04         66.224       79.48566        -999.25        -999.25        -999.25        -999.25        -999.25        -999.25         49.577        -999.25       -103.548        -999.25      0.9890567         -0.719
      2915.5000         65.967          0.091        137.054         66.494       79.77792        -999.25        -999.25        -999.25        -999.25        -999.25        -999.25         49.719        -999.25       -103.224        -999.25       0.995275         -0.719
      2916.0000         62.695          0.089        133.559         66.828       80.13419        -999.25        -999.25        -999.25        -999.25        -999.25        -999.25         49.873        -999.25       -103.322        -999.25              1         -0.721
