#------------------------------------------------------------------------------
# Created by    : vladimir.rabinovich
# Created on    : 09/19/2023 17:22:50
#------------------------------------------------------------------------------
~Version Information Section
VERS.           2.0     :   CWLS log ASCII Standard - VERSION 2.0
WRAP.           NO      :   One line per depth step
~Well Information Section
#MNEM       .UNIT                                         VALUE :DESCRIPTION
#------------------------------------------------------------------------------
STRT        .FT                                            1142 :START DEPTH
STOP        .FT                                           15630 :STOP DEPTH
STEP        .FT                                             0.5 :STEP      
NULL        .                                           -999.25 :NULL      
COMP        .                                     PRIMARY FUELS :COMPANY   
WELL        .                                ST TR 00520-L SE/4 :WELL      
FLD         .                                          EL GORDO :FIELD     
LOC         .                                                   :LOCATION  
CNTY        .                      MATAGORDA ISLAND LARGE BLOCK :LOCATION  
STAT        .                                             TEXAS :STATE     
CTRY        .                                     UNITED STATES :COUNTRY   
SRVC        .                                                   :SERVICE COMPANY
DATE        .                             9/13/2023 11:19:05 AM :LOG DATE  
API         .                                    42703303520000 :API NUMBER
UWI         .                                    42703303520000 :UNIQUE WELL ID
XCOORD      .                                  629148.716839967 :SURFACE X 
YCOORD      .                                   10306131.761235 :SURFACE Y 
LAT         .                                        28.3634759 :LATITUDE  
LON         .                                       -96.1446235 :LONGITUDE 
ELEV        .FT                                             101 :ELEVATION VALUE
ELEV_TYPE   .                                                KB :ELEVATION REFERENCE TYPE
~Curve Information Section
#MNEM       .UNIT                                      API CODE :CURVE DESCRIPTION
#------------------------------------------------------------------------------
DEPT        .FT                                                 :DEPTH     
DT          .US/F                                               :          
ILD         .OHMM                                               :          
SP          .MV                                                 :          
SP_NORM     .MV                                                 :SP Normalized
VSH_SP      .V/V                                                :Volume of Shale from SP
~A        DEPTH             DT            ILD             SP        SP_NORM         VSH_SP
# ...
     15574.0000       121.5839         0.4006        91.7593      -2.851479       0.968619
     15574.5000       120.8344         0.4166        91.4187      -3.192078      0.9628462
     15575.0000       121.9222         0.4297        91.0383      -3.572479      0.9563987
     15575.5000       122.3777         0.4416        90.7798      -3.830978      0.9520173
     15576.0000       122.1077         0.4479        90.7653      -3.845482      0.9517715
     15576.5000        121.738         0.4542        90.7509      -3.859879      0.9515275
     15577.0000       121.7549         0.4569        90.5686      -4.042175      0.9484377
     15577.5000        122.411         0.4495        90.3846      -4.226181      0.9453189
     15578.0000       123.8699         0.4422         90.202      -4.408775      0.9422241
     15578.5000       125.3688         0.4351        90.6681       -3.94268      0.9501241
     15579.0000       126.9027         0.4279        91.3348      -3.275978      0.9614241
     15579.5000       127.9279         0.4206        91.8778      -2.732979      0.9706275
     15580.0000       128.1284         0.4134          92.25      -2.360779      0.9769359
     15580.5000       126.7021         0.4063        92.2526      -2.358177        0.97698
     15581.0000        125.113         0.4058         92.193      -2.417778      0.9759699
     15581.5000       124.0741         0.4056        91.7965      -2.814278      0.9692495
     15582.0000       123.9551         0.4056        91.4207      -3.190079        0.96288
     15582.5000       124.6544         0.4066        91.4457      -3.165077      0.9633038
     15583.0000       125.2792         0.4076        91.5175      -3.093277      0.9645208
     15583.5000       125.5868         0.4086        91.7283      -2.882477      0.9680936
     15584.0000       125.8926         0.4094        91.9385      -2.672279      0.9716563
     15584.5000        125.321         0.4086        92.0648      -2.545982      0.9737969
     15585.0000       124.6744         0.4079        92.1633      -2.447479      0.9754664
     15585.5000       124.0001         0.4071         92.246      -2.364777      0.9768682
     15586.0000       123.8881         0.4063        92.2791       -2.33168      0.9774292
     15586.5000       123.9028         0.4056        92.3121      -2.298676      0.9779885
     15587.0000       124.1185         0.4044        92.2144      -2.396378      0.9763326
     15587.5000       124.4338         0.4031        92.0336      -2.577179      0.9732682
     15588.0000       124.7484         0.4018        91.6764       -2.93438      0.9672139
     15588.5000        125.031         0.4005        91.2924      -3.318382      0.9607054
     15589.0000       125.2822         0.3992        90.9777       -3.63308      0.9553716
     15589.5000       125.5336         0.3988        90.8429      -3.767876      0.9530869
     15590.0000       125.5792         0.4001        90.9608      -3.649979      0.9550851
     15590.5000       125.4496         0.4014        91.3036      -3.307182      0.9608952
     15591.0000       125.3856         0.4027        91.6464      -2.964378      0.9667054
     15591.5000       125.4696          0.404        91.8909      -2.719879      0.9708495
     15592.0000        125.415         0.4058        92.0948      -2.515976      0.9743055
     15592.5000       125.2102         0.4083        92.2841      -2.326675       0.977514
     15593.0000       124.7484         0.4107        92.3641      -2.246681      0.9788698
     15593.5000       124.1693         0.4132         92.444      -2.166779      0.9802241
     15594.0000       123.5903         0.4147        92.3757      -2.235077      0.9790665
     15594.5000       123.3331         0.4157        92.1768      -2.433975      0.9756953
     15595.0000       123.2748         0.4168        91.9785      -2.632278      0.9723343
     15595.5000       123.2166         0.4178        91.7795      -2.831276      0.9689614
     15596.0000       123.6869         0.4188         91.256      -3.354782      0.9600884
     15596.5000       124.4163         0.4163        90.5854      -4.025375      0.9487224
     15597.0000       125.1456         0.4131        89.9125       -4.69828      0.9373173
     15597.5000       125.7698         0.4098        89.6448      -4.965981        0.93278
     15598.0000       126.1896         0.4066        90.0082      -4.602577      0.9389394
     15598.5000       126.6095         0.4034        89.8699      -4.740875      0.9365953
     15599.0000       127.0029         0.4007        89.6722      -4.938576      0.9332445
     15599.5000       127.1935         0.3981        88.9617      -5.649078      0.9212021
     15600.0000       127.3833         0.3954         88.502       -6.10878      0.9134105
     15600.5000        -999.25         0.3928        88.6577      -5.953079      0.9160495
     15601.0000        -999.25         0.3912        89.0167      -5.594078      0.9221343
     15601.5000        -999.25          0.391        89.3539      -5.256882      0.9278495
     15602.0000        -999.25         0.3908        89.5778      -5.032982      0.9316444
     15602.5000        -999.25         0.3906        89.8018      -4.808975      0.9354411
     15603.0000        -999.25         0.3904        89.5509      -5.059875      0.9311885
     15603.5000        -999.25         0.3909        89.2284      -5.382378      0.9257224
     15604.0000        -999.25          0.392        89.1086      -5.502182      0.9236918
     15604.5000        -999.25         0.3932         89.412      -5.198776      0.9288343
     15605.0000        -999.25         0.3943        89.8036      -4.807182      0.9354715
     15605.5000        -999.25         0.3948         90.179      -4.431778      0.9418343
     15606.0000        -999.25         0.3936        90.2725       -4.33828       0.943419
     15606.5000        -999.25         0.3925        90.2483       -4.36248      0.9430088
     15607.0000        -999.25         0.3914        89.9443      -4.666481      0.9378563
     15607.5000        -999.25         0.3898        89.5922      -5.018578      0.9318885
     15608.0000        -999.25         0.3857        89.1869      -5.423882       0.925019
     15608.5000        -999.25         0.3817        88.7803      -5.830482      0.9181274
     15609.0000        -999.25         0.3777        88.7935      -5.817276      0.9183512
     15609.5000        -999.25         0.3744        88.9453      -5.665482      0.9209241
     15610.0000        -999.25         0.3717         88.912      -5.698776      0.9203597
     15610.5000        -999.25          0.372        88.8787      -5.732079      0.9197953
     15611.0000        -999.25         0.3786        88.5614      -6.049377      0.9144173
     15611.5000        -999.25         0.3854        88.2986       -6.31218      0.9099631
     15612.0000        -999.25         0.3943        88.8628      -5.747978      0.9195258
     15612.5000        -999.25          0.404        89.1885      -5.422279      0.9250461
     15613.0000        -999.25         0.4141        89.0355      -5.575279      0.9224529
     15613.5000        -999.25         0.4174        88.4137      -6.197083      0.9119139
     15614.0000        -999.25         0.4203        87.8665      -6.744278      0.9026393
     15614.5000        -999.25         0.4193         87.588      -7.022781      0.8979189
     15615.0000        -999.25         0.4064        87.4943      -7.116478      0.8963309
     15615.5000        -999.25          0.394         87.583      -7.027779      0.8978342
     15616.0000        -999.25         0.3831        87.6569       -6.95388      0.8990868
     15616.5000        -999.25         0.3726        87.6703      -6.940475       0.899314
     15617.0000        -999.25         0.3623        87.6837      -6.927078       0.899541
     15617.5000        -999.25         0.3626        87.6971      -6.913681      0.8997681
