#------------------------------------------------------------------------------
# Created by    : vladimir.rabinovich
# Created on    : 09/19/2023 17:21:03
#------------------------------------------------------------------------------
~Version Information Section
VERS.           2.0     :   CWLS log ASCII Standard - VERSION 2.0
WRAP.           NO      :   One line per depth step
~Well Information Section
#MNEM       .UNIT                                         VALUE :DESCRIPTION
#------------------------------------------------------------------------------
STRT        .FT                                          2542.5 :START DEPTH
STOP        .FT                                            8214 :STOP DEPTH
STEP        .FT                                             0.5 :STEP      
NULL        .                                           -999.25 :NULL      
COMP        .                          SEAGULL ENERGY E & P INC :COMPANY   
WELL        .                               OCS G12505 ST00BP00 :WELL      
FLD         .                              GALVESTON BLOCK 0357 :FIELD     
LOC         .                                                   :LOCATION  
CNTY        .                             GALVESTON LARGE BLOCK :LOCATION  
STAT        .                                             TEXAS :STATE     
CTRY        .                                     UNITED STATES :COUNTRY   
SRVC        .                                                   :SERVICE COMPANY
DATE        .                             9/13/2023 11:19:54 AM :LOG DATE  
API         .                                    42706403610000 :API NUMBER
UWI         .                                    42706403610000 :UNIQUE WELL ID
XCOORD      .                                  1003713.76055251 :SURFACE X 
YCOORD      .                                  10412171.7759297 :SURFACE Y 
LAT         .                                          28.67696 :LATITUDE  
LON         .                                        -94.986081 :LONGITUDE 
ELEV        .FT                                              96 :ELEVATION VALUE
ELEV_TYPE   .                                                KB :ELEVATION REFERENCE TYPE
~Curve Information Section
#MNEM       .UNIT                                      API CODE :CURVE DESCRIPTION
#------------------------------------------------------------------------------
DEPT        .FT                                                 :DEPTH     
AT10        .OHMM                                               :          
AT20        .OHMM                                               :          
AT30        .OHMM                                               :          
AT60        .OHMM                                               :          
AT90        .OHMM                                               :          
DCAL        .IN                                                 :          
DPSS        .V/V                                                :          
DTLF        .US/FT                                              :          
DTLN        .US/FT                                              :          
GR          .GAPI                                               :          
GR_NORM     .GAPI                                               :GammaRay Normalized
NPSS        .V/V                                                :Neutron Porosity Sandstone
SP          .MV                                                 :          
SP_NORM     .MV                                                 :SP Normalized
TENS        .LB                                                 :          
VSH_GR      .V/V                                                :Volume of Shale from GR
VSH_SP      .V/V                                                :Volume of Shale from SP
~A        DEPTH           AT10           AT20           AT30           AT60           AT90           DCAL           DPSS           DTLF           DTLN             GR        GR_NORM           NPSS             SP        SP_NORM           TENS         VSH_GR         VSH_SP
# ...
      7087.5000         0.9352         0.9898         0.8547         0.8217         0.8058            2.8         0.6012         93.054         99.454         80.146        69.8895         0.3388       -10.0529      -10.66849       3367.347      0.7848829      0.8475929
      7088.0000         0.9205         0.9822         0.8467         0.8141         0.7983           2.84         0.6012         94.844       110.4531         81.556       71.58148         0.3435       -10.0431      -10.65736       3367.347      0.8208826      0.8477521
      7088.5000         0.8988          0.959         0.8471         0.8145         0.7987           2.88            0.6         98.234       122.3863         84.166       74.71349         0.3624       -10.0333      -10.64622       3367.347       0.887521      0.8479112
      7089.0000         0.8729         0.9363         0.8475         0.8149         0.7991           2.92            0.6        102.824       124.9255         85.576       76.40549         0.3732        -10.224      -10.83558       3367.347       0.923521      0.8452061
      7089.5000         0.8563         0.9068         0.8397         0.8153         0.7995           2.92            0.6        105.014       122.3667         85.186       75.93748          0.378        -10.414      -11.02423       3367.347      0.9135635      0.8425109
      7090.0000         0.8484         0.8999         0.8157         0.8077         0.7928           2.96            0.6         98.604       128.8275         84.996       75.70949         0.3792        -10.804       -11.4129       3367.347      0.9087125      0.8369586
      7090.5000         0.8485            0.9            0.8         0.7929         0.7789           3.08            0.6           90.6       129.0255             85       75.71429         0.3804            -10      -10.60756       3368.812      0.9088148      0.8484635
      7091.0000         0.8485            0.9            0.8         0.7929         0.7789           3.16            0.6           95.4       123.9373             85       75.71429         0.3828        -9.4118      -10.01802       3371.258      0.9088148      0.8568855
      7091.5000         0.8485         0.8912            0.8         0.7929         0.7789           3.24            0.6       105.0131       120.6137           84.4       74.99429         0.3816        -8.4314      -9.036277       3373.708      0.8934956      0.8709103
      7092.0000         0.8485         0.8825         0.7929         0.7859          0.772            3.2            0.6       112.0776       119.6286           83.4       73.79429          0.378         -7.451      -8.054537       3376.164      0.8679636      0.8849352
      7092.5000         0.8485         0.8653         0.7789          0.772         0.7584           3.16            0.6       119.2306       122.0059           81.8       71.87429         0.3744        -6.6667      -7.268897       3378.625      0.8271126      0.8961586
      7093.0000         0.8402         0.8653         0.7517          0.745         0.7319           3.08         0.3035       122.4078       124.9569           79.8       69.47429         0.3696        -6.0784      -6.679257       3381.091      0.7760487       0.904582
      7093.5000         0.8079         0.8485          0.745         0.7189         0.7063           2.96         0.0099       121.2412       122.6137           80.2       69.95428         0.3684        -5.8824      -6.481917       3383.562      0.7862614      0.9074012
      7094.0000         0.8079          0.832         0.7384         0.7126            0.7           2.84        -0.0012       115.5878       114.5673           81.8       71.87429         0.3636        -5.6863      -6.284477       3386.038      0.8271126      0.9102218
      7094.5000         0.8159         0.8079         0.7384         0.7189         0.7063            2.8        -0.0012       105.6488       105.0436           82.2       72.35429         0.3636        -5.2941      -5.890937       3388.519      0.8373252      0.9158437
      7095.0000         0.8402         0.8079         0.7384         0.7189         0.7063            2.8        -0.0012             97       101.0098           80.8       70.67429         0.3541        -5.2941      -5.889597       3391.006      0.8015807      0.9158629
      7095.5000          0.832            0.8         0.7384         0.7189         0.7063           2.76        -0.0012           95.2       103.6388             79       68.51429         0.3376        -5.2941      -5.888258       3392.999      0.7556232      0.9158821
      7096.0000         0.8159            0.8         0.7189         0.7189         0.7063           2.76        -0.0012           96.8        106.273           79.8       69.47429         0.3318        -5.6863      -6.279118       3395.494      0.7760487      0.9102983
      7096.5000         0.7929         0.7859         0.7189         0.7189         0.7063            2.8        -0.0012       100.8101        106.482           81.8       71.87429         0.3529        -5.6863      -6.277778       3397.995      0.8271126      0.9103175
      7097.0000         0.7789         0.7517         0.7189         0.7189         0.7063           2.84        -0.0012       104.0555       105.6775           84.2       74.75429         0.3684        -5.6863      -6.276438       3400.502      0.8883891      0.9103366
      7097.5000          0.772         0.7384         0.7189         0.7126            0.7           2.88        -0.0012       105.0745       105.4804             87       78.11429          0.378        -5.2941      -5.882898       3403.013      0.9598785      0.9159586
      7098.0000         0.7584         0.7384         0.7189         0.7126            0.7           2.88        -0.0012        105.486       106.0955           89.8       81.47429         0.3924        -5.2941      -5.881559        3405.53              1      0.9159777
      7098.5000          0.745         0.7384         0.7254         0.7189         0.7063           2.88        -0.0012       105.4916       108.9487        90.5882       82.42014          0.402        -5.6863      -6.272419       3408.052              1       0.910394
      7099.0000          0.745         0.7584         0.7319         0.7254         0.7126           2.88        -0.0012       105.2936       118.1388           88.2       79.55428         0.4044        -5.6863      -6.271079       3410.579      0.9905167      0.9104131
      7099.5000         0.7517          0.772          0.745         0.7384         0.7254           2.88        -0.0012       104.4829       124.1039           86.2       77.15428         0.3996        -5.6863       -6.26974       3413.112      0.9394528      0.9104323
      7100.0000         0.7652         0.7859         0.7584         0.7517         0.7384           3.04        -0.0012       103.2637        124.702           84.4       74.99429         0.3828        -5.8824        -6.4645        3415.65      0.8934956        0.90765
      7100.5000            0.8         0.8159          0.772         0.7652         0.7517           3.24        -0.0012       102.2436       120.3865           82.6       72.83428         0.3612        -5.8796       -6.46036       3415.172      0.8475379      0.9077091
      7101.0000         0.8159         0.8569         0.7859         0.7789         0.7652            3.4        -0.0012       102.4451       115.2898             81       70.91429         0.3541        -6.2684       -6.84782       3412.685      0.8066871       0.902174
      7101.5000         0.8402         0.8825         0.7929         0.7859          0.772            3.2        -0.0012       102.6462       109.5664           80.8       70.67429         0.3612         -6.658      -7.236081       3410.204      0.8015807      0.8966274
      7102.0000         0.8159         0.8485         0.7929         0.7859          0.772           2.96        -0.0012       103.0503       105.2863           81.8       71.87429          0.372        -6.8515      -7.428241       3407.727      0.8271126      0.8938823
