#------------------------------------------------------------------------------
# Created by    : vladimir.rabinovich
# Created on    : 09/19/2023 17:22:44
#------------------------------------------------------------------------------
~Version Information Section
VERS.           2.0     :   CWLS log ASCII Standard - VERSION 2.0
WRAP.           NO      :   One line per depth step
~Well Information Section
#MNEM       .UNIT                                         VALUE :DESCRIPTION
#------------------------------------------------------------------------------
STRT        .FT                                            3420 :START DEPTH
STOP        .FT                                           11707 :STOP DEPTH
STEP        .FT                                             0.5 :STEP      
NULL        .                                           -999.25 :NULL      
COMP        .                        TRI-UNION DEVELOPMENT CORP :COMPANY   
WELL        .                               OCS G08154 ST00BP00 :WELL      
FLD         .                                           WILDCAT :FIELD     
LOC         .                                                   :LOCATION  
CNTY        .                           HIGH ISLAND LARGE BLOCK :LOCATION  
STAT        .                                             TEXAS :STATE     
CTRY        .                                     UNITED STATES :COUNTRY   
SRVC        .                                                   :SERVICE COMPANY
DATE        .                             9/13/2023 11:19:57 AM :LOG DATE  
API         .                                    42708403520000 :API NUMBER
UWI         .                                    42708403520000 :UNIQUE WELL ID
XCOORD      .                                  1180527.91159004 :SURFACE X 
YCOORD      .                                  10524923.1623167 :SURFACE Y 
LAT         .                                        28.9940426 :LATITUDE  
LON         .                                       -94.4389714 :LONGITUDE 
ELEV        .FT                                             100 :ELEVATION VALUE
ELEV_TYPE   .                                                KB :ELEVATION REFERENCE TYPE
~Curve Information Section
#MNEM       .UNIT                                      API CODE :CURVE DESCRIPTION
#------------------------------------------------------------------------------
DEPT        .FT                                                 :DEPTH     
DCAL        .IN                                                 :          
DPHI        .%                                                  :          
DRHO        .G/C3                                               :          
GR          .GAPI                                               :          
GR_NORM     .GAPI                                               :GammaRay Normalized
ILD         .OHMM                                               :          
ILM         .OHMM                                               :          
NPHI        .%                                                  :          
SFL         .OHMM                                               :          
SP          .MV                                                 :          
SP_NORM     .MV                                                 :SP Normalized
VSH_GR      .V/V                                                :Volume of Shale from GR
VSH_SP      .V/V                                                :Volume of Shale from SP
~A        DEPTH           DCAL           DPHI           DRHO             GR        GR_NORM            ILD            ILM           NPHI            SFL             SP        SP_NORM         VSH_GR         VSH_SP
# ...
     10602.0000         7.1254         8.8002         0.0511        67.9434       70.12205         1.9012         1.8062         21.755         1.6131       -36.5018        -2.5395      0.7898308      0.9836515
     10602.5000         5.8978         8.2848         0.0421        67.8861       70.05703         1.8704         1.8463         21.492         1.6559       -36.2698        -2.3075      0.7884474      0.9906818
     10603.0000         5.5927         8.0751         0.0297        67.8395       70.00415         1.9082         1.8847        21.2477         1.7174       -37.3846        -3.4223      0.7873223         0.9569
     10603.5000         5.6862         8.0397         0.0202        69.5704       71.96828          1.961         1.9144        21.0678         1.7712       -39.3723          -5.41      0.8291124      0.8966666
     10604.0000         5.6181         8.4392         0.0132        72.2489       75.00772         1.9902         1.9551        21.0026         1.8146       -39.7345        -5.7722      0.8937813      0.8856909
     10604.5000         5.5501         9.0508         0.0042        74.6357       77.71615         2.0089         1.9115         21.562         1.8065       -39.4153         -5.453      0.9514074      0.8953636
     10605.0000         5.4127         9.8713        -0.0024        76.4214       79.74247         2.0126         1.8613        22.0246         1.8013       -38.9478        -4.9855      0.9945206      0.9095303
     10605.5000         5.1986        10.3741         0.0001        77.9327       81.45743         2.0364         1.8391        22.3412          1.797       -38.0181        -4.0558              1       0.937703
     10606.0000         4.8788        10.1954         0.0027         80.514       84.38657         2.0354         1.8297        22.1207          1.795       -38.1497        -4.1874              1      0.9337152
     10606.5000         4.9309         9.9034         0.0081        79.4641       83.19518          2.023         1.8133        21.7557          1.793       -37.7001        -3.7378              1      0.9473394
     10607.0000         5.0814          9.385         0.0147        76.8778       80.26038         2.0243         1.7592        22.0745         1.7783       -38.0867        -4.1244              1      0.9356242
     10607.5000         4.9863         9.0538         0.0312        73.9598       76.94917         2.0077         1.5736        22.4552         1.7589       -39.4322        -5.4699      0.9350888      0.8948515
     10608.0000         4.8714          9.291         0.0471        71.7751       74.47008          1.949         1.5033        23.3714         1.7499       -40.2614        -6.2991      0.8823421      0.8697243
     10608.5000         4.8917        13.0772         0.0598        69.8074       72.23723          1.858          1.524        24.6854         1.7462       -39.8549        -5.8926      0.8348346      0.8820424
     10609.0000         4.9826         14.745         0.0602        68.1588       70.36647         1.8243         1.6187        25.7581         1.6879        -39.083        -5.1207      0.7950313      0.9054334
     10609.5000         5.3079         15.139         0.0508        67.8446       70.00993         1.8145         1.7128        26.7518         1.6248        -37.674        -3.7117      0.7874452      0.9481303
     10610.0000         5.6942        13.9364         0.0397        67.6219       69.75723         1.8087          1.816        27.7395         1.6166       -37.0417        -3.0794      0.7820686      0.9672909
     10610.5000         5.7762        11.1513         0.0266        68.0292       70.21941         1.8267         1.8442        27.9779         1.6452       -37.5891        -3.6268      0.7919022       0.950703
     10611.0000          5.817         10.495         0.0122        68.4369       70.68204         1.8477         1.8425        27.2121         1.6996       -37.9196        -3.9573      0.8017455      0.9406879
     10611.5000         5.8141        10.4348         0.0081        68.2124        70.4273         1.8888         1.8426        25.9303         1.7288       -38.0272        -4.0649      0.7963255      0.9374273
     10612.0000         5.4479         10.926         0.0087        69.0767       71.40806         1.9339         1.9103        25.7951         1.7257       -37.8544        -3.8921      0.8171927      0.9426636
     10612.5000         5.2021        11.8554         0.0101        72.0145       74.74174         1.9259         1.9559        27.1734          1.633       -37.7396        -3.7773      0.8881221      0.9461424
     10613.0000         5.0588        12.3305         0.0178        75.0272        78.1604         1.9157         1.8768        29.1459          1.554       -37.8984        -3.9361      0.9608596      0.9413303
     10613.5000         5.0663        12.4104         0.0256        76.4888       79.81895         1.8827         1.9167        29.2085         1.5673       -38.1119        -4.1496       0.996148      0.9348606
     10614.0000         5.0825        11.7883         0.0313        77.7582       81.25941         1.8437         1.9377        27.5786         1.6111       -38.0075        -4.0452              1      0.9380242
     10614.5000         5.1078        10.2025         0.0334        78.5201       82.12398         1.7819          1.751        24.2966         1.7036       -36.8572        -2.8949              1      0.9728818
     10615.0000         5.1268         9.2681         0.0318        78.9603       82.62349         1.7113         1.6179        23.6425         1.7779       -36.6713         -2.709              1      0.9785151
     10615.5000         5.1523         9.1801         0.0263        78.4141       82.00369         1.7251         1.6265         23.466         1.7351       -37.0511        -3.0888              1      0.9670061
     10616.0000         5.2066        10.0354         0.0228        77.6185       81.10088         1.7632         1.6593        24.1997         1.6291       -37.1465        -3.1842              1      0.9641151
     10616.5000         5.1743        11.0066         0.0239         76.621       79.96897         1.8173         1.7592        26.8628         1.5154       -36.5803         -2.618      0.9993398      0.9812727
     10617.0000         4.9131        11.6307         0.0232        75.7817       79.01658         1.8502          1.898        27.3224         1.5129       -36.2043         -2.242      0.9790761      0.9926667
     10617.5000         4.9295        11.4198         0.0222        75.1831       78.33731         1.8674         1.9788        26.8531          1.554       -36.4014        -2.4391      0.9646236      0.9866939
     10618.0000         5.1917        10.1622         0.0228        75.6714        78.8914         1.8377         1.9993        23.2105         1.5988        -36.584        -2.6217      0.9764128      0.9811606
     10618.5000         5.5816          9.015         0.0237        76.2568       79.55569         1.7869         1.8481        19.6551          1.697       -36.6907        -2.7284      0.9905467      0.9779273
     10619.0000         5.5437         9.0896         0.0294        77.3517       80.79813         1.7192         1.5881        20.4603         1.7516       -36.2867        -2.3244              1      0.9901697
     10619.5000         5.4628        10.1801         0.0359         77.818       81.32726         1.6512         1.4205        22.3375         1.7492       -36.1917        -2.2294              1      0.9930485
     10620.0000         5.2388        12.2865         0.0411        77.5175       80.98628         1.6665         1.3457        24.4202         1.6666       -37.2076        -3.2453              1      0.9622636
     10620.5000         5.0605        13.9439         0.0446        76.9402       80.33118         1.6781         1.3125        26.4493         1.5216       -37.7587        -3.7964              1      0.9455636
