#------------------------------------------------------------------------------
# Created by    : vladimir.rabinovich
# Created on    : 09/19/2023 17:22:46
#------------------------------------------------------------------------------
~Version Information Section
VERS.           2.0     :   CWLS log ASCII Standard - VERSION 2.0
WRAP.           NO      :   One line per depth step
~Well Information Section
#MNEM       .UNIT                                         VALUE :DESCRIPTION
#------------------------------------------------------------------------------
STRT        .FT                                             862 :START DEPTH
STOP        .FT                                           11792 :STOP DEPTH
STEP        .FT                                             0.5 :STEP      
NULL        .                                           -999.25 :NULL      
COMP        .                     FREEPORT-MCMORAN OIL & GAS CO :COMPANY   
WELL        .                               OCS G08155 ST00BP00 :WELL      
FLD         .                            HIGH ISLAND BLOCK 0262 :FIELD     
LOC         .                                                   :LOCATION  
CNTY        .                           HIGH ISLAND LARGE BLOCK :LOCATION  
STAT        .                                             TEXAS :STATE     
CTRY        .                                     UNITED STATES :COUNTRY   
SRVC        .                                                   :SERVICE COMPANY
DATE        .                             9/13/2023 11:19:59 AM :LOG DATE  
API         .                                    42708403380000 :API NUMBER
UWI         .                                    42708403380000 :UNIQUE WELL ID
XCOORD      .                                  1194111.75057656 :SURFACE X 
YCOORD      .                                  10524686.1808471 :SURFACE Y 
LAT         .                                         28.993839 :LATITUDE  
LON         .                                         -94.39647 :LONGITUDE 
ELEV        .FT                                              98 :ELEVATION VALUE
ELEV_TYPE   .                                                KB :ELEVATION REFERENCE TYPE
~Curve Information Section
#MNEM       .UNIT                                      API CODE :CURVE DESCRIPTION
#------------------------------------------------------------------------------
DEPT        .FT                                                 :DEPTH     
DT          .US/F                                               :          
GR          .GAPI                                               :          
GR_NORM     .GAPI                                               :GammaRay Normalized
ILD         .OHMM                                               :          
ILM         .OHMM                                               :          
SFL         .OHMM                                               :          
SP          .MV                                                 :          
SP_NORM     .MV                                                 :SP Normalized
VSH_GR      .V/V                                                :Volume of Shale from GR
VSH_SP      .V/V                                                :Volume of Shale from SP
~A        DEPTH             DT             GR        GR_NORM            ILD            ILM            SFL             SP        SP_NORM         VSH_GR         VSH_SP
# ...
      6693.0000        103.421        69.2533       59.72023         0.7314          0.752         0.7811       -60.6028      -4.736679      0.5685155      0.8033327
      6693.5000       102.7809        71.7986       62.54877          0.738         0.7616         0.8152       -61.3524      -5.487629      0.6286972       0.763809
      6694.0000       102.8134        75.3295       66.47243         0.7446         0.7537         0.8443       -62.0218      -6.158379      0.7121793      0.7285064
      6694.5000       105.0333        78.3945        69.8784          0.738         0.7344         0.8394        -62.624      -6.761925      0.7846469      0.6967408
      6695.0000       110.9535        79.6123       71.23195         0.7275         0.7013         0.7967       -62.8286      -6.967873      0.8134457      0.6859015
      6695.5000       115.8729        79.5575       71.17151         0.7115          0.658         0.7058        -62.442      -6.582623      0.8121598      0.7061778
      6696.0000       120.8447        79.3966       70.99316         0.6942          0.617         0.6266       -61.4424       -5.58437       0.808365      0.7587174
      6696.5000       125.5546         81.894       73.76848         0.6778          0.597         0.5562       -60.4456      -4.588913      0.8674144      0.8111098
      6697.0000       129.1172        83.9247       76.02525         0.6622         0.5855         0.5291       -59.5531      -3.697765      0.9154308      0.8580124
      6697.5000       129.7537        82.7512       74.72179          0.647         0.5804         0.5323       -58.8707      -3.016712      0.8876978      0.8938572
      6698.0000       127.5245        80.4418       72.15623         0.6353         0.5772         0.5394       -58.3376      -2.484959      0.8331114      0.9218443
      6698.5000       123.1028        79.0873       70.65166         0.6267         0.5805         0.5491       -57.9155      -2.064209      0.8010992       0.943989
      6699.0000       120.0851        79.2332       70.81421         0.6182         0.5838         0.5553       -57.6888      -1.838856      0.8045576      0.9558497
      6699.5000       118.1886        79.4369       71.04097         0.6114         0.5838         0.5579       -57.4625      -1.613903      0.8093823      0.9676893
      6700.0000       117.5088        78.8192       70.35508         0.6076         0.5763         0.5569        -57.382      -1.534752       0.794789      0.9718552
      6700.5000       118.8395        77.4296       68.81152         0.6038         0.5689         0.5573       -57.3197      -1.473797      0.7619472      0.9750633
      6701.0000       120.8605        76.1084       67.34394         0.6044         0.5642          0.558       -57.2574      -1.412846      0.7307221      0.9782713
      6701.5000       122.1066        76.2297       67.47916         0.6098          0.567         0.5637       -57.1923      -1.349094      0.7335991      0.9816266
      6702.0000        121.146        81.6317       73.48181         0.6153         0.5705          0.571       -57.1268      -1.284943      0.8613151       0.985003
      6702.5000       119.1447         86.059       78.40147         0.6211         0.5783         0.5767       -57.0613      -1.220791      0.9659886      0.9883794
      6703.0000       117.3163         87.838       80.37857         0.6269         0.5863         0.5813       -56.8699      -1.030739              1      0.9983822
      6703.5000        115.979        84.8964       77.11056         0.6328         0.5898         0.5859       -56.6641     -0.8262863      0.9385225              1
      6704.0000       116.1008        80.1521       71.83955         0.6375         0.5922         0.5883       -56.4726     -0.6361351      0.8263733              1
      6704.5000       118.1571        78.2966       69.77832         0.6423          0.591         0.5908       -56.3725      -0.537384      0.7825174              1
      6705.0000       119.3693        80.4299       72.14909         0.6471         0.5884         0.5924       -56.2725     -0.4387283      0.8329593              1
      6705.5000        119.863        84.3092       76.45985         0.6484         0.5865         0.5931       -56.2247     -0.3922806      0.9246776              1
      6706.0000       119.8175        86.7341       79.15462         0.6483         0.5862         0.5933        -56.262     -0.4309273      0.9820131              1
      6706.5000        119.573        86.9929       79.44261         0.6481         0.5859         0.5921       -56.2993      -0.469574      0.9881407              1
      6707.0000       119.2875         85.321       77.58538          0.649         0.5861         0.5879       -56.3366     -0.5082245      0.9486251              1
      6707.5000        118.981        81.8744       73.75626         0.6508         0.5863         0.5816       -56.3885       -0.56147      0.8671544              1
      6708.0000       117.9475        78.6117       70.13147         0.6537         0.5895         0.5797       -56.4442      -0.618515      0.7900313              1
      6708.5000        116.051         76.713       68.02222         0.6603         0.5944         0.5826          -56.5     -0.6756668      0.7451537              1
      6709.0000       114.2684        78.3827       69.87789         0.6671         0.6006          0.595       -56.5675     -0.7445145       0.784636              1
      6709.5000        113.218        81.9918       73.88844         0.6727         0.6084         0.6053        -56.644      -0.822361      0.8699667              1
      6710.0000       113.8245        86.3917       78.77765         0.6781         0.6164         0.6127       -56.7205     -0.9002113      0.9739925              1
      6710.5000        115.734         84.912       77.13397         0.6835         0.6202           0.62       -56.7948     -0.9758568      0.9390207              1
      6711.0000       117.0582        82.0583       73.96363         0.6883         0.6286         0.6267       -56.8677      -1.050102      0.8715666       0.997363
      6711.5000       117.0294        81.0034       72.79195          0.693         0.6401         0.6363       -56.9407      -1.124454      0.8466373      0.9934497
      6712.0000       115.4537        82.7629       74.74739         0.6977         0.6518         0.6532       -56.9818      -1.166901      0.8882424      0.9912158
      6712.5000       113.7118        86.0414       78.39059         0.7005         0.6613         0.6647       -57.0015      -1.187946      0.9657573      0.9901081
      6713.0000        112.938        87.1229        79.5927         0.7034         0.6682         0.6678       -57.0213      -1.209099       0.991334      0.9889948
      6713.5000       113.0002        85.0491       77.28892          0.704         0.6636         0.6627       -56.9294      -1.118546      0.9423174      0.9937608
      6714.0000       113.5337        81.7844        73.6619         0.7018         0.6533         0.6525       -56.7932      -0.983696      0.8651469              1
      6714.5000       115.0059        79.0853       70.66333         0.6988         0.6373         0.6396       -56.6615     -0.8533401      0.8013474              1
      6715.0000       116.8342         78.694       70.22899         0.6911         0.6232         0.6228       -56.5778     -0.7709885      0.7921062              1
      6715.5000       118.8513         81.068       72.86721         0.6835         0.6135         0.6073       -56.4941     -0.6886368      0.8482385              1
      6716.0000       120.2515        82.3051        74.2422         0.6755         0.6057         0.5983       -56.4316     -0.6274834      0.8774935              1
      6716.5000       120.9677        80.1912       71.89385         0.6676         0.6038         0.5994       -56.4225     -0.6197319      0.8275288              1
      6717.0000       120.3116        80.2009       71.90506         0.6586         0.6019         0.6062       -56.4133     -0.6118813      0.8277673              1
