#------------------------------------------------------------------------------
# Created by    : vladimir.rabinovich
# Created on    : 09/19/2023 17:19:44
#------------------------------------------------------------------------------
~Version Information Section
VERS.           2.0     :   CWLS log ASCII Standard - VERSION 2.0
WRAP.           NO      :   One line per depth step
~Well Information Section
#MNEM       .UNIT                                         VALUE :DESCRIPTION
#------------------------------------------------------------------------------
STRT        .FT                                            3520 :START DEPTH
STOP        .FT                                           13769 :STOP DEPTH
STEP        .FT                                             0.5 :STEP      
NULL        .                                           -999.25 :NULL      
COMP        .                           WILLIAMS EXPLORATION CO :COMPANY   
WELL        .                                          SL 73414 :WELL      
FLD         .                                           WILDCAT :FIELD     
LOC         .                                                   :LOCATION  
CNTY        .                           HIGH ISLAND LARGE BLOCK :LOCATION  
STAT        .                                             TEXAS :STATE     
CTRY        .                                     UNITED STATES :COUNTRY   
SRVC        .                                                   :SERVICE COMPANY
DATE        .                             9/13/2023 11:19:15 AM :LOG DATE  
API         .                                    42708301040000 :API NUMBER
UWI         .                                    42708301040000 :UNIQUE WELL ID
XCOORD      .                                  1272749.25589155 :SURFACE X 
YCOORD      .                                  10699068.0748216 :SURFACE Y 
LAT         .                                        29.4758188 :LATITUDE  
LON         .                                       -94.1558378 :LONGITUDE 
ELEV        .FT                                             106 :ELEVATION VALUE
ELEV_TYPE   .                                                KB :ELEVATION REFERENCE TYPE
~Curve Information Section
#MNEM       .UNIT                                      API CODE :CURVE DESCRIPTION
#------------------------------------------------------------------------------
DEPT        .FT                                                 :DEPTH     
ASFL        .OHMM                                               :          
CILD        .MMHO                                               :          
ILD         .OHMM                                               :          
SP          .MV                                                 :          
SP_NORM     .MV                                                 :SP Normalized
VSH_SP      .V/V                                                :Volume of Shale from SP
~A        DEPTH           ASFL           CILD            ILD             SP        SP_NORM         VSH_SP
# ...
     11006.0000         0.3727       2288.863         0.4166       -78.2579      -5.018745      0.9417573
     11006.5000         0.3883       2225.039         0.4164       -77.7449      -4.507072      0.9491729
     11007.0000         0.4133       2164.906         0.4161       -77.7268      -4.490288      0.9494161
     11007.5000         0.4383       2104.773         0.4159       -78.0344      -4.799202      0.9449391
     11008.0000         0.4633       2054.117         0.4156       -78.3419      -5.108025      0.9404634
     11008.5000         0.4717       2038.561         0.4154       -78.6495      -5.416939      0.9359864
     11009.0000         0.4674       2094.203         0.4151       -78.5521      -5.320862      0.9373788
     11009.5000           0.46       2149.852         0.4149       -78.1504      -4.920479      0.9431815
     11010.0000         0.4526       2189.938         0.4146       -77.5992      -4.370598      0.9511508
     11010.5000         0.4453       2223.543          0.414       -77.0092      -3.781921      0.9596823
     11011.0000         0.4379       2257.199         0.4114       -76.4191      -3.193138      0.9682154
     11011.5000         0.4302       2290.855         0.4087        -75.828      -2.603355       0.976763
     11012.0000         0.4221       2324.512         0.4061       -75.9208      -2.697472       0.975399
     11012.5000         0.4204       2358.719         0.4035       -76.3773      -3.155289      0.9687639
     11013.0000         0.4267       2394.469         0.4009       -76.8337      -3.613014      0.9621302
     11013.5000          0.433       2370.438         0.3983       -77.0022      -3.782829      0.9596691
     11014.0000         0.4393       2330.746         0.3966       -76.7614       -3.54335      0.9631398
     11014.5000         0.4456       2278.391         0.4001        -76.278      -3.061272      0.9701265
     11015.0000         0.4495       2255.059         0.4036        -75.467      -2.251595      0.9818609
     11015.5000         0.4531       2272.234         0.4071       -76.0869      -2.872803       0.972858
     11016.0000         0.4473       2289.438         0.4105       -77.4323      -4.219521      0.9533403
     11016.5000         0.4407       2305.691         0.4191       -78.5271      -5.315643      0.9374545
     11017.0000         0.4352       2261.238         0.4372        -78.399      -5.188866      0.9392918
     11017.5000         0.4456       2153.539         0.4553       -77.4619      -4.253082      0.9528539
     11018.0000          0.456       1966.063         0.4734       -76.5824      -3.374901      0.9655811
     11018.5000         0.4663       1853.576         0.4914       -77.7848      -4.578621      0.9481359
     11019.0000         0.4871       1754.451         0.5095       -78.9873       -5.78244      0.9306893
     11019.5000         0.5163       1675.271         0.5276       -79.8706      -6.667053      0.9178688
     11020.0000         0.5758       1609.355         0.5457       -80.6537      -7.451477      0.9065003
     11020.5000         0.6049       1587.965         0.5702       -81.4979      -8.296997      0.8942464
     11021.0000         0.6312       1728.125         0.6042       -82.8805      -9.680916      0.8741896
     11021.5000         0.6087       1860.357         0.6381       -82.2588      -9.060532      0.8831807
     11022.0000         0.5676       1984.811          0.672       -81.3142      -8.117256      0.8968514
     11022.5000         0.5242       2073.363         0.6108       -80.6378      -7.442177      0.9066351
     11023.0000         0.4895       2166.504         0.5018       -79.9894      -6.795097      0.9160131
     11023.5000         0.4597       2277.992         0.4565       -79.3398      -6.146805      0.9254086
     11024.0000          0.423        2378.91         0.4324       -78.6913      -5.499626       0.934788
     11024.5000         0.3788       2321.473         0.4083       -79.6609      -6.470543      0.9207168
     11025.0000         0.4132       1932.756         0.4123         -80.74      -7.550964      0.9050585
     11025.5000         0.4804       1831.238         0.4435       -81.0972      -7.909485      0.8998625
     11026.0000         0.5418       1744.479         0.4748       -83.5132      -10.32681      0.8648289
     11026.5000         0.5906       1689.533          0.506         -87.41      -14.22493      0.8083344
     11027.0000         0.6695       1634.686         0.5373       -89.1062      -15.92245      0.7837327
     11027.5000         0.7319       1572.459         0.5685        -90.676      -17.49356      0.7609629
     11028.0000         0.7539       1586.121         0.5998       -91.5278      -18.34668      0.7485989
     11028.5000         0.7093       1702.396         0.6309       -92.1605       -18.9807      0.7394102
     11029.0000         0.6382       1834.029          0.651       -88.8872      -15.70872      0.7868302
     11029.5000         0.5904        1970.25         0.6496       -86.3932      -13.21604      0.8229559
     11030.0000         0.5449       2122.824         0.6192       -83.9697      -10.79386        0.85806
     11030.5000         0.5039       2270.813         0.5888       -81.5425      -8.367981      0.8932177
     11031.0000         0.4677       2400.453         0.5584       -80.5052      -7.332001      0.9082319
     11031.5000         0.4421       2503.164          0.528       -79.6089      -6.437012      0.9212027
     11032.0000         0.4164        2501.07         0.4976       -78.7145       -5.54393      0.9341459
     11032.5000         0.4013       2462.777         0.4672       -77.9639      -4.794647      0.9450051
     11033.0000         0.3898       2424.387         0.4369       -77.3153      -4.147369      0.9543859
     11033.5000         0.3998       2386.094         0.4225       -76.6667      -3.500092      0.9637668
     11034.0000         0.4127       2347.797         0.4155       -77.2838      -4.118507      0.9548042
     11034.5000         0.4256       2309.406         0.4084       -78.1671      -5.003128      0.9419836
     11035.0000         0.4385       2271.113         0.4014       -79.0522      -5.889549       0.929137
     11035.5000         0.4517       2232.719         0.4006       -79.9355      -6.774162      0.9163165
     11036.0000         0.4762       2186.945         0.4008       -80.8076      -7.647583      0.9036582
     11036.5000         0.4732       2138.281          0.401       -79.8242      -6.665504      0.9178913
     11037.0000         0.4671       2108.141         0.4012       -78.6718       -5.51442      0.9345737
     11037.5000         0.4612       2136.586         0.4028       -77.5194      -4.363342      0.9512559
     11038.0000         0.4556       2180.766         0.4059       -76.7345      -3.579758      0.9626122
     11038.5000           0.45       2225.039          0.409       -76.1805      -3.027077      0.9706221
     11039.0000         0.4444       2269.316         0.4121       -75.8901      -2.737999      0.9748116
     11039.5000         0.4387       2306.313         0.4152       -76.4014       -3.25061      0.9673824
     11040.0000         0.4331       2320.152         0.4182       -76.9126       -3.76313      0.9599546
     11040.5000         0.4275       2319.727         0.4213       -77.4197      -4.271553      0.9525862
     11041.0000         0.4241       2298.438         0.4244       -77.1566      -4.009773      0.9563801
     11041.5000         0.4249       2277.195         0.4275       -76.8932      -3.747696      0.9601783
     11042.0000         0.4257       2255.953         0.4306       -76.6296      -3.485413      0.9639795
     11042.5000         0.4266       2242.742         0.4337       -76.3666      -3.223732       0.967772
     11043.0000         0.4274       2245.813         0.4368        -76.046      -2.904449      0.9723993
     11043.5000         0.4282       2248.879         0.4399       -75.6267      -2.486465       0.978457
