#------------------------------------------------------------------------------
# Created by    : vladimir.rabinovich
# Created on    : 09/19/2023 17:20:54
#------------------------------------------------------------------------------
~Version Information Section
VERS.           2.0     :   CWLS log ASCII Standard - VERSION 2.0
WRAP.           NO      :   One line per depth step
~Well Information Section
#MNEM       .UNIT                                         VALUE :DESCRIPTION
#------------------------------------------------------------------------------
STRT        .FT                                            1092 :START DEPTH
STOP        .FT                                            8058 :STOP DEPTH
STEP        .FT                                             0.5 :STEP      
NULL        .                                           -999.25 :NULL      
COMP        .                                    EXXON CO U S A :COMPANY   
WELL        .                               OCS G03029 ST00BP00 :WELL      
FLD         .                                           WILDCAT :FIELD     
LOC         .                                                   :LOCATION  
CNTY        .                        MUSTANG ISLAND LARGE BLOCK :LOCATION  
STAT        .                                             TEXAS :STATE     
CTRY        .                                     UNITED STATES :COUNTRY   
SRVC        .                                                   :SERVICE COMPANY
DATE        .                             9/13/2023 11:19:13 AM :LOG DATE  
API         .                                    42702400190000 :API NUMBER
UWI         .                                    42702400190000 :UNIQUE WELL ID
XCOORD      .                                  486295.566528254 :SURFACE X 
YCOORD      .                                  10047803.1546112 :SURFACE Y 
LAT         .                                         27.643077 :LATITUDE  
LON         .                                        -96.564717 :LONGITUDE 
ELEV        .FT                                              70 :ELEVATION VALUE
ELEV_TYPE   .                                                KB :ELEVATION REFERENCE TYPE
~Curve Information Section
#MNEM       .UNIT                                      API CODE :CURVE DESCRIPTION
#------------------------------------------------------------------------------
DEPT        .FT                                                 :DEPTH     
ASN         .OHMM                                               :          
CALI        .IN                                                 :          
CIL         .MMHO                                               :          
DRHO        .G/C3                                               :          
DT          .US/F                                               :          
GR          .GAPI                                               :          
GR_NORM     .GAPI                                               :GammaRay Normalized
ILD         .OHMM                                               :          
NPHI        .%                                                  :          
RHOB        .G/C3                                               :          
SN          .OHMM                                               :          
SP          .MV                                                 :          
SP_NORM     .MV                                                 :SP Normalized
VSH_GR      .V/V                                                :Volume of Shale from GR
VSH_SP      .V/V                                                :Volume of Shale from SP
~A        DEPTH            ASN           CALI            CIL           DRHO             DT             GR        GR_NORM            ILD           NPHI           RHOB             SN             SP        SP_NORM         VSH_GR         VSH_SP
# ...
      7586.0000         1.6075         9.8873       756.8965         0.0204       105.2598          79.24       70.90733         1.3223        25.9123         2.5166         1.7254       -59.2502      -1.583668      0.8065388              1
      7586.5000         1.6118         9.8735       757.3145         0.0239       103.8408        81.3931       74.43949         1.3293        25.9027         2.5213         1.7591       -59.8022      -2.141399      0.8816913      0.9967117
      7587.0000         1.6251         9.9111       755.0391          0.025       102.8982        80.6882        73.2831         1.3375        25.7166         2.5308         1.8126       -60.2531      -2.598026      0.8570873      0.9860924
      7587.5000         1.6433         9.9366       748.7861         0.0182       102.2797        79.7742       71.78368         1.3524        25.4157         2.5234         1.8948       -59.6943      -2.044956      0.8251848      0.9989545
      7588.0000         1.6691         9.9179       724.3213         0.0162       101.7086        80.0452       72.22826          1.449        24.6492         2.5174           2.02       -58.6589      -1.015282      0.8346439              1
      7588.5000         1.7239         9.9066       675.0928         0.0121       100.9167        80.2922       72.63347         1.6142        23.5493         2.5181          2.178       -58.1244     -0.4865112      0.8432653              1
      7589.0000         1.7701         9.8712       613.7432         0.0106        99.6487        79.9055       71.99909         1.7948         22.908         2.5288         2.3518       -57.7433     -0.1111374      0.8297679              1
      7589.5000         1.8628         9.8625       550.1006           0.01        98.6798        79.3947       71.16112         1.9843         22.155         2.5291         2.5415       -58.3321     -0.7056656      0.8119386              1
      7590.0000         1.9928         9.8492       482.5669         0.0123        97.0027         79.922       72.02615         2.1725        21.8808         2.5341         2.6892       -59.1379      -1.517193      0.8303437              1
      7590.5000         2.1368          9.822       442.8647         0.0196        93.6984        78.8533       70.27295         2.3345         21.235          2.559         2.8307       -59.9425      -2.327518      0.7930415      0.9923833
      7591.0000         2.2875         9.7758       415.0459         0.0235        90.6708        76.6554       66.66727         2.4605        20.8903         2.5776         2.9646       -60.8618      -3.252548       0.716325       0.970871
      7591.5000         2.3917         9.7443       406.9409         0.0217        86.6107        74.9789       63.91697         2.5239        21.8306         2.5694         3.0828       -61.8547      -4.251171      0.6578079      0.9476472
      7592.0000         2.4653         9.7288       409.2354         0.0176         81.254         73.583       61.62701         2.5347        22.7762         2.5582         3.0575       -62.1735      -4.575703      0.6090853         0.9401
      7592.5000         2.5596           9.74       421.8789         0.0121        81.6754          72.64       60.08001         2.4731        23.3148         2.5461         2.9236       -61.5629      -3.970829      0.5761703      0.9541668
      7593.0000         2.6636         9.7906       442.4907         0.0063        84.8551        71.3851       58.02133         2.3766        23.5754         2.5308         2.8518       -61.1038       -3.51746      0.5323688      0.9647102
      7593.5000         2.7601         9.8131       467.0552         0.0092        89.0398        70.0242       55.78878         2.2744         23.452         2.5283         2.8577       -60.9817      -3.401085      0.4848677      0.9674166
      7594.0000         2.8407          9.743       484.2627          0.008        91.1072        72.0624       59.13245          2.208        23.0174         2.5271         2.8963       -61.4543      -3.879414      0.5560097      0.9562927
      7594.5000         2.8457         9.6994       483.6519         0.0074        92.6884        73.9559       62.23876         2.1436        22.4847         2.5208           2.98       -62.4847      -4.915539      0.6221012      0.9321968
      7595.0000          2.735         9.6382       471.0952          0.012        92.7133        75.4904        64.7561         2.1387        22.1183         2.5221         3.0765       -63.8381       -6.27467      0.6756616       0.900589
      7595.5000          2.492         9.5328       455.0098         0.0195        91.3142        76.3685       66.19663         2.2761        21.7748         2.5257         3.1863       -65.6156      -8.057896      0.7063113      0.8591187
      7596.0000         2.3158         9.4215       427.6772         0.0207        89.8853        76.2069       65.93152         2.4488        21.2597         2.5225         3.2975       -67.4742      -9.922222      0.7006706      0.8157623
      7596.5000         2.4932         9.3718        405.856         0.0151        88.4313        75.7778       65.22758         2.5967        20.9802         2.5163          3.322       -67.6626      -10.11635      0.6856931      0.8112477
      7597.0000         2.7709         9.4317       390.1699         0.0184        86.8627        75.7513        65.1841         2.6975        22.1003         2.5266          3.218        -66.858      -9.317482       0.684768       0.829826
      7597.5000         2.9614         9.4603       386.6567         0.0219        85.0671        75.8145       65.28777         2.7183        23.1725          2.533          3.037       -66.0547      -8.519909      0.6869739      0.8483742
      7598.0000         3.1963         9.4687       414.2852         0.0244        85.8876        75.7223       65.13652         2.5885        23.9487         2.5431          2.832       -64.8647      -7.335636      0.6837558      0.8759155
      7598.5000         2.7434         9.5017        456.731         0.0198        87.9987        73.2773       61.12549         2.3318        24.4514         2.5421          2.643       -63.6099      -6.086563      0.5984147      0.9049637
      7599.0000         2.5814         9.5665       504.0142         0.0175        89.0946        72.0312       59.08126         2.0816        24.9722         2.5531         2.4691        -62.355      -4.837391      0.5549204      0.9340141
      7599.5000         2.4043         9.6317       549.2529         0.0199        89.9027        71.5245       58.25003         1.8937        25.8555         2.5438         2.3265       -61.5061      -3.994217      0.5372348      0.9536229
      7600.0000         2.2901         9.6721       591.5986          0.012        90.9102        72.6587       60.11068         1.7509          26.38         2.5166         2.2265       -60.8562      -3.350048      0.5768231      0.9686036
      7600.5000         2.2227         9.7014        627.709         0.0039        92.7307        74.1256       62.51713         1.6502        26.0846         2.5091         2.1637       -60.3841      -2.883675      0.6280241      0.9794495
      7601.0000         2.1868         9.7514       646.7627        -0.0055        95.9478        74.4886       63.11264         1.5985         25.927         2.5049         2.1512       -60.0473      -2.552601      0.6406946      0.9871488
      7601.5000         2.1585         9.8098       649.6396        -0.0065        99.9828        73.8837       62.12028         1.5914        25.9085         2.4983         2.1709       -59.8593      -2.370327      0.6195804      0.9913877
      7602.0000         2.1376         9.7964       648.9941         -0.006       101.7847        75.3257       64.48592         1.5889        25.1797         2.4934         2.2122        -59.262      -1.778759      0.6699131              1
      7602.5000         2.1167         9.6841       641.0518        -0.0076       102.6809        77.5853       68.19279         1.6099        24.4335         2.4938         2.2607       -58.6807      -1.203182      0.7487829              1
