#------------------------------------------------------------------------------
# Created by    : vladimir.rabinovich
# Created on    : 09/19/2023 17:20:33
#------------------------------------------------------------------------------
~Version Information Section
VERS.           2.0     :   CWLS log ASCII Standard - VERSION 2.0
WRAP.           NO      :   One line per depth step
~Well Information Section
#MNEM       .UNIT                                         VALUE :DESCRIPTION
#------------------------------------------------------------------------------
STRT        .FT                                             526 :START DEPTH
STOP        .FT                                            9568 :STOP DEPTH
STEP        .FT                                             0.5 :STEP      
NULL        .                                           -999.25 :NULL      
COMP        .                       BLUE DOLPHIN EXPLORATION CO :COMPANY   
WELL        .                                OCS 00713 ST00BP00 :WELL      
FLD         .                              GALVESTON BLOCK 0288 :FIELD     
LOC         .                                                   :LOCATION  
CNTY        .                             GALVESTON LARGE BLOCK :LOCATION  
STAT        .                                             TEXAS :STATE     
CTRY        .                                     UNITED STATES :COUNTRY   
SRVC        .                                                   :SERVICE COMPANY
DATE        .                             9/13/2023 11:19:25 AM :LOG DATE  
API         .                                    42706000630000 :API NUMBER
UWI         .                                    42706000630000 :UNIQUE WELL ID
XCOORD      .                                  1101981.32688909 :SURFACE X 
YCOORD      .                                  10481575.8265757 :SURFACE Y 
LAT         .                                          28.87198 :LATITUDE  
LON         .                                        -94.682732 :LONGITUDE 
ELEV        .FT                                              58 :ELEVATION VALUE
ELEV_TYPE   .                                                KB :ELEVATION REFERENCE TYPE
~Curve Information Section
#MNEM       .UNIT                                      API CODE :CURVE DESCRIPTION
#------------------------------------------------------------------------------
DEPT        .FT                                                 :DEPTH     
ASN         .OHMM                                               :          
CALI        .IN                                                 :          
DT          .US/F                                               :          
ILD         .OHMM                                               :          
SP          .MV                                                 :          
SP_NORM     .MV                                                 :SP Normalized
VSH_SP      .V/V                                                :Volume of Shale from SP
~A        DEPTH            ASN           CALI             DT            ILD             SP        SP_NORM         VSH_SP
# ...
      5316.5000         0.6337         9.5912       114.8644         0.6855       -43.6368      -4.101917      0.8930373
      5317.0000         0.6314         9.6208       119.9802         0.6985       -42.6243      -3.089417      0.9279512
      5317.5000         0.6259         9.6413       120.2253         0.7077       -42.3061      -2.771217      0.9389235
      5318.0000         0.6168         9.6618       117.8654         0.7044       -41.7183      -2.183418      0.9591925
      5318.5000         0.6079         9.6823       118.3904         0.6921       -41.5209      -1.986019      0.9659994
      5319.0000         0.6013          9.687       126.1305         0.6737       -41.8701      -2.335217       0.953958
      5319.5000         0.6051         9.6794       127.3201         0.6453       -42.3941      -2.859219       0.935889
      5320.0000         0.6197         9.6453       125.2231         0.5909        -44.334      -4.799118      0.8689959
      5320.5000         0.6399         9.6367       126.6151         0.5719        -48.127      -8.592117      0.7382029
      5321.0000         0.6458         9.7146       125.3524         0.5635       -53.3933      -13.85842      0.5566063
      5321.5000         0.6229         9.7683       119.3303         0.5527       -56.4552      -16.92032      0.4510235
      5322.0000         0.5849         9.7911       125.5818         0.5432       -55.3428      -15.80792      0.4893821
      5322.5000         0.5531         9.8117       135.3142          0.536        -52.951      -13.41612       0.571858
      5323.0000         0.5439         9.8186       122.4336         0.5338       -49.3995       -9.86462      0.6943234
      5323.5000         0.5621         9.7952       114.1696         0.5345       -50.2976      -10.76272      0.6633545
      5324.0000            0.6         9.7979       118.9885         0.5446       -54.0793      -14.54442      0.5329511
      5324.5000         0.5996         9.8102        120.652         0.5603       -56.4101      -16.87522      0.4525787
      5325.0000         0.5759         9.7791       123.2432          0.573       -55.7659      -16.23102      0.4747925
      5325.5000         0.5544         9.7169       125.8798         0.5772       -53.3437      -13.80882      0.5583166
      5326.0000         0.5622         9.6532       116.6724         0.5798       -48.9167      -9.381817      0.7109718
      5326.5000         0.5878         9.6363       115.4019         0.5861       -46.7178      -7.182919      0.7867959
      5327.0000         0.6137         9.6256       123.9043         0.5932       -47.2097       -7.67482      0.7698338
      5327.5000         0.6172         9.5816       115.5615         0.5943       -48.8005      -9.265617      0.7149787
      5328.0000         0.6224         9.5282       111.8286         0.5908        -52.053      -12.51812      0.6028234
      5328.5000         0.6325         9.4935       119.9824         0.5909       -54.1063      -14.57142        0.53202
      5329.0000         0.6411         9.5047        121.903         0.5909       -55.5865      -16.05162      0.4809787
      5329.5000         0.6459         9.5228        123.178         0.5884       -55.6943      -16.15942      0.4772614
      5330.0000         0.6475         9.5405       121.4397         0.5875       -53.9755      -14.44062      0.5365304
      5330.5000         0.6414         9.5452       115.2714         0.5892       -52.9566      -13.42172      0.5716649
      5331.0000         0.6231          9.539       114.5444         0.5876       -52.3836      -12.84872      0.5914236
      5331.5000         0.6096         9.5353       115.2073         0.5821       -50.5627      -11.02782      0.6542132
      5332.0000         0.6204         9.5322       117.7653         0.5842       -49.7376      -10.20272      0.6826649
      5332.5000         0.6326         9.5253       120.1259         0.5815       -50.9463      -11.41142      0.6409855
      5333.0000         0.6331         9.5133       119.9833          0.566       -53.1316      -13.59672      0.5656304
      5333.5000         0.6243         9.5013       125.8247         0.5721       -55.3721      -15.83722      0.4883718
      5334.0000         0.5995         9.4868       128.9053         0.5692       -56.3165      -16.78162      0.4558062
      5334.5000         0.5763         9.4793       135.5122         0.5694       -54.6885      -15.15362      0.5119442
      5335.0000         0.5672         9.4907       135.6133         0.5795       -51.4822      -11.94732      0.6225063
      5335.5000         0.5751         9.5037        116.479         0.5848       -48.4767      -8.941818      0.7261442
      5336.0000         0.5846         9.4806       110.4254         0.5969       -47.4207      -7.885818       0.762558
      5336.5000         0.5994         9.4569       120.8685         0.6207       -45.9907      -6.455818      0.8118683
      5337.0000         0.6252         9.4377       123.3398         0.6457       -45.7115      -6.176617       0.821496
      5337.5000         0.6308         9.4185       121.4712         0.6642       -46.0074      -6.472519      0.8112925
      5338.0000         0.6174         9.4075       119.3124          0.683       -46.6592      -7.124317      0.7888166
      5338.5000          0.609         9.4075       118.4432         0.6944       -45.7792       -6.24432      0.8191614
      5339.0000         0.6314         9.4306        119.942         0.7115        -45.131      -5.596119      0.8415132
      5339.5000         0.6653         9.4708       121.5645         0.7331        -44.479      -4.944118      0.8639959
      5340.0000         0.6977         9.4913       123.2319         0.7661       -43.0806      -3.545719      0.9122166
      5340.5000         0.7307         9.5038       127.0615         0.7993       -43.0904      -3.555519      0.9118786
      5341.0000         0.7522         9.5052       134.9004         0.8256       -44.3295      -4.794617      0.8691512
      5341.5000         0.7557         9.4844       135.3142         0.8409       -45.1486       -5.61372      0.8409062
      5342.0000         0.7522         9.4922       132.7576         0.8373       -45.5254      -5.990517      0.8279132
      5342.5000         0.7546         9.5335       132.0549         0.7989       -45.8557       -6.32082      0.8165234
      5343.0000          0.764         9.5998       126.4678         0.7553       -46.3873      -6.852417      0.7981925
      5343.5000         0.7668         9.7055       123.3752         0.7102       -47.2955       -7.76062      0.7668751
      5344.0000         0.7572         9.9235       122.8979         0.6713        -49.553      -10.01812      0.6890303
      5344.5000         0.7375        10.1208       120.2726         0.6359       -52.1997      -12.66482      0.5977649
      5345.0000         0.7062        10.2577       115.5345         0.5993       -55.1511      -15.61622      0.4959925
      5345.5000         0.6586        10.2691       112.0142         0.5722       -57.2179      -17.68302      0.4247235
      5346.0000         0.6437        10.0699       113.6973         0.5509       -59.2554      -19.72052      0.3544648
      5346.5000         0.6341         9.9614       114.6873         0.5537       -62.8678      -23.33292      0.2298993
      5347.0000         0.6092          9.805       117.4414         0.5497       -65.2686      -25.73372      0.1471131
      5347.5000         0.5646         9.6797       128.5862         0.5403       -65.3992      -25.86432      0.1426097
      5348.0000         0.5149         9.6447       141.5164         0.5361        -62.121      -22.58612      0.2556511
      5348.5000         0.4885         9.6471       137.7969         0.5325       -57.7752      -18.24032      0.4055063
      5349.0000         0.4977         9.6575       125.5188         0.5389       -50.9429      -11.40802      0.6411027
      5349.5000         0.5187         9.7294       121.6331         0.5508       -49.4277      -9.892818      0.6933511
