#------------------------------------------------------------------------------
# Created by    : vladimir.rabinovich
# Created on    : 09/19/2023 17:20:10
#------------------------------------------------------------------------------
~Version Information Section
VERS.           2.0     :   CWLS log ASCII Standard - VERSION 2.0
WRAP.           NO      :   One line per depth step
~Well Information Section
#MNEM       .UNIT                                         VALUE :DESCRIPTION
#------------------------------------------------------------------------------
STRT        .FT                                            1664 :START DEPTH
STOP        .FT                                            5300 :STOP DEPTH
STEP        .FT                                             0.5 :STEP      
NULL        .                                           -999.25 :NULL      
COMP        .                       CORPUS CHRISTI OIL & GAS CO :COMPANY   
WELL        .                                ST TR 00597-L NE/4 :WELL      
FLD         .                                           WILDCAT :FIELD     
LOC         .                                                   :LOCATION  
CNTY        .                      MATAGORDA ISLAND LARGE BLOCK :LOCATION  
STAT        .                                             TEXAS :STATE     
CTRY        .                                     UNITED STATES :COUNTRY   
SRVC        .                                                   :SERVICE COMPANY
DATE        .                             9/13/2023 11:12:01 AM :LOG DATE  
API         .                                    42703301570000 :API NUMBER
UWI         .                                    42703301570000 :UNIQUE WELL ID
XCOORD      .                                   499677.54355151 :SURFACE X 
YCOORD      .                                  10240770.6634848 :SURFACE Y 
LAT         .                                        28.1741034 :LATITUDE  
LON         .                                       -96.5406837 :LONGITUDE 
ELEV        .FT                                              79 :ELEVATION VALUE
ELEV_TYPE   .                                                KB :ELEVATION REFERENCE TYPE
~Curve Information Section
#MNEM       .UNIT                                      API CODE :CURVE DESCRIPTION
#------------------------------------------------------------------------------
DEPT        .FT                                                 :DEPTH     
ASFL        .OHMM                                               :          
CILD        .MMHO                                               :          
ILD         .OHMM                                               :          
SP          .MV                                                 :          
SP_NORM     .MV                                                 :SP Normalized
VSH_SP      .V/V                                                :Volume of Shale from SP
~A        DEPTH           ASFL           CILD            ILD             SP        SP_NORM         VSH_SP
# ...
      3830.0000         1.4703       1450.145         0.6896       -89.1952      -27.99445      0.3159355
      3830.5000         0.8246       1654.819         0.6043       -91.2441      -30.04872      0.2618759
      3831.0000         0.7966       1859.493         0.5378       -93.2931      -32.10308      0.2078138
      3831.5000         0.7727       2064.167         0.4845        -95.342      -34.15734      0.1537541
      3832.0000         0.7466       2591.447         0.3859       -96.5381      -35.35881      0.1221367
      3832.5000         0.7466       2583.481         0.3871       -96.5391      -35.36517      0.1219692
      3833.0000         0.7586       2950.512         0.3389       -83.6572      -22.48864      0.4608254
      3833.5000         0.7745       2974.462         0.3362       -83.6583       -22.4951      0.4606552
      3834.0000         0.7825       2982.456         0.3353       -87.3639      -26.20606      0.3629984
      3834.5000         0.7923       2767.385         0.3614       -91.0696      -29.91713      0.2653387
      3835.0000         0.8065       2552.315         0.3918        -92.949      -31.80189      0.2157398
      3835.5000         0.8265       2337.245         0.4279         -92.95      -31.80825      0.2155724
      3836.0000         0.8665       2122.175         0.4712       -92.6514      -31.51501      0.2232891
      3836.5000         1.0568       1907.105         0.5244       -92.0533      -30.92228      0.2388874
      3837.0000         1.3663        1697.93          0.589       -91.4551      -30.32944      0.2544883
      3837.5000         1.3743       1697.938         0.5889       -91.1565      -30.03621       0.262205
      3838.0000         1.3228       1626.135          0.615       -92.7384      -31.62347      0.2204349
      3838.5000         1.2713       1530.394         0.6534       -94.3202      -33.21063      0.1786676
      3839.0000         1.1983       1402.735         0.7129       -96.5532        -35.449      0.1197632
      3839.5000          1.334       1390.667         0.7191       -96.5539      -35.45506      0.1196036
      3840.0000         1.4698       1338.915         0.7469       -96.5542      -35.46072      0.1194546
      3840.5000         1.6055       1306.998         0.7651       -92.9612      -31.87309      0.2138661
      3841.0000         1.7413       1219.232         0.8202       -92.6617      -31.57895      0.2216065
      3841.5000          1.877       1139.445         0.8776       -92.0635      -30.98612      0.2372074
      3842.0000         2.0062       1075.616         0.9297        -91.765      -30.69298      0.2449215
      3842.5000         1.8506       1027.745          0.973        -91.766      -30.69934      0.2447541
      3843.0000         1.6951       971.8984         1.0289       -93.6738      -32.61251      0.1944077
      3843.5000         1.5395        971.903         1.0289       -95.5816      -34.52567      0.1440613
      3844.0000         1.3839       1211.295         0.8256       -96.8628      -35.81224      0.1102043
      3844.5000         1.1862       1291.097         0.7745       -96.6305       -35.5853      0.1161763
      3845.0000         1.1861       1370.899         0.7294       -96.5642      -35.52436      0.1177799
      3845.5000         1.1861       1362.926         0.7337       -92.7486      -31.71412      0.2180494
      3846.0000         1.3767       1354.953          0.738       -88.9331      -27.90399      0.3183161
      3846.5000         1.5673       1267.183         0.7892       -84.2862      -23.26245      0.4404617
      3847.0000         1.7578        1227.29         0.8148       -84.2871      -23.26872      0.4402969
      3847.5000         1.8981       1171.437         0.8537       -83.9877      -22.97469      0.4480346
      3848.0000         1.7755       1123.564           0.89       -91.4741      -30.46645       0.250883
      3848.5000          1.653       1019.831         0.9806       -92.8522      -31.84991      0.2144759
      3849.0000         1.5305       1027.816         0.9729       -94.4764      -33.47948      0.1715927
      3849.5000          1.408       1027.821         0.9729       -94.2205      -33.22894      0.1781859
      3850.0000          1.262       1043.786         0.9581       -94.1778       -33.1916      0.1791683
      3850.5000         1.3564       1155.512         0.8654       -92.7361      -31.75526      0.2169667
      3851.0000          1.482       1219.358         0.8201       -89.9872      -29.01173      0.2891651
      3851.5000         1.3313       1307.146          0.765       -90.5863       -29.6162       0.273258
      3852.0000         1.1806       1402.915         0.7128        -91.486      -30.52126      0.2494406
      3852.5000           1.03       1506.664         0.6637       -95.2059      -34.24652      0.1514073
      3853.0000         0.8793       1634.356         0.6119       -99.2771      -38.32308     0.04412942
      3853.5000         0.7286       1754.068         0.5701       -99.2781      -38.32944     0.04396198
      3854.0000         0.6299       1873.781         0.5337       -98.9786      -38.03531      0.0517024
      3854.5000         0.6339       1953.594         0.5119       -98.3805      -37.44257      0.0673007
      3855.0000          0.671       2025.427         0.4937       -97.7824      -36.84984     0.08289889
      3855.5000         0.7082       2121.213         0.4714       -97.1844      -36.25721     0.09849458
      3856.0000         0.7454       2113.233         0.4732       -97.1854      -36.26357     0.09832714
      3856.5000         0.7826       2105.262          0.475       -96.5873      -35.67083      0.1139254
      3857.0000         0.8198       1937.681         0.5161       -96.5883       -35.6772       0.113758
      3857.5000         0.8458       1833.952         0.5453       -98.0266      -37.12086     0.07576682
      3858.0000         0.8578       1849.913         0.5406       -99.4648      -38.56442     0.03777845
      3858.5000         0.8737       1865.884         0.5359      -100.9031      -40.00808              0
      3859.0000         0.8857       1881.854         0.5314      -102.2843      -41.39465              0
      3859.5000         0.9017       1897.825         0.5269      -102.2853      -41.40101              0
      3860.0000         0.9137       1913.796         0.5225      -100.4998      -39.62088    0.009976939
      3860.5000         0.9297       1929.767         0.5182       -98.7133      -37.83974     0.05684893
      3861.0000         0.9417       1826.026         0.5476       -96.9273       -36.0591      0.1037079
      3861.5000         0.9737       1746.225         0.5727       -91.8061      -30.94326      0.2383352
      3862.0000         1.0016       1650.463         0.6059       -92.4061      -31.54863      0.2224045
      3862.5000         1.0416       1554.699         0.6432       -92.7067       -31.8546      0.2143527
      3863.0000         1.1096       1482.877         0.6744       -94.2053      -33.35856      0.1747748
      3863.5000         1.1336       1419.036         0.7047       -93.6072      -32.76582      0.1903731
      3864.0000         1.1376       1387.118         0.7209       -93.0092      -32.17319      0.2059688
      3864.5000         1.0878       1363.182         0.7336       -92.4113      -31.58065      0.2215618
      3865.0000          1.038       1299.345         0.7696       -92.4123      -31.58701      0.2213944
      3865.5000         0.9883       1305.188         0.7662       -95.7525      -34.93258      0.1333532
      3866.0000         0.9385       1315.314         0.7603       -97.5059      -36.69134     0.08707006
      3866.5000         0.8887       1642.555         0.6088        -96.066      -35.25681      0.1248209
      3867.0000         0.8175        1746.32         0.5726       -94.6261      -33.82227       0.162572
      3867.5000         0.8248       1746.329         0.5726       -93.1863      -32.38783      0.2003202
