#------------------------------------------------------------------------------
# Created by    : vladimir.rabinovich
# Created on    : 09/19/2023 17:22:15
#------------------------------------------------------------------------------
~Version Information Section
VERS.           2.0     :   CWLS log ASCII Standard - VERSION 2.0
WRAP.           NO      :   One line per depth step
~Well Information Section
#MNEM       .UNIT                                         VALUE :DESCRIPTION
#------------------------------------------------------------------------------
STRT        .FT                                              41 :START DEPTH
STOP        .FT                                            7991 :STOP DEPTH
STEP        .FT                                             0.5 :STEP      
NULL        .                                           -999.25 :NULL      
COMP        .                           ENERGY DEVELOPMENT CORP :COMPANY   
WELL        .                               OCS G11200 ST00BP00 :WELL      
FLD         .                                           WILDCAT :FIELD     
LOC         .                                                   :LOCATION  
CNTY        .                    NORTH PADRE ISLAND LARGE BLOCK :LOCATION  
STAT        .                                             TEXAS :STATE     
CTRY        .                                     UNITED STATES :COUNTRY   
SRVC        .                                                   :SERVICE COMPANY
DATE        .                             9/13/2023 11:18:55 AM :LOG DATE  
API         .                                    42701400410000 :API NUMBER
UWI         .                                    42701400410000 :UNIQUE WELL ID
XCOORD      .                                   309944.09600436 :SURFACE X 
YCOORD      .                                  9740515.29665267 :SURFACE Y 
LAT         .                                          26.78454 :LATITUDE  
LON         .                                        -97.077486 :LONGITUDE 
ELEV        .FT                                              91 :ELEVATION VALUE
ELEV_TYPE   .                                                KB :ELEVATION REFERENCE TYPE
~Curve Information Section
#MNEM       .UNIT                                      API CODE :CURVE DESCRIPTION
#------------------------------------------------------------------------------
DEPT        .FT                                                 :DEPTH     
CALI        .IN                                                 :          
DRHO        .G/C3                                               :          
DT          .US/F                                               :          
GR          .GAPI                                               :          
GR_NORM     .GAPI                                               :GammaRay Normalized
ILD         .OHMM                                               :          
ILM         .OHMM                                               :          
NPHI        .%                                                  :          
RFOC        .OHMM                                               :          
RHOB        .G/C3                                               :          
SP          .MV                                                 :          
SP_NORM     .MV                                                 :SP Normalized
VSH_GR      .V/V                                                :Volume of Shale from GR
VSH_SP      .V/V                                                :Volume of Shale from SP
~A        DEPTH           CALI           DRHO             DT             GR        GR_NORM            ILD            ILM           NPHI           RFOC           RHOB             SP        SP_NORM         VSH_GR         VSH_SP
# ...
      4991.0000           14.1         0.0122       126.7742        96.9233       97.21291         0.6411         0.6334        44.6132         0.7721         2.2055       -48.1887      -3.806084              1       0.942733
      4991.5000        14.1264         0.0269       127.0785        97.7323       98.24973         0.6286         0.6248         44.782         0.7671         2.2055       -48.8685      -4.477535              1      0.9290299
      4992.0000        14.1305         0.0319       126.9177        98.2969       98.97353         0.6351         0.6398        44.2887         0.7621         2.2109       -49.0891      -4.689789              1      0.9246982
      4992.5000        14.0548         0.0313       126.1729        97.7924       98.32799         0.6418         0.6453        43.1406         0.7604          2.215       -48.9635      -4.555843              1      0.9274318
      4993.0000        13.7905         0.0277       125.6371        96.9227       97.21469         0.6374         0.6471        42.1686         0.7597         2.2187        -48.614      -4.197994              1      0.9347348
      4993.5000        13.5483         0.0242       125.7633        95.9663       95.99036         0.6344         0.6478        41.7072         0.7605         2.2216       -48.2982      -3.873848              1        0.94135
      4994.0000        13.3346         0.0211       126.1221        94.9513       94.69096         0.6323         0.6483        41.6291         0.7668         2.2239       -48.0179      -3.585205              1      0.9472407
      4994.5000        13.7527           0.02       126.2488        93.9609       93.42307         0.6314         0.6465        42.1342         0.7713         2.2225       -47.7635       -3.32246              1      0.9526029
      4995.0000        14.0263         0.0221       126.2372        92.8729       92.03018         0.6307         0.6439        42.5591          0.775         2.2157       -47.5393      -3.089912              1      0.9573487
      4995.5000        14.0287         0.0354       126.1614        91.6779       90.50024          0.631          0.639        42.5383         0.7771         2.2082       -47.4427      -2.984966              1      0.9594905
      4996.0000        13.8495         0.0435       126.4255        90.4321       88.90524         0.6313         0.6348        42.2764         0.7789         2.2024       -47.3165      -2.850422              1      0.9622363
      4996.5000        13.7024         0.0398       127.4376        89.4857        87.6937         0.6314         0.6314        42.0472         0.7819          2.198         -47.17      -2.695572              1      0.9653965
      4997.0000        13.5962         0.0333       128.9727        90.4718       88.95734         0.6313         0.6282        42.2333         0.7856         2.1957       -47.0148      -2.532028              1      0.9687341
      4997.5000        13.5333         0.0299       130.2444        92.6268       91.71815         0.6315         0.6255        42.4922         0.7876         2.1941       -46.8571      -2.365982              1      0.9721228
      4998.0000         13.502         0.0272       129.4141        93.7723       93.18598         0.6319          0.623        42.7228         0.7869         2.1934       -46.7357      -2.236233              1      0.9747708
      4998.5000        13.4708         0.0256       127.5085        92.5649       91.64014         0.6322         0.6215        42.9446         0.7861         2.1957       -46.6375      -2.129692              1       0.976945
      4999.0000         13.435         0.0248       125.8031        91.3142       90.03886         0.6327           0.62        43.1452         0.7833         2.1986       -46.5809      -2.064743              1      0.9782705
      4999.5000        13.4191         0.0224       124.3002        90.5145       89.01524         0.6331         0.6194        43.2084         0.7804         2.2007        -46.544      -2.019497              1      0.9791939
      5000.0000        13.4227         0.0238       123.7402         90.832       89.42253         0.6356         0.6193        43.2608         0.7778         2.1994       -46.6556      -2.122753              1      0.9770867
      5000.5000        13.4521         0.0339       124.5601        91.3624       90.10249         0.6383         0.6206        43.3043         0.7754         2.1967       -46.7953      -2.254105              1       0.974406
      5001.0000        13.5224         0.0446       125.5699        92.4437       91.48811          0.641         0.6249        43.3859          0.773         2.1936        -47.083      -2.533459              1      0.9687049
      5001.5000        13.5866         0.0452       126.5365        93.6511       93.03521         0.6421         0.6277        43.5884         0.7708         2.1926       -47.1544      -2.596512              1      0.9674181
      5002.0000        13.6051         0.0367       127.4115        93.3156       92.60612          0.642         0.6291        43.8226         0.7685         2.1962       -47.0988      -2.532566              1      0.9687231
      5002.5000        13.4529         0.0267       128.1338        92.0676       91.00829         0.6419         0.6304        44.1827         0.7666         2.2042       -46.9191      -2.344524              1      0.9725607
      5003.0000        13.1848         0.0234       127.3805        91.3328       90.06779         0.6418         0.6323        44.5866         0.7659         2.2113       -46.8215      -2.238575              1       0.974723
      5003.5000        12.9428         0.0262       126.1747        90.6691       89.21834         0.6417         0.6341        45.0812         0.7653         2.2133       -46.7776      -2.186329              1      0.9757892
      5004.0000        12.7065         0.0314       125.9612        89.4746       87.68905         0.6416         0.6376        45.5573         0.7637         2.2123        -46.926      -2.326382              1       0.972931
      5004.5000        12.6135          0.031       126.7764        87.2516       84.84241         0.6425         0.6423        45.4771         0.7617         2.2116       -47.0551      -2.447136              1      0.9704666
      5005.0000        12.5101         0.0231       127.6527        87.3171       84.92695          0.647         0.6549        45.1953         0.7609         2.2145       -47.0073      -2.390991              1      0.9716125
      5005.5000        12.1753         0.0186       128.3721        89.4821       87.70057         0.6539         0.6664        44.7751         0.7615         2.2208       -46.9595      -2.334843              1      0.9727583
      5006.0000        12.2547          0.033       128.2244        90.4186       88.90069         0.6618         0.6739        43.8683         0.7653          2.229       -46.8265      -2.193497              1      0.9756429
      5006.5000        12.5002         0.0395       125.8416        88.4454       86.37401         0.6661         0.6769        42.4564          0.772         2.2384       -46.6786      -2.037251              1      0.9788316
      5007.0000        12.8087         0.0343       124.2617        85.9452       83.17233         0.6685         0.6722        41.0101         0.7776         2.2464       -46.3246      -1.674908              1      0.9862264
      5007.5000        12.9314         0.0336       122.9055        85.1646       82.17316         0.6695         0.6659        40.0748         0.7817         2.2507       -45.9086      -1.250561              1      0.9948865
      5008.0000        12.7523         0.0342       122.5886        87.4706       85.12737         0.6657         0.6601        40.7163         0.7859         2.2499       -45.6461     -0.9797134              1              1
      5008.5000        12.5381         0.0309       123.9919        89.6132       87.87231         0.6619         0.6544        41.9011         0.7837         2.2478       -45.4033      -0.728569              1              1
