#------------------------------------------------------------------------------
# Created by    : vladimir.rabinovich
# Created on    : 09/19/2023 17:21:03
#------------------------------------------------------------------------------
~Version Information Section
VERS.           2.0     :   CWLS log ASCII Standard - VERSION 2.0
WRAP.           NO      :   One line per depth step
~Well Information Section
#MNEM       .UNIT                                         VALUE :DESCRIPTION
#------------------------------------------------------------------------------
STRT        .FT                                          2542.5 :START DEPTH
STOP        .FT                                            8214 :STOP DEPTH
STEP        .FT                                             0.5 :STEP      
NULL        .                                           -999.25 :NULL      
COMP        .                          SEAGULL ENERGY E & P INC :COMPANY   
WELL        .                               OCS G12505 ST00BP00 :WELL      
FLD         .                              GALVESTON BLOCK 0357 :FIELD     
LOC         .                                                   :LOCATION  
CNTY        .                             GALVESTON LARGE BLOCK :LOCATION  
STAT        .                                             TEXAS :STATE     
CTRY        .                                     UNITED STATES :COUNTRY   
SRVC        .                                                   :SERVICE COMPANY
DATE        .                             9/13/2023 11:19:54 AM :LOG DATE  
API         .                                    42706403610000 :API NUMBER
UWI         .                                    42706403610000 :UNIQUE WELL ID
XCOORD      .                                  1003713.76055251 :SURFACE X 
YCOORD      .                                  10412171.7759297 :SURFACE Y 
LAT         .                                          28.67696 :LATITUDE  
LON         .                                        -94.986081 :LONGITUDE 
ELEV        .FT                                              96 :ELEVATION VALUE
ELEV_TYPE   .                                                KB :ELEVATION REFERENCE TYPE
~Curve Information Section
#MNEM       .UNIT                                      API CODE :CURVE DESCRIPTION
#------------------------------------------------------------------------------
DEPT        .FT                                                 :DEPTH     
AT10        .OHMM                                               :          
AT20        .OHMM                                               :          
AT30        .OHMM                                               :          
AT60        .OHMM                                               :          
AT90        .OHMM                                               :          
DCAL        .IN                                                 :          
DPSS        .V/V                                                :          
DTLF        .US/FT                                              :          
DTLN        .US/FT                                              :          
GR          .GAPI                                               :          
GR_NORM     .GAPI                                               :GammaRay Normalized
NPSS        .V/V                                                :Neutron Porosity Sandstone
SP          .MV                                                 :          
SP_NORM     .MV                                                 :SP Normalized
TENS        .LB                                                 :          
VSH_GR      .V/V                                                :Volume of Shale from GR
VSH_SP      .V/V                                                :Volume of Shale from SP
~A        DEPTH           AT10           AT20           AT30           AT60           AT90           DCAL           DPSS           DTLF           DTLN             GR        GR_NORM           NPSS             SP        SP_NORM           TENS         VSH_GR         VSH_SP
# ...
      4927.5000         0.6866         0.6866         0.6933            0.7         0.7067          1.069          0.243       125.8824       126.4706          102.6         86.062         0.4338        -0.3922       1.439318       2606.104              1              1
      4928.0000         0.6866         0.6866         0.6933            0.7         0.7067         1.0714         0.2441       126.2745       126.8627        99.2157       82.69307         0.4325            0.6       2.428425        2601.98              1              1
      4928.5000         0.6866         0.6866         0.6933            0.7         0.7067         1.1533         0.2452       126.2745       126.8627        96.2745       79.76525         0.4361            0.8       2.625331       2597.855      0.9950054              1
      4929.0000         0.6933         0.6866            0.7         0.7067         0.7067         1.1553         0.2451       125.6863       126.2745        94.7059       78.20396          0.441            0.4       2.222237       2593.731      0.9617863              1
      4929.5000         0.7067         0.7067         0.7135         0.7203         0.7203         1.1573         0.2426        124.902       125.4902        93.9216       77.42344         0.4483            0.2       2.019144       2588.781      0.9451796              1
      4930.0000         0.7342         0.7342         0.7272         0.7342         0.7272         1.1592         0.2376       123.5294       124.1176        92.7451       76.25249         0.4519              0        1.81605       2584.656      0.9202659              1
      4930.5000         0.7555         0.7555         0.7412         0.7483         0.7483           1.16         0.2327       121.7647       122.3529        90.5882        74.1055         0.4396        -0.3922       1.420756       2583.333      0.8745851              1
      4931.0000         0.7774         0.7774         0.7627         0.7627         0.7627           1.16         0.2278       120.9804       121.5686           88.4       71.92734         0.4224        -1.5686      0.2412628           2750      0.8282412              1
      4931.5000            0.8            0.8         0.7701         0.7701         0.7627           1.16         0.2253       120.1961       120.7843           87.8       71.33032         0.4056        -2.7451     -0.9383309           2750      0.8155388      0.9865953
      4932.0000            0.8            0.8         0.7701         0.7627         0.7555           1.12         0.2229       119.7959       120.3922             88       71.52975         0.4044        -3.7255      -1.921825           2750      0.8197818      0.9725454
      4932.5000            0.8            0.8         0.7701         0.7555         0.7483           1.08         0.2192       118.9796       119.5918           87.4       70.93272         0.4068        -4.3137      -2.513118           2750      0.8070793      0.9640983
      4933.0000         0.8146            0.8         0.7701         0.7701         0.7555           1.12         0.2167        117.551       118.1633           84.8        68.3446          0.396        -4.5098      -2.712312           2750      0.7520127      0.9612527
      4933.5000         0.8371         0.8146         0.7849         0.7849         0.7701           1.12         0.2143       115.7143       116.3265           82.6       66.15469         0.3804        -4.5098      -2.715405           2750       0.705419      0.9612085
      4934.0000         0.8601         0.8295            0.8            0.8         0.7924           1.08         0.2131       113.8776       114.4898             80       63.56656         0.3732        -5.2941      -3.502799           2750      0.6503524        0.94996
      4934.5000         0.8838         0.8524          0.822          0.822         0.8073           1.08         0.2118       112.2449       112.8571           79.2       62.77043         0.3696        -6.4706      -4.682393           2750      0.6334134      0.9331087
      4935.0000         0.9079         0.8759         0.8371         0.8371          0.822           1.08         0.2143       111.4286       112.0408             78       61.57608         0.3636        -7.8431      -6.057986           2750      0.6080017      0.9134573
      4935.5000         0.9322            0.9          0.868         0.8601         0.8447           1.08          0.218       111.2245       111.8367             78        61.5764          0.366        -8.2353       -6.45328           2750      0.6080084      0.9078103
      4936.0000         0.9404         0.9159         0.8759          0.868         0.8447           1.08         0.2106       111.0204       111.8367           79.4        62.9705         0.3792        -7.2549      -5.475974           2750      0.6376702      0.9217718
      4936.5000         0.9322         0.9159         0.8759          0.868         0.8524           1.08         0.1984       110.6122       112.0408           81.2       64.76279         0.3984        -5.2941      -3.518267           2750      0.6758041       0.949739
      4937.0000          0.924            0.9         0.8759          0.868         0.8524           1.08         0.1861       110.6122       112.2449           83.4       66.95335         0.3936        -3.9216      -2.148861           2750      0.7224118       0.969302
      4937.5000         0.9079         0.8838         0.8759         0.8601         0.8524           1.08         0.1898       111.2245       112.6531           87.2       70.73678         0.3948        -3.1373      -1.367654           2750      0.8029101      0.9804621
      4938.0000         0.8838         0.8601          0.868         0.8524         0.8371           1.08          0.202       111.6327       113.2653           88.6       72.13086         0.3948        -3.5294      -1.762848           2750      0.8325714      0.9748164
      4938.5000         0.8838         0.8524         0.8524         0.8371          0.822           1.08         0.2192       112.2449       113.8776           88.2       71.73296           0.39        -4.1176      -2.354142           2750      0.8241056      0.9663694
      4939.0000         0.8838         0.8371         0.8371          0.822         0.8146           1.04         0.2314       113.4694       115.3061           85.2        68.7466         0.3816        -4.7059      -2.945536           2750      0.7605661      0.9579209
      4939.5000         0.8447          0.822          0.822         0.8146         0.8073              1           0.24       116.3265        117.551             84       67.55226         0.3876        -4.5098      -2.752529           2750      0.7351545      0.9606782
      4940.0000          0.822            0.8         0.7924            0.8         0.7774           0.96         0.2376       119.7959       120.3922           85.6       69.14545         0.3948        -3.9216      -2.167423           2750      0.7690521      0.9690368
      4940.5000         0.7922         0.7847         0.7773         0.7773         0.7699         0.9212         0.2302       120.9862       121.5745        86.7941       70.33456         0.4044        -3.7277      -1.976616           2750      0.7943524      0.9717626
      4941.0000         0.7919         0.7696         0.7552          0.777         0.7624         0.9232         0.2289       121.3881       121.9763        88.1842        71.7188         0.4044        -3.9277       -2.17971           2750      0.8238043      0.9688613
      4941.5000         0.8064         0.7694         0.7479         0.7694          0.755         0.9252         0.2313       119.6181       120.2213        89.3743       72.90393         0.3924        -5.5041      -3.759203           2750      0.8490198      0.9462971
      4942.0000         0.8135         0.7691         0.7477         0.7548         0.7477         0.8472         0.2312       117.5874       118.1996        90.1617       73.68814         0.3888        -6.8869      -5.145097           2750      0.8657051      0.9264986
