#------------------------------------------------------------------------------
# Created by    : vladimir.rabinovich
# Created on    : 09/19/2023 17:22:15
#------------------------------------------------------------------------------
~Version Information Section
VERS.           2.0     :   CWLS log ASCII Standard - VERSION 2.0
WRAP.           NO      :   One line per depth step
~Well Information Section
#MNEM       .UNIT                                         VALUE :DESCRIPTION
#------------------------------------------------------------------------------
STRT        .FT                                             712 :START DEPTH
STOP        .FT                                            8940 :STOP DEPTH
STEP        .FT                                             0.5 :STEP      
NULL        .                                           -999.25 :NULL      
COMP        .                                      SHELL OIL CO :COMPANY   
WELL        .                               OCS G03086 ST00BP00 :WELL      
FLD         .                                           WILDCAT :FIELD     
LOC         .                                                   :LOCATION  
CNTY        .                      MATAGORDA ISLAND LARGE BLOCK :LOCATION  
STAT        .                                             TEXAS :STATE     
CTRY        .                                     UNITED STATES :COUNTRY   
SRVC        .                                                   :SERVICE COMPANY
DATE        .                             9/13/2023 11:19:05 AM :LOG DATE  
API         .                                    42703400050000 :API NUMBER
UWI         .                                    42703400050000 :UNIQUE WELL ID
XCOORD      .                                  597395.628989583 :SURFACE X 
YCOORD      .                                    10217429.66268 :SURFACE Y 
LAT         .                                         28.117488 :LATITUDE  
LON         .                                        -96.235866 :LONGITUDE 
ELEV        .FT                                              93 :ELEVATION VALUE
ELEV_TYPE   .                                                KB :ELEVATION REFERENCE TYPE
~Curve Information Section
#MNEM       .UNIT                                      API CODE :CURVE DESCRIPTION
#------------------------------------------------------------------------------
DEPT        .FT                                                 :DEPTH     
CALI        .IN                                                 :          
DRHO        .G/C3                                               :          
DT          .US/F                                               :          
GR          .GAPI                                               :          
GR_1        .GAPI                                               :          
GR_NORM     .GAPI                                               :GammaRay Normalized
ILD         .OHMM                                               :          
NPHI        .%                                                  :          
RHOB        .G/C3                                               :          
SFL         .OHMM                                               :          
SP          .MV                                                 :          
SP_NORM     .MV                                                 :SP Normalized
VSH_GR      .V/V                                                :Volume of Shale from GR
VSH_SP      .V/V                                                :Volume of Shale from SP
~A        DEPTH           CALI           DRHO             DT             GR           GR_1        GR_NORM            ILD           NPHI           RHOB            SFL             SP        SP_NORM         VSH_GR         VSH_SP
# ...
      2368.0000        15.1513         0.0421       170.8716         53.296           40.1       58.75126         0.8563        -999.25          1.842         0.4883       -77.8258      -2.376694      0.5478991      0.9623306
      2368.5000        14.9084         0.0283       165.7341         53.159        40.3359       59.09357         0.8701        -999.25         1.8399         0.4741       -77.6525      -2.203392      0.5551825      0.9796608
      2369.0000        14.5842         0.0055       161.7554        52.4064        40.5271       59.37111         0.8764        -999.25         1.9035         0.4654       -77.4196      -1.970497      0.5610874              1
      2369.5000         15.131        -0.0007       157.8037        51.7255        41.3563       60.57345         0.8723        -999.25         1.9945         0.4674       -77.3029      -1.853798      0.5866691              1
      2370.0000        16.5817         0.0602       157.0232        51.4987        42.4908       62.21832         0.8621        -999.25         2.0407          0.468       -77.0237      -1.574593      0.6216664              1
      2370.5000        16.3466         0.0627       159.5371        51.8635        42.3527       62.01852         0.8523        -999.25         2.0273         0.4688        -77.036      -1.586899      0.6174153              1
      2371.0000        14.8952         0.0567       161.2917        51.7503        41.1736       60.30973         0.8359        -999.25         2.0214         0.4675       -77.1721      -1.722992      0.5810582              1
      2371.5000        15.5197         0.0392       161.8625        52.1782        39.7016       58.17636         0.8231        -999.25          1.995         0.4601        -77.226      -1.776894      0.5356674              1
      2372.0000        16.1582         0.0353       162.4885        52.0441        38.2314       56.04561         0.7974        -999.25         1.9959         0.4452       -77.3566      -1.907494      0.4903321              1
      2372.5000        16.8068         0.0256       163.0896        50.7122        37.3339       54.74502         0.7687        -999.25         1.9964         0.4304       -77.7357      -2.286598        0.46266      0.9713402
      2373.0000         17.874         0.0949       161.0801         49.573        37.4784       54.95485         0.7444        -999.25         2.0336         0.4189        -77.459      -2.009895      0.4671245      0.9990104
      2373.5000        18.0629         0.1244       160.9116        49.7043        38.1688       55.95598         0.7152        -999.25          2.016         0.4117       -78.0826      -2.633499      0.4884252      0.9366501
      2374.0000        18.3668         0.0809       165.6182         50.166        38.2071       56.01188         0.6865        -999.25         1.9655         0.4003       -77.8652      -2.416092      0.4896145      0.9583908
      2374.5000         18.511         0.0337       171.6143        50.0816        37.6384       55.18789         0.6607        -999.25         1.9141         0.3811       -76.5973      -1.148193      0.4720828              1
      2375.0000        18.4542         0.0395       174.6431        49.5051        37.2062       54.56178         0.6351        -999.25         1.9054         0.3681       -77.6691      -2.219994      0.4587612      0.9780006
      2375.5000        18.5401         0.0858       177.1426        48.8341        37.7509       55.35171         0.6151        -999.25         1.8819         0.3678       -78.2246      -2.775497      0.4755683      0.9224502
      2376.0000        18.9291         0.0678       180.3787        48.7651        38.7207       56.75786         0.6013        -999.25          1.716         0.3737       -78.4471      -2.997993      0.5054864      0.9002007
      2376.5000        18.0659         0.0022       183.7805        49.4164        39.8225       58.35535         0.5904        -999.25         1.6725         0.3815       -78.4821      -3.032997      0.5394756      0.8967003
      2377.0000        17.0874         0.0111       183.2507        50.4725         40.366       59.14355         0.5837        -999.25         1.6781          0.381       -78.4542      -3.005096      0.5562457      0.8994904
      2377.5000        16.4089         0.0215       180.0789        51.6351        40.3304       59.09231         0.5814        -999.25         1.7418         0.3776       -78.5599      -3.110794      0.5551555      0.8889206
      2378.0000        15.5737        -0.0071        177.644        52.4244        39.9174       58.49403         0.5873        -999.25         1.8466         0.3795       -78.4683      -3.019196      0.5424262      0.8980805
      2378.5000          15.68          -0.01       176.0642        52.5216        39.3671       57.69671         0.5962        -999.25          1.936          0.383       -78.3247      -2.875595       0.525462      0.9124405
      2379.0000         16.448        -0.0176       175.0566        52.7764        39.0165       57.18887         0.6072        -999.25         1.9649         0.3877       -78.0963      -2.647194      0.5146568      0.9352806
      2379.5000        17.0384        -0.0007       175.1621        53.8242        39.0243       57.20055         0.6207        -999.25         1.9669          0.394       -77.8646      -2.415497      0.5149053      0.9584503
      2380.0000         17.058        -0.0059       175.7734        55.5585        39.2797       57.57114         0.6333        -999.25         1.9652         0.4018       -77.6385      -2.189392      0.5227903      0.9810608
      2380.5000        16.4163        -0.0009       174.9539        57.0755        39.6509       58.10959          0.642        -999.25         1.9931         0.4101       -77.4176      -1.968498      0.5342466              1
      2381.0000        16.7515         0.0058       173.0903        57.1216        40.1527       58.83733          0.645        -999.25         2.0072         0.4178       -77.1932      -1.744095      0.5497304              1
      2381.5000        17.2202        -0.0019         171.22        57.1932        40.5146        59.3623         0.6498        -999.25         2.0085          0.426       -77.2096      -1.760498      0.5608999              1
      2382.0000        16.8937         -0.006       169.2874        58.3455         41.555       60.87077         0.6561        -999.25         2.0239         0.4334       -77.3437      -1.894592      0.5929952              1
      2382.5000        16.7631         0.0024       167.5046        59.4174        44.0694        64.5159         0.6642        -999.25         2.0418         0.4334       -77.5597      -2.110596      0.6705511      0.9889404
      2383.0000        16.7612         0.0036       165.8613        59.7142        45.2177       66.18078         0.6726        -999.25         2.0434         0.4307       -77.8781      -2.428993       0.705974      0.9571007
      2383.5000        16.0309         0.0002       164.3889        59.4291        45.7834       67.00117         0.6845        -999.25         2.0358         0.4336       -78.0885      -2.639397      0.7234291      0.9360603
      2384.0000        15.8337         0.0089       162.3687        59.0314        46.2354       67.65675         0.6967        -999.25         2.0474         0.4351       -78.2468      -2.797699      0.7373776      0.9202301
      2384.5000        16.0011         0.0022       159.8901        58.4615        46.1478       67.53013         0.7094        -999.25         2.0543         0.4309       -78.4185      -2.969398      0.7346836      0.9030601
      2385.0000        16.6757        -0.0023       157.2117        57.9116        45.0106       65.88208         0.7244        -999.25         2.0646         0.4323       -78.4926      -3.043495      0.6996187      0.8956505
      2385.5000        16.7251        -0.0035       155.7461        57.2094        43.3876       63.52983         0.7584        -999.25         2.0839         0.4421       -78.3611      -2.911995      0.6495708      0.9088005
