#------------------------------------------------------------------------------
# Created by    : vladimir.rabinovich
# Created on    : 09/19/2023 17:20:23
#------------------------------------------------------------------------------
~Version Information Section
VERS.           2.0     :   CWLS log ASCII Standard - VERSION 2.0
WRAP.           NO      :   One line per depth step
~Well Information Section
#MNEM       .UNIT                                         VALUE :DESCRIPTION
#------------------------------------------------------------------------------
STRT        .FT                                            3094 :START DEPTH
STOP        .FT                                           15705 :STOP DEPTH
STEP        .FT                                             0.5 :STEP      
NULL        .                                           -999.25 :NULL      
COMP        .                                       MONSANTO CO :COMPANY   
WELL        .                                     ST TR 00011-L :WELL      
FLD         .                                           WILDCAT :FIELD     
LOC         .                                                   :LOCATION  
CNTY        .                           HIGH ISLAND LARGE BLOCK :LOCATION  
STAT        .                                             TEXAS :STATE     
CTRY        .                                     UNITED STATES :COUNTRY   
SRVC        .                                                   :SERVICE COMPANY
DATE        .                             9/13/2023 11:19:15 AM :LOG DATE  
API         .                                    42708300660000 :API NUMBER
UWI         .                                    42708300660000 :UNIQUE WELL ID
XCOORD      .                                  1343190.12128624 :SURFACE X 
YCOORD      .                                   10724936.940093 :SURFACE Y 
LAT         .                                        29.5487141 :LATITUDE  
LON         .                                       -93.9350737 :LONGITUDE 
ELEV        .FT                                              49 :ELEVATION VALUE
ELEV_TYPE   .                                                KB :ELEVATION REFERENCE TYPE
~Curve Information Section
#MNEM       .UNIT                                      API CODE :CURVE DESCRIPTION
#------------------------------------------------------------------------------
DEPT        .FT                                                 :DEPTH     
ASN         .OHMM                                               :          
CILD        .MMHO                                               :          
ILD         .OHMM                                               :          
SP_NORM     .MV                                                 :SP Normalized
VSH_SP      .V/V                                                :Volume of Shale from SP
~A        DEPTH            ASN           CILD            ILD        SP_NORM         VSH_SP
# ...
      9826.0000         0.4712       2536.402         0.3978      -3.014259       0.967512
      9826.5000         0.4707       2526.543          0.398       -2.81274      0.9707623
      9827.0000         0.4702       2516.684         0.3981      -2.612122       0.973998
      9827.5000         0.4696       2506.824         0.3949      -2.632805      0.9736645
      9828.0000         0.4691       2494.664         0.3881      -2.653381      0.9733326
      9828.5000         0.4696       2481.652         0.3812      -2.674164      0.9729974
      9829.0000         0.4723       2468.637         0.3743      -2.694744      0.9726654
      9829.5000          0.475       2455.625         0.3674      -2.709221      0.9724319
      9830.0000         0.4778       2442.609         0.3644      -2.660404      0.9732193
      9830.5000         0.4805       2426.625         0.3629      -2.611481      0.9740084
      9831.0000         0.4832        2409.68         0.3613      -2.562664      0.9747958
      9831.5000          0.486       2394.871         0.3637      -2.513847      0.9755831
      9832.0000         0.4887       2386.844         0.3672      -2.420326      0.9770915
      9832.5000         0.4914       2378.828         0.3708      -2.312107       0.978837
      9833.0000         0.4942       2376.973         0.3744      -2.203884      0.9805825
      9833.5000         0.4969       2379.531         0.3787      -2.095566      0.9823296
      9834.0000         0.4997       2389.305         0.3835      -1.794445      0.9871864
      9834.5000         0.5025        2399.09         0.3883      -1.489925       0.992098
      9835.0000         0.5053       2408.863          0.393      -1.186005      0.9969999
      9835.5000         0.5081       2418.648         0.3978     -0.9027863              1
      9836.0000         0.5108       2404.383         0.4026     -0.7142639              1
      9836.5000         0.5165       2323.926         0.4077       -0.52565              1
      9837.0000         0.5239       2271.473         0.4128       -0.42733              1
      9837.5000         0.5346       2230.305         0.4179     -0.7012062              1
      9838.0000         0.5454       2196.559          0.423     -0.9946861              1
      9838.5000         0.5562       2175.602         0.4282      -1.570667      0.9907957
      9839.0000         0.5617       2154.645         0.4333      -2.146648      0.9815057
      9839.5000         0.5669       2140.445         0.4371      -2.723827      0.9721963
      9840.0000          0.572       2128.395         0.4409      -3.354107      0.9620305
      9840.5000         0.5765       2117.781         0.4446      -3.803688      0.9547792
      9841.0000          0.575       2126.344         0.4484      -3.486172      0.9599004
      9841.5000         0.5734       2134.914         0.4522       -3.16935      0.9650105
      9842.0000         0.5719       2152.641         0.4559      -2.852531      0.9701205
      9842.5000         0.5704       2171.023         0.4542      -2.535709      0.9752305
      9843.0000         0.5688       2189.434         0.4524      -2.218891      0.9803405
      9843.5000         0.5684       2184.684         0.4507      -2.176472      0.9810246
      9844.0000         0.5684       2166.273          0.449      -2.165348      0.9812041
      9844.5000         0.5684       2146.508         0.4472      -2.154228      0.9813834
      9845.0000         0.5683       2126.762         0.4455      -2.143108      0.9815628
      9845.5000         0.5683       2110.988         0.4437      -2.131989      0.9817421
      9846.0000         0.5702       2104.719         0.4411      -2.148872      0.9814698
      9846.5000         0.5721       2098.434         0.4359      -2.173653      0.9810701
      9847.0000         0.5741        2092.16         0.4307      -2.198532      0.9806688
      9847.5000          0.576       2086.211         0.4254      -2.223213      0.9802707
      9848.0000         0.5715       2090.645         0.4202      -2.248093      0.9798695
      9848.5000          0.567       2095.082          0.415      -2.272873      0.9794698
      9849.0000         0.5624       2110.457         0.4098      -2.297752      0.9790685
      9849.5000         0.5578        2127.48         0.4046      -2.322533      0.9786688
      9850.0000         0.5532       2145.047         0.3994      -2.347313      0.9782692
      9850.5000         0.5486       2183.793         0.3942      -2.372097      0.9778694
      9851.0000          0.544       2223.773         0.3889      -2.396976      0.9774681
      9851.5000         0.5394       2282.559         0.3836      -2.421757      0.9770684
      9852.0000         0.5353       2313.582         0.3782      -2.456734      0.9765043
      9852.5000         0.5313       2340.379         0.3729      -2.532516       0.975282
      9853.0000         0.5272       2356.336         0.3676      -2.608093       0.974063
      9853.5000         0.5231       2372.293         0.3623      -2.683876      0.9728407
      9854.0000          0.519       2388.254         0.3569      -2.759453      0.9716218
      9854.5000         0.5149       2397.863         0.3516      -2.835236      0.9703994
      9855.0000         0.5108       2405.906         0.3473      -2.958813      0.9684063
      9855.5000         0.5068       2413.934          0.346      -3.101299      0.9661081
      9856.0000         0.5031       2421.965         0.3448      -3.243778        0.96381
      9856.5000         0.4995       2430.004         0.3436      -3.324356      0.9625104
      9857.0000          0.496       2437.129         0.3424      -3.156738      0.9652139
      9857.5000         0.4925       2442.609         0.3411      -2.989418      0.9679126
      9858.0000         0.4889        2448.09         0.3399      -2.821697      0.9706178
      9858.5000         0.4854       2453.559         0.3387      -2.654377      0.9733165
      9859.0000         0.4819       2459.039         0.3409      -2.510456      0.9756378
      9859.5000         0.4798       2462.719         0.3466      -2.379837      0.9777446
      9860.0000         0.4798       2461.176         0.3523      -2.249119      0.9798529
      9860.5000         0.4797        2452.48          0.358        -2.1185      0.9819597
      9861.0000         0.4797        2423.09         0.3638       -1.98798      0.9840648
      9861.5000         0.4796       2382.711         0.3695      -1.857361      0.9861716
      9862.0000         0.4852       2314.621         0.3752      -1.726738      0.9882784
      9862.5000         0.4918       2242.379          0.382      -1.668919       0.989211
      9863.0000         0.4983       2212.539         0.3982      -1.686298      0.9889306
      9863.5000         0.5444        2185.77         0.4143      -1.703579      0.9886519
      9864.0000         0.5707       2162.117         0.4304      -1.720959      0.9883716
      9864.5000         0.5732       2105.461         0.4466      -1.738338      0.9880913
      9865.0000         0.5757       2069.488         0.4562      -1.755623      0.9878125
      9865.5000         0.5781       2045.018          0.459      -1.806602      0.9869903
      9866.0000         0.5777       2025.844         0.4618      -1.866684      0.9860212
      9866.5000         0.5766       2048.184         0.4646      -1.926861      0.9850506
      9867.0000         0.5755       2066.566         0.4604      -1.980843        0.98418
      9867.5000         0.5744       2084.949         0.4493      -1.941723      0.9848109
      9868.0000         0.5732       2105.461         0.4382        -1.9025      0.9854435
      9868.5000         0.5669       2128.914         0.4271       -1.86338      0.9860745
      9869.0000         0.5578        2152.32          0.416      -1.824261      0.9867055
      9869.5000         0.5509       2181.813         0.4095      -1.785145      0.9873364
