#------------------------------------------------------------------------------
# Created by    : vladimir.rabinovich
# Created on    : 09/19/2023 17:19:49
#------------------------------------------------------------------------------
~Version Information Section
VERS.           2.0     :   CWLS log ASCII Standard - VERSION 2.0
WRAP.           NO      :   One line per depth step
~Well Information Section
#MNEM       .UNIT                                         VALUE :DESCRIPTION
#------------------------------------------------------------------------------
STRT        .FT                                             790 :START DEPTH
STOP        .FT                                           12500 :STOP DEPTH
STEP        .FT                                             0.5 :STEP      
NULL        .                                           -999.25 :NULL      
COMP        .                                 CHEVRON U S A INC :COMPANY   
WELL        .                               OCS G04596 ST00BP00 :WELL      
FLD         .                                           WILDCAT :FIELD     
LOC         .                                                   :LOCATION  
CNTY        .                        MUSTANG ISLAND LARGE BLOCK :LOCATION  
STAT        .                                             TEXAS :STATE     
CTRY        .                                     UNITED STATES :COUNTRY   
SRVC        .                                                   :SERVICE COMPANY
DATE        .                             9/13/2023 11:19:13 AM :LOG DATE  
API         .                                    42702401310000 :API NUMBER
UWI         .                                    42702401310000 :UNIQUE WELL ID
XCOORD      .                                  486632.184756912 :SURFACE X 
YCOORD      .                                  10088502.2555927 :SURFACE Y 
LAT         .                                          27.75488 :LATITUDE  
LON         .                                        -96.567316 :LONGITUDE 
ELEV        .FT                                              90 :ELEVATION VALUE
ELEV_TYPE   .                                                KB :ELEVATION REFERENCE TYPE
~Curve Information Section
#MNEM       .UNIT                                      API CODE :CURVE DESCRIPTION
#------------------------------------------------------------------------------
DEPT        .FT                                                 :DEPTH     
ASFL        .OHMM                                               :          
CILD        .MMHO                                               :          
GR          .GAPI                                               :          
GR_NORM     .GAPI                                               :GammaRay Normalized
ILD         .OHMM                                               :          
SP          .MV                                                 :          
SP_NORM     .MV                                                 :SP Normalized
VSH_GR      .V/V                                                :Volume of Shale from GR
VSH_SP      .V/V                                                :Volume of Shale from SP
~A        DEPTH           ASFL           CILD             GR        GR_NORM            ILD             SP        SP_NORM         VSH_GR         VSH_SP
# ...
      5586.5000         1.1089       982.0098        53.2407       61.59993          1.125       -74.8269      -15.61343      0.6085091      0.7716652
      5587.0000         1.1851       947.3896        52.9824       61.28769         1.1577       -76.2635      -17.05644      0.6018658      0.7491181
      5587.5000         1.2616       912.7686        52.7239       60.97521         1.1837         -77.14      -17.93936      0.5952172      0.7353225
      5588.0000         1.3683       881.0352        52.5214       60.73014         1.2065       -78.1074      -18.91317      0.5900031      0.7201067
      5588.5000         1.6707       854.1631        52.3895       60.57008         1.2294       -74.8257      -15.63789      0.5865974       0.771283
      5589.0000         1.7554       827.4385        52.9517        61.2457         1.2523       -70.4934        -11.312      0.6009724      0.8388749
      5589.5000         1.7436        806.291        53.5953       62.01932          1.238       -68.9742      -9.799217      0.6174324      0.8625122
      5590.0000           1.48       792.1025         54.239       62.79306         1.2157       -67.9054      -8.736835      0.6338948      0.8791119
      5590.5000         1.2879       828.2285        54.8974        63.5845         1.1937        -66.986      -7.823845      0.6507339      0.8933774
      5591.0000         1.2373       866.7236        55.6208        64.4542         1.1734       -66.0947      -6.938965      0.6692383      0.9072037
      5591.5000         1.2076       905.2178        56.3438       65.32342         1.1531        -65.262      -6.112675      0.6877323      0.9201145
      5592.0000         1.1925       937.4697        57.0672       66.19311         1.1328        -64.666       -5.52309      0.7062363      0.9293267
      5592.5000         1.1707       961.9238          57.79       67.06209         1.1125       -64.0701      -4.933601      0.7247253      0.9385375
      5593.0000         1.0961       986.3779        58.5135       67.93192         1.0922       -63.7072      -4.577118      0.7432323      0.9441075
      5593.5000         1.0367       1010.437        59.0092       68.52746         1.0719         -63.64      -4.516331      0.7559034      0.9450573
      5594.0000         0.9928        1023.12        59.4796       69.09254         1.0516       -63.5726      -4.455349      0.7679265      0.9460102
      5594.5000         0.9736       1035.816        59.9501       69.65778         1.0313       -63.5591      -4.448261      0.7799527      0.9461209
      5595.0000         0.9627         1048.5        60.4119       70.21251         1.0351       -63.5763      -4.471878      0.7917555      0.9457519
      5595.5000          0.994       1050.238        60.7847       70.66009         1.0532       -63.5934      -4.495388      0.8012785      0.9453846
      5596.0000         1.0253       1038.531        61.1578       71.10802         1.0713       -63.4514      -4.359806       0.810809       0.947503
      5596.5000         1.0555       1026.822        61.2748       71.24766         1.0894       -63.2352      -4.150017        0.81378       0.950781
      5597.0000         1.0854       1015.113        60.1521       69.89469         1.1075       -62.8674      -3.788631      0.7849934      0.9564276
      5597.5000         1.1153       994.9648        59.0294       68.54172          1.128       -62.4993      -3.426945      0.7562068       0.962079
      5598.0000         1.1453       974.0146        58.1463       67.47724         1.1485       -62.1315      -3.065559      0.7335584      0.9677256
      5598.5000         1.1739       953.0898        58.5455       67.95663          1.169        -61.864      -2.804474       0.743758      0.9718051
      5599.0000         1.1889       932.1641        59.2923       68.85449         1.1895       -62.4575      -3.404388      0.7628615      0.9624314
      5599.5000         1.2039       911.2139        59.9218       69.61114           1.21       -63.0516      -4.004906      0.7789603      0.9530483
      5600.0000         1.2188       886.7852        59.7112       69.35632         1.2304       -63.6451      -4.604816      0.7735388      0.9436747
      5600.5000         1.2398       861.6895        59.3685       68.94247         1.2509       -64.1316      -5.097733      0.7647333      0.9359729
      5601.0000         1.2668       831.9795        58.9742       68.46648         1.2714       -64.5966      -5.569149      0.7546061       0.928607
      5601.5000         1.2939       792.3984        58.5796       67.99012         1.2919       -65.0621      -6.041065      0.7444707      0.9212334
      5602.0000         1.3112       761.5537        56.4168       65.38493         1.3091       -65.4978      -6.483177       0.689041      0.9143254
      5602.5000         1.3273       766.1924        55.2548       63.98466         1.3222       -65.8488      -6.840591      0.6592481      0.9087408
      5603.0000         1.3435       790.3506        54.2501       62.77377         1.3352          -66.2        -7.1982      0.6334844      0.9031531
      5603.5000         1.3635       813.0771        53.2981       61.62633         1.3019        -66.551      -7.555622      0.6090708      0.8975684
      5604.0000         1.3841       835.8037        52.7208       60.93002         1.2598       -66.9969      -8.007935      0.5942558       0.890501
      5604.5000         1.2471       858.9014        54.8483       63.49023         1.2176       -67.4945      -8.511944      0.6487283      0.8826259
      5605.0000         1.1021       882.6641        56.9757       66.05029          1.176       -67.9595      -8.983364      0.7031977      0.8752599
      5605.5000         1.0175       906.7236        58.4435       67.81623         1.1356       -67.0837      -8.113976      0.7407709      0.8888441
      5606.0000         0.9914       931.1279        59.7849       69.42997         1.0953       -66.1826      -7.219292      0.7751057      0.9028236
      5606.5000         0.9746       955.9521        61.1262       71.04362          1.055        -65.281        -6.3241      0.8094386      0.9168109
      5607.0000         0.9832        1024.65        60.9438       70.82275         1.0147         -64.38      -5.429516      0.8047394      0.9307888
      5607.5000          0.992       1062.207        60.5642       70.36447         0.9941       -63.8625       -4.91843      0.7949888      0.9387745
      5608.0000         1.0007       1083.084        60.1847        69.9063         0.9802        -63.491      -4.553349      0.7852405      0.9444789
      5608.5000         1.0087       1092.287        59.8051       69.44802         0.9663       -63.1196      -4.188358      0.7754898      0.9501819
      5609.0000         1.0117       1097.377        59.4256       68.98985         0.9524       -62.7478      -3.822975      0.7657415       0.955891
      5609.5000         1.0006       1102.238        59.0463       68.53193         0.9517       -62.3763       -3.45789      0.7559985      0.9615955
      5610.0000         0.9895       1097.006        58.6667       68.07365         0.9575       -62.0045      -3.092506      0.7462478      0.9673046
      5610.5000         0.9784       1091.775        57.9789        67.2443         0.9633        -61.703      -2.797417      0.7286022      0.9719154
      5611.0000         0.9779       1086.543        58.3188       67.65228         0.9691       -61.5025      -2.603329      0.7372826       0.974948
      5611.5000         0.9874       1081.313        58.6895       68.09733         0.9749        -61.302      -2.409245      0.7467517      0.9779806
      5612.0000          0.997       1076.082        59.0693       68.55334         0.9807       -61.1017      -2.215359       0.756454        0.98101
      5612.5000         1.0065        1070.85        59.4492       69.00948         0.9865       -60.9012      -2.021275      0.7661591      0.9840426
