#------------------------------------------------------------------------------
# Created by    : vladimir.rabinovich
# Created on    : 09/19/2023 17:19:22
#------------------------------------------------------------------------------
~Version Information Section
VERS.           2.0     :   CWLS log ASCII Standard - VERSION 2.0
WRAP.           NO      :   One line per depth step
~Well Information Section
#MNEM       .UNIT                                         VALUE :DESCRIPTION
#------------------------------------------------------------------------------
STRT        .FT                                            2350 :START DEPTH
STOP        .FT                                            7008 :STOP DEPTH
STEP        .FT                                             0.5 :STEP      
NULL        .                                           -999.25 :NULL      
COMP        .                                  W&T OFFSHORE INC :COMPANY   
WELL        .                               OCS G04565 ST00BP00 :WELL      
FLD         .                              GALVESTON BLOCK 0303 :FIELD     
LOC         .                                                   :LOCATION  
CNTY        .                             GALVESTON LARGE BLOCK :LOCATION  
STAT        .                                             TEXAS :STATE     
CTRY        .                                     UNITED STATES :COUNTRY   
SRVC        .                                                   :SERVICE COMPANY
DATE        .                             9/13/2023 11:19:03 AM :LOG DATE  
API         .                                    42706403950000 :API NUMBER
UWI         .                                    42706403950000 :UNIQUE WELL ID
XCOORD      .                                  979190.041446607 :SURFACE X 
YCOORD      .                                   10483081.623763 :SURFACE Y 
LAT         .                                        28.8707847 :LATITUDE  
LON         .                                       -95.0663777 :LONGITUDE 
ELEV        .FT                                              91 :ELEVATION VALUE
ELEV_TYPE   .                                                KB :ELEVATION REFERENCE TYPE
~Curve Information Section
#MNEM       .UNIT                                      API CODE :CURVE DESCRIPTION
#------------------------------------------------------------------------------
DEPT        .FT                                                 :DEPTH     
AF20        .OHMM                                               :          
AFCO        .MMHO                                               :          
AO90        .OHMM                                               :          
AT10        .OHMM                                               :          
AT20        .OHMM                                               :          
AT30        .OHMM                                               :          
AT60        .OHMM                                               :          
AT90        .OHMM                                               :          
DCAL        .IN                                                 :          
DPHI        .%                                                  :          
DRHO        .G/C3                                               :          
GR          .GAPI                                               :          
GR_NORM     .GAPI                                               :GammaRay Normalized
GRN         .GAPI                                               :          
NPOR        .%                                                  :          
RWA         .OHMM                                               :          
SP          .MV                                                 :          
SP_NORM     .MV                                                 :SP Normalized
TENR        .LBF                                                :          
TPHI        .%                                                  :          
VSH_GR      .V/V                                                :Volume of Shale from GR
VSH_SP      .V/V                                                :Volume of Shale from SP
~A        DEPTH           AF20           AFCO           AO90           AT10           AT20           AT30           AT60           AT90           DCAL           DPHI           DRHO             GR        GR_NORM            GRN           NPOR            RWA             SP        SP_NORM           TENR           TPHI         VSH_GR         VSH_SP
# ...
      4894.0000           0.39       5555.555           0.18           0.47           0.39            0.3           0.22           0.22         12.925           83.7          -0.07             23       31.17131        -999.25        66.7765            0.2       -71.7999      -59.13693           2435        -999.25              0     0.01438446
      4894.5000           0.39       5555.555           0.18           0.47           0.39            0.3           0.22           0.22         12.925        84.6998          -0.07           21.2       29.55036        -999.25        75.7541           0.21          -72.1      -59.43305           2435        -999.25              0    0.009449196
      4895.0000           0.39       5555.555           0.18           0.46           0.39            0.3           0.22           0.22         13.025        85.2999          -0.07             25        32.9694        -999.25       122.2201           0.21          -72.6      -59.92907           2435        -999.25              0    0.001182238
      4895.5000           0.39       5555.555           0.18           0.46           0.39            0.3           0.22           0.22         12.925        85.8999          -0.08           25.3       33.23843        -999.25       128.6065           0.21       -72.2999      -59.62498           2435        -999.25     0.00507306    0.006250318
      4896.0000           0.39       5263.156           0.19           0.46           0.39            0.3           0.22           0.22         13.025           85.6          -0.07           24.8       32.78748        -999.25        131.024           0.21       -72.2999        -59.621           2470        -999.25              0    0.006316693
      4896.5000           0.39       5263.156           0.19           0.46           0.39            0.3           0.22           0.22         12.925        85.3999          -0.07           23.1       31.25652        -999.25        120.228           0.21       -71.8999      -59.21702           2470        -999.25              0     0.01304963
      4897.0000           0.39       5263.156           0.19           0.45           0.39            0.3           0.22           0.22         13.025        85.6998          -0.07           23.5       31.61556        -999.25       110.9326           0.22       -71.7999      -59.11303           2470        -999.25              0     0.01478278
      4897.5000            0.4       5263.156           0.19           0.45           0.39            0.3           0.22           0.22         12.925        85.8999          -0.08           25.5        33.4146        -999.25        96.3758           0.22       -71.8999      -59.20906           2470        -999.25    0.008821203     0.01318239
      4898.0000            0.4       5263.156           0.19           0.45           0.39           0.31           0.22           0.22         13.025        85.4999          -0.07           22.3       30.53364        -999.25        83.9307           0.22          -71.6      -58.90517           2420        -999.25              0     0.01824722
      4898.5000            0.4       5263.156           0.19           0.45            0.4           0.31           0.22           0.22         13.025        85.7999          -0.08           22.7       30.89268        -999.25        79.4188           0.22       -71.7999      -59.10108           2420        -999.25              0     0.01498197
      4899.0000            0.4       5263.156           0.19           0.45            0.4           0.31           0.23           0.22         12.925        86.3999          -0.08           24.7       32.69172        -999.25         84.881           0.23          -71.7       -58.9972           2420        -999.25              0     0.01671333
      4899.5000            0.4           5000            0.2           0.46            0.4           0.31           0.23           0.23         13.025        86.4999          -0.08           27.1       34.85077        -999.25        95.8303           0.23          -72.1      -59.39322           2420        -999.25     0.03937798     0.01011302
      4900.0000            0.4           5000            0.2           0.46            0.4           0.32           0.23           0.23         13.025           86.2          -0.07           25.2        33.1398        -999.25       100.1399           0.23          -72.5      -59.78924           2405        -999.25    0.002974571      0.0035127
      4900.5000            0.4           5000            0.2           0.46            0.4           0.31           0.23           0.23         12.925        86.2999          -0.08             23       31.15884        -999.25        99.2371           0.23          -72.5      -59.78526           2405        -999.25              0    0.003579076
      4901.0000           0.39           5000            0.2           0.46            0.4           0.31           0.23           0.23         13.025           86.2          -0.07           23.9       31.96788        -999.25        95.0157           0.23          -72.7      -59.98127           2405        -999.25              0   0.0003121694
      4901.5000           0.39       5263.156           0.19           0.45           0.39           0.31           0.22           0.22         13.025        85.4999          -0.07           26.3       34.12693        -999.25        86.5549           0.22          -72.5      -59.77729           2405        -999.25     0.02397716    0.003711828
      4902.0000           0.39       5263.156           0.19           0.45           0.39            0.3           0.22           0.22         12.925           85.1          -0.06           26.7       34.48597        -999.25        74.7859           0.21          -72.7       -59.9733           2435        -999.25     0.03161629   0.0004449208
      4902.5000           0.38       5555.555           0.18           0.45           0.38            0.3           0.22           0.22         13.025        84.5999          -0.06             27         34.755        -999.25        69.8649           0.21          -72.6      -59.86932           2435        -999.25     0.03734053    0.002177938
      4903.0000           0.38       5555.555           0.18           0.45           0.38           0.29           0.22           0.22         12.925        84.8999          -0.07           26.7       34.48405        -999.25        71.1544           0.21          -72.2      -59.46534           2435        -999.25     0.03157555    0.008911005
      4903.5000           0.38       5555.555           0.18           0.45           0.38           0.29           0.22           0.22         13.025        84.9999          -0.07           25.8       33.67309        -999.25        70.3943            0.2       -72.3999      -59.66126           2435        -999.25     0.01432102    0.005645688
      4904.0000           0.38       5555.555           0.18           0.45           0.37           0.29           0.22           0.22         12.925        85.8999          -0.08           25.4       33.31213        -999.25        76.3616           0.21            -72      -59.25737           2405        -999.25    0.006640982      0.0123771
      4904.5000           0.37       5555.555           0.18           0.45           0.37           0.29           0.22           0.22         13.025        85.8999          -0.08           23.7       31.78117        -999.25         120.06           0.21       -72.3999      -59.65329           2405        -999.25              0     0.00577844
      4905.0000           0.37       5555.555           0.18           0.46           0.37           0.29           0.22           0.22         12.925        85.4999          -0.08           25.4       33.31021        -999.25       128.7147           0.21          -72.5      -59.74941           2405        -999.25    0.006600238    0.004176521
      4905.5000           0.37       5555.555           0.18           0.46           0.37           0.29           0.22           0.22         13.025        84.9999          -0.08           24.9       32.85925        -999.25       128.6641            0.2       -72.3999      -59.64533           2405        -999.25              0    0.005911191
