#------------------------------------------------------------------------------
# Created by    : vladimir.rabinovich
# Created on    : 09/19/2023 17:21:24
#------------------------------------------------------------------------------
~Version Information Section
VERS.           2.0     :   CWLS log ASCII Standard - VERSION 2.0
WRAP.           NO      :   One line per depth step
~Well Information Section
#MNEM       .UNIT                                         VALUE :DESCRIPTION
#------------------------------------------------------------------------------
STRT        .FT                                            4000 :START DEPTH
STOP        .FT                                            8085 :STOP DEPTH
STEP        .FT                                             0.5 :STEP      
NULL        .                                           -999.25 :NULL      
COMP        .                             WALTER OIL & GAS CORP :COMPANY   
WELL        .                               OCS G09047 ST00BP00 :WELL      
FLD         .                              GALVESTON BLOCK 0351 :FIELD     
LOC         .                                                   :LOCATION  
CNTY        .                             GALVESTON LARGE BLOCK :LOCATION  
STAT        .                                             TEXAS :STATE     
CTRY        .                                     UNITED STATES :COUNTRY   
SRVC        .                                                   :SERVICE COMPANY
DATE        .                             9/13/2023 11:19:36 AM :LOG DATE  
API         .                                    42706402000000 :API NUMBER
UWI         .                                    42706402000000 :UNIQUE WELL ID
XCOORD      .                                  1036183.96101641 :SURFACE X 
YCOORD      .                                  10437562.0132666 :SURFACE Y 
LAT         .                                        28.7482272 :LATITUDE  
LON         .                                       -94.8860948 :LONGITUDE 
ELEV        .FT                                              80 :ELEVATION VALUE
ELEV_TYPE   .                                                KB :ELEVATION REFERENCE TYPE
~Curve Information Section
#MNEM       .UNIT                                      API CODE :CURVE DESCRIPTION
#------------------------------------------------------------------------------
DEPT        .FT                                                 :DEPTH     
CALI        .IN                                                 :          
DRHO        .G/C3                                               :          
GR          .GAPI                                               :          
GR_NORM     .GAPI                                               :GammaRay Normalized
ILD         .OHMM                                               :          
ILM         .OHMM                                               :          
NPHI        .%                                                  :          
RHOB        .G/C3                                               :          
SFL         .OHMM                                               :          
SP          .MV                                                 :          
SP_NORM     .MV                                                 :SP Normalized
VSH_GR      .V/V                                                :Volume of Shale from GR
VSH_SP      .V/V                                                :Volume of Shale from SP
~A        DEPTH           CALI           DRHO             GR        GR_NORM            ILD            ILM           NPHI           RHOB            SFL             SP        SP_NORM         VSH_GR         VSH_SP
# ...
      6451.0000          9.798         0.1302        79.9775       70.71574         0.5598           0.62        33.7768         2.3266         0.6947       -57.6259      -13.18145      0.8024626      0.8116935
      6451.5000          9.826         0.1227         80.458       71.24963          0.583         0.6387         34.497         2.3273          0.698       -55.5454      -11.10095       0.813822       0.841415
      6452.0000         9.8439         0.0955        77.5181       67.98308         0.5989         0.6416        34.9803         2.3269         0.7373       -55.7894      -11.34495      0.7443208      0.8379292
      6452.5000         9.7787         0.0564        73.6951        63.7353         0.6106         0.6333        33.1533         2.3226         0.7728       -59.7275      -15.28305      0.6539426      0.7816706
      6453.0000         9.7138         0.0269        70.0245       59.65686         0.6075         0.6185        31.9393         2.3184         0.8058       -68.3345      -23.89006      0.5671672      0.6587135
      6453.5000         9.6506         0.0301        66.8971       56.18197         0.5927         0.6042        31.6028         2.3142         0.8324       -79.0431      -34.59865      0.4932335      0.5057335
      6454.0000         9.6162          0.034         64.938        54.0052         0.5758         0.5852        31.5755         2.3145         0.8347       -81.0421      -36.59765      0.4469191      0.4771764
      6454.5000         9.5871         0.0384        66.4692       55.70652         0.5563         0.5661        32.0112         2.3148         0.8011       -78.2399      -33.79545      0.4831175      0.5172078
      6455.0000          9.558         0.0428        68.2906        57.7303         0.5375         0.5476        33.2178         2.3123         0.7567       -73.8613      -29.41685      0.5261767      0.5797593
      6455.5000         9.5327         0.0411        70.1134       59.75564         0.5265         0.5345        34.2945          2.309         0.7211       -72.0367      -27.59225      0.5692689       0.605825
      6456.0000         9.5088         0.0366        71.3481       61.12752         0.5158          0.523        34.1032         2.2985         0.7154       -71.8823      -27.43785      0.5984579      0.6080306
      6456.5000         9.4908         0.0321        71.6909       61.50842         0.5099         0.5198        33.9944           2.29         0.7232       -74.8646      -30.42015       0.606562      0.5654263
      6457.0000         9.4874         0.0313        70.8265       60.54797         0.5065         0.5291        33.9379          2.288         0.7281        -77.271      -32.82656       0.586127      0.5310492
      6457.5000          9.484         0.0306        69.7756        59.3803         0.5071         0.5492         34.364         2.3011         0.7255       -75.6628      -31.21836      0.5612829      0.5540234
      6458.0000         9.4795         0.0309        69.2252       58.76874         0.5095         0.5694        34.4411           2.31         0.7271        -74.024      -29.57956      0.5482711      0.5774349
      6458.5000         9.4685         0.0319        69.5161       59.09196         0.5117         0.5801         34.105         2.3177         0.7374       -74.1478      -29.70335      0.5551482      0.5756664
      6459.0000         9.4575         0.0328        69.8073       59.41552         0.4715         0.5539        33.0109         2.3188         0.7514       -74.4559      -30.01146      0.5620323      0.5712649
      6459.5000         9.4465         0.0318        70.3192        59.9843          0.434         0.5195        31.7969         2.3241         0.7567       -74.4531      -30.00866       0.574134      0.5713049
      6460.0000         9.4367         0.0281        69.6431       59.23308         0.3817         0.4531        30.7725         2.3327         0.7599       -74.7333      -30.28885      0.5581506      0.5673021
      6460.5000         9.4313         0.0244        66.5693       55.81775         0.3302         0.3922        30.8212         2.3295         0.7593       -77.9772      -33.53276      0.4854839      0.5209606
      6461.0000         9.4259         0.0208        62.2759        51.0473         0.2974         0.3281        31.4634         2.2701         0.7443       -88.8309      -44.38646      0.3839852      0.3659078
      6461.5000         9.4204         0.0194        56.1385       44.22797         0.2691          0.276        32.2383         2.2058         0.7279       -99.9598      -55.51535       0.238893      0.2069235
      6462.0000         9.4495         0.0182        53.2249       40.99063         0.2497         0.2602        32.6876         2.1725         0.6769      -108.6669      -64.22246      0.1700135     0.08253632
      6462.5000         9.4903         0.0171        51.6824       39.27674         0.2484         0.2658        32.8513         2.1726         0.6325      -119.3507      -74.90625      0.1335478              0
      6463.0000          9.531         0.0168        50.2037       37.63375         0.2594         0.2894        33.3742         2.1977         0.5931      -119.6122      -75.16776     0.09859037              0
      6463.5000         9.5626         0.0187        50.4464       37.90341         0.2769         0.3207        33.4224         2.2276         0.5807      -115.4923      -71.04785      0.1043279              0
      6464.0000         9.5894         0.0207        52.3179       39.98286         0.3025         0.3723        32.7524         2.2597         0.6257      -105.5443      -61.09985      0.1485715       0.127145
      6464.5000         9.6161         0.0226         56.166       44.25853         0.3379         0.4209        31.9108         2.2899         0.7213       -87.4899      -43.04545      0.2395431       0.385065
      6465.0000         9.6429         0.0246        59.8339       48.33397         0.3746         0.4513        31.0134         2.3163         0.7885       -79.4159      -34.97145      0.3262547      0.5004078
      6465.5000         9.6367         0.0263        63.1341       52.00086         0.4073         0.4585         31.312         2.3193          0.779       -78.7009      -34.25645      0.4042736      0.5106221
      6466.0000         9.6256         0.0248        64.2136        53.2003         0.4158         0.4459        32.1611         2.3075           0.72       -81.3674      -36.92295      0.4297937      0.4725292
      6466.5000         9.6145         0.0234        63.7277       52.66041         0.4134         0.4278        32.5821         2.2918         0.7058       -85.3081      -40.86365      0.4183066      0.4162335
      6467.0000         9.6034         0.0218        63.4792        52.3843         0.3861          0.399         32.773         2.2687         0.7041        -89.574      -45.12955      0.4124319      0.3552921
      6467.5000         9.5879         0.0198        63.3715       52.26463         0.3588         0.3722        33.2395         2.2631         0.6849       -90.7584      -46.31395      0.4098858      0.3383721
      6468.0000         9.5722         0.0178        63.3469        52.2373         0.3241         0.3493        33.8323         2.2549         0.6662       -89.2863      -44.84185      0.4093044      0.3594021
      6468.5000         9.5565         0.0184        63.4781       52.38308         0.3037         0.3303        34.9676         2.2383         0.6334       -87.3097      -42.86525      0.4124059      0.3876392
      6469.0000         9.5396         0.0236        63.6093       52.52885         0.2901         0.3209        35.1791         2.2206         0.6106       -89.9043      -45.45985      0.4155075      0.3505736
      6469.5000         9.5169         0.0285        63.4062       52.30319         0.2863         0.3213        35.0165         2.2312         0.5929       -93.5835      -49.13906      0.4107062      0.2980135
