#------------------------------------------------------------------------------
# Created by    : vladimir.rabinovich
# Created on    : 09/19/2023 17:22:40
#------------------------------------------------------------------------------
~Version Information Section
VERS.           2.0     :   CWLS log ASCII Standard - VERSION 2.0
WRAP.           NO      :   One line per depth step
~Well Information Section
#MNEM       .UNIT                                         VALUE :DESCRIPTION
#------------------------------------------------------------------------------
STRT        .FT                                            3744 :START DEPTH
STOP        .FT                                            9989 :STOP DEPTH
STEP        .FT                                             0.5 :STEP      
NULL        .                                           -999.25 :NULL      
COMP        .                          SEAGULL ENERGY E & P INC :COMPANY   
WELL        .                               OCS G07243 ST00BP00 :WELL      
FLD         .                                           WILDCAT :FIELD     
LOC         .                                                   :LOCATION  
CNTY        .                             GALVESTON LARGE BLOCK :LOCATION  
STAT        .                                             TEXAS :STATE     
CTRY        .                                     UNITED STATES :COUNTRY   
SRVC        .                                                   :SERVICE COMPANY
DATE        .                             9/13/2023 11:19:34 AM :LOG DATE  
API         .                                    42706403030000 :API NUMBER
UWI         .                                    42706403030000 :UNIQUE WELL ID
XCOORD      .                                   1005609.3052046 :SURFACE X 
YCOORD      .                                  10500547.7567395 :SURFACE Y 
LAT         .                                          28.92005 :LATITUDE  
LON         .                                        -94.984771 :LONGITUDE 
ELEV        .FT                                              96 :ELEVATION VALUE
ELEV_TYPE   .                                                KB :ELEVATION REFERENCE TYPE
~Curve Information Section
#MNEM       .UNIT                                      API CODE :CURVE DESCRIPTION
#------------------------------------------------------------------------------
DEPT        .FT                                                 :DEPTH     
DCAL        .IN                                                 :          
DPHI        .%                                                  :          
GR          .GAPI                                               :          
GR_NORM     .GAPI                                               :GammaRay Normalized
ILD         .OHMM                                               :          
ILM         .OHMM                                               :          
NPHI        .%                                                  :          
SFL         .OHMM                                               :          
SP          .MV                                                 :          
SP_NORM     .MV                                                 :SP Normalized
VSH_GR      .V/V                                                :Volume of Shale from GR
VSH_SP      .V/V                                                :Volume of Shale from SP
~A        DEPTH           DCAL           DPHI             GR        GR_NORM            ILD            ILM           NPHI            SFL             SP        SP_NORM         VSH_GR         VSH_SP
# ...
      7106.0000         2.4315        23.8641        72.4426       88.58442         0.5789         0.5943        41.5142         0.5876       -40.1187      -4.607373              1      0.9550453
      7106.5000         2.3684        25.0186        73.1398       89.50011         0.5811         0.5952        40.9556         0.5883       -40.1134      -4.598076              1      0.9552056
      7107.0000         2.4206        25.9819        73.4479       89.90475         0.5836         0.5959        40.7216         0.5888       -40.1081      -4.588778              1      0.9553659
      7107.5000         2.5549        25.4947        73.8948        90.4917         0.5856         0.5952        41.2111         0.5896       -40.1028      -4.579476              1      0.9555263
      7108.0000         2.7522        24.1458        74.9946       91.93614         0.5872         0.5944        42.4514         0.5907       -40.0975      -4.570174              1      0.9556867
      7108.5000         2.9432        22.7318        76.8621       94.38886         0.5884         0.5937        44.2764         0.5908       -40.0922      -4.560876              1       0.955847
      7109.0000         3.0976         24.633        78.4232       96.43916         0.5891         0.5931        44.3684           0.59       -40.0869      -4.551574              1      0.9560074
      7109.5000         3.1097        25.7383        77.4166       95.11713         0.5897         0.5926        43.1821         0.5906       -40.0816      -4.542272              1      0.9561678
      7110.0000           2.88        24.8615        75.1353       92.12093         0.5902         0.5916         42.518         0.5903       -40.0763      -4.532974              1       0.956328
      7110.5000         2.6759        23.6951         73.151       89.51482         0.5907         0.5891        42.9171         0.5894        -40.071      -4.523672              1      0.9564884
      7111.0000         2.6437         24.233         72.459       88.60596         0.5897         0.5866         43.223         0.5888       -40.0657      -4.514374              1      0.9566487
      7111.5000         2.6468        24.1898        72.6299       88.83041         0.5878         0.5861         42.856         0.5876       -40.0604      -4.505067              1      0.9568092
      7112.0000         2.5221        24.1055        73.0997       89.44744          0.588         0.5861        42.7291         0.5847       -40.0551       -4.49577              1      0.9569695
      7112.5000         2.4229        24.8607         71.645       87.53687         0.5891          0.586        43.8304         0.5779       -40.0498      -4.486473              1      0.9571298
      7113.0000         2.3825        25.2894        69.2034       84.33015         0.5924          0.587        44.5747         0.5721       -40.0446      -4.477296              1       0.957288
      7113.5000         2.3818        25.4247        67.0061       81.44429         0.6088         0.5969        43.7813         0.5701       -40.0392      -4.467868              1      0.9574506
      7114.0000         2.3954        25.1582         64.985       78.78983         0.6199         0.6114        41.7404         0.5804       -40.0339       -4.45857      0.9742517      0.9576108
      7114.5000         2.4394        23.6871        64.0543       77.56747         0.6261         0.6213        40.1114         0.6218       -40.0286      -4.449268      0.9482442      0.9577712
      7115.0000         2.5676        22.1874        64.4147       78.04082         0.6297         0.6291         39.767         0.6721       -40.0233      -4.439966      0.9583153      0.9579316
      7115.5000         2.8472        21.3606        65.1151        78.9607         0.6328         0.6328        39.3163         0.7194       -40.0181      -4.430794      0.9778873      0.9580898
      7116.0000         3.0962        22.9809        66.1021       80.25699         0.6354         0.6368        38.7061         0.7333       -40.0128      -4.421492              1      0.9582502
      7116.5000         3.3163        24.2568        67.3097       81.84302          0.634         0.6379        41.3754          0.699       -40.0074      -4.412064              1      0.9584127
      7117.0000         3.4999        23.5269        68.0212       82.77749         0.6316         0.6359        42.7814         0.6588       -40.0021      -4.402766              1       0.958573
      7117.5000         3.5825         22.946         66.926       81.33909         0.6316         0.6325        44.0923         0.6265       -39.9968      -4.393464              1      0.9587334
      7118.0000         3.4509        24.5822        65.2321       79.11436          0.632           0.63        45.2325         0.6088       -40.0906      -4.510292      0.9811567      0.9567191
      7118.5000         3.2898        25.3312        64.4426       78.07746          0.633         0.6319        44.8937            0.6       -40.0347      -4.436586      0.9590949      0.9579899
      7119.0000         2.9856        22.9222        64.8273       78.58272         0.6355         0.6368        43.4686         0.6139       -40.0082       -4.40031      0.9698451      0.9586154
      7119.5000         2.7261        20.6322        65.4207       79.36207         0.6381         0.6458        42.1292         0.6528       -40.0427      -4.441665       0.986427      0.9579023
      7120.0000         2.8469        20.7957         64.937       78.72678         0.6415         0.6541        41.0548         0.6881       -40.2018      -4.641597      0.9729103      0.9544553
      7120.5000         3.1977        22.9365        64.0021       77.49892         0.6442         0.6613        40.0313         0.7147       -40.3203      -4.789861      0.9467856      0.9518989
      7121.0000         3.5321        22.6786        62.9863        76.1648         0.6458         0.6626        41.1056         0.6914       -40.3416      -4.814413         0.9184      0.9514756
      7121.5000         3.7848        21.9058        61.8298       74.64587         0.6459         0.6625        42.3593         0.6707       -40.3166      -4.780044      0.8860824      0.9520682
      7122.0000         3.7718        22.0815        60.2857       72.61791         0.6466         0.6624        43.7146         0.6515       -40.2922      -4.746428      0.8429343      0.9526478
      7122.5000         3.5001        22.5993        58.3973       70.13774         0.6487         0.6623        44.4904         0.6348         -40.29      -4.741077      0.7901647      0.9527401
      7123.0000         3.1607         23.215        57.9195       69.51022          0.652         0.6628        44.1788         0.6271       -40.2769      -4.721851      0.7768133      0.9530715
      7123.5000         3.0209        23.9125        57.9841       69.59505         0.6562         0.6651         43.586         0.6277       -40.2419      -4.674747      0.7786182      0.9538836
      7124.0000         3.0801         23.757        55.8387       66.77736         0.6601         0.6677        43.1004         0.6677       -40.0908      -4.479884      0.7186672      0.9572434
      7124.5000         3.0406          21.24        53.7677       64.05737         0.6641         0.6699        42.1562         0.7151       -39.9783      -4.334145      0.6607952      0.9597561
      7125.0000         2.8731        18.4406        52.5443        62.4506          0.669         0.6706        41.0548         0.7483        -39.999      -4.357939      0.6266085      0.9593459
      7125.5000         2.6914        19.0246        54.6508        65.2172         0.6729           0.67         40.789         0.7376       -40.0197      -4.381724      0.6854724      0.9589358
      7126.0000         2.9999          21.64        57.5681        69.0487         0.6741         0.6662        41.7975         0.6823       -40.0019      -4.356517      0.7669936      0.9593704
