#------------------------------------------------------------------------------
# Created by    : vladimir.rabinovich
# Created on    : 09/19/2023 17:20:31
#------------------------------------------------------------------------------
~Version Information Section
VERS.           2.0     :   CWLS log ASCII Standard - VERSION 2.0
WRAP.           NO      :   One line per depth step
~Well Information Section
#MNEM       .UNIT                                         VALUE :DESCRIPTION
#------------------------------------------------------------------------------
STRT        .FT                                            2377 :START DEPTH
STOP        .FT                                            9500 :STOP DEPTH
STEP        .FT                                             0.5 :STEP      
NULL        .                                           -999.25 :NULL      
COMP        .                                     SKELLY OIL CO :COMPANY   
WELL        .                                     ST TR 00146-L :WELL      
FLD         .                                           WILDCAT :FIELD     
LOC         .                                                   :LOCATION  
CNTY        .                             GALVESTON LARGE BLOCK :LOCATION  
STAT        .                                             TEXAS :STATE     
CTRY        .                                     UNITED STATES :COUNTRY   
SRVC        .                                                   :SERVICE COMPANY
DATE        .                             9/13/2023 11:19:24 AM :LOG DATE  
API         .                                    42706001330000 :API NUMBER
UWI         .                                    42706001330000 :UNIQUE WELL ID
XCOORD      .                                  1116482.89093459 :SURFACE X 
YCOORD      .                                  10631825.2810539 :SURFACE Y 
LAT         .                                         29.285733 :LATITUDE  
LON         .                                       -94.6439746 :LONGITUDE 
ELEV        .FT                                              61 :ELEVATION VALUE
ELEV_TYPE   .                                                KB :ELEVATION REFERENCE TYPE
~Curve Information Section
#MNEM       .UNIT                                      API CODE :CURVE DESCRIPTION
#------------------------------------------------------------------------------
DEPT        .FT                                                 :DEPTH     
ASN         .OHMM                                               :          
CALI        .IN                                                 :          
CILD        .MMHO                                               :          
DT          .US/F                                               :          
ILD         .OHMM                                               :          
SP          .MV                                                 :          
SP_NORM     .MV                                                 :SP Normalized
VSH_SP      .V/V                                                :Volume of Shale from SP
~A        DEPTH            ASN           CALI           CILD             DT            ILD             SP        SP_NORM         VSH_SP
# ...
      5681.0000         0.4196        10.1853       4691.586       118.4109         0.2849      -136.6978       -79.7281    0.003441726
      5681.5000          0.395         10.207       4665.078       117.8746         0.2814      -136.2288      -79.25911    0.009378361
      5682.0000         0.3853        10.2313        4640.25       117.6313         0.2746      -135.7344      -78.76471     0.01563659
      5682.5000         0.3798        10.2905       4607.867       117.4928         0.2753      -135.2407      -78.27101     0.02188593
      5683.0000         0.3759        10.3585       4592.406       117.4504         0.2824      -134.7471       -77.7774     0.02813412
      5683.5000          0.372        10.3981       4561.836       117.7312          0.287      -133.5471      -76.57741     0.04332395
      5684.0000          0.376         10.343       4554.789       118.4545         0.2761      -133.2964      -76.32671     0.04649739
      5684.5000         0.3842        10.2593       4693.484       119.3948         0.2652      -133.2268      -76.25711     0.04737835
      5685.0000         0.3913        10.2539       4800.102       120.1006         0.2569       -133.613      -76.64331     0.04248974
      5685.5000         0.3883        10.2913       4854.438       119.0337          0.254      -133.9988       -77.0291     0.03760635
      5686.0000         0.3852        10.1735       4850.914       118.7457         0.2512      -133.8296      -76.85991     0.03974799
      5686.5000         0.3809        10.0524       4759.508       117.9757         0.2582      -133.1953       -76.2256      0.0477772
      5687.0000          0.377        10.0679       4502.008       116.8933         0.2661      -132.0562       -75.0865     0.06219618
      5687.5000         0.3753        10.1755       4206.977       117.0541          0.274      -130.3931       -73.4234     0.08324809
      5688.0000         0.3763        10.2745       3431.805       118.7263         0.2873      -126.7532       -69.7835      0.1293228
      5688.5000         0.3853        10.3365        3567.18       120.2764         0.3054      -115.1324       -58.1627      0.2764215
      5689.0000          0.412        10.3391       3407.531       122.6707         0.3434      -103.0946       -46.1249      0.4287987
      5689.5000         0.4461         10.298        2003.18       124.3076         0.3814        -98.201       -41.2313       0.490743
      5690.0000          0.491        10.2658        1998.16       123.3334          0.418       -92.8453       -35.8756      0.5585366
      5690.5000         0.5265        10.2651       1920.225       121.9025         0.4471       -66.6395      -9.669807      0.8902556
      5691.0000         0.5403        10.3503        1469.25       118.8722         0.4763       -56.9782    -0.00850296              1
      5691.5000         0.5552        10.5376       1489.068       117.8656         0.5056       -55.3642       1.605495              1
      5692.0000         0.5712        10.6993       1576.498       117.6888         0.5352       -54.4134       2.556297              1
      5692.5000         0.5717        10.3997       1633.963        117.577         0.5601       -54.0457       2.923996              1
      5693.0000         0.5721        10.2051       1695.656       116.7268          0.563       -54.2545       2.715195              1
      5693.5000         0.5726        10.1996       1814.664       117.0841         0.5659       -54.8793       2.090397              1
      5694.0000         0.5731          10.23       1841.092       113.0637         0.5689       -56.6918      0.2778969              1
      5694.5000         0.5757        10.2673       1851.303         112.53         0.5623       -58.8597      -1.890003      0.9887341
      5695.0000         0.5789        10.3019       1876.031       118.1166         0.5556       -60.6182      -3.648502      0.9664747
      5695.5000          0.582        10.3379       1896.529       112.8741         0.5476       -61.9496      -4.979904      0.9496214
      5696.0000         0.5851        10.2734       1993.131       109.0159         0.5392       -61.9244      -4.954704      0.9499404
      5696.5000         0.5883        10.1903       1989.025       108.2825         0.5289       -60.3795      -3.409805      0.9694961
      5697.0000         0.5914        10.1266       1984.922       108.7322         0.5185       -59.0613      -2.091602      0.9861823
      5697.5000         0.5945        10.1299        2116.18       109.6021         0.5081       -58.5181      -1.548405      0.9930581
      5698.0000         0.5961        10.1307       2151.508       119.0194         0.4977       -59.3018      -2.332104      0.9831379
      5698.5000         0.5976        10.1199       2243.797       120.3914         0.4874       -61.2663      -4.296604      0.9582708
      5699.0000         0.5923        10.0795       2346.914       119.4203          0.477       -67.9961      -11.02641      0.8730835
      5699.5000         0.5857        10.0465        2491.23       119.2194         0.4658       -71.7867        -14.817      0.8251013
      5700.0000         0.5791         10.051        2519.32       119.0973          0.453       -75.2308       -18.2611       0.781505
      5700.5000         0.5557        10.0788       2486.848       119.0798         0.4403       -73.3035       -16.3338      0.8059012
      5701.0000         0.5373        10.0835        2427.57       119.3584         0.4422         -74.17       -17.2003      0.7949329
      5701.5000         0.5241        10.0856        2378.82       118.7401         0.4456       -75.0367        -18.067       0.783962
      5702.0000         0.5278        10.0883       2301.965       117.8983         0.4496       -76.5497         -19.58      0.7648101
      5702.5000         0.5315        10.0757       2166.289       119.1105         0.4569       -78.2001      -21.23041      0.7439189
      5703.0000         0.5353        10.0595       2081.832       120.0083         0.4642       -78.8846       -21.9149      0.7352544
      5703.5000          0.549        10.1038       2028.396       121.7253         0.4714       -77.5381      -20.56841      0.7522987
      5704.0000         0.5677        10.1809       1867.443        123.541         0.4815        -73.392       -16.4223       0.804781
      5704.5000          0.584        10.2649       1786.209       121.9274         0.4931       -69.3627      -12.39301      0.8557847
      5705.0000          0.596        10.1987       1773.984       119.8687         0.5047       -64.3988      -7.429108      0.9186189
      5705.5000         0.6079        10.1429       1771.146       118.2039         0.5163       -61.7398      -4.770103      0.9522772
      5706.0000         0.6189        10.1437       1775.922       115.3134         0.5229       -59.9965      -3.026802      0.9743443
      5706.5000         0.6261        10.1445       1792.203       114.6898         0.5196        -59.445      -2.475304      0.9813253
      5707.0000         0.6214        10.1474        1816.93       116.6763         0.5164       -59.9839      -3.014202      0.9745038
      5707.5000         0.6167        10.1551         1838.9       118.4258         0.5132       -60.5227      -3.553005      0.9676835
      5708.0000          0.612        10.1589       1849.014       124.0424         0.5102       -61.0615      -4.091805      0.9608632
      5708.5000         0.6059        10.1597       1845.936       124.8892         0.5184       -62.1386      -5.168903      0.9472291
      5709.0000          0.611        10.1524       1840.777       125.3292         0.5266       -62.7158      -5.746105      0.9399227
      5709.5000         0.6207        10.1398       1822.018       126.0781         0.5348       -62.3842      -5.414505      0.9441202
      5710.0000          0.629        10.1159       1796.559       124.6533          0.543       -61.7455      -4.775803       0.952205
