#------------------------------------------------------------------------------
# Created by    : vladimir.rabinovich
# Created on    : 09/19/2023 17:22:50
#------------------------------------------------------------------------------
~Version Information Section
VERS.           2.0     :   CWLS log ASCII Standard - VERSION 2.0
WRAP.           NO      :   One line per depth step
~Well Information Section
#MNEM       .UNIT                                         VALUE :DESCRIPTION
#------------------------------------------------------------------------------
STRT        .FT                                            1142 :START DEPTH
STOP        .FT                                           15630 :STOP DEPTH
STEP        .FT                                             0.5 :STEP      
NULL        .                                           -999.25 :NULL      
COMP        .                                     PRIMARY FUELS :COMPANY   
WELL        .                                ST TR 00520-L SE/4 :WELL      
FLD         .                                          EL GORDO :FIELD     
LOC         .                                                   :LOCATION  
CNTY        .                      MATAGORDA ISLAND LARGE BLOCK :LOCATION  
STAT        .                                             TEXAS :STATE     
CTRY        .                                     UNITED STATES :COUNTRY   
SRVC        .                                                   :SERVICE COMPANY
DATE        .                             9/13/2023 11:19:05 AM :LOG DATE  
API         .                                    42703303520000 :API NUMBER
UWI         .                                    42703303520000 :UNIQUE WELL ID
XCOORD      .                                  629148.716839967 :SURFACE X 
YCOORD      .                                   10306131.761235 :SURFACE Y 
LAT         .                                        28.3634759 :LATITUDE  
LON         .                                       -96.1446235 :LONGITUDE 
ELEV        .FT                                             101 :ELEVATION VALUE
ELEV_TYPE   .                                                KB :ELEVATION REFERENCE TYPE
~Curve Information Section
#MNEM       .UNIT                                      API CODE :CURVE DESCRIPTION
#------------------------------------------------------------------------------
DEPT        .FT                                                 :DEPTH     
DT          .US/F                                               :          
ILD         .OHMM                                               :          
SP          .MV                                                 :          
SP_NORM     .MV                                                 :SP Normalized
VSH_SP      .V/V                                                :Volume of Shale from SP
~A        DEPTH             DT            ILD             SP        SP_NORM         VSH_SP
# ...
      4046.0000       109.6226         0.5052        88.2388      -13.55761      0.3721195
      4046.5000       115.4702         0.4792           87.5      -14.29641      0.3351795
      4047.0000       121.5076         0.4675        89.3562      -12.44021      0.4279896
      4047.5000       130.1245         0.4845        91.5837      -10.21271      0.5393646
      4048.0000       136.3938          0.513        93.5728       -8.22361      0.6388195
      4048.5000       137.1448          0.548        95.3497      -6.446709      0.7276646
      4049.0000       135.6829         0.5921        96.6207      -5.175713      0.7912143
      4049.5000       133.2205         0.6386        97.7051      -4.091309      0.8454345
      4050.0000       130.2815         0.6801        98.3466      -3.449806      0.8775097
      4050.5000       126.9386         0.7242        98.6704      -3.126007      0.8936996
      4051.0000       123.6381         0.7719        98.6959       -3.10051      0.8949745
      4051.5000       120.6431         0.8229        98.7797      -3.016708      0.8991646
      4052.0000       119.1348         0.8685        98.8857      -2.910713      0.9044644
      4052.5000       120.1716         0.9096        98.7037      -3.092712      0.8953644
      4053.0000       121.5936         0.9367        98.4752      -3.321213      0.8839394
      4053.5000       122.7998         0.9499        98.3125       -3.48391      0.8758045
      4054.0000       122.7948         0.9142        98.9081      -2.888313      0.9055843
      4054.5000       121.1259         0.8831        99.6174      -2.179008      0.9410496
      4055.0000       119.5885         0.8564       100.3444      -1.452011      0.9773995
      4055.5000       121.2755         0.8305       101.0781     -0.7183075              1
      4056.0000       125.2897         0.8154       101.3505     -0.4459076              1
      4056.5000       130.6008          0.806       101.5555     -0.2409134              1
      4057.0000       133.5261         0.7966       101.4998      -0.296608              1
      4057.5000       135.5679         0.8075       101.4193     -0.3771133              1
      4058.0000       135.8674         0.8205       101.3982     -0.3982086              1
      4058.5000       132.2075         0.8321       101.3792     -0.4172058              1
      4059.0000       128.7573         0.8399       101.1489     -0.6475067              1
      4059.5000       125.5242         0.8478       100.9127     -0.8837128              1
      4060.0000       123.1354         0.8558       100.6863      -1.110107      0.9944946
      4060.5000       121.4677         0.8535       100.8535     -0.9429092              1
      4061.0000       120.6356         0.8428       101.5797      -0.216713              1
      4061.5000       120.3668         0.8322       102.3809      0.5844879              1
      4062.0000       121.5924         0.8118       103.2173       1.420891              1
      4062.5000        122.856         0.7845       103.3259       1.529488              1
      4063.0000       124.2031         0.7597       103.1038       1.307388              1
      4063.5000       124.4629         0.7406        102.861        1.06459              1
      4064.0000        123.345         0.7558       102.6183      0.8218918              1
      4064.5000       121.2319         0.7713        102.381      0.5845871              1
      4065.0000       119.0178         0.7865       102.1439      0.3474884              1
      4065.5000       116.8411         0.8004        101.973        0.17659              1
      4066.0000       114.7966         0.8144       101.8475     0.05109406              1
      4066.5000        114.854         0.8287       101.5916     -0.2048111              1
      4067.0000       117.8877         0.8627       101.1464     -0.6500092              1
      4067.5000       120.9487         0.8974       100.6111       -1.18531      0.9907345
      4068.0000       122.9558         0.9167       100.0839      -1.712509      0.9643745
      4068.5000       124.7383         0.9211         99.712      -2.084412      0.9457794
      4069.0000       125.7056         0.9192        99.6624       -2.13401      0.9432995
      4069.5000       124.4607         0.9071        99.5734      -2.223007      0.9388496
      4070.0000       121.9641         0.8868        99.2312      -2.565208      0.9217396
      4070.5000       116.2437         0.8491        98.2954      -3.501007      0.8749496
      4071.0000       111.2217         0.8054        97.2222      -4.574211      0.8212894
      4071.5000        106.983         0.7584        96.0991      -5.697311      0.7651345
      4072.0000       103.4779         0.7081        95.0403      -6.756111      0.7121944
      4072.5000        102.644         0.6605        93.9995      -7.796913      0.6601543
      4073.0000       104.7053         0.6123        93.0862      -8.710213      0.6144894
      4073.5000       108.7867         0.5705        92.1808      -9.615608      0.5692196
      4074.0000       114.1031         0.5397        91.4589      -10.33751      0.5331246
      4074.5000       119.4219         0.5122        92.5034      -9.293007      0.5853497
      4075.0000       123.7903         0.5061        93.9634      -7.833008      0.6583496
      4075.5000       127.0085         0.5308        95.4084      -6.388008      0.7305996
      4076.0000       130.2854         0.5656        96.6238      -5.172607      0.7913696
      4076.5000       132.1189         0.6031        97.5516      -4.244812      0.8377594
      4077.0000       132.2874         0.6536        98.4214      -3.375008      0.8812496
      4077.5000       130.3152         0.7084        99.2125      -2.583908      0.9208046
      4078.0000       127.8143          0.761        99.8414      -1.955009      0.9522495
      4078.5000       124.4314         0.8025       100.2246      -1.571808      0.9714096
      4079.0000       121.3629         0.8463       100.5691       -1.22731      0.9886345
      4079.5000       118.4664         0.8847       100.8296     -0.9668121              1
      4080.0000       116.7114         0.9195         101.09     -0.7064133              1
      4080.5000        115.844         0.9538       101.3505     -0.4459076              1
      4081.0000       116.8661         0.9769       101.6425     -0.1539078              1
      4081.5000       118.4452         0.9895       102.0043      0.2078934              1
      4082.0000       120.2015         0.9743       101.9441      0.1476898              1
      4082.5000        121.873         0.9553       101.6334     -0.1630096              1
      4083.0000       123.3438         0.9362       101.2313     -0.5651093              1
      4083.5000       124.2512         0.9175       100.9338     -0.8626099              1
      4084.0000        124.848         0.9004       100.7808       -1.01561      0.9992195
      4084.5000       125.0853         0.8894       100.8127     -0.9837112              1
      4085.0000       125.3225         0.8784       100.9524     -0.8440094              1
      4085.5000       124.5718         0.8677       101.0757     -0.7207108              1
      4086.0000       123.5546         0.8586       101.0724     -0.7240067              1
      4086.5000       122.6259         0.8506       101.0691     -0.7273102              1
      4087.0000       121.8293         0.8426       101.0878     -0.7086105              1
      4087.5000        121.033          0.834       101.1235     -0.6729126              1
      4088.0000       120.6243         0.8224       101.2109     -0.5855103              1
      4088.5000        120.417          0.811        101.386      -0.410408              1
      4089.0000       120.4491         0.7997        101.561     -0.2354126              1
      4089.5000        120.684         0.7954       101.6011     -0.1953125              1
