#------------------------------------------------------------------------------
# Created by    : vladimir.rabinovich
# Created on    : 09/19/2023 17:20:10
#------------------------------------------------------------------------------
~Version Information Section
VERS.           2.0     :   CWLS log ASCII Standard - VERSION 2.0
WRAP.           NO      :   One line per depth step
~Well Information Section
#MNEM       .UNIT                                         VALUE :DESCRIPTION
#------------------------------------------------------------------------------
STRT        .FT                                             409 :START DEPTH
STOP        .FT                                           13135 :STOP DEPTH
STEP        .FT                                             0.5 :STEP      
NULL        .                                           -999.25 :NULL      
COMP        .                         ATLANTIC RICHFIELD CO THE :COMPANY   
WELL        .                               OCS G04547 ST00BP00 :WELL      
FLD         .                                           WILDCAT :FIELD     
LOC         .                                                   :LOCATION  
CNTY        .                      MATAGORDA ISLAND LARGE BLOCK :LOCATION  
STAT        .                                             TEXAS :STATE     
CTRY        .                                     UNITED STATES :COUNTRY   
SRVC        .                                                   :SERVICE COMPANY
DATE        .                             9/13/2023 11:12:03 AM :LOG DATE  
API         .                                    42703401300000 :API NUMBER
UWI         .                                    42703401300000 :UNIQUE WELL ID
XCOORD      .                                  517134.995430583 :SURFACE X 
YCOORD      .                                  10172294.5320476 :SURFACE Y 
LAT         .                                         27.987424 :LATITUDE  
LON         .                                        -96.480505 :LONGITUDE 
ELEV        .FT                                              99 :ELEVATION VALUE
ELEV_TYPE   .                                                KB :ELEVATION REFERENCE TYPE
~Curve Information Section
#MNEM       .UNIT                                      API CODE :CURVE DESCRIPTION
#------------------------------------------------------------------------------
DEPT        .FT                                                 :DEPTH     
ASFL        .OHMM                                               :          
CILD        .MMHO                                               :          
GR          .GAPI                                               :          
GR_NORM     .GAPI                                               :GammaRay Normalized
ILD         .OHMM                                               :          
SP          .MV                                                 :          
SP_NORM     .MV                                                 :SP Normalized
VSH_GR      .V/V                                                :Volume of Shale from GR
VSH_SP      .V/V                                                :Volume of Shale from SP
~A        DEPTH           ASFL           CILD             GR        GR_NORM            ILD             SP        SP_NORM         VSH_GR         VSH_SP
# ...
      1257.0000         0.6505       1363.129        44.4819       62.09698         0.6834         -44.21      -1.857018      0.6190847              1
      1257.5000         0.6456       1352.236         41.576       58.99962         0.7058       -44.2358      -1.876915      0.5531834              1
      1258.0000          0.675       1354.783        52.0157       70.09971         0.7287       -44.2172      -1.852409      0.7893555              1
      1258.5000         0.7835       1357.328        55.2778       73.56406         0.7517       -44.0939      -1.723198       0.863065              1
      1259.0000         0.8157         1357.4        57.1005       75.49712         0.7767       -43.9531      -1.576492      0.9041939              1
      1259.5000         0.8323       1337.705        57.0255       75.41135         0.8115       -43.8843      -1.501789      0.9023691              1
      1260.0000         0.8274       1308.092         52.626       70.72506          0.756       -44.0869      -1.698479      0.8026608              1
      1260.5000         0.8225       1297.336        51.2153       69.21834         0.7005       -44.4151      -2.020775      0.7706029      0.9988458
      1261.0000         0.8176       1347.152        50.4553       68.40384         0.6814       -45.1263      -2.726067      0.7532732       0.959663
      1261.5000         0.8161       1443.121        49.8874       67.79372         0.6667       -44.7757       -2.36956      0.7402918      0.9794689
      1262.0000         0.8234       1475.748        50.1739       68.09253         0.6589       -44.5277      -2.115654      0.7466496      0.9935748
      1262.5000         0.8307       1485.072        50.4603       68.39123         0.6532       -44.2798      -1.861847      0.7530048              1
      1263.0000         0.8441       1489.928        51.3126       69.29196         0.6475       -44.0319       -1.60804      0.7721694              1
      1263.5000         0.8706       1494.783        52.1968       70.22662         0.6418       -43.8839      -1.454132      0.7920557              1
      1264.0000         0.8547       1499.916        53.0017       71.07692         0.6398       -43.7439      -1.308228      0.8101472              1
      1264.5000         0.7719       1506.148        53.6149       71.72327         0.6397        -43.604      -1.162422      0.8238994              1
      1265.0000         0.7037       1512.383        53.6057       71.70751         0.6475       -43.6394      -1.191914      0.8235641              1
      1265.5000         0.6775       1544.191         51.157       69.09654         0.6753       -43.8788      -1.425407      0.7680115              1
      1266.0000         0.6605       1502.852        47.5197       65.22109         0.7063       -44.1183         -1.659      0.6855552              1
      1266.5000         0.6487       1369.275        44.9118       62.44076         0.7499       -44.3073      -1.842094      0.6263991              1
      1267.0000         0.6541       1315.006        41.9537       59.28786         0.7934       -44.3486      -1.877487      0.5593163              1
      1267.5000         0.6794       1290.566        42.1791       59.52168         0.8404       -44.2776      -1.800579      0.5642909              1
      1268.0000         0.7047       1261.715        48.7137        66.4674         0.8894       -43.9359      -1.452976      0.7120723              1
      1268.5000         0.7882       1228.146        51.8295        69.7761         0.8373       -43.5942       -1.10537      0.7824702              1
      1269.0000         0.9012        1325.51        55.3012       73.46342         0.7738       -43.2724     -0.7776604      0.8609239              1
      1269.5000         0.8847       1469.025        65.4296       84.23235         0.7194       -42.9935     -0.4928551              1              1
      1270.0000         0.7822        1596.48        67.3646       86.28487         0.6677       -42.7145     -0.2079468              1              1
      1270.5000          0.671        1696.83        68.7083       87.70837         0.6206       -42.4355      0.0769577              1              1
      1271.0000         0.6349       1849.902        68.9872       87.99908         0.5767       -42.3765      0.1418648              1              1
      1271.5000         0.6032       1974.475        69.2661       88.28981         0.5442       -42.5045     0.01977158              1              1
      1272.0000         0.5751       2013.865         69.545       88.58054         0.5301       -42.6398      -0.109623              1              1
      1272.5000         0.5574       2042.711          69.99       89.04797         0.5204       -42.7852     -0.2491112              1              1
      1273.0000         0.5462       2054.391        71.0222       90.14008          0.516       -42.9305     -0.3885078              1              1
      1273.5000         0.5385       2064.188        72.3317       91.52718         0.5115       -43.0759     -0.5280037              1              1
      1274.0000         0.5311       2072.957        73.4803       92.74312         0.5071       -43.1623     -0.6084938              1              1
      1274.5000         0.5244       2081.727        70.8623       89.95203         0.5026       -43.2463     -0.6865883              1              1
      1275.0000         0.5177       2093.289        67.5817       86.45606         0.4975       -43.3063     -0.7406807              1              1
      1275.5000         0.5105       2107.336        65.6891       84.43669         0.4888       -43.3521     -0.7805748              1              1
      1276.0000         0.5032       2127.043        67.3374       86.18422         0.4801       -43.4328     -0.8553696              1              1
      1276.5000         0.4999       2149.602        68.9469       87.89046         0.4715       -43.5192     -0.9358597              1              1
      1277.0000         0.4942       2169.215         70.572       89.61332         0.4628       -43.5964      -1.007156              1              1
      1277.5000         0.4885       2189.539        72.2661       91.40958         0.4541       -43.6183      -1.023151              1              1
      1278.0000         0.4808       2211.066        72.9518       92.13306         0.4464       -43.6054      -1.004341              1              1
      1278.5000         0.4808       2194.742        61.8471       80.31358         0.4406       -43.4233     -0.8163376              1              1
      1279.0000         0.4907       2108.797        52.4155       70.27399         0.4349       -43.2411     -0.6282272      0.7930637              1
      1279.5000         0.5039       2020.629        53.7166       71.65216         0.4513       -42.7524     -0.1336212      0.8223864              1
      1280.0000         0.5223       1886.021         63.542       82.09873         0.4843       -42.1355      0.4891815              1              1
      1280.5000         0.5618       1848.896        65.5977       84.27968         0.5174       -41.5184       1.112194              1              1
      1281.0000         0.5956       1859.639        66.7117        85.4588         0.5312       -40.6302       2.006298              1              1
      1281.5000         0.5724       1870.387        66.9283       85.68325         0.5182       -39.8654       2.777008              1              1
      1282.0000         0.5306       1927.564        66.8727       85.61813         0.5051       -39.6248        3.02351              1              1
      1282.5000         0.5197       2031.973        66.8171         85.553          0.493       -39.5012       3.153015              1              1
      1283.0000         0.5113       2134.531        66.7616       85.48798         0.4863       -39.5453       3.114826              1              1
