#------------------------------------------------------------------------------
# Created by    : vladimir.rabinovich
# Created on    : 09/19/2023 17:21:26
#------------------------------------------------------------------------------
~Version Information Section
VERS.           2.0     :   CWLS log ASCII Standard - VERSION 2.0
WRAP.           NO      :   One line per depth step
~Well Information Section
#MNEM       .UNIT                                         VALUE :DESCRIPTION
#------------------------------------------------------------------------------
STRT        .FT                                            3102 :START DEPTH
STOP        .FT                                            8740 :STOP DEPTH
STEP        .FT                                             0.5 :STEP      
NULL        .                                           -999.25 :NULL      
COMP        .                          SEAGULL ENERGY E & P INC :COMPANY   
WELL        .                               OCS G13314 ST00BP00 :WELL      
FLD         .                              GALVESTON BLOCK 0330 :FIELD     
LOC         .                                                   :LOCATION  
CNTY        .                             GALVESTON LARGE BLOCK :LOCATION  
STAT        .                                             TEXAS :STATE     
CTRY        .                                     UNITED STATES :COUNTRY   
SRVC        .                                                   :SERVICE COMPANY
DATE        .                             9/13/2023 11:19:54 AM :LOG DATE  
API         .                                    42706403240000 :API NUMBER
UWI         .                                    42706403240000 :UNIQUE WELL ID
XCOORD      .                                  980373.867630971 :SURFACE X 
YCOORD      .                                  10452895.3513713 :SURFACE Y 
LAT         .                                         28.787844 :LATITUDE  
LON         .                                        -95.061044 :LONGITUDE 
ELEV        .FT                                              95 :ELEVATION VALUE
ELEV_TYPE   .                                                KB :ELEVATION REFERENCE TYPE
~Curve Information Section
#MNEM       .UNIT                                      API CODE :CURVE DESCRIPTION
#------------------------------------------------------------------------------
DEPT        .FT                                                 :DEPTH     
CALI        .IN                                                 :          
DRHO        .G/C3                                               :          
DT          .US/F                                               :          
GR          .GAPI                                               :          
GR_1        .GAPI                                               :          
GR_NORM     .GAPI                                               :GammaRay Normalized
ILD         .OHMM                                               :          
ILM         .OHMM                                               :          
NPHI        .%                                                  :          
RFOC        .OHMM                                               :          
RHOB        .G/C3                                               :          
SP          .MV                                                 :          
SP_NORM     .MV                                                 :SP Normalized
VSH_GR      .V/V                                                :Volume of Shale from GR
VSH_SP      .V/V                                                :Volume of Shale from SP
~A        DEPTH           CALI           DRHO             DT             GR           GR_1        GR_NORM            ILD            ILM           NPHI           RFOC           RHOB             SP        SP_NORM         VSH_GR         VSH_SP
# ...
      4649.0000        -999.25        -999.25       118.4399        23.8645        -999.25       33.86462         0.3581         0.4353        -999.25         1.2503        -999.25      -110.6388      -79.82072     0.01839609    0.002240944
      4649.5000        -999.25        -999.25       118.7574        26.8585        -999.25       36.91368         0.3875         0.4573        -999.25         1.2758        -999.25      -108.7799      -77.96209     0.08326981     0.02547388
      4650.0000        -999.25        -999.25       119.4886        28.0848        -999.25       38.16253         0.4156         0.4705        -999.25         1.3222        -999.25      -107.6466      -76.82906      0.1098411      0.0396368
      4650.5000        -999.25        -999.25        120.198        27.8968        -999.25       37.97107         0.4316         0.4795        -999.25         1.3649        -999.25      -107.4032      -76.58592      0.1057675     0.04267597
      4651.0000        -999.25        -999.25       121.1824        27.2033        -999.25       37.26482         0.4312         0.4788        -999.25         1.3692        -999.25      -107.9437      -77.12669     0.09074093     0.03591633
      4651.5000        -999.25        -999.25        122.224        25.7793        -999.25       35.81463         0.4232         0.4629        -999.25         1.3099        -999.25      -108.8347      -78.01796      0.0598858     0.02477551
      4652.0000        -999.25        -999.25       122.6655        23.5604        -999.25       33.55492         0.4042         0.4254        -999.25         1.2376        -999.25      -109.9629      -79.14642     0.01180673     0.01066971
      4652.5000        -999.25        -999.25        122.371        21.3428        -999.25       31.29654         0.3768         0.3875        -999.25         1.1435        -999.25      -111.3916      -80.57539              0              0
      4653.0000        -999.25        -999.25       121.8285         21.789        -999.25       31.75094         0.3481         0.3658        -999.25         1.0501        -999.25      -112.8666      -82.05066              0              0
      4653.5000        -999.25        -999.25       121.4945        23.1959        -999.25       33.18372         0.3193         0.3484        -999.25         0.9785        -999.25       -113.791      -82.97533    0.003908928              0
      4654.0000        -999.25        -999.25       121.6228        23.3515        -999.25       33.34218         0.2889         0.3345        -999.25         0.9204        -999.25      -113.4132      -82.59779     0.00728039              0
      4654.5000        -999.25        -999.25       122.0249        23.1441        -999.25       33.13096          0.271         0.3253        -999.25         0.8769        -999.25       -112.703      -81.88786    0.002786434              0
      4655.0000        -999.25        -999.25       122.4279        23.3756        -999.25       33.36672         0.2629         0.3202        -999.25          0.892        -999.25      -111.9492      -81.13433    0.007802598              0
      4655.5000        -999.25        -999.25       122.5521        24.8201        -999.25       34.83779         0.2627         0.3151        -999.25          0.951        -999.25      -111.2289      -80.41429     0.03910195              0
      4656.0000        -999.25        -999.25       122.4933        25.6365        -999.25        35.6692         0.2672         0.3176        -999.25         1.0138        -999.25       -110.528      -79.71367     0.05679159     0.00357914
      4656.5000        -999.25        -999.25       122.0095        26.5593        -999.25       36.60898         0.2859         0.3481        -999.25         1.0437        -999.25      -109.7423      -78.92824     0.07678677     0.01339703
      4657.0000        -999.25        -999.25       121.3507        27.8634        -999.25       37.93707         0.3176         0.3803        -999.25         0.9647        -999.25      -108.1412      -77.32739      0.1050439     0.03340759
      4657.5000        -999.25        -999.25         120.97        29.1688        -999.25       39.26647         0.3421         0.4024        -999.25         0.9388        -999.25       -105.714      -74.90047      0.1333292     0.06374417
      4658.0000        -999.25        -999.25       121.0577        28.0328        -999.25       38.10958         0.3529         0.4096        -999.25         1.0263        -999.25      -102.9846      -72.17133      0.1087146     0.09785843
      4658.5000        -999.25        -999.25       121.0105        26.2243        -999.25       36.26781         0.3563         0.4046        -999.25         1.1355        -999.25      -102.2679       -71.4549     0.06952797      0.1068138
      4659.0000        -999.25        -999.25       120.7479        24.6519        -999.25        34.6665         0.3552         0.3915        -999.25          1.145        -999.25      -103.0662      -72.25347     0.03545737      0.0968316
      4659.5000        -999.25        -999.25       120.6389        23.2675        -999.25       33.25664          0.351         0.3753        -999.25         1.0633        -999.25      -103.6477      -72.83524    0.005460374     0.08955956
      4660.0000        -999.25        -999.25       121.3469         22.582        -999.25       32.55853         0.3461         0.3577        -999.25         0.9855        -999.25      -103.4253      -72.61311              0     0.09233618
      4660.5000        -999.25        -999.25       122.7507        22.8015        -999.25       32.78207         0.3405         0.3434        -999.25         0.9212        -999.25      -102.6017      -71.78977              0      0.1026279
      4661.0000        -999.25        -999.25       123.7201        23.5165        -999.25       33.51022         0.3363         0.3513        -999.25         0.8789        -999.25      -101.7988      -70.98714     0.01085565      0.1126608
      4661.5000        -999.25        -999.25       122.1598        24.1766        -999.25       34.18246         0.3358         0.3632        -999.25         0.8746        -999.25      -100.8949       -70.0835     0.02515866      0.1239562
      4662.0000        -999.25        -999.25        115.562        24.4253        -999.25       34.43573         0.3372         0.3753        -999.25         0.9292        -999.25       -99.9076      -69.09647     0.03054745      0.1362941
      4662.5000        -999.25        -999.25       107.0742        24.2382        -999.25       34.24519         0.3383         0.3878        -999.25         1.0744        -999.25       -99.3738      -68.56294     0.02649332      0.1429632
      4663.0000        -999.25        -999.25        96.6863        23.7489        -999.25       33.74688         0.3388         0.3963        -999.25          1.248        -999.25        -100.27       -69.4594     0.01589114      0.1317575
      4663.5000        -999.25        -999.25        93.6592        23.7483        -999.25       33.74627         0.3362         0.3923        -999.25         1.4032        -999.25      -102.3876      -71.57728     0.01587815       0.105284
      4664.0000        -999.25        -999.25        99.4391        26.9549        -999.25       37.01186         0.3315         0.3812        -999.25         1.2042        -999.25      -104.8926      -74.08254     0.08535864     0.07396822
      4664.5000        -999.25        -999.25       105.3986        30.4828        -999.25       40.60464         0.3241         0.3679        -999.25         0.9951        -999.25      -106.7737      -75.96391      0.1618009     0.05045118
      4665.0000        -999.25        -999.25        111.353         30.701        -999.25       40.82685         0.3127         0.3537        -999.25         0.9148        -999.25      -107.5195      -76.70998      0.1665288      0.0411253
      4665.5000        -999.25        -999.25       117.0332        30.5786        -999.25        40.7022         0.2947         0.3388        -999.25         0.8936        -999.25      -107.9615      -77.15224      0.1638766     0.03559694
