#------------------------------------------------------------------------------
# Created by    : vladimir.rabinovich
# Created on    : 09/19/2023 17:19:55
#------------------------------------------------------------------------------
~Version Information Section
VERS.           2.0     :   CWLS log ASCII Standard - VERSION 2.0
WRAP.           NO      :   One line per depth step
~Well Information Section
#MNEM       .UNIT                                         VALUE :DESCRIPTION
#------------------------------------------------------------------------------
STRT        .FT                                            1601 :START DEPTH
STOP        .FT                                            6340 :STOP DEPTH
STEP        .FT                                             0.5 :STEP      
NULL        .                                           -999.25 :NULL      
COMP        .                 FAIRWAYS OFFSHORE EXPLORATION INC :COMPANY   
WELL        .                                ST TR 00629-L SE/4 :WELL      
FLD         .                                       BLOCK 630-L :FIELD     
LOC         .                                                   :LOCATION  
CNTY        .                      MATAGORDA ISLAND LARGE BLOCK :LOCATION  
STAT        .                                             TEXAS :STATE     
CTRY        .                                     UNITED STATES :COUNTRY   
SRVC        .                                                   :SERVICE COMPANY
DATE        .                             9/13/2023 11:19:05 AM :LOG DATE  
API         .                                    42703302840100 :API NUMBER
UWI         .                                    42703302840100 :UNIQUE WELL ID
XCOORD      .                                  449566.970470722 :SURFACE X 
YCOORD      .                                  10204940.3648147 :SURFACE Y 
LAT         .                                        28.0716107 :LATITUDE  
LON         .                                       -96.6925833 :LONGITUDE 
ELEV        .FT                                              82 :ELEVATION VALUE
ELEV_TYPE   .                                                KB :ELEVATION REFERENCE TYPE
~Curve Information Section
#MNEM       .UNIT                                      API CODE :CURVE DESCRIPTION
#------------------------------------------------------------------------------
DEPT        .FT                                                 :DEPTH     
ASFL        .OHMM                                               :          
CILD        .MMHO                                               :          
GR          .GAPI                                               :          
GR_NORM     .GAPI                                               :GammaRay Normalized
ILD         .OHMM                                               :          
SP          .MV                                                 :          
SP_NORM     .MV                                                 :SP Normalized
VSH_GR      .V/V                                                :Volume of Shale from GR
VSH_SP      .V/V                                                :Volume of Shale from SP
~A        DEPTH           ASFL           CILD             GR        GR_NORM            ILD             SP        SP_NORM         VSH_GR         VSH_SP
# ...
      5682.0000          0.675       3048.188        31.7847       33.29767         0.3542      -108.0751        -62.466    0.006333372    0.008612848
      5682.5000         0.6495       3254.938        32.7208       34.35495         0.3182      -108.2532      -62.64697     0.02882872    0.005694051
      5683.0000         0.6398        3443.25        33.6582        35.4137          0.291      -108.4315      -62.82815      0.0513554    0.002771808
      5683.5000         0.6338       3631.559        34.5956       36.47246         0.2744      -108.6096      -63.00911     0.07388216              0
      5684.0000         0.6299       3820.066         36.736       38.89269           0.26      -108.9138      -63.31619      0.1253764              0
      5684.5000          0.626       4236.508        36.2319       38.32005         0.2495      -109.3037      -63.70897      0.1131925              0
      5685.0000         0.6248       4432.766        34.9165       36.82924         0.2391      -109.5992      -64.00733     0.08147316              0
      5685.5000         0.6275       4459.813        34.0195       35.81194         0.2306      -109.7072      -64.11821     0.05982849              0
      5686.0000         0.6282       4488.328        33.4577         35.174         0.2263      -109.9015      -64.31538     0.04625523              0
      5686.5000         0.6139       4516.625        33.3304       35.02779         0.2221      -109.6699      -64.08665     0.04314447              0
      5687.0000         0.6001       4540.555        34.1983       36.00789         0.2178      -109.2333      -63.65293     0.06399772              0
      5687.5000          0.587       4572.539        35.0668       36.98867         0.2151      -108.7969       -63.2194     0.08486532              0
      5688.0000         0.5739       4586.945        35.8787        37.9054         0.2141      -108.3868      -62.81218      0.1043701    0.003029423
      5688.5000         0.5614       4594.617        36.8167       38.96483          0.213      -108.0122      -62.44044      0.1269112    0.009025081
      5689.0000          0.549       4590.086        38.0036       40.30595         0.2119      -107.0562      -61.48732      0.1554458     0.02439813
      5689.5000          0.535       4581.438        39.7703       42.30325          0.212       -104.953      -59.38699      0.1979416      0.0582743
      5690.0000         0.5196       4557.328        41.8884       44.69824           0.22      -103.0957      -57.53257      0.2488988     0.08818442
      5690.5000         0.5006       4405.594        44.4783        47.6272          0.228      -101.2618      -55.70154       0.311217      0.1177171
      5691.0000         0.4792       4236.117        47.8702       51.46379          0.236       -99.4679      -53.91051      0.3928466      0.1466047
      5691.5000         0.4555       4068.992        52.6948       56.92183         0.2512       -97.2604      -51.70588       0.508975      0.1821632
      5692.0000         0.4361        3753.57        55.9974       60.65735         0.2826       -93.3694      -47.81775      0.5884542       0.244875
      5692.5000         0.4446       3581.734        60.7401        66.0227         0.3377       -81.4506      -35.90182      0.7026106      0.4370673
      5693.0000         0.4651         3389.5        64.4572       70.22733         0.4555       -68.9557       -23.4098      0.7920709      0.6385516
      5693.5000         0.4855       2988.945        69.2422       75.64055          0.524       -65.0175      -19.47448      0.9072457      0.7020246
      5694.0000         0.5376       2578.582        70.6935       77.28089         0.6451       -62.1073      -16.56715      0.9421466       0.748917
      5694.5000         0.5891       2168.223        71.6122       78.31848         0.8426       -55.5792      -10.04192       0.964223      0.8541626
      5695.0000         0.6379       1757.859        72.3628       79.16583         1.0128       -53.7057      -8.171291      0.9822518       0.884334
      5695.5000         0.7054       1471.076        72.6185       79.45309         1.1575       -52.2891      -6.757565      0.9883636      0.9071361
      5696.0000         1.0623       1213.324        70.4713       77.02089         1.2683       -50.9582      -5.429535      0.9366147      0.9285559
      5696.5000         1.1178       955.3779        67.8566       74.05962         1.3692       -50.7888      -5.263008      0.8736088      0.9312418
      5697.0000         1.2093       754.1201        66.0166        71.9751         1.4733       -51.4678      -5.944881      0.8292574      0.9202439
      5697.5000         1.2661       584.7861        64.1344       69.84281         1.5795        -52.147      -6.626953      0.7838896      0.9092427
      5698.0000         1.3268       542.6367         61.557       66.92374         1.6841       -52.7516      -7.234425      0.7217818      0.8994448
      5698.5000         1.4299       511.1045        58.2545       63.18407         1.7872       -53.2427      -7.728397      0.6422142      0.8914775
      5699.0000         1.5259       481.0435        59.5705       64.67129         1.9422       -53.7331      -8.221672      0.6738572      0.8835214
      5699.5000         1.5991        451.019        62.4633       67.94303         2.0202       -54.0941      -8.585545      0.7434688      0.8776525
      5700.0000         1.6385       435.9517        65.9619       71.90039         2.0048       -54.4485      -8.942818      0.8276679        0.87189
      5700.5000         1.5115       553.7578        68.9863       75.32107         1.9698        -54.866      -9.363194      0.9004483      0.8651098
      5701.0000          1.445       595.6865        71.2087       76.44688         1.9075       -55.3589      -9.858963      0.9244016      0.8571135
      5701.5000         1.3722       647.1777        72.8252       79.50922          1.795       -56.1354      -10.63834      0.9895578       0.844543
      5702.0000          1.303        708.623        75.0042       83.08079         1.6809       -57.1895      -11.69531              1       0.827495
      5702.5000          1.237       775.9541        75.9502       84.62962         1.1887       -60.1059      -14.61458              1        0.78041
      5703.0000         1.1598       882.5654        77.0266       86.39238         1.0792       -68.9929      -23.50445              1       0.637025
      5703.5000         0.9971       974.2686        78.4308       88.69288         0.9754        -72.561      -27.07542              1      0.5794286
      5704.0000         0.8807       1120.797        75.8645       84.47975          0.884        -79.181       -33.6983              1      0.4726081
      5704.5000         0.8366       1243.297          64.04       65.07853         0.7976       -82.3171      -36.83727      0.6825219      0.4219795
      5705.0000         0.8152       1335.686        56.5312       52.75723         0.7359       -89.5057      -44.02874      0.4203665       0.305988
      5705.5000         0.7939       1415.914        52.3919        45.9636         0.6741       -92.7535      -47.27942      0.2758212      0.2535578
      5706.0000         0.7725       1559.598        50.5507       42.94001          0.613       -95.6687      -50.19749      0.2114897      0.2064921
      5706.5000         0.7432       1702.008        49.3427       40.95519         0.5527       -99.0581      -53.58976      0.1692594      0.1517781
      5707.0000         0.7149       2338.926        48.9509       40.30935         0.4912      -100.4785      -55.01304       0.155518       0.128822
      5707.5000         0.6915       2498.891        48.6421       39.79967         0.4284      -101.6368      -56.17421      0.1446739      0.1100933
      5708.0000         0.6825       2874.238        48.2495       39.15252         0.3943      -102.1372      -56.67748      0.1309047      0.1019761
