#------------------------------------------------------------------------------
# Created by    : vladimir.rabinovich
# Created on    : 09/19/2023 17:20:34
#------------------------------------------------------------------------------
~Version Information Section
VERS.           2.0     :   CWLS log ASCII Standard - VERSION 2.0
WRAP.           NO      :   One line per depth step
~Well Information Section
#MNEM       .UNIT                                         VALUE :DESCRIPTION
#------------------------------------------------------------------------------
STRT        .FT                                             495 :START DEPTH
STOP        .FT                                            9652 :STOP DEPTH
STEP        .FT                                             0.5 :STEP      
NULL        .                                           -999.25 :NULL      
COMP        .                                      SHELL OIL CO :COMPANY   
WELL        .                                OCS 00714 ST00BP00 :WELL      
FLD         .                                FEDERAL BLOCK 0288 :FIELD     
LOC         .                                                   :LOCATION  
CNTY        .                             GALVESTON LARGE BLOCK :LOCATION  
STAT        .                                             TEXAS :STATE     
CTRY        .                                     UNITED STATES :COUNTRY   
SRVC        .                                                   :SERVICE COMPANY
DATE        .                             9/13/2023 11:19:25 AM :LOG DATE  
API         .                                    42706000490000 :API NUMBER
UWI         .                                    42706000490000 :UNIQUE WELL ID
XCOORD      .                                  1093419.85109126 :SURFACE X 
YCOORD      .                                  10468907.9519753 :SURFACE Y 
LAT         .                                         28.836806 :LATITUDE  
LON         .                                        -94.708909 :LONGITUDE 
ELEV        .FT                                              83 :ELEVATION VALUE
ELEV_TYPE   .                                                KB :ELEVATION REFERENCE TYPE
~Curve Information Section
#MNEM       .UNIT                                      API CODE :CURVE DESCRIPTION
#------------------------------------------------------------------------------
DEPT        .FT                                                 :DEPTH     
ASN         .OHMM                                               :          
ASN_1       .OHMM                                               :          
CALI        .IN                                                 :          
CALI_1      .IN                                                 :          
DRHO        .G/C3                                               :          
DT          .US/F                                               :          
ILD         .OHMM                                               :          
LAT         .OHMM                                               :          
LN          .OHMM                                               :          
RHOB        .G/C3                                               :          
SP          .MV                                                 :          
SP_1        .MV                                                 :          
SP_NORM     .MV                                                 :SP Normalized
VSH_SP      .V/V                                                :Volume of Shale from SP
~A        DEPTH            ASN          ASN_1           CALI         CALI_1           DRHO             DT            ILD            LAT             LN           RHOB             SP           SP_1        SP_NORM         VSH_SP
# ...
      8829.0000         1.1045        -999.25        10.2443        -999.25         0.0239        93.4417         0.7693        -999.25        -999.25         2.3091        -999.25       -68.9298      -26.91757      0.1100867
      8829.5000         1.1318        -999.25        10.2454        -999.25         0.0337        91.4019         0.7908        -999.25        -999.25         2.3198        -999.25       -66.1217       -24.1201      0.2099964
      8830.0000          1.163        -999.25        10.2378        -999.25         0.0412        89.9142         0.8128        -999.25        -999.25         2.3324        -999.25       -64.7886      -22.79764      0.2572272
      8830.5000         1.1878        -999.25        10.2576        -999.25         0.0243        94.5864         0.8344        -999.25        -999.25         2.3263        -999.25       -64.5693      -22.58897      0.2646795
      8831.0000         1.1989        -999.25        10.2711        -999.25           0.02       100.3167         0.8472        -999.25        -999.25         2.3319        -999.25       -65.4878      -23.51811      0.2314961
      8831.5000         1.1929        -999.25        10.2782        -999.25         0.0285        99.0933         0.8555        -999.25        -999.25         2.3378        -999.25       -64.7301      -22.77105       0.258177
      8832.0000          1.186        -999.25        10.2752        -999.25         0.0204        92.3464         0.8539        -999.25        -999.25         2.3303        -999.25       -63.2935      -21.34508      0.3091044
      8832.5000         1.1879        -999.25        10.2721        -999.25          0.018        91.2592         0.8522        -999.25        -999.25         2.3208        -999.25       -62.9765      -21.03872      0.3200459
      8833.0000         1.2012        -999.25         10.267        -999.25         0.0282        93.8307         0.8506        -999.25        -999.25         2.3174        -999.25       -65.6654      -23.73825       0.223634
      8833.5000         1.2017        -999.25        10.2595        -999.25          0.027         98.061         0.8639        -999.25        -999.25         2.2983        -999.25       -67.9338      -26.01728        0.14224
      8834.0000         1.2039        -999.25        10.2762        -999.25         0.0207        94.6764         0.8815        -999.25        -999.25         2.2905        -999.25       -68.0396      -26.13371      0.1380817
      8834.5000         1.2066        -999.25        10.2923        -999.25         0.0246        92.7917         0.9017        -999.25        -999.25         2.2943        -999.25       -64.9144      -23.01915      0.2493161
      8835.0000         1.1989        -999.25        10.2736        -999.25         0.0373       100.7214         0.9232        -999.25        -999.25         2.3171        -999.25       -63.4436      -21.55899      0.3014648
      8835.5000         1.1963        -999.25        10.2598        -999.25         0.0522       105.3182         0.9406        -999.25        -999.25         2.3467        -999.25       -63.9702      -22.09622      0.2822778
      8836.0000         1.2295        -999.25        10.2855        -999.25         0.0808        94.1187         0.9534        -999.25        -999.25         2.3663        -999.25       -62.8619      -20.99856      0.3214801
      8836.5000         1.2542        -999.25        10.3275        -999.25         0.1125        87.6327         0.9556        -999.25        -999.25         2.3715        -999.25       -60.5439      -18.69119      0.4038861
      8837.0000         1.2651        -999.25        10.3092        -999.25          0.142        88.7122         0.9537        -999.25        -999.25          2.369        -999.25        -60.472      -18.62992      0.4060741
      8837.5000         1.2803        -999.25         10.298        -999.25         0.1699        95.7917          0.952        -999.25        -999.25         2.3784        -999.25       -63.9837      -22.15226      0.2802764
      8838.0000         1.2896        -999.25        10.3137        -999.25         0.0785        98.0408         0.9513        -999.25        -999.25         2.3425        -999.25       -65.8625       -24.0417      0.2127965
      8838.5000         1.2694        -999.25         10.439        -999.25          0.048         89.632         0.9517        -999.25        -999.25         2.3181        -999.25       -63.5925      -21.78233      0.2934882
      8839.0000         1.2179        -999.25        10.2644        -999.25         0.1173        96.9163         0.9586        -999.25        -999.25         2.3416        -999.25       -60.6069      -18.80736      0.3997371
      8839.5000         1.1736        -999.25        10.2411        -999.25         0.1804        112.182         0.9684        -999.25        -999.25         2.3729        -999.25       -59.1613       -17.3724      0.4509858
      8840.0000         1.1663        -999.25         10.234        -999.25         0.1633       105.5612         0.9915        -999.25        -999.25         2.3727        -999.25       -58.2643      -16.48603      0.4826416
      8840.5000         1.1655        -999.25        10.2338        -999.25         0.1963        98.7469         1.0182        -999.25        -999.25         2.3665        -999.25       -54.7435      -12.97587      0.6080047
      8841.0000         1.1653        -999.25        10.2399        -999.25         0.2894       100.6045         1.0563        -999.25        -999.25         2.4096        -999.25       -51.8096       -10.0526       0.712407
      8841.5000         1.1862        -999.25         10.286        -999.25         0.3306       104.4772         1.1042        -999.25        -999.25         2.4258        -999.25       -50.1459       -8.39954       0.771445
      8842.0000         1.2453        -999.25        10.5508        -999.25         0.2868       102.3947         1.1677        -999.25        -999.25         2.4359        -999.25       -49.2831      -7.547371      0.8018796
      8842.5000         1.3212        -999.25        10.8242        -999.25         0.2457        96.9838         1.2381        -999.25        -999.25         2.4262        -999.25       -48.8764      -7.151306      0.8160248
      8843.0000         1.4239        -999.25        10.9804        -999.25         0.2496        90.0706         1.3076        -999.25        -999.25         2.4223        -999.25       -49.2938      -7.579342      0.8007378
      8843.5000         1.5125        -999.25        10.9962        -999.25         0.2671        79.8964           1.37        -999.25        -999.25         2.4086        -999.25       -50.1819      -8.478077      0.7686401
      8844.0000         1.5594        -999.25        11.0015        -999.25         0.2374        80.6791         1.4221        -999.25        -999.25         2.4085        -999.25       -50.8946      -9.201412      0.7428067
      8844.5000         1.5653        -999.25        11.0191        -999.25         0.2508        89.8186          1.457        -999.25        -999.25         2.4205        -999.25         -51.46      -9.777443      0.7222342
      8845.0000         1.5513        -999.25        11.0345        -999.25         0.1947        96.1067          1.454        -999.25        -999.25         2.4053        -999.25       -51.5474      -9.875481      0.7187328
      8845.5000         1.5256        -999.25        10.8143        -999.25          0.141        99.3451         1.4037        -999.25        -999.25         2.4016        -999.25       -50.9733      -9.312016      0.7388566
      8846.0000         1.4867        -999.25        10.6682        -999.25         0.1654       100.3132         1.3434        -999.25        -999.25         2.4219        -999.25       -50.2167      -8.566051      0.7654982
      8846.5000         1.4438        -999.25        10.3071        -999.25         0.2147        99.0033         1.2746        -999.25        -999.25         2.4553        -999.25        -49.721      -8.080986       0.782822
