#------------------------------------------------------------------------------
# Created by    : vladimir.rabinovich
# Created on    : 09/19/2023 17:22:53
#------------------------------------------------------------------------------
~Version Information Section
VERS.           2.0     :   CWLS log ASCII Standard - VERSION 2.0
WRAP.           NO      :   One line per depth step
~Well Information Section
#MNEM       .UNIT                                         VALUE :DESCRIPTION
#------------------------------------------------------------------------------
STRT        .FT                                             394 :START DEPTH
STOP        .FT                                            7700 :STOP DEPTH
STEP        .FT                                             0.5 :STEP      
NULL        .                                           -999.25 :NULL      
COMP        .                                   MARATHON OIL CO :COMPANY   
WELL        .                                     ST TR 00248-L :WELL      
FLD         .                                           WILDCAT :FIELD     
LOC         .                                                   :LOCATION  
CNTY        .                             GALVESTON LARGE BLOCK :LOCATION  
STAT        .                                             TEXAS :STATE     
CTRY        .                                     UNITED STATES :COUNTRY   
SRVC        .                                                   :SERVICE COMPANY
DATE        .                             9/13/2023 11:19:42 AM :LOG DATE  
API         .                                    42706000210000 :API NUMBER
UWI         .                                    42706000210000 :UNIQUE WELL ID
XCOORD      .                                  969160.596945075 :SURFACE X 
YCOORD      .                                  10521676.5956168 :SURFACE Y 
LAT         .                                        28.9764138 :LATITUDE  
LON         .                                       -95.0998408 :LONGITUDE 
ELEV        .FT                                              10 :ELEVATION VALUE
ELEV_TYPE   .                                                KB :ELEVATION REFERENCE TYPE
~Curve Information Section
#MNEM       .UNIT                                      API CODE :CURVE DESCRIPTION
#------------------------------------------------------------------------------
DEPT        .FT                                                 :DEPTH     
LAT         .OHMM                                               :          
LN          .OHMM                                               :          
SN          .OHMM                                               :          
SP          .MV                                                 :          
SP_NORM     .MV                                                 :SP Normalized
VSH_SP      .V/V                                                :Volume of Shale from SP
~A        DEPTH            LAT             LN             SN             SP        SP_NORM         VSH_SP
# ...
      5220.0000         0.2347         0.1234         0.8967      -160.0894      -84.47964              0
      5220.5000         0.2657         0.1225         0.9862      -160.3079      -84.69815              0
      5221.0000         0.2968         0.1217         1.0815      -160.5264      -84.91664              0
      5221.5000         0.3278         0.1209         1.1768      -160.7449      -85.13515              0
      5222.0000         0.3588           0.12         1.2721      -160.4207      -84.81094              0
      5222.5000         0.3863         0.1192         1.3673       -160.022      -84.41225              0
      5223.0000         0.3863         0.1183         1.3707      -159.6226      -84.01285              0
      5223.5000         0.3863         0.1175         1.3252      -159.2234      -83.61365              0
      5224.0000         0.3863         0.1168         1.2793      -158.8245      -83.21474              0
      5224.5000         0.3863         0.1185         1.2331      -158.4253      -82.81554    0.002249555
      5225.0000         0.3863         0.1203         1.1868      -158.0261      -82.41634    0.007117853
      5225.5000         0.3796          0.122         1.1406       -157.981      -82.37125    0.007667728
      5226.0000         0.3693         0.1238         1.0943      -158.0159      -82.40614    0.007242156
      5226.5000         0.3591         0.1256         1.0481       -158.051      -82.44124    0.006814166
      5227.0000         0.3488         0.1273         1.0019      -158.0859      -82.47615    0.006388409
      5227.5000         0.3385         0.1291         0.9557      -158.1211      -82.51134    0.005959301
      5228.0000         0.3282         0.1308         0.9094       -158.156      -82.54625    0.005533544
      5228.5000         0.3179         0.1326         0.8632      -158.1912      -82.58144    0.005104437
      5229.0000         0.3077         0.1344         0.8502      -158.2261      -82.61635     0.00467868
      5229.5000         0.2974         0.1361         0.8568      -158.2612      -82.65144    0.004250689
      5230.0000         0.2871         0.1379         0.8633      -158.2961      -82.68634    0.003825118
      5230.5000         0.2758         0.1396         0.8699      -158.3225      -82.71274    0.003503195
      5231.0000         0.2642         0.1414          0.881      -158.2534      -82.64365    0.004345777
      5231.5000         0.2525         0.1431         0.9126      -158.1841      -82.57434    0.005190966
      5232.0000         0.2408         0.1449         0.9443      -158.1147      -82.50494     0.00603727
      5232.5000         0.2292         0.1454          0.976      -158.0457      -82.43594    0.006878736
      5233.0000         0.2175         0.1444         0.9449      -157.9766      -82.36684    0.007721506
      5233.5000         0.2058         0.1433         0.9109      -157.9072      -82.29744     0.00856781
      5234.0000         0.1999         0.1423         0.8769      -157.8379      -82.22815    0.009412812
      5234.5000         0.2154         0.1412         0.8437      -157.7688      -82.15904     0.01025558
      5235.0000         0.2309         0.1402         0.8181      -157.6995      -82.08974     0.01110077
      5235.5000         0.2464         0.1391         0.7924      -157.6304      -82.02065     0.01194335
      5236.0000         0.2618         0.1381          0.786       -157.561      -81.95125     0.01278966
      5236.5000         0.2773         0.1371         0.8378      -157.3892      -81.77945     0.01488476
      5237.0000         0.2858          0.136         0.8897      -157.1333      -81.52354     0.01800556
      5237.5000         0.2887          0.135         0.9276      -156.8774      -81.26764     0.02112635
      5238.0000         0.2915         0.1339         0.9473      -156.6216      -81.01184     0.02424584
      5238.5000         0.2944         0.1329          0.967      -156.3657      -80.75595     0.02736645
      5239.0000         0.2973         0.1318         0.9867      -156.1099      -80.50014     0.03048613
      5239.5000         0.3039         0.1333         1.0064       -155.854      -80.24425     0.03360674
      5240.0000         0.3142         0.1375          0.938      -155.5981      -79.98834     0.03672753
      5240.5000         0.3245         0.1418         0.8688       -155.342      -79.73224     0.03985075
      5241.0000         0.3348          0.146         0.7997      -155.0862      -79.47644     0.04297024
      5241.5000          0.348         0.1503         0.7306      -154.8303      -79.22055     0.04609085
      5242.0000         0.3697         0.1545         0.6615      -154.4624      -78.85265     0.05057749
      5242.5000         0.3914         0.1588         0.5923      -153.9512      -78.34145     0.05681163
      5243.0000         0.4131          0.163         0.5198      -153.4402      -77.83044     0.06304336
      5243.5000         0.4194         0.1672         0.4435       -152.929      -77.31924     0.06927751
      5244.0000         0.3706         0.1715         0.3671       -152.418      -76.80824     0.07550924
      5244.5000         0.3218         0.1741         0.4364      -151.9062      -76.29645     0.08175064
      5245.0000          0.273         0.1685         0.6087       -151.395      -75.78525     0.08798479
      5245.5000         0.2242         0.1628         0.7809      -150.9556      -75.34584     0.09334341
      5246.0000         0.3055         0.1571         0.9292      -150.5359      -74.92615     0.09846161
      5246.5000         0.4338         0.1514         1.0626      -150.1157      -74.50595       0.103586
      5247.0000           0.56         0.1457         1.1118       -151.053      -75.44324     0.09215564
      5247.5000         0.6418           0.14         1.0523      -152.0444      -76.43465     0.08006529
      5248.0000         0.5006         0.1344         0.9927      -153.0369      -77.42714     0.06796172
      5248.5000         0.3593         0.1313         0.9332      -154.0295      -78.41974     0.05585684
      5249.0000         0.3096         0.1313         0.8854       -155.022      -79.41225     0.04375309
      5249.5000         0.3041         0.1313         0.8414      -155.8618      -80.25204     0.03351165
      5250.0000         0.2977         0.1313         0.7973      -156.2419      -80.63214     0.02887633
      5250.5000         0.2716         0.1313         0.7532      -156.6216      -81.01184     0.02424584
      5251.0000         0.2454         0.1313         0.7092      -157.0015      -81.39174     0.01961294
      5251.5000         0.2193         0.1389         0.6651      -157.3811      -81.77135     0.01498357
      5252.0000         0.1932         0.1485          0.621       -157.761      -82.15125     0.01035067
      5252.5000         0.1671         0.1581          0.577      -156.8564      -81.24664      0.0213824
      5253.0000          0.141         0.1678         0.5369       -154.949      -79.33925     0.04464331
      5253.5000         0.1149         0.1774         0.4979      -153.0437      -77.43394     0.06787872
      5254.0000         0.0888          0.187         0.4588      -151.1362      -75.52644     0.09114093
      5254.5000         0.0642         0.1966         0.4197       -149.229      -73.61925      0.1143994
      5255.0000         0.0527         0.2062         0.4077      -147.3752      -71.76544      0.1370068
      5255.5000         0.0412         0.2159         0.4485      -145.7681      -70.15834      0.1566056
      5256.0000         0.0297         0.2157         0.4892      -144.1624      -68.55264      0.1761873
      5256.5000         0.0181         0.2112         0.5355      -142.5564      -66.94664      0.1957727
      5257.0000         0.0086         0.2067         0.6219      -144.6123      -69.00255      0.1707006
      5257.5000         0.0583         0.2022         0.7083      -146.7366      -71.12685      0.1447946
