#------------------------------------------------------------------------------
# Created by    : vladimir.rabinovich
# Created on    : 09/19/2023 17:20:35
#------------------------------------------------------------------------------
~Version Information Section
VERS.           2.0     :   CWLS log ASCII Standard - VERSION 2.0
WRAP.           NO      :   One line per depth step
~Well Information Section
#MNEM       .UNIT                                         VALUE :DESCRIPTION
#------------------------------------------------------------------------------
STRT        .FT                                             501 :START DEPTH
STOP        .FT                                            8659 :STOP DEPTH
STEP        .FT                                             0.5 :STEP      
NULL        .                                           -999.25 :NULL      
COMP        .                                      SHELL OIL CO :COMPANY   
WELL        .                                OCS 00705 ST00BP00 :WELL      
FLD         .                                           WILDCAT :FIELD     
LOC         .                                                   :LOCATION  
CNTY        .                             GALVESTON LARGE BLOCK :LOCATION  
STAT        .                                             TEXAS :STATE     
CTRY        .                                     UNITED STATES :COUNTRY   
SRVC        .                                                   :SERVICE COMPANY
DATE        .                             9/13/2023 11:19:25 AM :LOG DATE  
API         .                                    42706000440000 :API NUMBER
UWI         .                                    42706000440000 :UNIQUE WELL ID
XCOORD      .                                  1104214.94625617 :SURFACE X 
YCOORD      .                                  10500066.5450575 :SURFACE Y 
LAT         .                                         28.922918 :LATITUDE  
LON         .                                        -94.676571 :LONGITUDE 
ELEV        .FT                                              41 :ELEVATION VALUE
ELEV_TYPE   .                                                KB :ELEVATION REFERENCE TYPE
~Curve Information Section
#MNEM       .UNIT                                      API CODE :CURVE DESCRIPTION
#------------------------------------------------------------------------------
DEPT        .FT                                                 :DEPTH     
ASN         .OHMM                                               :          
CILD        .MMHO                                               :          
DT          .US/F                                               :          
ILD         .OHMM                                               :          
LAT         .OHMM                                               :          
SP          .MV                                                 :          
SP_NORM     .MV                                                 :SP Normalized
VSH_SP      .V/V                                                :Volume of Shale from SP
~A        DEPTH            ASN           CILD             DT            ILD            LAT             SP        SP_NORM         VSH_SP
# ...
      3746.0000         0.6868        1216.67        -999.25         0.8926        -999.25       -50.6969      -1.271217      0.9924662
      3746.5000         0.6906       1215.938        -999.25         0.8937        -999.25       -50.6957      -1.272083      0.9924421
      3747.0000         0.6943       1215.207        -999.25         0.8947        -999.25       -50.6944       -1.27285      0.9924209
      3747.5000          0.696       1216.924        -999.25         0.8958        -999.25       -50.5477      -1.128212      0.9964386
      3748.0000         0.6951       1221.275        -999.25         0.8969        -999.25       -50.3574     -0.9399757              1
      3748.5000         0.6942       1225.625        -999.25         0.8979        -999.25       -50.1671     -0.7517395              1
      3749.0000         0.6933       1229.977        -999.25          0.899        -999.25       -50.0963     -0.6830063              1
      3749.5000         0.6924       1234.326        -999.25         0.9001        -999.25       -50.2369     -0.8256721              1
      3750.0000         0.6914       1238.678        -999.25         0.9005        -999.25       -50.3777     -0.9685364              1
      3750.5000         0.6905       1242.375        -999.25         0.9006        -999.25       -50.5184      -1.111298      0.9969084
      3751.0000         0.6896       1243.553        -999.25         0.9008        -999.25       -50.6591      -1.254066      0.9929426
      3751.5000         0.6887       1244.729        -999.25         0.9009        -999.25        -50.738       -1.33503      0.9906936
      3752.0000         0.6881       1245.906        -999.25          0.901        -999.25        -50.684      -1.283092      0.9921363
      3752.5000         0.6885       1239.678        -999.25         0.9014        -999.25       -50.6299       -1.23106      0.9935817
      3753.0000         0.6889       1231.617        -999.25         0.9066        -999.25       -50.5759      -1.179123      0.9950244
      3753.5000         0.6893       1223.557        -999.25         0.9118        -999.25       -50.5219       -1.12719      0.9964669
      3754.0000         0.6897       1215.496        -999.25          0.917        -999.25       -50.4678      -1.075153      0.9979124
      3754.5000         0.6901       1207.439        -999.25         0.9223        -999.25       -50.2488     -0.8582153              1
      3755.0000         0.6905        1200.75        -999.25         0.9275        -999.25       -50.0093     -0.6207809              1
      3755.5000         0.6909        1200.67        -999.25         0.9327        -999.25       -49.7698     -0.3833466              1
      3756.0000         0.6904        1200.59        -999.25         0.9375        -999.25       -49.5304     -0.1460114              1
      3756.5000         0.6888       1203.301        -999.25         0.9336        -999.25       -49.2908     0.09152603              1
      3757.0000         0.6872       1210.582        -999.25         0.9298        -999.25       -49.1829       0.197361              1
      3757.5000         0.6856       1217.863        -999.25          0.926        -999.25       -49.2172      0.1609917              1
      3758.0000         0.6841       1225.145        -999.25         0.9221        -999.25       -49.2515        0.12463              1
      3758.5000         0.6825       1232.424        -999.25         0.9183        -999.25       -49.2858     0.08826447              1
      3759.0000         0.6809       1239.705        -999.25         0.9144        -999.25       -49.3201     0.05190277              1
      3759.5000         0.6793       1251.109        -999.25         0.9106        -999.25       -49.3544     0.01553345              1
      3760.0000         0.6771       1263.186        -999.25         0.9062        -999.25       -49.4165    -0.04862976              1
      3760.5000          0.674       1272.076        -999.25         0.9018        -999.25        -49.514     -0.1481934              1
      3761.0000         0.6709       1278.578        -999.25         0.8973        -999.25       -49.6114     -0.2476578              1
      3761.5000         0.6679       1285.078        -999.25         0.8928        -999.25       -49.7087     -0.3470192              1
      3762.0000         0.6648       1291.406        -999.25         0.8884        -999.25       -49.8062     -0.4465866              1
      3762.5000         0.6617        1296.25        -999.25         0.8839        -999.25       -49.9036      -0.546051              1
      3763.0000         0.6587       1301.094        -999.25         0.8794        -999.25       -50.2228     -0.8673172              1
      3763.5000         0.6556       1305.936        -999.25         0.8799        -999.25       -50.5422      -1.188778      0.9947562
      3764.0000         0.6526       1309.891        -999.25         0.8812        -999.25       -50.8616      -1.510246      0.9858265
      3764.5000         0.6521       1296.152        -999.25         0.8825        -999.25       -50.8267      -1.477409      0.9867386
      3765.0000         0.6528       1282.428        -999.25         0.8838        -999.25       -50.6805      -1.333275      0.9907424
      3765.5000         0.6535       1268.689        -999.25         0.8851        -999.25       -50.5343       -1.18914      0.9947461
      3766.0000         0.6528       1256.238        -999.25         0.8863        -999.25       -50.3588      -1.015705      0.9995638
      3766.5000         0.6528       1247.973        -999.25         0.8876        -999.25       -50.1591     -0.8180695              1
      3767.0000         0.6567       1239.705        -999.25         0.8889        -999.25       -49.9596     -0.6206322              1
      3767.5000         0.6607       1231.438        -999.25         0.8902        -999.25       -49.7599     -0.4229965              1
      3768.0000         0.6646       1223.172        -999.25         0.8967        -999.25       -49.7732     -0.4383659              1
      3768.5000         0.6686       1215.918        -999.25         0.9059        -999.25          -49.8     -0.4672279              1
      3769.0000         0.6725       1208.699        -999.25         0.9152        -999.25       -49.8268     -0.4960938              1
      3769.5000         0.6765       1201.475        -999.25         0.9244        -999.25       -49.8371     -0.5084572              1
      3770.0000         0.6805       1193.484        -999.25         0.9336        -999.25       -49.7192     -0.3926239              1
      3770.5000         0.6859       1175.982        -999.25         0.9429        -999.25       -49.6014      -0.276886              1
      3771.0000         0.6922        1158.49        -999.25         0.9521        -999.25       -49.4836     -0.1611519              1
      3771.5000         0.6985       1140.186        -999.25         0.9613        -999.25       -49.3657    -0.04531479              1
      3772.0000         0.7047       1119.496        -999.25         0.9705        -999.25       -49.2479     0.07042313              1
      3772.5000          0.711       1098.807        -999.25         0.9772        -999.25        -49.478      -0.161747              1
      3773.0000         0.7173       1087.303        -999.25          0.984        -999.25       -49.7493     -0.4351082              1
      3773.5000         0.7235       1077.699        -999.25         0.9907        -999.25       -50.1699     -0.8577728              1
      3774.0000         0.7298       1068.094        -999.25         0.9975        -999.25       -51.0011      -1.691036      0.9808046
      3774.5000         0.7361       1058.396        -999.25         1.0042        -999.25       -51.8323      -2.524303      0.9576582
      3775.0000         0.7424       1048.146        -999.25          1.011        -999.25       -52.6635      -3.357571      0.9345119
