#------------------------------------------------------------------------------
# Created by    : vladimir.rabinovich
# Created on    : 09/19/2023 17:22:46
#------------------------------------------------------------------------------
~Version Information Section
VERS.           2.0     :   CWLS log ASCII Standard - VERSION 2.0
WRAP.           NO      :   One line per depth step
~Well Information Section
#MNEM       .UNIT                                         VALUE :DESCRIPTION
#------------------------------------------------------------------------------
STRT        .FT                                             862 :START DEPTH
STOP        .FT                                           11792 :STOP DEPTH
STEP        .FT                                             0.5 :STEP      
NULL        .                                           -999.25 :NULL      
COMP        .                     FREEPORT-MCMORAN OIL & GAS CO :COMPANY   
WELL        .                               OCS G08155 ST00BP00 :WELL      
FLD         .                            HIGH ISLAND BLOCK 0262 :FIELD     
LOC         .                                                   :LOCATION  
CNTY        .                           HIGH ISLAND LARGE BLOCK :LOCATION  
STAT        .                                             TEXAS :STATE     
CTRY        .                                     UNITED STATES :COUNTRY   
SRVC        .                                                   :SERVICE COMPANY
DATE        .                             9/13/2023 11:19:59 AM :LOG DATE  
API         .                                    42708403380000 :API NUMBER
UWI         .                                    42708403380000 :UNIQUE WELL ID
XCOORD      .                                  1194111.75057656 :SURFACE X 
YCOORD      .                                  10524686.1808471 :SURFACE Y 
LAT         .                                         28.993839 :LATITUDE  
LON         .                                         -94.39647 :LONGITUDE 
ELEV        .FT                                              98 :ELEVATION VALUE
ELEV_TYPE   .                                                KB :ELEVATION REFERENCE TYPE
~Curve Information Section
#MNEM       .UNIT                                      API CODE :CURVE DESCRIPTION
#------------------------------------------------------------------------------
DEPT        .FT                                                 :DEPTH     
DT          .US/F                                               :          
GR          .GAPI                                               :          
GR_NORM     .GAPI                                               :GammaRay Normalized
ILD         .OHMM                                               :          
ILM         .OHMM                                               :          
SFL         .OHMM                                               :          
SP          .MV                                                 :          
SP_NORM     .MV                                                 :SP Normalized
VSH_GR      .V/V                                                :Volume of Shale from GR
VSH_SP      .V/V                                                :Volume of Shale from SP
~A        DEPTH             DT             GR        GR_NORM            ILD            ILM            SFL             SP        SP_NORM         VSH_GR         VSH_SP
# ...
      8873.5000       111.4702        89.5515       88.35509          0.785         0.7212         0.7331         -53.91       -1.16275              1      0.9914342
      8874.0000       111.3464        87.4966       85.66339          0.784         0.7156         0.7234        -54.022       -1.27475              1      0.9855395
      8874.5000       110.8546         85.426       82.95107         0.7888         0.7142         0.7118       -54.1166       -1.36935              1      0.9805605
      8875.0000       109.4644        85.0842       82.50929         0.7998         0.7242         0.6996       -54.1866       -1.43935              1      0.9768763
      8875.5000       107.6956        85.3325       82.84254         0.8213         0.7483          0.696       -54.2374       -1.49015              1      0.9742026
      8876.0000       104.8412        85.5945       83.19378         0.8527          0.784         0.7271       -54.2873      -1.540051              1      0.9715763
      8876.5000       102.2235        83.6807       80.68741         0.8977         0.8429          0.791       -54.4027      -1.655449              1      0.9655027
      8877.0000       100.0999        81.0597       77.25219         0.9468         0.9346         0.8978       -54.4969      -1.749649      0.9415359      0.9605448
      8877.5000        97.7318        78.6188       74.05353         0.9969         1.0074         1.0289       -54.5602       -1.81295      0.8734793      0.9572132
      8878.0000        95.8395        76.7383       71.59088         1.0431         1.0613         1.1678       -54.5464      -1.799149      0.8210826      0.9579396
      8878.5000        94.1744        75.4747       69.93845         1.0796         1.1028         1.2471       -54.5139      -1.766651      0.7859244      0.9596499
      8879.0000        93.9576        74.9596       69.26908         1.1062         1.1271          1.238       -54.4753       -1.72805      0.7716826      0.9616815
      8879.5000        95.0115         77.608       72.75454           1.12         1.1267         1.1436       -54.4269      -1.679649      0.8458413       0.964229
      8880.0000        96.7909        83.3947       80.36176         1.1146         1.0827         0.9766       -54.3679      -1.620651              1      0.9673342
      8880.5000        98.8041        85.9255       83.69278         1.0849         1.0129         0.9074        -54.309      -1.561749              1      0.9704343
      8881.0000        100.431        87.1127       85.25916         1.0518         0.9703         0.8798       -54.2409      -1.493649              1      0.9740185
      8881.5000       101.4757          88.48       87.06207         1.0199         0.9507          0.866       -54.1438      -1.396549              1       0.979129
      8882.0000       101.9263        90.5016       89.72433         0.9878         0.9393         0.8618       -54.0467       -1.29945              1      0.9842395
      8882.5000       101.9227        89.6494        88.6122         0.9659         0.9348         0.8603       -53.9495      -1.202251              1      0.9893552
      8883.0000       101.8655        88.3741        86.9444         0.9473         0.9316         0.8698       -53.8524      -1.105152              1      0.9944656
      8883.5000       102.0083        87.0107       85.16088         0.9424         0.9236         0.8807       -53.7864       -1.03915              1      0.9979395
      8884.0000       102.2849        86.6958       84.75446         0.9378         0.9077         0.8927       -53.7371     -0.9898491              1              1
      8884.5000       102.4417        86.3472       84.30376         0.9337         0.8955         0.8929        -53.683     -0.9357491              1              1
      8885.0000       102.5409        84.6013       82.01788         0.9342         0.8852         0.8795       -53.6116     -0.8643494              1              1
      8885.5000       102.5823         83.046       79.98234         0.9358         0.8762         0.8643       -53.5401     -0.7928505      0.9996242              1
      8886.0000       102.6082        84.2958       81.63093         0.9412         0.8688          0.864       -53.5826       -0.83535              1              1
      8886.5000       102.5244        86.5231       84.56334         0.9457         0.8657         0.8637       -53.6271     -0.8798523              1              1
      8887.0000       102.3325         87.876       86.34733         0.9461         0.8645         0.8696       -53.6191     -0.8718491              1              1
      8887.5000       102.0198        87.8218       86.28329         0.9414         0.8643         0.8779        -53.604     -0.8567505              1              1
      8888.0000       101.6906         86.713       84.83416         0.9315         0.8648         0.8826       -53.6023     -0.8550491              1              1
      8888.5000       101.1525        82.6111       79.45399         0.9201         0.8667         0.8811       -53.6078     -0.8605499      0.9883829              1
      8889.0000       100.3364        78.4583       74.00697         0.9118         0.8688         0.8746       -53.6218     -0.8745499      0.8724888              1
      8889.5000        99.5505        74.1173       68.31278         0.9064         0.8668         0.8668       -53.6108     -0.8635521      0.7513358              1
      8890.0000        100.139        70.9891       64.21143         0.9012         0.8681         0.8738       -53.6097     -0.8624496      0.6640731              1
      8890.5000       101.1205        70.1007       63.05177         0.8956         0.8653         0.8616        -53.679     -0.9317513      0.6393993              1
      8891.0000       102.4886        70.4891       63.56902         0.8916         0.8624         0.8543       -53.8027       -1.05545      0.6504048      0.9970816
      8891.5000        103.786        72.1112       65.70657         0.8897         0.8585         0.8639       -54.0066       -1.25935      0.6958845        0.98635
      8892.0000       104.4783        74.0815       68.30145         0.8878         0.8545          0.844        -54.189       -1.44175      0.7510948        0.97675
      8892.5000       104.4445        77.4398       72.71928         0.8859         0.8499         0.8363       -54.3011      -1.553852      0.8450912      0.9708499
      8893.0000       104.1221        80.7786       77.11151         0.8844         0.8446         0.8513       -54.3973      -1.650051      0.9385428      0.9657868
      8893.5000        103.968        82.6127        79.5275          0.883          0.846         0.8699       -54.3728      -1.625549      0.9899469      0.9670764
      8894.0000       103.7627        82.8662       79.86759          0.883         0.8485         0.8713       -54.3483      -1.601051      0.9971828      0.9683657
      8894.5000       103.5798        80.5283       76.80419         0.8831         0.8499         0.8532        -54.254      -1.506752      0.9320041      0.9733288
      8895.0000       103.5714           78.9       74.67278         0.8832         0.8513         0.8403       -54.1461      -1.398849       0.886655      0.9790079
      8895.5000       103.8188        79.4181       75.36037         0.8833         0.8503         0.8362       -54.0431      -1.295849      0.9012844       0.984429
      8896.0000       104.3807         80.541        76.8423         0.8837         0.8459         0.8456       -53.9489      -1.201649      0.9328149      0.9893869
      8896.5000        104.704        80.7307       77.09859         0.8892         0.8424         0.8501       -53.8548      -1.107552      0.9382678      0.9943394
      8897.0000       104.3914        80.2909       76.52811         0.8947         0.8432         0.8451       -53.7649      -1.017651      0.9261299       0.999071
      8897.5000       103.7637        81.0063       77.47483         0.9003         0.8439         0.8413       -53.7466     -0.9993515       0.946273              1
