#------------------------------------------------------------------------------
# Created by    : vladimir.rabinovich
# Created on    : 09/19/2023 17:22:45
#------------------------------------------------------------------------------
~Version Information Section
VERS.           2.0     :   CWLS log ASCII Standard - VERSION 2.0
WRAP.           NO      :   One line per depth step
~Well Information Section
#MNEM       .UNIT                                         VALUE :DESCRIPTION
#------------------------------------------------------------------------------
STRT        .FT                                            3370 :START DEPTH
STOP        .FT                                           10136 :STOP DEPTH
STEP        .FT                                             0.5 :STEP      
NULL        .                                           -999.25 :NULL      
COMP        .                                  W&T OFFSHORE INC :COMPANY   
WELL        .                               OCS G04565 ST00BP00 :WELL      
FLD         .                              GALVESTON BLOCK 0303 :FIELD     
LOC         .                                                   :LOCATION  
CNTY        .                             GALVESTON LARGE BLOCK :LOCATION  
STAT        .                                             TEXAS :STATE     
CTRY        .                                     UNITED STATES :COUNTRY   
SRVC        .                                                   :SERVICE COMPANY
DATE        .                             9/13/2023 11:19:27 AM :LOG DATE  
API         .                                    42706401000000 :API NUMBER
UWI         .                                    42706401000000 :UNIQUE WELL ID
XCOORD      .                                  988505.563749319 :SURFACE X 
YCOORD      .                                  10486369.8338556 :SURFACE Y 
LAT         .                                        28.8802688 :LATITUDE  
LON         .                                       -95.0374578 :LONGITUDE 
ELEV        .FT                                              93 :ELEVATION VALUE
ELEV_TYPE   .                                                KB :ELEVATION REFERENCE TYPE
~Curve Information Section
#MNEM       .UNIT                                      API CODE :CURVE DESCRIPTION
#------------------------------------------------------------------------------
DEPT        .FT                                                 :DEPTH     
DPHI        .DEC                                                :          
DRHO        .G/C3                                               :          
DT          .US/F                                               :          
GR          .GAPI                                               :          
GR_1        .GAPI                                               :          
GR_NORM     .GAPI                                               :GammaRay Normalized
ILD         .OHMM                                               :          
NPHI        .DEC                                                :          
RHOB        .G/C3                                               :          
SP          .MV                                                 :          
SP_NORM     .MV                                                 :SP Normalized
VSH_GR      .V/V                                                :Volume of Shale from GR
VSH_SP      .V/V                                                :Volume of Shale from SP
~A        DEPTH           DPHI           DRHO             DT             GR           GR_1        GR_NORM            ILD           NPHI           RHOB             SP        SP_NORM         VSH_GR         VSH_SP
# ...
      3465.0000        -999.25        -999.25        -999.25        25.8201        -999.25        -999.25        -999.25         0.6398        -999.25        -999.25        -999.25        -999.25        -999.25
      3465.5000        -999.25        -999.25        -999.25         25.546        -999.25        -999.25        -999.25         0.6417        -999.25        -999.25        -999.25        -999.25        -999.25
      3466.0000         0.3124        -0.0521       163.8437        30.6389        -999.25        -999.25        -999.25         0.6912         2.1325       -73.3367      -24.28009        -999.25      0.6531415
      3466.5000         0.3523        -0.0788       170.7954        31.9372        -999.25        -999.25        -999.25         0.7358         2.0654       -71.5634      -22.50679        -999.25      0.6784744
      3467.0000         0.3936        -0.0832       165.1677        33.6275        -999.25        -999.25        -999.25         0.5957         1.9789       -70.2631      -21.20649        -999.25      0.6970501
      3467.5000         0.4263        -0.0844       148.5701        34.8325        -999.25        -999.25        -999.25         0.5617         1.9385       -70.5249       -21.4683        -999.25      0.6933101
      3468.0000          0.438        -0.0851       136.2048        35.5776        -999.25        -999.25        20.3043         0.5168         1.9199        -71.844       -22.7874        -999.25      0.6744658
      3468.5000         0.4364        -0.0852       129.7036        36.0999        -999.25        -999.25         0.9398          0.472         1.9338       -73.3544      -24.29779        -999.25      0.6528887
      3469.0000         0.4169        -0.0856       125.0885         36.546        -999.25        -999.25         0.5769         0.4499         1.9556       -74.7655       -25.7089        -999.25      0.6327301
      3469.5000         0.4197        -0.0963       125.3484         37.613        -999.25        -999.25         0.5712         0.4461         1.9638       -76.5343       -27.4777        -999.25      0.6074615
      3470.0000         0.4419        -0.1174        126.827        40.6182        -999.25        -999.25         0.7182         0.4646         1.9007       -78.0066      -28.94999        -999.25      0.5864286
      3470.5000         0.4867        -0.1337       129.0293        43.0574        -999.25        -999.25         0.7988         0.4895         1.8217       -79.1619       -30.1053        -999.25      0.5699244
      3471.0000         0.5315        -0.1413       129.4919        43.6682        -999.25        -999.25         0.8156         0.4701         1.7783       -79.8323      -30.77569        -999.25      0.5603473
      3471.5000         0.5496        -0.1475       119.9049        44.0124        -999.25        -999.25         0.7959         0.4333         1.7457       -80.5438      -31.48719        -999.25      0.5501829
      3472.0000          0.527        -0.1441         111.27        43.5494        -999.25        -999.25         0.7644         0.3799         1.7488       -82.0005       -32.9439        -999.25      0.5293729
      3472.5000         0.5014        -0.1287       109.0923        42.1042        -999.25        -999.25         0.7319         0.3593         1.7997       -83.7025      -34.64589        -999.25      0.5050586
      3473.0000         0.4843        -0.1061       112.1067         40.817        -999.25        -999.25         0.7058         0.3951         1.8327       -85.1058      -36.04919        -999.25      0.4850116
      3473.5000         0.4775        -0.0839       118.0986        39.6774        -999.25        -999.25         0.6852         0.4455         1.8568       -85.6416        -36.585        -999.25      0.4773572
      3474.0000         0.4847        -0.0751       127.0706        39.0308        -999.25        -999.25         0.6743         0.4774         1.8605       -85.2036      -36.14699        -999.25      0.4836144
      3474.5000         0.4975        -0.0796       131.2366        39.4792        -999.25        -999.25         0.6658           0.49         1.8387        -82.908      -33.85139        -999.25      0.5164087
      3475.0000         0.5032        -0.0942       130.5691        40.6257        -999.25        -999.25         0.6585         0.4789         1.8189       -78.6501      -29.59349        -999.25      0.5772358
      3475.5000         0.5095        -0.1123        128.675        41.8931        -999.25        -999.25         0.6404         0.4525         1.8088       -75.4332      -26.37659        -999.25      0.6231915
      3476.0000         0.5273        -0.1309       125.8734        42.7684        -999.25        -999.25         0.6131          0.426         1.7881       -72.6608      -23.60419        -999.25      0.6627973
      3476.5000         0.5542         -0.146       119.5186         42.553        -999.25        -999.25         0.5815          0.419         1.7442       -69.9531       -20.8965        -999.25      0.7014787
      3477.0000          0.564        -0.1489       123.7141        39.4314        -999.25        -999.25         0.5607         0.4572         1.7147       -67.8057       -18.7491        -999.25      0.7321558
      3477.5000         0.5707        -0.1505       128.8276        37.2327        -999.25        -999.25         0.5436         0.4803         1.6969       -66.1917       -17.1351        -999.25      0.7552129
      3478.0000         0.5759        -0.1562       134.1919        35.0702        -999.25        -999.25         0.5322         0.5189         1.6894       -65.0536      -15.99699        -999.25      0.7714716
      3478.5000         0.5796        -0.1633       142.8784        35.1742        -999.25        -999.25         0.5212         0.5913         1.6857       -64.2577      -15.20109        -999.25      0.7828416
      3479.0000         0.5806        -0.1654       148.0337        35.5831        -999.25        -999.25         0.5128         0.5995         1.6835       -63.5261      -14.46949        -999.25      0.7932929
      3479.5000         0.5792        -0.1623       147.1165        35.3554        -999.25        -999.25         0.5199         0.5868         1.6872       -62.7473      -13.69069        -999.25      0.8044187
      3480.0000          0.577        -0.1569       145.2297        33.2756        -999.25        -999.25         0.5393         0.5707         1.6996       -62.2512       -13.1946        -999.25      0.8115058
      3480.5000         0.5754        -0.1522       145.5288        31.3865        -999.25        -999.25         0.5716          0.572         1.6986       -61.9714      -12.91479        -999.25      0.8155029
      3481.0000         0.5751        -0.1497       147.7349         30.545        -999.25        -999.25         0.6076         0.5923         1.6923        -61.739      -12.68239        -999.25       0.818823
      3481.5000         0.5711        -0.1435       148.6096        32.0397        -999.25        -999.25         0.6491         0.6013         1.6966       -61.6464      -12.58979        -999.25      0.8201458
      3482.0000         0.5403        -0.1338       148.5801        34.8264        -999.25        -999.25         0.6946         0.5937         1.7282       -61.7147      -12.65809        -999.25      0.8191701
      3482.5000         0.4794        -0.1199       147.6216        37.1859        -999.25        -999.25         0.7431         0.5818         1.8172       -61.9172      -12.86059        -999.25      0.8162773
      3483.0000         0.4146        -0.0933       145.4893        39.5317        -999.25        -999.25         0.7878         0.5583         1.8881       -61.9269      -12.87029        -999.25      0.8161387
      3483.5000         0.3372        -0.0472       141.0771         41.632        -999.25        -999.25         0.8206          0.491         2.0252       -61.7347      -12.67809        -999.25      0.8188844
