#------------------------------------------------------------------------------
# Created by    : vladimir.rabinovich
# Created on    : 09/19/2023 17:22:18
#------------------------------------------------------------------------------
~Version Information Section
VERS.           2.0     :   CWLS log ASCII Standard - VERSION 2.0
WRAP.           NO      :   One line per depth step
~Well Information Section
#MNEM       .UNIT                                         VALUE :DESCRIPTION
#------------------------------------------------------------------------------
STRT        .FT                                            4012 :START DEPTH
STOP        .FT                                            9352 :STOP DEPTH
STEP        .FT                                             0.5 :STEP      
NULL        .                                           -999.25 :NULL      
COMP        .                                   KERR-MCGEE CORP :COMPANY   
WELL        .                                ST TR 00007-L SE/4 :WELL      
FLD         .                                           WILDCAT :FIELD     
LOC         .                                                   :LOCATION  
CNTY        .                           HIGH ISLAND LARGE BLOCK :LOCATION  
STAT        .                                             TEXAS :STATE     
CTRY        .                                     UNITED STATES :COUNTRY   
SRVC        .                                                   :SERVICE COMPANY
DATE        .                             9/13/2023 11:19:15 AM :LOG DATE  
API         .                                    42708302700000 :API NUMBER
UWI         .                                    42708302700000 :UNIQUE WELL ID
XCOORD      .                                   1285759.2062487 :SURFACE X 
YCOORD      .                                  10728779.4927599 :SURFACE Y 
LAT         .                                        29.5578886 :LATITUDE  
LON         .                                       -94.1158411 :LONGITUDE 
ELEV        .FT                                             125 :ELEVATION VALUE
ELEV_TYPE   .                                                KB :ELEVATION REFERENCE TYPE
~Curve Information Section
#MNEM       .UNIT                                      API CODE :CURVE DESCRIPTION
#------------------------------------------------------------------------------
DEPT        .FT                                                 :DEPTH     
CALI        .IN                                                 :          
CILD        .MMHO                                               :          
DPHI        .%                                                  :          
ILD         .OHMM                                               :          
ILM         .OHMM                                               :          
SFL         .OHMM                                               :          
SP          .MV                                                 :          
SP_NORM     .MV                                                 :SP Normalized
VSH_SP      .V/V                                                :Volume of Shale from SP
~A        DEPTH           CALI           CILD           DPHI            ILD            ILM            SFL             SP        SP_NORM         VSH_SP
# ...
      5443.0000        14.1953        1918.18        18.9754         0.5204         0.5021         0.7084       -71.4138        -4.7471      0.9321843
      5443.5000        14.1707       1922.121        19.7119         0.5193         0.5033         0.6782       -69.5377         -2.871      0.9589857
      5444.0000        14.1461       1942.158        20.0615         0.5178         0.5029         0.6785       -68.9705        -2.3038      0.9670886
      5444.5000        14.1204       1969.916        19.9863         0.5156         0.5025         0.6873       -69.2252        -2.5585        0.96345
      5445.0000        14.0973       2002.787        19.6198         0.5133         0.5018         0.6893        -70.723        -4.0563      0.9420528
      5445.5000        14.0797       2046.377        18.9658         0.5087         0.4999         0.6775       -72.3013        -5.6346      0.9195057
      5446.0000        14.0647       2091.074        18.2699         0.4997         0.4945         0.6604        -72.777        -6.1103        0.91271
      5446.5000        14.0511       2182.629        17.5121         0.4701         0.4865         0.6513       -73.0032        -6.3365      0.9094785
      5447.0000        14.0848       2314.801        16.9704         0.4405         0.4731         0.6445       -73.6989        -7.0322        0.89954
      5447.5000        14.1494       2502.637        16.6409         0.4081         0.4427         0.6448       -74.9867          -8.32      0.8811429
      5448.0000        14.1575       2704.633        17.2109         0.3782         0.4064         0.6516       -77.7905       -11.1238      0.8410886
      5448.5000        14.1656       2943.996        18.9003         0.3518         0.3772          0.656       -81.4427        -14.776      0.7889143
      5449.0000        14.1393       3176.281         20.547         0.3241         0.3569         0.6527       -86.6183       -19.9516      0.7149771
      5449.5000        14.0739       3347.594        21.7017         0.2961         0.3414         0.6492       -93.9763       -27.3096      0.6098629
      5450.0000        13.9658       3456.066          22.39         0.2803         0.3357         0.6487       -98.9883       -32.3216      0.5382628
      5450.5000        13.8314       3528.938        22.7992         0.2727         0.3374         0.6583      -100.6045       -33.9378      0.5151743
      5451.0000        13.6143        3439.25        22.9083         0.2743         0.3461         0.6602       -98.2853       -31.6186      0.5483057
      5451.5000        13.4951       3264.398        22.7828         0.2902         0.3563         0.6607        -94.699       -28.0323      0.5995386
      5452.0000        13.5209       3024.637        22.3889         0.3318         0.3809         0.6454       -90.3145       -23.6478      0.6621743
      5452.5000        13.5866       2767.965        21.4778         0.3712         0.4073         0.6256       -86.0323       -19.3656      0.7233486
      5453.0000        13.6914       2333.684        20.3739          0.401         0.4215         0.6256       -81.3207        -14.654      0.7906572
      5453.5000        13.8263       2188.727        19.9954         0.4302         0.4324          0.634       -73.6208        -6.9541      0.9006557
      5454.0000         13.915       2142.777        19.8364         0.4459          0.439         0.6519       -71.5408        -4.8741        0.93037
      5454.5000        13.9858       2122.445        19.9851         0.4591         0.4426         0.6589       -70.9149        -4.2482      0.9393114
      5455.0000        14.0242       2108.148        20.3923         0.4631         0.4471         0.6507       -71.0146        -4.3479      0.9378871
      5455.5000        14.0273       2095.914        20.7254         0.4649         0.4539         0.6377        -71.509        -4.8423      0.9308243
      5456.0000        14.0305       2075.879        20.8893         0.4672          0.464         0.6354       -72.2604        -5.5937        0.92009
      5456.5000        14.0336       2040.943        21.0529         0.4718         0.4771         0.6469       -72.9989        -6.3322        0.90954
      5457.0000        14.0419       1985.355        21.1153         0.4864         0.4905         0.6757       -73.4847         -6.818         0.9026
      5457.5000        14.0517       1913.664        21.0717         0.5161         0.5149         0.6756       -72.4343        -5.7676      0.9176057
      5458.0000        14.0616       1829.975        21.0432         0.5473         0.5477         0.6636       -69.0165        -2.3498      0.9664314
      5458.5000        14.0714       1757.496        21.1106         0.5704         0.5631          0.671       -66.9365        -0.2698      0.9961457
      5459.0000         14.079       1710.881        21.1779         0.5743         0.5707         0.6831       -66.0619         0.6048              1
      5459.5000        14.0817       1692.484        21.0677         0.5783         0.5717         0.6983       -65.6719         0.9948              1
      5460.0000        14.0844        1709.16        20.7613         0.5731         0.5727          0.703       -65.4313         1.2354              1
      5460.5000        14.0871       1744.072        20.4553         0.5659         0.5675         0.6878        -65.369         1.2977              1
      5461.0000        14.0899       1770.182        20.1291         0.5576         0.5581         0.6663       -65.1644         1.5023              1
      5461.5000          14.09       1788.701        19.8024         0.5486         0.5554         0.6504       -64.9148         1.7519              1
      5462.0000        14.0886       1782.561         19.418         0.5398         0.5557         0.6406       -64.6969         1.9698              1
      5462.5000        14.0872       1763.053        19.0181         0.5506         0.5689         0.6454       -64.4872         2.1795              1
      5463.0000        14.0843       1716.781        18.6182         0.5671         0.5878         0.6523       -64.8123         1.8544              1
      5463.5000        14.0842       1631.273        17.8044         0.5846         0.6215         0.6535       -65.1003         1.5664              1
      5464.0000        14.1125       1586.135        16.8154         0.5985         0.6832         0.6568       -65.3279         1.3388              1
      5464.5000        14.1628       1564.266        15.2667         0.6042         0.7459         0.7264       -65.4988         1.1679              1
      5465.0000        14.2101       1604.229        13.6553           0.61         0.8054         0.8046       -65.8879         0.7788              1
      5465.5000        14.2232       1680.984        12.1574         0.5985         0.8834         0.8678       -67.6592        -0.9925      0.9858214
      5466.0000        14.2202       1784.639        11.4313         0.5858         0.6644         0.8741       -70.4081        -3.7414      0.9465514
      5466.5000        14.2066       1932.447         12.829         0.5348         0.5576         0.7965        -72.676        -6.0093      0.9141529
      5467.0000         14.182       2121.363        16.7616          0.492         0.5165         0.7192       -75.4103        -8.7436      0.8750914
      5467.5000        14.1624       2238.883        19.9343         0.4619         0.4912         0.6758       -78.0737        -11.407      0.8370429
      5468.0000        14.1582       2318.883        21.4896         0.4416          0.467         0.6622       -82.4607        -15.794      0.7743714
      5468.5000        14.1755       2382.066        21.6605          0.427         0.4515         0.6987       -85.5099       -18.8432      0.7308114
      5469.0000        14.1927       2416.016        21.0743         0.4213         0.4479         0.7203       -85.2365       -18.5698      0.7347171
