#------------------------------------------------------------------------------
# Created by    : vladimir.rabinovich
# Created on    : 09/19/2023 17:20:24
#------------------------------------------------------------------------------
~Version Information Section
VERS.           2.0     :   CWLS log ASCII Standard - VERSION 2.0
WRAP.           NO      :   One line per depth step
~Well Information Section
#MNEM       .UNIT                                         VALUE :DESCRIPTION
#------------------------------------------------------------------------------
STRT        .FT                                            3071 :START DEPTH
STOP        .FT                                           14991 :STOP DEPTH
STEP        .FT                                             0.5 :STEP      
NULL        .                                           -999.25 :NULL      
COMP        .                                        TEXACO USA :COMPANY   
WELL        .                                     ST TR 00012-L :WELL      
FLD         .                                           WILDCAT :FIELD     
LOC         .                                                   :LOCATION  
CNTY        .                           HIGH ISLAND LARGE BLOCK :LOCATION  
STAT        .                                             TEXAS :STATE     
CTRY        .                                     UNITED STATES :COUNTRY   
SRVC        .                                                   :SERVICE COMPANY
DATE        .                             9/13/2023 11:19:15 AM :LOG DATE  
API         .                                    42708000680000 :API NUMBER
UWI         .                                    42708000680000 :UNIQUE WELL ID
XCOORD      .                                  1354682.00685938 :SURFACE X 
YCOORD      .                                  10733491.7088446 :SURFACE Y 
LAT         .                                        29.5724948 :LATITUDE  
LON         .                                       -93.8991324 :LONGITUDE 
ELEV        .FT                                              44 :ELEVATION VALUE
ELEV_TYPE   .                                                KB :ELEVATION REFERENCE TYPE
~Curve Information Section
#MNEM       .UNIT                                      API CODE :CURVE DESCRIPTION
#------------------------------------------------------------------------------
DEPT        .FT                                                 :DEPTH     
ASN         .OHMM                                               :          
CILD        .MMHO                                               :          
ILD         .OHMM                                               :          
SP          .MV                                                 :          
SP_NORM     .MV                                                 :SP Normalized
VSH_SP      .V/V                                                :Volume of Shale from SP
~A        DEPTH            ASN           CILD            ILD             SP        SP_NORM         VSH_SP
# ...
      7023.0000         0.5399       2668.406         0.3646       -88.1656      -35.15447      0.4745466
      7023.5000         0.5525       2399.793         0.3705       -84.9441      -31.93773      0.5240349
      7024.0000         0.5629       2161.094         0.3717       -81.7274       -28.7258      0.5734493
      7024.5000         0.5498        2103.09         0.3506        -78.543      -25.54617      0.6223667
      7025.0000         0.5368       2016.355         0.3295        -77.911      -24.91893      0.6320164
      7025.5000         0.5238       1989.184         0.3083       -80.1414       -27.1541      0.5976292
      7026.0000         0.5108       2022.389         0.2991       -84.0519      -31.06937      0.5373943
      7026.5000          0.498       2430.254           0.29       -87.9624      -34.98463      0.4771595
      7027.0000         0.4866        2841.68          0.281         -96.75        -43.777      0.3418924
      7027.5000         0.4752         3253.5         0.2719      -102.4597      -49.49147      0.2539774
      7028.0000         0.4638       3664.926         0.2628      -105.1484      -52.18493      0.2125396
      7028.5000         0.4524       3916.328         0.2538      -107.8397        -54.881      0.1710616
      7029.0000          0.441           4080         0.2447      -110.0156      -57.06166      0.1375128
      7029.5000         0.4291           4717         0.2356      -111.1035      -58.15433      0.1207026
      7030.0000          0.401       4819.773         0.2266      -112.1926      -59.24819       0.103874
      7030.5000         0.3747       4854.086         0.2205      -113.2817      -60.34206     0.08704517
      7031.0000         0.3688       4888.406         0.2186       -114.371      -61.43613     0.07021338
      7031.5000         0.3629       4925.148         0.2168      -115.4589       -62.5288     0.05340312
      7032.0000         0.3569       5130.469         0.2149      -116.2673      -63.34196     0.04089285
      7032.5000          0.351       5362.188         0.2131      -116.9587      -64.03813     0.03018259
      7033.0000         0.3451       5408.477         0.2112      -117.6501       -64.7343     0.01947233
      7033.5000         0.3392           5388         0.2094      -118.3416      -65.43056    0.008760658
      7034.0000         0.3341       5011.781         0.2075       -119.033      -66.12672              0
      7034.5000         0.3347       4808.047         0.2056      -119.3911      -66.48959              0
      7035.0000         0.3353       4669.984         0.2038      -118.9927      -66.09596              0
      7035.5000         0.3359       4532.117         0.2019      -118.5944      -65.70242    0.004578106
      7036.0000         0.3365        4394.25         0.2001      -118.1959      -65.30869     0.01063549
      7036.5000         0.3371       4256.383         0.1982       -117.797      -64.91456      0.0166991
      7037.0000         0.3392       4118.516         0.1964      -117.3987      -64.52103     0.02275344
      7037.5000         0.3418       4006.406         0.1945      -117.2495      -64.37659     0.02497559
      7038.0000         0.3445       3984.938         0.1954      -117.3031      -64.43496     0.02407755
      7038.5000         0.3471       3930.668         0.1968      -117.3567      -64.49332     0.02317963
      7039.0000         0.3498       3855.109         0.1982      -117.4104      -64.55179     0.02228018
      7039.5000         0.3524       3757.297         0.1996       -117.464      -64.61015     0.02138226
      7040.0000         0.3551       3662.254          0.201      -117.5176      -64.66853     0.02048422
      7040.5000         0.3578       3597.176         0.2024      -117.5712      -64.72689      0.0195863
      7041.0000         0.3604       3532.004         0.2038      -117.6248      -64.78526     0.01868826
      7041.5000         0.3627       3508.203         0.2053      -117.9435      -65.10872     0.01371202
      7042.0000         0.3622       3494.469         0.2067       -118.266      -65.43599    0.008677087
      7042.5000         0.3618       3480.723         0.2081      -118.5887      -65.76346    0.003639104
      7043.0000         0.3614       3473.891         0.2095      -118.9115      -66.09102              0
      7043.5000         0.3609        3477.34         0.2109       -119.234      -66.41829              0
      7044.0000         0.3605       3480.793         0.2123      -119.5568      -66.74586              0
      7044.5000         0.3601       3476.148         0.2137      -119.8793      -67.07312              0
      7045.0000         0.3596       3460.992         0.2148       -120.202      -67.40059              0
      7045.5000         0.3592       3445.836         0.2148      -120.5248      -67.72816              0
      7046.0000         0.3587        3430.68         0.2149      -120.4208      -67.62892              0
      7046.5000         0.3583       3415.523         0.2149      -120.0465      -67.25938              0
      7047.0000         0.3579       3373.961          0.215      -119.6724      -66.89006              0
      7047.5000         0.3574       3316.746          0.215      -119.2981      -66.52052              0
      7048.0000          0.357       3259.531         0.2151       -118.924      -66.15119              0
      7048.5000         0.3566       3215.324         0.2151      -118.5491      -65.78105    0.003368436
      7049.0000         0.3572       3171.906         0.2152      -118.1749      -65.41162    0.009051983
      7049.5000         0.3578       3113.258         0.2152      -117.8007      -65.04218     0.01473565
      7050.0000         0.3585       2889.148         0.2153      -117.4265      -64.67275     0.02041919
      7050.5000         0.3592       2664.844         0.2153      -117.0516      -64.30261     0.02611366
      7051.0000         0.3598       2440.734         0.2154      -116.1527      -63.40849      0.0398694
      7051.5000         0.3605       2242.195         0.2154      -115.0153      -62.27585     0.05729464
      7052.0000         0.3612        2406.91         0.2149       -113.879      -61.14432     0.07470281
      7052.5000         0.3619       2567.082          0.213      -113.0339      -60.30398     0.08763105
      7053.0000         0.3625       2618.707          0.211       -114.076      -61.35085     0.07152539
      7053.5000         0.3612       2691.547          0.209      -115.1182      -62.39782     0.05541816
      7054.0000         0.3562        2844.25          0.207      -116.1614      -63.44579     0.03929561
      7054.5000         0.3511       3003.281          0.205      -116.7159      -64.00505     0.03069153
      7055.0000         0.3461       3162.313          0.203      -116.2599      -63.55382     0.03763352
      7055.5000          0.341       3321.344          0.201      -115.8046      -63.10329     0.04456482
      7056.0000         0.3363       3480.375          0.199      -115.3486      -62.65205     0.05150687
      7056.5000         0.3335       3639.406          0.197      -114.8932      -62.20142     0.05843969
      7057.0000         0.3307       3798.438          0.195      -114.4373      -61.75029     0.06538022
      7057.5000         0.3279       3893.285          0.193      -113.1455      -60.46325     0.08518078
      7058.0000         0.3423       3924.156          0.191       -111.609      -58.93152      0.1087459
      7058.5000         0.3613       3953.281          0.189      -110.0701      -57.39738       0.132348
      7059.0000         0.3803       3982.406         0.2008      -108.5337      -55.86575      0.1559115
      7059.5000         0.3992       4052.453         0.2192      -106.9948      -54.33161      0.1795137
      7060.0000         0.4177       4223.836         0.2376      -103.5005      -50.84209      0.2331987
      7060.5000         0.4318       4186.859          0.256       -94.4899      -41.83625      0.3717501
