#------------------------------------------------------------------------------
# Created by    : vladimir.rabinovich
# Created on    : 09/19/2023 17:21:45
#------------------------------------------------------------------------------
~Version Information Section
VERS.           2.0     :   CWLS log ASCII Standard - VERSION 2.0
WRAP.           NO      :   One line per depth step
~Well Information Section
#MNEM       .UNIT                                         VALUE :DESCRIPTION
#------------------------------------------------------------------------------
STRT        .FT                                            4296 :START DEPTH
STOP        .FT                                         10848.5 :STOP DEPTH
STEP        .FT                                             0.5 :STEP      
NULL        .                                           -999.25 :NULL      
COMP        .                                 CHEVRON U S A INC :COMPANY   
WELL        .                               OCS G07271 ST00BP00 :WELL      
FLD         .                                           WILDCAT :FIELD     
LOC         .                                                   :LOCATION  
CNTY        .                           HIGH ISLAND LARGE BLOCK :LOCATION  
STAT        .                                             TEXAS :STATE     
CTRY        .                                     UNITED STATES :COUNTRY   
SRVC        .                                                   :SERVICE COMPANY
DATE        .                             9/13/2023 11:19:59 AM :LOG DATE  
API         .                                    42708403180000 :API NUMBER
UWI         .                                    42708403180000 :UNIQUE WELL ID
XCOORD      .                                  1325118.04890174 :SURFACE X 
YCOORD      .                                  10672078.9744079 :SURFACE Y 
LAT         .                                          29.40291 :LATITUDE  
LON         .                                        -93.990507 :LONGITUDE 
ELEV        .FT                                              89 :ELEVATION VALUE
ELEV_TYPE   .                                                KB :ELEVATION REFERENCE TYPE
~Curve Information Section
#MNEM       .UNIT                                      API CODE :CURVE DESCRIPTION
#------------------------------------------------------------------------------
DEPT        .FT                                                 :DEPTH     
CALI        .IN                                                 :          
DRHO        .G/C3                                               :          
DTLN        .US/F                                               :          
GR          .GAPI                                               :          
GR_1        .GAPI                                               :          
GR_NORM     .GAPI                                               :GammaRay Normalized
ILD         .OHMM                                               :          
ILM         .OHMM                                               :          
NPHI        .%                                                  :          
RHOB        .G/C3                                               :          
SFL         .OHMM                                               :          
SP          .MV                                                 :          
SP_NORM     .MV                                                 :SP Normalized
VSH_GR      .V/V                                                :Volume of Shale from GR
VSH_SP      .V/V                                                :Volume of Shale from SP
~A        DEPTH           CALI           DRHO           DTLN             GR           GR_1        GR_NORM            ILD            ILM           NPHI           RHOB            SFL             SP        SP_NORM         VSH_GR         VSH_SP
# ...
      9141.0000        16.9819        -0.0384        97.6735        37.5383        43.8617       74.50826         0.7833         0.8844        32.3829          2.369         0.9728       -44.8677       -11.7396      0.8831543      0.8322914
      9141.5000        16.7361        -0.0325         99.561        37.7715        42.3773       73.13871         0.7579         0.8739        33.4406         2.3655          0.941       -47.7241       -14.5998      0.8540151      0.7914314
      9142.0000        16.6476        -0.0268        98.1571        38.4169        41.3991        72.3941         0.7325         0.8597         33.797         2.3645         0.9291       -49.6147       -16.4942      0.8381724      0.7643685
      9142.5000        16.6178        -0.0225        94.7791        39.5784        40.3903       71.61171          0.709         0.8356        33.8496         2.3627         0.9229       -50.8998       -17.7831      0.8215258      0.7459557
      9143.0000        16.6291        -0.0231        91.7382        40.1442        39.3654       70.80945         0.6933         0.8105        34.8784         2.3519         0.9138       -52.0234       -18.9105      0.8044564        0.72985
      9143.5000        16.7496        -0.0267        89.0743        37.9145        38.5692       70.28954         0.6848         0.7916        37.7158           2.33         0.8914       -52.8657       -19.7566      0.7933944      0.7177629
      9144.0000          17.18        -0.0303        89.9226        34.4824        37.8785       69.89986         0.6798         0.7863        39.8992         2.3275         0.8527       -53.2839       -20.1786      0.7851035      0.7117343
      9144.5000         17.761        -0.0303        96.0439        32.3933        38.6478       71.31266         0.6791         0.7914        41.6211         2.3372          0.796       -53.4011      -20.29959       0.815163      0.7100058
      9145.0000        18.4437        -0.0286        98.6309        32.4604         39.315       72.59941         0.6793         0.8053        41.9643         2.3493         0.7867       -53.3571       -20.2594      0.8425407      0.7105801
      9145.5000        18.5883        -0.0267        100.377        34.2213         39.938       73.83159         0.6739         0.8208        36.3785         2.3552         0.8246       -53.4878      -20.39389      0.8687572      0.7086586
      9146.0000        17.9743        -0.0326       100.8632        35.3193        38.5408       72.56969         0.6453         0.8093        31.5204         2.3102         0.9991        -54.811      -21.72089      0.8419084      0.6897015
      9146.5000        16.2018        -0.0533       100.5549        35.2621        34.7388       68.33891         0.6214         0.7801        28.7186         2.2341         1.3005       -57.3665      -24.28019      0.7518918      0.6531401
      9147.0000        15.9803        -0.0881       100.5829        33.8507        33.4928       67.26369         0.6037         0.7124        33.5678         2.1575          1.393        -58.973      -25.89049      0.7290146      0.6301359
      9147.5000        16.3975        -0.1163       101.3381        30.3489        33.1039       67.24661         0.5972         0.6459        39.6685         2.0607         1.0884       -57.8271      -24.74839      0.7286513      0.6464517
      9148.0000        17.8681        -0.1404       101.2228        27.4938        33.0284       67.61645         0.6001         0.5987        49.5739         1.9348         0.8041       -54.3616      -21.28669      0.7365202      0.6959045
      9148.5000        20.9412        -0.1471        98.6681        25.5738        32.7567       67.74406         0.6118         0.5902        54.9822         1.9194         0.6136       -50.0604      -16.98928      0.7392354      0.7572959
      9149.0000        22.4296        -0.1377         95.667        26.2565        32.2382       67.56699         0.6292         0.5963        57.1427         1.9711         0.5411       -43.4563      -10.38898      0.7354678      0.8515859
      9149.5000        23.0641        -0.1245        93.3058        28.0609        31.5439       67.11885         0.6506         0.6137         56.088         2.0001         0.5542       -38.9545       -5.89098       0.725933      0.9158431
      9150.0000        23.2367        -0.1152        93.3901        32.1478        30.7034       66.41959         0.6792         0.6335        55.7011           2.02         0.5859       -37.2533      -4.193581       0.711055      0.9400917
      9150.5000        23.4554        -0.1135        97.5901        33.1709         30.261       66.21179         0.7128         0.6539        52.8757         1.9972         0.6278       -36.1576      -3.101681      0.7066339      0.9556903
      9151.0000        23.6274        -0.1222       101.4384        32.4517        29.9108       66.11783         0.7428         0.6733        50.8786         1.9338          0.673        -35.099      -2.046879      0.7046347      0.9707589
      9151.5000        23.7255        -0.1413       102.3546        30.9077        30.5313       67.22225         0.7673         0.6851        48.9851         1.9099          0.712       -34.4769      -1.428577       0.728133      0.9795917
      9152.0000         23.755        -0.1543        99.4573        30.6957        31.2871       68.49371         0.7815         0.6841        48.7595         1.8929         0.7317       -33.9039      -0.859375      0.7551854      0.9877232
      9152.5000          23.67        -0.1602        97.0056        31.3666          30.61       67.99617         0.7897         0.6763        45.8563         1.8884         0.7261       -33.2957     -0.2549744      0.7445993      0.9963575
      9153.0000        23.5854        -0.1636        95.8126        32.0846        29.2288       66.62936         0.7951           0.67        45.4653         1.8885         0.6882       -32.6958      0.3411255      0.7155184              1
      9153.5000        23.7365        -0.1662         97.917        32.5781        29.5065       67.31059         0.7974         0.6628        46.3638         1.8848         0.6545       -32.1953      0.8378258      0.7300125              1
      9154.0000        23.8648        -0.1695       105.5739        32.8894        30.4724       68.84143          0.799         0.6553        52.5931         1.8783         0.6473       -31.8987       1.130627      0.7625836              1
      9154.5000        23.8934        -0.1741       109.5955        32.1999        31.5083       70.45869         0.7989         0.6612        52.9858         1.8671         0.6691       -31.6447       1.380833      0.7969935              1
      9155.0000        23.8889        -0.1775       109.8754        30.1216        31.9369       71.32621          0.795         0.6698         51.988         1.8648         0.7025       -31.5077       1.514032      0.8154513              1
      9155.5000          23.89        -0.1794       106.6536        28.2664        31.1458       70.68793          0.791         0.6738        48.9733         1.8661         0.7413       -31.4761       1.541832      0.8018708              1
      9156.0000        23.9008        -0.1797       102.1119        27.7015        28.6635       67.96173         0.7868         0.6702        47.7532         1.8716         0.7602       -31.4802       1.533934      0.7438666              1
      9156.5000        23.9066          -0.18          99.42        28.7004        26.0768       65.10666           0.78         0.6582        53.6064         1.8768         0.7462        -31.489       1.521338      0.6831204              1
      9157.0000        23.8907        -0.1791        98.5844        29.3031        25.3653       64.56664         0.7767         0.6468        54.2437         1.8817         0.7026       -31.6679       1.338638      0.6716307              1
      9157.5000         23.878        -0.1779        97.7584         27.815        26.7097       66.56478         0.7767          0.643        54.5169         1.8799         0.6588       -32.0978      0.9049377      0.7141443              1
