#------------------------------------------------------------------------------
# Created by    : vladimir.rabinovich
# Created on    : 09/19/2023 17:21:15
#------------------------------------------------------------------------------
~Version Information Section
VERS.           2.0     :   CWLS log ASCII Standard - VERSION 2.0
WRAP.           NO      :   One line per depth step
~Well Information Section
#MNEM       .UNIT                                         VALUE :DESCRIPTION
#------------------------------------------------------------------------------
STRT        .FT                                            2893 :START DEPTH
STOP        .FT                                           11505 :STOP DEPTH
STEP        .FT                                             0.5 :STEP      
NULL        .                                           -999.25 :NULL      
COMP        .                               SEAGULL ENERGY CORP :COMPANY   
WELL        .                               OCS G06105 ST00BP00 :WELL      
FLD         .                              GALVESTON BLOCK 0343 :FIELD     
LOC         .                                                   :LOCATION  
CNTY        .                             GALVESTON LARGE BLOCK :LOCATION  
STAT        .                                             TEXAS :STATE     
CTRY        .                                     UNITED STATES :COUNTRY   
SRVC        .                                                   :SERVICE COMPANY
DATE        .                             9/13/2023 11:19:54 AM :LOG DATE  
API         .                                    42706403720000 :API NUMBER
UWI         .                                    42706403720000 :UNIQUE WELL ID
XCOORD      .                                  915246.934514234 :SURFACE X 
YCOORD      .                                  10428990.3748243 :SURFACE Y 
LAT         .                                         28.718869 :LATITUDE  
LON         .                                        -95.262866 :LONGITUDE 
ELEV        .FT                                              96 :ELEVATION VALUE
ELEV_TYPE   .                                                KB :ELEVATION REFERENCE TYPE
~Curve Information Section
#MNEM       .UNIT                                      API CODE :CURVE DESCRIPTION
#------------------------------------------------------------------------------
DEPT        .FT                                                 :DEPTH     
CAL         .IN                                                 :          
CNCSS       .%                                                  :          
CORR        .G/CM3                                              :          
DT24        .US/FT                                              :          
GR_NORM     .GAPI                                               :GammaRay Normalized
GRR         .GAPI                                               :          
ILD         .OHMM                                               :          
ILM         .OHMM                                               :          
PORDSS      .%                                                  :          
RFOC        .OHMM                                               :          
SP          .MV                                                 :          
SP_NORM     .MV                                                 :SP Normalized
VSH_GR      .V/V                                                :Volume of Shale from GR
VSH_SP      .V/V                                                :Volume of Shale from SP
~A        DEPTH            CAL          CNCSS           CORR           DT24        GR_NORM            GRR            ILD            ILM         PORDSS           RFOC             SP        SP_NORM         VSH_GR         VSH_SP
# ...
      7501.0000          14.37        45.1765         0.0245       118.6135         74.573        73.1373          0.669         0.6937          19.92         0.9434        -2.6471        -2.6471      0.8845319      0.9621843
      7501.5000          14.41        44.9412         0.0245         117.82       76.20377        74.1176         0.6874            0.7          20.28          0.943        -2.6471        -2.6471      0.9192291      0.9621843
      7502.0000          14.41        44.8235         0.0245       117.2256         81.094        77.0588         0.7066         0.7066          21.12         0.9336        -2.9412        -2.9412              1      0.9579828
      7502.5000          14.41        44.5882         0.0367         116.63       83.37684        78.4314         0.7336         0.7133          20.88         0.9331        -2.9412        -2.9412              1      0.9579828
      7503.0000          14.41        44.3529         0.0408       116.4355       81.42249        77.2549         0.7474         0.7199           20.4         0.9238        -2.9412        -2.9412              1      0.9579828
      7503.5000          14.41             44         0.0408       115.8391       79.79411        76.2745         0.7472         0.7198          19.92         0.9503        -2.6471        -2.6471      0.9956192      0.9621843
      7504.0000          14.41        43.2941         0.0408       115.2403         77.188        74.7059          0.747         0.7198          19.32         0.9682        -2.6471        -2.6471      0.9401703      0.9621843
      7504.5000          14.41        42.3529         0.0408       114.6402       73.27802        72.3529           0.74         0.7197          19.44         0.9864        -2.6471        -2.6471      0.8569792      0.9621843
      7505.0000          14.41        42.3529         0.0408       114.6449       70.99788        70.9804         0.7398         0.7196          19.44         0.9766        -2.6471        -2.6471      0.8084655      0.9621843
      7505.5000          14.41        42.2353         0.0327       115.2559       68.68366        69.5874         0.7329          0.713          19.32         0.9575        -2.6471        -2.6471      0.7592269      0.9621843
      7506.0000          14.41        42.2353         0.0286       116.6775       74.58569        73.1373         0.7328         0.7129          19.32         0.9299        -2.6471        -2.6471      0.8848018      0.9621843
      7506.5000          14.41        42.4706         0.0286       117.4943        77.5203         74.902          0.726         0.7064          19.32         0.9206        -2.6471        -2.6471      0.9472405      0.9621843
      7507.0000          14.41        42.7059         0.0245       116.6908       75.89191        73.9216         0.7326         0.7128          19.44         0.9291        -2.6471        -2.6471      0.9125939      0.9621843
      7507.5000          14.41        42.4706         0.0286       115.2769       72.95985        72.1569         0.7459         0.7258          19.32         0.9375        -2.9412        -2.9412      0.8502095      0.9579828
      7508.0000          14.41        42.1176         0.0286        113.657       70.35357        70.5882         0.7525         0.7323          18.96         0.9644        -3.2353        -3.2353      0.7947568      0.9537814
      7508.5000          14.41        41.8776         0.0204       112.6439       69.37711             70         0.7591         0.7389          18.84         0.9732        -3.2353        -3.2353       0.773981      0.9537814
      7509.0000          14.41        41.7551         0.0245        112.443       70.68208        70.7843         0.7726         0.7521           18.6         0.9916        -3.2353        -3.2353      0.8017463      0.9537814
      7509.5000          14.41             42         0.0245       112.2416       73.61668         72.549         0.7863         0.7655          18.36         0.9911        -2.9412        -2.9412      0.8641847      0.9579828
      7510.0000          14.41        42.1176         0.0204       111.8359       76.22533        74.1176         0.8001          0.779          18.36         1.0002        -2.3529        -2.3529      0.9196878      0.9663872
      7510.5000          14.41        42.2353         0.0163       111.0204        74.9229        73.3333         0.8146         0.7929             18         1.0092        -2.0588        -2.0588      0.8919765      0.9705886
      7511.0000          14.41        42.8235         0.0122       110.8163        72.3168        71.7647            0.8         0.7789          17.88         1.0092        -1.7647        -1.7647      0.8365276        0.97479
      7511.5000          14.41        43.4118         0.0122       111.2245       69.38471             70         0.7859         0.7652             18         0.9905        -2.0588        -2.0588      0.7741428      0.9705886
      7512.0000          14.41        44.1176         0.0327       112.0408       66.61553        68.3333         0.7859         0.7652          18.24          0.981        -2.3529        -2.3529      0.7152241      0.9663872
      7512.5000          14.41        44.9412         0.0449       112.8571       71.01691        70.9804          0.772         0.7517          18.36          0.981        -2.3529        -2.3529      0.8088704      0.9663872
      7513.0000          14.41        45.2941          0.049       113.6735       75.90714        73.9216         0.7584         0.7384           18.6         0.9717        -2.3529        -2.3529      0.9129178      0.9663872
      7513.5000          14.41        45.2941         0.0367       114.4898       78.18982        75.2941         0.7517         0.7319          18.84         0.9624        -2.3529        -2.3529      0.9614855      0.9663872
      7514.0000          14.41        45.4118         0.0327        114.898       79.16898        75.8824         0.7517         0.7319          18.84         0.9532        -2.3529        -2.3529      0.9823188      0.9663872
      7514.5000          14.41        45.5294         0.0367       114.6939       79.49606        76.0784         0.7652          0.745           18.6         0.9442        -2.3529        -2.3529      0.9892778      0.9663872
      7515.0000          14.41        45.2941         0.0408       113.8776       78.19362        75.2941          0.772         0.7517          18.24         0.9532        -2.0588        -2.0588      0.9615663      0.9705886
      7515.5000          14.41        44.7059         0.0367       113.2653        78.1949        75.2941         0.7859         0.7652          17.88         0.9624        -2.0588        -2.0588      0.9615936      0.9705886
      7516.0000          14.41        44.2353         0.0286       112.8571       81.78143         77.451         0.7929          0.772          17.76         0.9717        -2.0588        -2.0588              1      0.9705886
      7516.5000          14.41             44         0.0286       112.8571        81.7827         77.451         0.8073         0.7859          17.88         0.9905        -1.7647        -1.7647              1        0.97479
      7517.0000          14.41        43.6471         0.0286       113.0612       76.89501        74.5098         0.8146         0.7929             18              1        -1.7647        -1.7647      0.9339364        0.97479
      7517.5000          14.41        43.4118         0.0204       113.2653       74.61487        73.1373         0.8146         0.7929             18              1        -2.0588        -2.0588      0.8854227      0.9705886
      7518.0000          14.41        43.2941         0.0163       113.2653       73.63824         72.549         0.8146         0.7929          18.12              1        -2.3529        -2.3529      0.8646433      0.9663872
      7518.5000          14.41        43.0588         0.0122       113.2653       73.31353        72.3529         0.8146         0.7929          18.24         0.9905        -2.6471        -2.6471      0.8577347      0.9621843
